TS,pitch,roll,yaw,vgx,vgy,vgz,templ,temph,tof,h,bat,baro,time,agx,agy,agz
2024-06-07 01:53:14.091223,0,0,13,0,0,0,76,79,10,0,47,102.92,70,2.00,9.00,-999.00
2024-06-07 01:53:14.192895,0,0,13,0,0,0,76,79,10,0,47,102.97,70,0.00,8.00,-1000.00
2024-06-07 01:53:14.297863,0,0,13,0,0,0,76,79,10,0,47,102.90,70,1.00,7.00,-999.00
2024-06-07 01:53:14.396575,0,0,13,0,0,0,76,79,10,0,47,102.95,70,1.00,7.00,-1000.00
2024-06-07 01:53:14.500305,0,0,13,0,0,0,76,79,10,0,47,102.88,70,1.00,8.00,-998.00
2024-06-07 01:53:14.602986,0,0,13,0,0,0,76,79,10,0,47,102.76,70,0.00,7.00,-1002.00
2024-06-07 01:53:14.702444,0,0,13,0,0,0,76,79,10,0,47,103.11,70,1.00,7.00,-1000.00
2024-06-07 01:53:14.804536,0,0,13,0,0,0,76,79,10,0,47,102.96,70,1.00,7.00,-1000.00
2024-06-07 01:53:14.937615,0,0,13,0,0,0,76,79,10,0,47,103.14,70,1.00,7.00,-1001.00
2024-06-07 01:53:15.008383,0,0,13,0,0,0,76,79,10,0,47,102.97,70,0.00,7.00,-999.00
2024-06-07 01:53:15.142821,0,0,13,0,0,0,76,79,10,0,47,102.96,70,2.00,7.00,-999.00
2024-06-07 01:53:15.212508,0,0,13,0,0,0,76,79,10,0,47,102.94,70,1.00,8.00,-998.00
2024-06-07 01:53:15.350621,0,0,13,0,0,0,76,79,10,0,47,103.02,70,1.00,7.00,-999.00
2024-06-07 01:53:15.416477,0,0,13,0,0,0,76,79,10,0,47,103.00,70,0.00,7.00,-999.00
2024-06-07 01:53:15.552108,0,0,13,0,0,0,76,79,10,0,47,103.14,70,0.00,8.00,-998.00
2024-06-07 01:53:15.620294,0,0,13,0,0,0,76,79,10,0,47,102.96,70,0.00,6.00,-998.00
2024-06-07 01:53:15.722356,0,0,13,0,0,0,76,79,10,0,47,103.01,70,0.00,8.00,-999.00
2024-06-07 01:53:15.859293,0,0,13,0,0,0,76,79,10,0,47,102.90,70,0.00,7.00,-1002.00
2024-06-07 01:53:15.926584,0,0,13,0,0,0,76,79,10,0,47,103.31,70,1.00,6.00,-998.00
2024-06-07 01:53:16.045530,0,0,13,0,0,0,76,79,10,0,47,103.07,70,0.00,8.00,-1000.00
2024-06-07 01:53:16.130518,0,0,13,0,0,0,76,79,10,0,47,103.10,70,1.00,7.00,-1001.00
2024-06-07 01:53:16.268662,0,0,13,0,0,0,76,79,10,0,47,103.10,70,-5.00,9.00,-996.00
2024-06-07 01:53:16.334136,0,0,13,0,0,0,76,79,10,0,47,103.10,70,5.00,5.00,-997.00
2024-06-07 01:53:16.436279,0,0,13,0,0,0,76,79,10,0,47,103.10,70,4.00,-10.00,-1001.00
2024-06-07 01:53:16.538065,0,0,13,0,0,0,76,79,10,0,47,103.10,71,-18.00,1.00,-988.00
2024-06-07 01:53:16.683697,0,0,14,0,0,0,76,79,10,0,47,103.10,71,4.00,8.00,-954.00
2024-06-07 01:53:16.742311,0,0,15,0,0,0,77,79,10,0,47,103.10,71,87.00,-7.00,-1158.00
2024-06-07 01:53:16.883128,0,1,16,0,0,-1,77,79,10,0,47,103.10,71,15.00,-5.00,-1276.00
2024-06-07 01:53:16.947124,2,0,15,0,0,-4,77,79,10,0,47,103.10,71,28.00,57.00,-1160.00
2024-06-07 01:53:17.087932,2,-2,15,0,0,-5,77,79,14,0,47,103.10,71,66.00,10.00,-1136.00
2024-06-07 01:53:17.150029,2,-1,15,0,0,-6,77,79,22,10,47,103.16,71,45.00,-9.00,-980.00
2024-06-07 01:53:17.295791,2,0,15,0,0,-6,77,79,28,20,47,103.53,71,49.00,17.00,-942.00
2024-06-07 01:53:17.357220,2,-1,15,0,0,-6,77,79,31,20,47,103.40,71,89.00,2.00,-1055.00
2024-06-07 01:53:17.405008,2,-2,15,0,0,-6,77,79,38,30,47,103.20,71,28.00,-27.00,-997.00
2024-06-07 01:53:17.507087,2,-1,15,0,0,-5,77,79,44,30,47,103.68,72,-67.00,72.00,-854.00
2024-06-07 01:53:17.702256,1,0,15,0,0,-5,77,79,50,40,47,103.75,72,51.00,19.00,-905.00
2024-06-07 01:53:17.711106,1,0,15,0,0,-4,77,79,53,40,47,104.00,72,44.00,17.00,-849.00
2024-06-07 01:53:17.906955,2,0,15,0,0,-3,77,79,57,40,47,103.85,72,-14.00,37.00,-855.00
2024-06-07 01:53:17.915032,1,0,15,0,0,-2,77,79,61,50,47,103.87,72,89.00,-5.00,-869.00
2024-06-07 01:53:18.017022,1,0,15,0,0,-2,77,79,64,50,47,103.89,72,32.00,15.00,-977.00
2024-06-07 01:53:18.119655,2,0,15,0,0,-1,77,79,66,50,47,104.01,72,-54.00,9.00,-1001.00
2024-06-07 01:53:18.221213,2,0,15,0,0,-1,77,79,68,50,47,104.04,72,31.00,42.00,-988.00
2024-06-07 01:53:18.323948,3,0,15,0,0,-1,77,79,70,50,47,104.08,72,39.00,-11.00,-1046.00
2024-06-07 01:53:18.425173,3,0,15,0,0,-1,77,79,71,60,47,104.19,72,1.00,59.00,-857.00
2024-06-07 01:53:18.626886,3,0,15,0,0,-1,77,79,72,60,47,103.92,73,30.00,-16.00,-1042.00
2024-06-07 01:53:18.631365,2,0,15,0,0,-1,77,79,73,60,47,103.93,73,38.00,23.00,-996.00
2024-06-07 01:53:18.730922,2,0,15,0,0,0,77,79,73,60,47,104.12,73,-38.00,5.00,-931.00
2024-06-07 01:53:18.886331,2,0,15,0,0,0,77,79,73,60,47,104.30,73,133.00,-24.00,-1015.00
2024-06-07 01:53:18.935213,2,0,15,0,0,-1,77,79,74,60,47,103.89,73,25.00,3.00,-984.00
2024-06-07 01:53:19.142517,1,0,15,0,0,0,77,79,73,60,47,104.02,73,-68.00,53.00,-1041.00
2024-06-07 01:53:19.142838,1,0,15,0,0,-1,77,79,73,60,47,104.02,73,65.00,14.00,-949.00
2024-06-07 01:53:19.241687,1,0,15,0,0,0,77,79,73,60,47,103.84,73,52.00,43.00,-933.00
2024-06-07 01:53:19.343237,1,0,15,0,0,0,77,79,72,60,47,103.77,73,12.00,7.00,-1037.00
2024-06-07 01:53:19.444924,2,0,15,0,0,0,77,79,70,60,47,104.01,73,48.00,20.00,-990.00
2024-06-07 01:53:19.547001,2,0,15,0,0,0,77,79,70,60,47,104.06,74,126.00,4.00,-978.00
2024-06-07 01:53:19.649064,1,0,15,0,0,0,77,79,69,60,47,103.74,74,0.00,-1.00,-1135.00
2024-06-07 01:53:19.750886,2,0,15,0,0,0,77,80,68,60,47,103.83,74,44.00,21.00,-951.00
2024-06-07 01:53:19.855144,2,0,15,0,0,0,77,80,67,60,47,103.87,74,62.00,9.00,-1039.00
2024-06-07 01:53:19.954897,1,0,15,0,0,0,77,80,67,60,47,104.06,74,114.00,-28.00,-1072.00
2024-06-07 01:53:20.057299,1,0,15,0,0,-1,77,80,67,60,47,103.83,74,-38.00,72.00,-946.00
2024-06-07 01:53:20.164422,2,0,15,0,0,-1,77,80,67,60,47,103.90,74,-27.00,26.00,-1028.00
2024-06-07 01:53:20.262476,1,0,15,0,0,-1,77,80,67,60,47,104.00,74,90.00,-17.00,-1017.00
2024-06-07 01:53:20.364227,1,0,15,0,0,-1,77,80,67,60,47,103.78,74,42.00,43.00,-939.00
2024-06-07 01:53:20.464874,2,0,15,0,0,-1,77,80,66,70,47,103.82,74,66.00,43.00,-971.00
2024-06-07 01:53:20.567205,2,0,15,0,0,-1,77,80,66,70,47,103.73,75,108.00,-9.00,-1009.00
2024-06-07 01:53:20.668800,2,0,15,0,0,-1,77,80,66,70,47,103.69,75,122.00,9.00,-1058.00
2024-06-07 01:53:20.775404,3,0,15,0,0,-1,77,80,66,70,47,103.80,75,92.00,-5.00,-949.00
2024-06-07 01:53:20.872731,3,0,15,0,0,-1,77,80,66,70,47,103.78,75,58.00,35.00,-993.00
2024-06-07 01:53:20.978878,2,0,15,0,0,-1,77,80,66,70,47,103.71,75,-24.00,45.00,-1054.00
2024-06-07 01:53:21.076846,1,0,15,0,0,-1,77,80,67,70,47,103.87,75,52.00,-1.00,-1067.00
2024-06-07 01:53:21.127841,1,0,15,0,0,-1,77,80,68,70,47,103.81,75,50.00,5.00,-1002.00
2024-06-07 01:53:21.285967,1,0,15,0,0,-2,77,80,69,80,47,104.04,75,47.00,14.00,-1017.00
2024-06-07 01:53:21.333094,1,0,15,0,0,-1,77,80,70,80,47,103.78,75,22.00,24.00,-1045.00
2024-06-07 01:53:21.490832,1,0,15,0,0,-2,77,80,71,80,47,103.99,75,104.00,-19.00,-1023.00
2024-06-07 01:53:21.535721,1,0,15,0,0,-2,77,80,72,80,47,104.21,76,26.00,33.00,-948.00
2024-06-07 01:53:21.697895,0,-1,15,0,0,-2,77,80,73,80,47,104.09,76,95.00,9.00,-948.00
2024-06-07 01:53:21.739680,1,-1,15,0,0,-1,77,79,73,80,47,104.10,76,-6.00,34.00,-1018.00
2024-06-07 01:53:21.886906,2,0,15,0,0,-1,77,79,73,80,47,103.92,76,86.00,16.00,-1071.00
2024-06-07 01:53:21.943691,1,0,15,0,0,-1,77,79,74,90,47,103.91,76,90.00,2.00,-970.00
2024-06-07 01:53:22.105978,2,0,15,0,0,-1,77,79,74,90,47,103.83,76,49.00,-6.00,-1049.00
2024-06-07 01:53:22.148422,2,0,15,0,0,-1,77,79,75,90,47,103.97,76,40.00,31.00,-975.00
2024-06-07 01:53:22.250100,2,0,15,0,0,-1,77,79,75,90,47,103.89,76,17.00,30.00,-976.00
2024-06-07 01:53:22.412410,2,0,15,0,0,0,77,79,75,90,47,103.79,76,66.00,23.00,-1056.00
2024-06-07 01:53:22.453631,1,0,15,0,0,-1,77,79,76,90,47,104.19,76,11.00,29.00,-1005.00
2024-06-07 01:53:22.618003,1,-1,15,0,0,-1,77,79,76,90,47,104.06,77,22.00,7.00,-1062.00
2024-06-07 01:53:22.658566,0,-1,15,0,0,-1,77,79,77,90,47,104.16,77,82.00,-5.00,-1028.00
2024-06-07 01:53:22.761496,1,0,15,0,0,-1,77,80,78,90,47,103.99,77,-28.00,54.00,-1007.00
2024-06-07 01:53:22.862643,1,0,15,0,0,-1,77,80,79,90,47,103.84,77,47.00,-29.00,-1077.00
2024-06-07 01:53:23.026782,1,0,15,0,0,-1,77,80,80,90,47,103.90,77,82.00,3.00,-1014.00
2024-06-07 01:53:23.069135,1,0,15,0,0,-1,77,80,81,90,47,103.77,77,84.00,7.00,-999.00
2024-06-07 01:53:23.168537,1,0,15,0,0,0,77,80,81,90,47,104.25,77,45.00,28.00,-925.00
2024-06-07 01:53:23.337482,0,0,15,0,0,0,77,80,82,90,47,104.03,77,-4.00,13.00,-939.00
2024-06-07 01:53:23.372550,1,0,15,0,0,0,77,80,82,90,47,104.08,77,-37.00,57.00,-986.00
2024-06-07 01:53:23.538905,0,-1,15,0,0,0,77,80,83,90,47,103.85,77,9.00,-2.00,-1066.00
2024-06-07 01:53:23.577442,0,-1,15,0,0,-1,77,80,84,90,47,103.87,78,74.00,14.00,-940.00
2024-06-07 01:53:23.743520,1,0,15,0,0,0,77,80,85,90,47,103.96,78,-33.00,50.00,-1030.00
2024-06-07 01:53:23.781450,1,0,15,0,0,0,76,79,86,90,47,103.77,78,-14.00,28.00,-1031.00
2024-06-07 01:53:23.951557,0,0,15,0,0,0,76,79,86,100,47,103.80,78,20.00,26.00,-951.00
2024-06-07 01:53:23.985460,0,-1,15,0,0,0,76,79,87,100,47,104.06,78,94.00,-8.00,-976.00
2024-06-07 01:53:24.153036,1,0,15,0,0,0,76,79,87,100,47,103.94,78,99.00,-22.00,-1055.00
2024-06-07 01:53:24.189830,1,0,15,0,0,0,76,79,87,100,47,104.04,78,21.00,24.00,-943.00
2024-06-07 01:53:24.357853,1,0,15,0,0,0,76,79,88,100,47,104.03,78,116.00,-24.00,-937.00
2024-06-07 01:53:24.393433,1,0,15,0,0,0,76,79,87,100,47,103.53,78,89.00,13.00,-931.00
2024-06-07 01:53:24.495596,1,0,15,0,0,0,76,79,86,100,47,104.03,78,44.00,4.00,-1029.00
2024-06-07 01:53:24.665093,1,0,15,0,0,0,76,79,86,100,47,104.07,79,48.00,39.00,-933.00
2024-06-07 01:53:24.665198,0,0,15,0,0,0,76,79,85,100,47,103.88,79,81.00,-11.00,-998.00
2024-06-07 01:53:24.801408,1,-1,15,0,0,0,76,79,84,100,47,104.20,79,-12.00,27.00,-1000.00
2024-06-07 01:53:24.852479,1,-1,15,0,0,0,76,79,84,100,47,104.06,79,35.00,63.00,-1041.00
2024-06-07 01:53:24.954787,1,-1,15,0,0,0,76,79,84,90,47,104.20,79,111.00,-16.00,-1128.00
2024-06-07 01:53:25.074856,1,-1,15,0,0,0,76,79,83,90,47,103.84,79,90.00,-1.00,-982.00
2024-06-07 01:53:25.158647,1,0,15,0,0,0,76,79,83,90,47,103.97,79,85.00,37.00,-975.00
2024-06-07 01:53:25.283255,1,0,15,0,0,0,76,79,83,90,47,104.37,79,-5.00,51.00,-958.00
2024-06-07 01:53:25.362711,1,0,15,0,0,0,76,79,82,90,47,103.98,79,20.00,12.00,-986.00
2024-06-07 01:53:25.466479,1,-1,15,0,0,0,76,79,82,90,47,103.88,79,42.00,-35.00,-1097.00
2024-06-07 01:53:25.566519,1,-1,15,0,0,0,76,79,83,90,47,104.19,80,46.00,16.00,-946.00
2024-06-07 01:53:25.668489,1,0,15,0,0,0,76,79,83,90,47,104.01,80,67.00,27.00,-1106.00
2024-06-07 01:53:25.791603,0,-1,15,0,0,0,76,79,83,90,47,103.92,80,-34.00,64.00,-981.00
2024-06-07 01:53:25.872497,0,0,15,0,0,0,76,79,83,90,47,104.47,80,7.00,-8.00,-978.00
2024-06-07 01:53:25.996451,0,0,15,0,0,0,76,79,83,90,47,104.32,80,114.00,13.00,-942.00
2024-06-07 01:53:26.097058,0,-1,15,0,0,0,76,79,83,90,47,104.00,80,-67.00,87.00,-932.00
2024-06-07 01:53:26.201260,0,-1,15,0,0,0,76,79,83,90,47,104.17,80,-9.00,40.00,-1030.00
2024-06-07 01:53:26.310797,1,-1,15,0,0,0,76,79,84,90,47,103.93,80,15.00,2.00,-977.00
2024-06-07 01:53:26.382485,1,-1,15,0,0,0,76,79,84,90,47,104.01,80,25.00,28.00,-1022.00
2024-06-07 01:53:26.566296,1,-1,15,0,0,0,76,79,84,90,47,104.01,81,23.00,17.00,-961.00
2024-06-07 01:53:26.586366,1,0,15,0,0,0,76,79,85,90,47,103.99,81,70.00,35.00,-1092.00
2024-06-07 01:53:26.692856,1,0,15,0,0,0,76,79,85,90,47,104.18,81,-23.00,37.00,-982.00
2024-06-07 01:53:26.801448,1,0,15,0,0,0,77,79,87,90,47,104.21,81,89.00,2.00,-986.00
2024-06-07 01:53:26.944659,1,0,15,0,0,0,77,79,87,100,47,103.98,81,92.00,20.00,-942.00
2024-06-07 01:53:26.995646,0,0,15,0,0,0,77,79,88,100,47,104.24,81,108.00,6.00,-1062.00
2024-06-07 01:53:27.171376,0,-1,15,0,0,-1,77,79,89,100,47,104.34,81,27.00,32.00,-1113.00
2024-06-07 01:53:27.198585,0,0,15,0,0,-2,77,79,90,100,47,104.07,81,64.00,2.00,-1149.00
2024-06-07 01:53:27.314774,0,0,15,0,0,-3,77,79,93,100,47,104.24,81,13.00,18.00,-1292.00
2024-06-07 01:53:27.458182,1,0,15,0,0,-4,77,79,96,110,47,104.28,81,-51.00,80.00,-1010.00
2024-06-07 01:53:27.601724,0,0,15,0,0,-4,77,79,99,110,47,104.15,82,53.00,32.00,-1022.00
2024-06-07 01:53:27.607270,1,0,15,0,0,-4,77,79,103,110,47,104.16,82,24.00,5.00,-1005.00
2024-06-07 01:53:27.749258,1,0,15,0,0,-4,77,79,106,120,47,104.35,82,37.00,-12.00,-1102.00
2024-06-07 01:53:27.892465,1,0,15,0,0,-4,77,79,110,120,47,104.33,82,25.00,39.00,-1045.00
2024-06-07 01:53:27.912410,1,0,15,0,0,-4,77,79,114,130,47,104.10,82,-49.00,66.00,-1000.00
2024-06-07 01:53:28.057242,1,0,15,0,0,-4,77,79,118,130,47,104.46,82,16.00,11.00,-1082.00
2024-06-07 01:53:28.200674,1,-1,15,0,0,-4,77,79,122,140,47,104.46,82,129.00,-14.00,-1000.00
2024-06-07 01:53:28.218046,1,-1,15,0,0,-4,77,79,128,140,47,104.38,82,152.00,-35.00,-1093.00
2024-06-07 01:53:28.362077,1,-1,15,0,0,-4,77,79,131,140,47,104.54,82,83.00,-11.00,-1004.00
2024-06-07 01:53:28.506646,1,-1,15,0,0,-4,77,79,136,150,47,104.45,82,-16.00,33.00,-923.00
2024-06-07 01:53:28.507192,1,-1,15,0,0,-4,77,79,139,150,47,104.38,83,-10.00,22.00,-1067.00
2024-06-07 01:53:28.670331,1,-1,15,0,0,-3,77,79,143,160,47,104.76,83,100.00,-32.00,-1028.00
2024-06-07 01:53:28.677115,1,-1,15,0,0,-3,77,79,147,160,47,104.78,83,-99.00,64.00,-913.00
2024-06-07 01:53:28.863847,1,-1,15,0,0,-3,75,79,151,160,47,104.82,83,70.00,17.00,-1183.00
2024-06-07 01:53:28.969296,1,-1,15,0,0,-3,75,79,155,170,47,104.80,83,-8.00,17.00,-924.00
2024-06-07 01:53:28.983017,1,-1,15,0,0,-2,75,79,157,170,47,104.66,83,-25.00,48.00,-1058.00
2024-06-07 01:53:29.170605,1,-1,15,0,0,-2,75,79,160,170,47,104.73,83,23.00,26.00,-1004.00
2024-06-07 01:53:29.187071,1,-1,15,0,0,-2,75,79,161,170,47,104.54,83,60.00,17.00,-988.00
2024-06-07 01:53:29.375344,1,0,15,0,0,-2,75,79,163,170,47,104.71,83,32.00,16.00,-936.00
2024-06-07 01:53:29.391021,0,0,15,0,0,-1,75,79,163,180,47,104.77,83,-28.00,82.00,-913.00
2024-06-07 01:53:29.580863,1,0,15,0,0,-1,75,79,166,180,47,104.62,84,-33.00,4.00,-953.00
2024-06-07 01:53:29.595201,1,0,15,0,0,-1,75,79,167,180,47,104.87,84,-35.00,40.00,-1009.00
2024-06-07 01:53:29.786783,1,0,15,0,0,-1,75,79,168,180,47,104.77,84,-20.00,43.00,-997.00
2024-06-07 01:53:29.800233,1,0,15,0,0,-1,76,79,170,180,47,104.80,84,128.00,-15.00,-956.00
2024-06-07 01:53:29.989752,1,-1,15,0,0,-1,76,79,170,180,47,105.13,84,11.00,7.00,-1025.00
2024-06-07 01:53:30.004018,1,0,15,0,0,-1,76,79,172,180,47,104.63,84,23.00,20.00,-974.00
2024-06-07 01:53:30.195157,0,0,15,0,0,-1,76,79,173,190,47,104.74,84,83.00,10.00,-940.00
2024-06-07 01:53:30.208253,1,0,15,0,0,0,76,79,172,190,47,105.05,84,77.00,-30.00,-999.00
2024-06-07 01:53:30.399718,1,0,15,0,0,0,76,79,174,190,47,104.90,84,58.00,-15.00,-999.00
2024-06-07 01:53:30.411963,1,0,15,0,0,0,76,79,174,190,47,104.71,84,-63.00,1.00,-943.00
2024-06-07 01:53:30.513896,1,0,15,0,0,0,76,79,174,190,47,104.90,85,17.00,18.00,-1024.00
2024-06-07 01:53:30.706537,1,-1,15,0,0,0,76,79,174,190,47,104.60,85,-63.00,22.00,-999.00
2024-06-07 01:53:30.717870,1,-1,15,0,0,0,76,79,173,190,47,104.87,85,-2.00,44.00,-905.00
2024-06-07 01:53:30.897190,0,-1,15,0,0,0,76,79,173,190,47,105.06,85,90.00,54.00,-958.00
2024-06-07 01:53:30.921894,1,-1,15,0,0,0,76,79,174,190,47,104.89,85,72.00,0.00,-988.00
2024-06-07 01:53:31.116136,1,-1,15,0,0,0,76,79,174,190,47,104.80,85,60.00,5.00,-1025.00
2024-06-07 01:53:31.125777,1,-1,15,0,0,0,76,79,174,190,47,104.66,85,73.00,-16.00,-1082.00
2024-06-07 01:53:31.320865,1,0,15,0,0,0,76,79,175,190,47,104.91,85,16.00,37.00,-1118.00
2024-06-07 01:53:31.335428,0,0,15,0,0,0,76,79,174,190,47,104.82,85,17.00,25.00,-988.00
2024-06-07 01:53:31.431957,0,-1,15,0,0,0,76,79,175,190,47,105.06,85,44.00,30.00,-979.00
2024-06-07 01:53:31.533832,0,-1,15,0,0,0,76,79,175,190,47,104.78,86,85.00,-35.00,-1038.00
2024-06-07 01:53:31.730442,1,0,15,0,0,0,76,79,174,190,47,105.08,86,-26.00,59.00,-963.00
2024-06-07 01:53:31.737857,1,-1,15,0,0,0,76,79,175,190,47,104.65,86,-10.00,11.00,-986.00
2024-06-07 01:53:31.935487,0,-1,15,0,0,0,76,79,174,190,47,105.16,86,14.00,77.00,-890.00
2024-06-07 01:53:31.942025,0,-1,15,0,0,0,76,79,174,190,47,104.87,86,96.00,-52.00,-1059.00
2024-06-07 01:53:32.140074,0,-1,15,0,0,0,76,79,173,190,47,105.01,86,16.00,-11.00,-1034.00
2024-06-07 01:53:32.146105,0,-1,15,0,0,0,76,79,173,190,47,104.82,86,-33.00,52.00,-954.00
2024-06-07 01:53:32.348156,1,-1,15,0,0,0,76,79,171,190,47,104.75,86,-64.00,81.00,-980.00
2024-06-07 01:53:32.349939,1,-1,15,0,0,0,76,79,170,190,47,104.71,86,-57.00,9.00,-954.00
2024-06-07 01:53:32.552732,1,0,15,0,0,0,76,79,168,190,47,104.74,86,-35.00,44.00,-913.00
2024-06-07 01:53:32.552907,1,0,15,0,0,0,76,79,166,180,47,104.66,87,120.00,-27.00,-1028.00
2024-06-07 01:53:32.604871,1,0,15,0,0,0,76,79,164,180,47,104.87,87,-71.00,76.00,-1073.00
2024-06-07 01:53:32.706729,0,0,15,0,0,0,76,79,163,180,47,104.73,87,-1.00,-11.00,-1036.00
2024-06-07 01:53:32.808914,0,-1,15,0,0,0,77,79,162,180,47,104.87,87,34.00,15.00,-990.00
2024-06-07 01:53:32.959235,0,-1,15,0,0,0,77,79,161,180,47,104.66,87,31.00,39.00,-1001.00
2024-06-07 01:53:33.012921,1,0,15,0,0,0,77,79,159,180,47,104.57,87,15.00,17.00,-1028.00
2024-06-07 01:53:33.164097,1,0,15,0,0,0,77,79,159,180,47,104.84,87,-33.00,73.00,-1066.00
2024-06-07 01:53:33.216855,1,-1,15,0,0,0,77,79,160,180,47,104.84,87,102.00,40.00,-1017.00
2024-06-07 01:53:33.368815,1,-1,15,0,0,0,77,79,160,180,47,104.70,87,31.00,18.00,-1010.00
2024-06-07 01:53:33.420925,0,-1,15,0,0,0,77,79,162,180,47,104.65,87,26.00,17.00,-1020.00
2024-06-07 01:53:33.523137,1,-1,15,0,0,0,77,79,162,180,47,104.69,88,8.00,24.00,-1003.00
2024-06-07 01:53:33.624719,1,-1,15,0,0,-1,77,79,163,180,47,104.57,88,58.00,2.00,-936.00
2024-06-07 01:53:33.726699,1,-1,15,0,0,0,77,79,165,180,47,104.89,88,132.00,-44.00,-1055.00
2024-06-07 01:53:33.880990,1,-1,15,0,0,0,76,79,166,180,47,104.78,88,52.00,58.00,-896.00
2024-06-07 01:53:33.930985,1,0,15,0,0,0,76,79,166,180,47,104.74,88,47.00,40.00,-841.00
2024-06-07 01:53:34.085483,0,0,15,0,0,0,76,79,166,180,47,104.66,88,84.00,-9.00,-917.00
2024-06-07 01:53:34.134608,0,-1,15,0,0,0,76,79,166,180,47,104.90,88,-8.00,23.00,-808.00
2024-06-07 01:53:34.293534,1,-1,15,0,0,1,76,79,164,180,47,104.56,88,18.00,14.00,-927.00
2024-06-07 01:53:34.338569,1,0,15,0,0,1,76,79,162,180,47,105.04,88,10.00,42.00,-940.00
2024-06-07 01:53:34.440543,1,-1,15,0,0,2,76,79,160,180,47,104.77,88,24.00,7.00,-938.00
2024-06-07 01:53:34.542555,0,-1,15,0,0,2,76,79,157,170,47,104.79,89,-10.00,42.00,-932.00
2024-06-07 01:53:34.703287,0,-1,15,0,0,2,76,79,155,170,47,104.33,89,31.00,-4.00,-898.00
2024-06-07 01:53:34.747005,0,-1,15,0,0,2,76,79,151,170,47,104.84,89,51.00,31.00,-829.00
2024-06-07 01:53:34.904602,0,0,15,0,0,2,77,79,148,170,47,104.62,89,46.00,22.00,-1025.00
2024-06-07 01:53:34.950514,0,0,15,0,0,2,77,79,144,160,47,104.32,89,-12.00,18.00,-928.00
2024-06-07 01:53:35.109439,1,0,15,0,0,3,77,79,139,160,47,104.42,89,36.00,23.00,-987.00
2024-06-07 01:53:35.154619,1,-1,15,0,0,3,77,79,135,160,47,104.37,89,-39.00,30.00,-1058.00
2024-06-07 01:53:35.314187,1,-1,15,0,0,3,77,79,131,150,47,104.41,89,41.00,26.00,-974.00
2024-06-07 01:53:35.359601,1,-2,15,0,0,3,77,79,128,150,47,104.54,89,50.00,-7.00,-1065.00
2024-06-07 01:53:35.522340,0,-2,15,0,0,2,77,79,125,140,47,104.16,89,35.00,22.00,-1034.00
2024-06-07 01:53:35.562520,0,-2,15,0,0,2,77,79,123,140,47,104.44,90,5.00,55.00,-958.00
2024-06-07 01:53:35.724762,0,-1,15,0,0,2,77,79,121,140,47,104.42,90,90.00,14.00,-957.00
2024-06-07 01:53:35.767461,0,-1,15,0,0,2,77,79,119,140,47,104.44,90,47.00,24.00,-1045.00
2024-06-07 01:53:35.932164,1,-1,15,0,0,2,76,80,117,130,47,104.45,90,40.00,35.00,-1075.00
2024-06-07 01:53:35.971687,1,-1,15,0,0,1,76,80,117,130,47,104.30,90,-10.00,22.00,-1025.00
2024-06-07 01:53:36.133510,1,-1,15,0,0,0,76,80,117,130,47,104.35,90,89.00,-26.00,-966.00
2024-06-07 01:53:36.178611,1,-1,15,0,0,0,76,80,118,130,47,104.37,90,-14.00,39.00,-1023.00
2024-06-07 01:53:36.226624,1,-1,15,0,0,0,76,80,120,130,47,104.13,90,-7.00,36.00,-1064.00
2024-06-07 01:53:36.338428,0,-1,15,0,0,0,76,80,121,130,47,104.18,90,-41.00,41.00,-1014.00
2024-06-07 01:53:36.430697,1,-1,15,0,0,-1,76,80,122,130,47,104.33,90,47.00,2.00,-925.00
2024-06-07 01:53:36.532620,0,-1,15,0,0,-1,76,80,123,140,47,104.22,91,-7.00,52.00,-976.00
2024-06-07 01:53:36.648560,1,0,15,0,0,0,76,80,123,140,47,104.18,91,-2.00,27.00,-961.00
2024-06-07 01:53:36.736810,1,0,15,0,0,0,76,80,123,140,47,104.52,91,5.00,49.00,-940.00
2024-06-07 01:53:36.850368,1,-1,15,0,0,0,76,80,123,140,47,104.43,91,83.00,20.00,-948.00
2024-06-07 01:53:36.940446,1,-1,15,0,0,0,76,80,122,140,47,104.19,91,17.00,13.00,-962.00
2024-06-07 01:53:37.055014,1,-1,15,0,0,0,76,80,121,140,47,104.61,91,27.00,55.00,-923.00
2024-06-07 01:53:37.144843,1,-1,15,0,0,0,76,80,120,140,47,104.39,91,28.00,5.00,-1000.00
2024-06-07 01:53:37.259902,1,-1,15,0,0,0,76,80,120,140,47,104.24,91,18.00,3.00,-1051.00
2024-06-07 01:53:37.348612,1,0,15,0,0,0,76,80,119,140,47,104.23,91,86.00,-6.00,-1024.00
2024-06-07 01:53:37.464637,1,0,15,0,0,0,76,80,119,130,47,104.32,91,-10.00,25.00,-920.00
2024-06-07 01:53:37.552395,1,0,15,0,0,0,76,80,118,130,47,104.11,92,-70.00,81.00,-1021.00
2024-06-07 01:53:37.672786,0,0,15,0,0,0,76,80,117,130,47,104.22,92,94.00,13.00,-1113.00
2024-06-07 01:53:37.756716,1,-1,15,0,0,0,76,80,117,130,47,104.38,92,39.00,-21.00,-1113.00
2024-06-07 01:53:37.858321,1,-1,15,0,0,0,77,79,117,130,47,104.25,92,113.00,-4.00,-1082.00
2024-06-07 01:53:37.976522,1,-1,15,0,0,0,77,79,116,130,47,104.52,92,51.00,-8.00,-971.00
2024-06-07 01:53:38.062241,-3,0,15,0,0,0,77,79,117,130,47,104.20,92,27.00,10.00,-1025.00
2024-06-07 01:53:38.185568,-5,-1,15,1,0,0,77,79,117,130,47,104.55,92,-11.00,39.00,-957.00
2024-06-07 01:53:38.266627,-6,-1,15,2,1,0,77,79,117,130,47,104.27,92,18.00,-6.00,-1077.00
2024-06-07 01:53:38.386122,-6,-1,15,3,1,0,77,79,117,130,47,104.49,92,40.00,9.00,-1044.00
2024-06-07 01:53:38.470603,-6,-1,15,4,1,0,77,79,118,130,47,104.27,92,-38.00,33.00,-1003.00
2024-06-07 01:53:38.572199,-5,-1,15,5,1,0,77,79,119,130,47,104.15,93,-53.00,20.00,-1027.00
2024-06-07 01:53:38.696990,-4,-1,15,6,1,0,77,79,118,130,47,104.38,93,36.00,-15.00,-1031.00
2024-06-07 01:53:38.776212,-3,-1,15,7,1,0,77,79,118,130,47,104.27,93,29.00,-36.00,-1035.00
2024-06-07 01:53:38.878101,-2,-1,15,7,1,0,77,80,119,130,47,104.05,93,-24.00,-1.00,-1027.00
2024-06-07 01:53:38.980173,0,0,15,7,1,0,77,80,118,130,47,104.10,93,-57.00,25.00,-1006.00
2024-06-07 01:53:39.082207,2,0,15,7,1,0,77,80,118,130,47,104.08,93,-54.00,22.00,-987.00
2024-06-07 01:53:39.184071,4,-1,15,6,1,0,77,80,117,130,47,104.03,93,40.00,27.00,-937.00
2024-06-07 01:53:39.286044,5,-1,15,5,1,0,77,80,117,130,47,104.25,93,-36.00,26.00,-921.00
2024-06-07 01:53:39.413491,4,-1,15,4,1,0,77,80,116,130,47,104.40,93,-4.00,35.00,-940.00
2024-06-07 01:53:39.490118,3,0,15,4,0,0,77,80,116,130,47,104.48,93,17.00,-3.00,-1010.00
2024-06-07 01:53:39.620036,3,-1,15,3,0,0,77,80,116,130,47,104.00,94,41.00,-9.00,-1038.00
2024-06-07 01:53:39.694114,2,-2,15,3,0,0,77,80,116,130,47,104.08,94,9.00,13.00,-999.00
2024-06-07 01:53:39.796120,1,-1,15,2,0,0,77,80,116,130,47,104.42,94,46.00,10.00,-1083.00
2024-06-07 01:53:39.906922,0,-1,15,2,0,0,77,79,116,130,47,104.36,94,106.00,-59.00,-974.00
2024-06-07 01:53:40.000124,0,-1,15,2,0,0,77,79,117,130,47,104.32,94,108.00,1.00,-948.00
2024-06-07 01:53:40.051064,1,0,15,2,0,0,77,79,116,130,47,104.33,94,-25.00,22.00,-939.00
2024-06-07 01:53:40.229246,4,0,15,2,0,0,77,79,116,130,47,104.37,94,34.00,10.00,-1080.00
2024-06-07 01:53:40.255158,5,1,15,1,0,0,77,79,115,130,47,104.26,94,19.00,12.00,-960.00
2024-06-07 01:53:40.434437,3,0,15,0,0,0,77,79,115,130,47,104.39,94,-78.00,51.00,-1011.00
2024-06-07 01:53:40.459249,2,-1,15,0,0,0,77,79,113,130,47,104.46,94,24.00,-4.00,-1005.00
2024-06-07 01:53:40.561245,1,-1,15,0,0,0,77,79,112,130,47,104.19,95,-16.00,34.00,-1033.00
2024-06-07 01:53:40.741635,1,-1,15,0,0,0,77,79,111,130,47,104.28,95,-25.00,41.00,-1001.00
2024-06-07 01:53:40.765141,2,-1,15,0,0,0,77,79,111,130,47,104.25,95,59.00,-6.00,-956.00
2024-06-07 01:53:40.945951,2,-1,15,0,0,0,76,80,110,130,47,104.50,95,49.00,13.00,-959.00
2024-06-07 01:53:40.969464,2,-1,15,0,0,0,76,80,109,130,47,104.55,95,18.00,-14.00,-1010.00
2024-06-07 01:53:41.115710,2,-1,15,0,0,0,76,80,109,130,47,104.08,95,52.00,26.00,-1045.00
2024-06-07 01:53:41.266286,1,-1,15,0,0,0,76,80,108,130,47,104.19,95,42.00,12.00,-957.00
2024-06-07 01:53:41.275260,1,-1,15,0,0,0,76,80,108,130,47,104.25,95,11.00,0.00,-1028.00
2024-06-07 01:53:41.383827,0,-1,15,0,0,0,76,80,107,130,46,104.11,95,26.00,-28.00,-1060.00
2024-06-07 01:53:41.567437,1,-1,15,0,0,0,76,80,107,130,46,103.98,96,-11.00,33.00,-984.00
2024-06-07 01:53:41.581704,1,-1,15,0,0,0,76,80,106,130,46,104.25,96,1.00,18.00,-1054.00
2024-06-07 01:53:41.759596,2,-1,15,0,0,0,76,80,105,130,46,104.49,96,21.00,37.00,-939.00
2024-06-07 01:53:41.809702,2,-1,15,0,0,0,76,80,103,130,46,104.34,96,112.00,35.00,-1262.00
2024-06-07 01:53:41.895561,1,-1,15,0,0,0,77,80,102,120,46,104.29,96,23.00,21.00,-1027.00
2024-06-07 01:53:41.989033,1,-1,15,0,0,0,77,80,102,120,46,104.19,96,63.00,-6.00,-976.00
2024-06-07 01:53:42.193728,1,-1,15,0,0,0,77,80,101,120,46,104.15,96,-30.00,10.00,-1160.00
2024-06-07 01:53:42.193942,1,-1,15,0,0,0,77,80,100,120,46,104.45,96,42.00,15.00,-928.00
2024-06-07 01:53:42.338371,1,-1,15,0,0,0,77,80,99,120,46,104.25,96,112.00,-47.00,-1016.00
2024-06-07 01:53:42.499385,1,-1,15,0,0,0,77,80,99,120,46,104.38,97,6.00,0.00,-1051.00
2024-06-07 01:53:42.636125,1,-1,15,0,0,0,77,80,99,120,46,104.19,97,68.00,40.00,-1052.00
2024-06-07 01:53:42.800049,6,0,15,0,0,0,77,80,99,120,46,104.35,97,76.00,0.00,-1043.00
2024-06-07 01:53:42.805749,8,0,15,-1,0,0,77,80,101,120,46,104.37,97,27.00,10.00,-1003.00
2024-06-07 01:53:42.943410,8,-1,15,-2,0,0,77,80,102,120,46,104.19,97,-32.00,51.00,-1022.00
2024-06-07 01:53:43.107196,8,-1,15,-3,0,0,77,80,103,120,46,104.36,97,51.00,49.00,-936.00
2024-06-07 01:53:43.111828,8,-1,15,-4,-1,-1,77,80,104,120,46,104.44,97,113.00,-15.00,-935.00
2024-06-07 01:53:43.250596,7,-1,15,-5,-1,-1,77,80,105,120,46,104.25,97,101.00,-5.00,-978.00
2024-06-07 01:53:43.414390,7,-1,15,-6,-1,-1,77,80,107,130,46,104.16,97,40.00,32.00,-895.00
2024-06-07 01:53:43.417896,6,-1,15,-6,-1,-1,77,80,107,130,46,104.40,97,25.00,13.00,-982.00
2024-06-07 01:53:43.612197,6,-1,15,-7,-2,0,77,80,107,130,46,104.32,98,40.00,20.00,-969.00
2024-06-07 01:53:43.621816,3,-1,15,-7,-2,0,77,80,108,130,46,104.66,98,139.00,-43.00,-986.00
2024-06-07 01:53:43.723740,0,-1,15,-6,-2,0,77,80,108,130,46,103.97,98,51.00,38.00,-902.00
2024-06-07 01:53:43.915561,-1,-1,15,-6,-1,0,77,80,109,130,46,104.19,98,7.00,46.00,-937.00
2024-06-07 01:53:43.928083,-2,-1,15,-5,-1,0,77,79,109,130,46,104.09,98,63.00,-23.00,-1045.00
2024-06-07 01:53:44.123516,-1,-1,15,-3,-1,0,77,79,109,130,46,104.58,98,34.00,8.00,-1029.00
2024-06-07 01:53:44.123571,0,0,15,-3,-1,0,77,79,111,130,46,104.07,98,41.00,28.00,-892.00
2024-06-07 01:53:44.182857,0,-1,15,-3,0,0,77,79,111,130,46,104.05,98,113.00,6.00,-1134.00
2024-06-07 01:53:44.328289,1,-1,15,-2,-1,0,77,79,111,130,46,104.30,98,-15.00,13.00,-984.00
2024-06-07 01:53:44.388287,1,-1,15,-2,-1,0,77,79,111,130,45,104.31,98,35.00,19.00,-897.00
2024-06-07 01:53:44.490489,1,0,15,-2,-1,0,77,79,111,130,45,104.06,99,86.00,22.00,-896.00
2024-06-07 01:53:44.592867,1,0,15,-2,0,0,77,79,112,130,45,104.34,99,56.00,-39.00,-1231.00
2024-06-07 01:53:44.693328,1,0,15,-2,0,0,77,79,111,130,45,104.19,99,39.00,23.00,-978.00
2024-06-07 01:53:44.794744,1,0,15,-2,0,0,77,79,111,130,45,104.56,99,-8.00,38.00,-990.00
2024-06-07 01:53:44.939459,1,0,15,-2,0,0,77,80,111,130,45,104.39,99,36.00,12.00,-1009.00
2024-06-07 01:53:44.998862,0,-1,15,-2,0,0,77,80,110,130,45,104.14,99,67.00,11.00,-916.00
2024-06-07 01:53:45.144335,-2,-2,15,-1,0,0,77,80,110,130,45,104.59,99,38.00,6.00,-1027.00
2024-06-07 01:53:45.202869,-1,-2,15,0,0,0,77,80,109,130,45,104.31,99,23.00,-5.00,-1062.00
2024-06-07 01:53:45.349970,0,-1,15,0,0,0,77,80,109,130,45,104.49,99,-1.00,21.00,-1050.00
2024-06-07 01:53:45.406726,0,-1,15,0,0,0,77,80,109,130,45,104.16,99,50.00,-8.00,-1046.00
2024-06-07 01:53:45.509920,1,-1,15,0,0,0,77,80,108,130,45,104.13,100,43.00,48.00,-1005.00
2024-06-07 01:53:45.610837,1,-1,15,0,0,0,77,80,108,130,45,104.29,100,-71.00,49.00,-994.00
2024-06-07 01:53:45.712718,1,-1,15,0,0,0,77,80,108,130,45,104.40,100,21.00,6.00,-974.00
2024-06-07 01:53:45.815036,1,-1,15,0,0,0,77,80,107,130,45,104.05,100,32.00,33.00,-959.00
2024-06-07 01:53:45.916757,2,-1,15,0,0,0,76,79,107,130,45,104.53,100,35.00,8.00,-1047.00
2024-06-07 01:53:46.065918,2,-1,15,0,0,0,76,79,106,130,45,104.31,100,56.00,14.00,-882.00
2024-06-07 01:53:46.120676,2,-1,15,0,0,0,76,79,106,130,45,104.40,100,91.00,-20.00,-1005.00
2024-06-07 01:53:46.274237,2,-1,15,0,0,0,76,79,105,130,45,104.22,100,-108.00,79.00,-1085.00
2024-06-07 01:53:46.324708,1,-1,15,0,0,0,76,79,105,130,45,104.34,100,-4.00,-10.00,-1031.00
2024-06-07 01:53:46.475780,1,-1,15,0,0,0,76,79,104,130,45,104.31,100,-35.00,89.00,-948.00
2024-06-07 01:53:46.528714,1,-1,15,0,0,0,76,79,103,130,45,104.16,101,-11.00,37.00,-979.00
2024-06-07 01:53:46.680233,0,-1,15,0,0,0,76,79,102,130,45,104.16,101,36.00,36.00,-868.00
2024-06-07 01:53:46.732682,1,-1,15,0,0,0,76,79,101,130,45,103.89,101,103.00,25.00,-1041.00
2024-06-07 01:53:46.885063,0,-1,15,0,0,0,76,79,100,130,45,103.96,101,36.00,48.00,-988.00
2024-06-07 01:53:46.936586,0,-1,15,0,0,0,77,80,99,120,45,104.18,101,17.00,21.00,-912.00
2024-06-07 01:53:47.089849,1,-1,15,0,0,0,77,80,99,120,45,104.32,101,-62.00,55.00,-1038.00
2024-06-07 01:53:47.142428,1,-1,15,0,0,0,77,80,99,120,45,104.04,101,39.00,15.00,-1067.00
2024-06-07 01:53:47.243160,1,-1,15,0,0,0,77,80,99,120,45,104.11,101,-26.00,39.00,-943.00
2024-06-07 01:53:47.344717,0,-1,15,0,0,0,77,80,100,120,44,103.91,101,0.00,27.00,-1062.00
2024-06-07 01:53:47.446626,1,-1,15,0,0,0,77,80,100,120,44,104.10,101,60.00,27.00,-1023.00
2024-06-07 01:53:47.601624,1,-3,15,0,0,0,77,80,101,120,44,104.47,102,-34.00,47.00,-996.00
2024-06-07 01:53:47.650555,0,-8,15,0,0,0,77,80,103,120,44,104.21,102,18.00,-4.00,-1084.00
2024-06-07 01:53:47.701577,1,-7,15,0,-2,-1,77,80,104,130,44,104.16,102,29.00,21.00,-1037.00
2024-06-07 01:53:47.811677,2,-5,15,1,-3,-1,77,80,104,130,44,104.34,102,15.00,57.00,-1027.00
2024-06-07 01:53:47.905448,3,-3,15,1,-3,0,76,80,106,130,44,104.12,102,-41.00,47.00,-983.00
2024-06-07 01:53:48.014505,3,0,15,1,-3,0,76,80,106,130,44,104.18,102,-2.00,35.00,-991.00
2024-06-07 01:53:48.109325,2,0,15,0,-3,0,76,80,107,130,44,104.32,102,38.00,2.00,-943.00
2024-06-07 01:53:48.216138,2,0,15,0,-3,0,76,80,108,130,44,104.12,102,6.00,33.00,-1119.00
2024-06-07 01:53:48.314914,2,0,15,0,-2,0,76,80,108,130,44,104.43,102,0.00,42.00,-964.00
2024-06-07 01:53:48.415497,1,-1,15,0,-2,0,76,80,109,130,44,103.96,102,93.00,28.00,-956.00
2024-06-07 01:53:48.523344,1,-1,15,0,-2,0,76,80,109,130,44,104.36,103,69.00,35.00,-868.00
2024-06-07 01:53:48.620378,2,-1,15,0,-2,0,76,80,110,130,44,103.98,103,78.00,-23.00,-960.00
2024-06-07 01:53:48.731528,2,-1,15,0,-2,0,76,80,109,130,44,104.13,103,80.00,35.00,-966.00
2024-06-07 01:53:48.824363,2,-1,15,0,-2,0,76,80,110,130,44,104.24,103,-18.00,18.00,-902.00
2024-06-07 01:53:48.932973,1,-1,15,0,-2,0,77,80,110,130,44,104.29,103,69.00,47.00,-992.00
2024-06-07 01:53:49.028377,1,-1,15,0,-2,0,77,80,110,130,44,104.39,103,13.00,16.00,-987.00
2024-06-07 01:53:49.137724,1,-1,15,0,-2,0,77,80,110,130,44,104.10,103,-2.00,47.00,-963.00
2024-06-07 01:53:49.232248,2,-1,15,0,-2,0,77,80,110,130,44,104.04,103,4.00,9.00,-1141.00
2024-06-07 01:53:49.342479,1,-1,15,0,-2,0,77,80,110,130,44,104.03,103,75.00,43.00,-936.00
2024-06-07 01:53:49.436544,1,2,15,0,-2,0,77,80,109,130,44,104.09,103,40.00,24.00,-967.00
2024-06-07 01:53:49.547323,0,3,15,0,-1,0,77,80,109,130,44,104.16,104,86.00,53.00,-1055.00
2024-06-07 01:53:49.640286,1,0,15,0,0,0,77,80,108,130,44,104.36,104,22.00,45.00,-1068.00
2024-06-07 01:53:49.742349,1,0,15,0,0,0,77,80,108,130,44,104.11,104,86.00,-29.00,-1045.00
2024-06-07 01:53:49.854633,1,0,15,0,0,0,77,80,108,130,44,104.28,104,35.00,4.00,-993.00
2024-06-07 01:53:49.947453,1,-1,15,0,0,0,77,80,108,130,44,104.26,104,-12.00,2.00,-1007.00
2024-06-07 01:53:50.059429,1,0,15,0,0,0,77,80,108,130,44,104.60,104,-32.00,31.00,-947.00
2024-06-07 01:53:50.150824,1,0,15,0,0,0,77,80,107,130,44,104.05,104,-20.00,58.00,-955.00
2024-06-07 01:53:50.264466,1,0,15,0,0,0,77,80,107,130,44,104.21,104,43.00,4.00,-975.00
2024-06-07 01:53:50.356161,1,0,15,0,0,0,77,80,107,130,43,104.14,104,-51.00,43.00,-995.00
2024-06-07 01:53:50.456527,1,0,15,0,0,0,77,80,108,130,43,104.26,104,10.00,16.00,-977.00
2024-06-07 01:53:50.558707,2,-1,15,0,0,0,77,80,108,130,43,104.37,105,26.00,-3.00,-1003.00
2024-06-07 01:53:50.673695,1,-1,15,0,0,0,77,80,108,130,43,104.05,105,-20.00,38.00,-1032.00
2024-06-07 01:53:50.762252,1,-1,15,0,0,0,77,80,108,130,43,104.44,105,76.00,-25.00,-938.00
2024-06-07 01:53:50.878526,1,-1,15,0,0,0,77,80,109,130,43,104.29,105,-2.00,2.00,-1028.00
2024-06-07 01:53:50.966320,2,-1,15,0,0,0,77,80,111,130,43,104.13,105,-9.00,18.00,-1057.00
2024-06-07 01:53:51.088712,2,-1,15,0,0,0,77,80,111,130,43,104.44,105,-21.00,47.00,-987.00
2024-06-07 01:53:51.170552,2,0,15,0,0,0,77,80,111,130,43,104.10,105,4.00,-6.00,-1007.00
2024-06-07 01:53:51.288189,1,0,15,0,0,0,77,80,112,130,43,104.22,105,-51.00,5.00,-933.00
2024-06-07 01:53:51.374122,1,-1,15,0,0,0,77,80,112,130,43,104.23,105,25.00,0.00,-1011.00
2024-06-07 01:53:51.425329,1,-1,15,0,0,0,77,80,112,130,43,104.47,105,31.00,-10.00,-990.00
2024-06-07 01:53:51.595733,1,-1,15,0,0,0,77,80,112,130,43,104.36,106,9.00,13.00,-989.00
2024-06-07 01:53:51.631407,1,-1,15,0,0,0,77,80,112,130,43,104.36,106,7.00,3.00,-989.00
2024-06-07 01:53:51.733930,1,-1,15,0,0,0,77,80,111,130,43,104.40,106,6.00,-20.00,-1005.00
2024-06-07 01:53:51.833136,1,0,15,0,0,0,77,80,111,130,43,104.51,106,52.00,41.00,-949.00
2024-06-07 01:53:52.004706,0,7,15,0,0,0,77,80,111,130,43,104.07,106,-2.00,39.00,-991.00
2024-06-07 01:53:52.037006,1,6,15,0,1,0,77,80,110,130,43,103.91,106,52.00,25.00,-918.00
2024-06-07 01:53:52.209510,1,4,15,0,2,0,77,80,110,130,43,104.29,106,35.00,-27.00,-1028.00
2024-06-07 01:53:52.241291,1,2,15,0,3,0,77,80,109,130,43,104.62,106,14.00,13.00,-1033.00
2024-06-07 01:53:52.414277,1,0,15,0,3,0,77,80,109,130,43,104.21,106,21.00,-7.00,-947.00
2024-06-07 01:53:52.444947,2,-1,15,0,3,0,77,80,108,130,43,104.13,106,-13.00,-12.00,-1032.00
2024-06-07 01:53:52.620724,2,-1,15,0,3,0,77,80,108,130,43,104.31,107,-38.00,31.00,-989.00
2024-06-07 01:53:52.648952,1,-1,15,0,2,0,77,80,108,130,43,104.02,107,-85.00,29.00,-900.00
2024-06-07 01:53:52.823893,1,-1,15,-1,2,0,77,80,108,130,43,104.21,107,46.00,0.00,-930.00
2024-06-07 01:53:52.853090,0,0,15,-1,2,0,77,80,108,130,43,104.27,107,67.00,-16.00,-1054.00
2024-06-07 01:53:53.028629,0,0,15,0,2,0,78,80,108,130,43,104.34,107,11.00,6.00,-1018.00
2024-06-07 01:53:53.056957,0,0,15,0,2,0,78,80,108,130,43,104.31,107,-52.00,40.00,-972.00
2024-06-07 01:53:53.233479,0,0,15,0,2,0,78,80,109,130,43,104.35,107,89.00,-40.00,-1050.00
2024-06-07 01:53:53.261217,1,-1,15,0,2,0,78,80,110,130,43,104.48,107,123.00,-4.00,-1050.00
2024-06-07 01:53:53.438182,1,-1,15,0,2,0,78,80,110,130,42,104.32,107,29.00,-3.00,-992.00
2024-06-07 01:53:53.464867,2,-2,15,0,1,0,78,80,112,130,42,104.51,107,52.00,-42.00,-1165.00
2024-06-07 01:53:53.643544,2,-3,15,0,1,0,78,80,113,130,42,104.23,108,78.00,-51.00,-949.00
2024-06-07 01:53:53.671888,2,-4,15,0,0,0,78,80,114,130,42,104.32,108,62.00,54.00,-905.00
2024-06-07 01:53:53.772684,2,-2,15,0,0,0,78,80,115,130,42,104.27,108,32.00,-40.00,-958.00
2024-06-07 01:53:53.950319,2,-1,15,0,0,0,78,80,116,130,42,104.43,108,138.00,-38.00,-990.00
2024-06-07 01:53:53.975858,1,0,15,0,0,0,77,80,117,130,42,104.45,108,80.00,-38.00,-915.00
2024-06-07 01:53:54.155212,2,0,15,0,0,0,77,80,118,130,42,104.52,108,-72.00,94.00,-922.00
2024-06-07 01:53:54.179856,1,0,15,0,0,0,77,80,119,130,42,104.55,108,88.00,-16.00,-958.00
2024-06-07 01:53:54.368512,1,-1,15,0,0,0,77,80,121,140,42,104.29,108,-96.00,51.00,-917.00
2024-06-07 01:53:54.390436,1,0,15,0,0,0,77,80,122,140,42,104.30,108,58.00,12.00,-1068.00
2024-06-07 01:53:54.487264,0,0,15,0,0,0,77,80,123,140,42,104.46,108,95.00,1.00,-1015.00
2024-06-07 01:53:54.587875,1,0,15,0,0,0,77,80,125,140,42,104.33,109,34.00,2.00,-1184.00
2024-06-07 01:53:54.769581,1,0,15,0,0,0,77,80,126,140,42,104.69,109,118.00,-61.00,-926.00
2024-06-07 01:53:54.791821,1,-1,15,0,0,0,77,80,127,140,42,104.62,109,38.00,-23.00,-881.00
2024-06-07 01:53:54.974302,1,0,15,0,0,0,77,80,127,140,42,104.43,109,-20.00,43.00,-882.00
2024-06-07 01:53:55.000114,1,0,15,0,0,0,77,80,128,140,42,104.57,109,-1.00,-5.00,-991.00
2024-06-07 01:53:55.098120,1,0,15,0,0,0,77,80,128,140,42,104.59,109,-30.00,30.00,-983.00
2024-06-07 01:53:55.152753,1,0,15,0,0,0,77,80,128,140,42,104.67,109,100.00,-55.00,-1059.00
2024-06-07 01:53:55.251864,1,-1,15,0,0,0,77,80,128,140,42,104.14,109,-2.00,29.00,-1053.00
2024-06-07 01:53:55.357253,1,0,15,0,0,0,77,80,128,140,42,104.45,109,127.00,-71.00,-949.00
2024-06-07 01:53:55.458007,1,-1,15,0,0,0,77,80,129,140,42,104.55,109,67.00,-2.00,-937.00
2024-06-07 01:53:55.557532,1,-1,15,0,0,0,77,80,128,140,42,104.60,110,-16.00,31.00,-907.00
2024-06-07 01:53:55.658917,1,-1,15,0,0,0,77,80,129,140,42,104.89,110,-1.00,15.00,-956.00
2024-06-07 01:53:55.760734,1,-1,15,0,0,0,77,80,129,140,42,104.53,110,-25.00,43.00,-924.00
2024-06-07 01:53:55.895811,1,-1,15,0,0,0,77,80,129,140,42,104.38,110,91.00,9.00,-1080.00
2024-06-07 01:53:55.966686,1,0,24,0,0,0,76,80,131,140,42,104.41,110,27.00,0.00,-1023.00
2024-06-07 01:53:56.111121,1,0,30,0,0,0,76,80,131,140,42,104.36,110,69.00,11.00,-1031.00
2024-06-07 01:53:56.168819,0,0,36,0,0,0,76,80,131,140,42,104.46,110,1.00,19.00,-962.00
2024-06-07 01:53:56.319587,0,-1,42,0,0,0,76,80,132,140,42,104.65,110,107.00,-21.00,-1038.00
2024-06-07 01:53:56.438653,0,-1,48,0,0,0,76,80,131,140,42,104.52,110,46.00,37.00,-910.00
2024-06-07 01:53:56.500104,1,-1,54,0,0,0,76,80,131,140,42,104.32,111,99.00,20.00,-1013.00
2024-06-07 01:53:56.620692,1,0,60,0,0,0,76,80,132,140,42,104.57,111,-47.00,69.00,-891.00
2024-06-07 01:53:56.688916,0,-1,66,0,0,0,76,80,131,140,42,104.46,111,30.00,47.00,-961.00
2024-06-07 01:53:56.780628,0,-1,71,0,0,0,76,80,132,140,42,104.54,111,42.00,-20.00,-1069.00
2024-06-07 01:53:56.882628,0,0,77,0,0,0,76,80,131,140,42,104.56,111,119.00,-26.00,-1005.00
2024-06-07 01:53:57.124583,1,0,83,0,0,0,77,81,132,140,42,104.53,111,17.00,27.00,-1011.00
2024-06-07 01:53:57.130538,1,0,89,0,0,0,77,81,132,140,42,104.56,111,46.00,-14.00,-924.00
2024-06-07 01:53:57.253031,1,1,95,0,0,0,77,81,131,140,42,104.69,111,101.00,16.00,-1036.00
2024-06-07 01:53:57.396377,2,2,101,0,0,0,77,81,131,140,42,104.29,111,46.00,15.00,-1101.00
2024-06-07 01:53:57.396456,1,1,107,0,0,0,77,81,129,140,42,104.33,111,73.00,-13.00,-851.00
2024-06-07 01:53:57.544978,1,0,113,0,0,1,77,81,127,140,42,104.48,112,7.00,-6.00,-1160.00
2024-06-07 01:53:57.688315,1,0,119,0,0,1,77,81,125,140,42,104.35,112,15.00,5.00,-946.00
2024-06-07 01:53:57.698908,0,0,125,0,0,1,77,81,123,130,42,104.59,112,0.00,-1.00,-1114.00
2024-06-07 01:53:57.854538,0,0,131,0,0,1,77,81,123,130,42,104.30,112,19.00,41.00,-954.00
2024-06-07 01:53:58.006439,1,-1,137,0,0,1,77,81,121,130,42,104.41,112,56.00,57.00,-1034.00
2024-06-07 01:53:58.006481,1,-1,143,0,0,0,77,81,121,130,42,104.54,112,1.00,14.00,-952.00
2024-06-07 01:53:58.107070,1,0,149,0,0,0,77,81,121,130,42,104.57,112,-40.00,52.00,-1074.00
2024-06-07 01:53:58.208498,1,0,154,0,0,0,77,81,122,130,42,104.40,112,97.00,-24.00,-1037.00
2024-06-07 01:53:58.353231,1,0,160,0,0,0,77,81,123,130,42,104.47,112,15.00,11.00,-1107.00
2024-06-07 01:53:58.412436,2,1,166,0,0,0,77,81,124,130,42,104.61,112,52.00,7.00,-1063.00
2024-06-07 01:53:58.558058,1,1,172,0,0,0,77,81,125,130,42,104.60,113,60.00,13.00,-962.00
2024-06-07 01:53:58.621558,1,1,178,0,0,0,77,81,126,130,42,104.46,113,24.00,-1.00,-924.00
2024-06-07 01:53:58.718399,2,1,-175,0,0,0,77,81,126,140,42,104.33,113,11.00,29.00,-963.00
2024-06-07 01:53:58.869201,2,1,-169,0,0,0,77,81,126,140,42,104.53,113,-1.00,22.00,-1001.00
2024-06-07 01:53:58.872111,1,0,-163,0,0,0,77,81,126,130,42,104.50,113,75.00,-38.00,-1010.00
2024-06-07 01:53:59.073902,1,1,-158,0,0,0,77,80,126,130,42,104.52,113,-1.00,22.00,-1017.00
2024-06-07 01:53:59.126305,1,1,-152,0,0,0,77,80,127,130,42,104.77,113,101.00,27.00,-1048.00
2024-06-07 01:53:59.228369,1,1,-146,0,0,0,77,80,127,130,42,104.53,113,82.00,-13.00,-893.00
2024-06-07 01:53:59.279302,2,1,-140,0,0,0,77,80,127,140,42,104.47,113,20.00,6.00,-966.00
2024-06-07 01:53:59.381353,2,2,-134,0,0,0,77,80,127,140,42,104.26,113,16.00,0.00,-959.00
2024-06-07 01:53:59.483423,2,1,-128,0,-1,0,77,80,127,140,42,104.31,114,45.00,0.00,-992.00
2024-06-07 01:53:59.688103,2,2,-122,0,0,0,77,80,126,140,42,104.15,114,0.00,8.00,-973.00
2024-06-07 01:53:59.688708,1,1,-116,0,0,0,77,80,125,140,42,104.76,114,-55.00,63.00,-967.00
2024-06-07 01:53:59.790424,0,0,-110,1,0,0,77,80,124,130,42,104.63,114,59.00,10.00,-1038.00
2024-06-07 01:53:59.892673,0,0,-104,1,0,0,77,80,123,130,42,104.74,114,44.00,0.00,-1002.00
2024-06-07 01:53:59.994737,0,0,-98,0,0,0,77,81,122,130,42,104.43,114,39.00,-26.00,-961.00
2024-06-07 01:54:00.096326,1,0,-92,0,-1,0,77,81,121,130,42,104.38,114,44.00,-9.00,-1018.00
2024-06-07 01:54:00.198347,1,1,-86,0,-1,0,77,81,119,130,42,104.50,114,76.00,-10.00,-1116.00
2024-06-07 01:54:00.401213,2,2,-81,0,0,0,77,81,119,130,42,104.04,114,8.00,28.00,-1048.00
2024-06-07 01:54:00.402360,0,1,-75,0,0,0,77,81,118,130,41,104.49,114,13.00,55.00,-999.00
2024-06-07 01:54:00.504600,-1,0,-69,0,0,1,77,81,118,130,41,104.44,115,31.00,1.00,-996.00
2024-06-07 01:54:00.606470,-1,0,-63,0,0,0,77,81,118,130,41,104.26,115,40.00,-1.00,-1000.00
2024-06-07 01:54:00.708331,-1,0,-57,0,0,0,77,81,119,130,41,104.22,115,68.00,7.00,-1043.00
2024-06-07 01:54:00.810765,0,0,-51,0,0,0,77,81,120,130,41,104.48,115,-30.00,19.00,-1019.00
2024-06-07 01:54:00.913466,0,0,-45,0,0,0,77,81,122,130,41,104.53,115,-20.00,8.00,-959.00
2024-06-07 01:54:01.117966,0,0,-39,0,0,-1,78,81,123,130,41,104.33,115,-46.00,55.00,-959.00
2024-06-07 01:54:01.118068,0,0,-33,0,0,-1,78,81,124,130,41,104.32,115,14.00,36.00,-982.00
2024-06-07 01:54:01.218121,0,1,-27,0,-1,0,78,81,125,130,41,104.43,115,40.00,11.00,-913.00
2024-06-07 01:54:01.322633,0,2,-21,0,0,0,78,81,125,130,41,104.65,115,-12.00,23.00,-911.00
2024-06-07 01:54:01.425383,0,1,-15,0,0,0,78,81,125,130,41,104.38,115,20.00,-1.00,-1012.00
2024-06-07 01:54:01.524719,0,1,-9,0,0,0,78,81,125,130,41,104.37,116,25.00,10.00,-1021.00
2024-06-07 01:54:01.626255,0,1,-3,0,0,0,78,81,125,130,41,104.32,116,7.00,4.00,-975.00
2024-06-07 01:54:01.728183,0,1,1,0,0,0,78,81,126,130,41,104.58,116,-28.00,35.00,-933.00
2024-06-07 01:54:01.837348,0,1,4,0,0,0,78,81,126,130,41,104.52,116,55.00,-2.00,-1009.00
2024-06-07 01:54:01.932147,0,0,7,0,0,0,78,81,126,130,41,104.60,116,-13.00,-12.00,-1022.00
2024-06-07 01:54:02.044519,0,0,9,0,0,0,77,81,128,130,41,104.59,116,-61.00,-2.00,-936.00
2024-06-07 01:54:02.142845,0,0,11,0,0,0,77,81,128,130,41,104.45,116,1.00,16.00,-1054.00
2024-06-07 01:54:02.240623,0,1,12,0,0,0,77,81,129,130,41,104.36,116,-7.00,54.00,-856.00
2024-06-07 01:54:02.347154,1,1,13,0,0,0,77,81,130,140,41,104.51,116,31.00,10.00,-1372.00
2024-06-07 01:54:02.449412,0,1,14,0,0,0,77,81,129,140,41,104.59,116,36.00,0.00,-918.00
2024-06-07 01:54:02.544326,1,1,14,0,0,0,77,81,130,140,41,104.49,117,-62.00,22.00,-883.00
2024-06-07 01:54:02.646010,0,0,14,0,0,0,77,81,130,140,41,104.57,117,86.00,-41.00,-985.00
2024-06-07 01:54:02.761717,1,0,14,0,0,0,77,81,129,140,41,104.63,117,-32.00,-15.00,-1038.00
2024-06-07 01:54:02.850575,0,1,14,0,0,0,77,81,129,140,41,104.56,117,160.00,-48.00,-1158.00
2024-06-07 01:54:02.957859,1,0,14,0,0,0,77,81,128,140,41,104.31,117,-64.00,4.00,-1017.00
2024-06-07 01:54:03.054181,0,0,14,0,0,0,78,80,127,140,41,104.49,117,-17.00,-17.00,-993.00
2024-06-07 01:54:03.166014,0,0,14,0,0,0,78,80,126,130,41,104.52,117,62.00,-23.00,-1010.00
2024-06-07 01:54:03.207280,0,0,14,0,0,0,78,80,125,130,41,104.60,117,1.00,47.00,-884.00
2024-06-07 01:54:03.375917,1,0,14,0,0,0,78,80,126,130,41,104.62,117,-74.00,16.00,-1008.00
2024-06-07 01:54:03.411108,1,0,14,0,0,0,78,80,126,130,41,104.65,117,-11.00,-26.00,-1038.00
2024-06-07 01:54:03.579386,1,0,14,0,0,0,78,80,126,130,41,104.68,118,14.00,-10.00,-1066.00
2024-06-07 01:54:03.615062,1,0,14,0,0,0,78,80,126,130,41,104.43,118,53.00,16.00,-909.00
2024-06-07 01:54:03.717268,1,0,14,0,0,0,78,80,126,130,41,104.23,118,-22.00,28.00,-965.00
2024-06-07 01:54:03.882776,0,0,14,0,0,0,78,80,126,130,41,104.36,118,40.00,-27.00,-1023.00
2024-06-07 01:54:03.921121,0,0,14,0,0,0,78,80,127,130,41,104.47,118,59.00,-46.00,-970.00
2024-06-07 01:54:04.023144,0,0,14,0,0,0,78,81,127,130,41,104.50,118,51.00,-94.00,-1238.00
2024-06-07 01:54:04.189932,0,1,14,0,0,0,78,81,128,130,41,104.60,118,97.00,-137.00,-1147.00
2024-06-07 01:54:04.226947,0,1,14,0,0,0,78,81,128,140,41,104.28,118,37.00,7.00,-962.00
2024-06-07 01:54:04.343562,0,1,14,0,0,0,78,81,128,140,40,104.03,118,15.00,25.00,-1001.00
2024-06-07 01:54:04.430927,0,0,14,0,0,0,78,81,128,140,40,104.46,118,-54.00,33.00,-1001.00
2024-06-07 01:54:04.600530,0,0,12,0,0,0,78,81,128,140,40,104.71,119,0.00,5.00,-941.00
2024-06-07 01:54:04.635054,0,0,6,0,0,0,78,81,127,140,40,104.25,119,-44.00,5.00,-1070.00
2024-06-07 01:54:04.804197,0,0,0,0,0,0,78,81,127,140,40,104.56,119,17.00,-4.00,-973.00
2024-06-07 01:54:04.838834,0,0,-5,0,0,0,78,81,127,140,40,104.64,119,10.00,-6.00,-1009.00
2024-06-07 01:54:05.008984,0,0,-11,0,0,0,78,81,125,130,40,104.47,119,54.00,18.00,-1000.00
2024-06-07 01:54:05.042871,0,0,-16,0,0,0,77,81,124,130,40,104.30,119,-58.00,25.00,-1007.00
2024-06-07 01:54:05.213788,0,0,-22,0,0,0,77,81,123,130,40,104.38,119,-4.00,12.00,-963.00
2024-06-07 01:54:05.246860,1,0,-28,0,0,0,77,81,121,130,40,104.46,119,33.00,16.00,-987.00
2024-06-07 01:54:05.418580,1,0,-34,0,0,0,77,81,119,130,40,104.63,119,111.00,-30.00,-1179.00
2024-06-07 01:54:05.450908,1,0,-40,0,0,0,77,81,117,130,40,104.50,119,-81.00,35.00,-977.00
2024-06-07 01:54:05.627961,1,0,-46,0,0,0,77,81,115,130,40,104.48,120,34.00,6.00,-981.00
2024-06-07 01:54:05.656043,1,0,-52,0,0,0,77,81,113,130,40,104.32,120,-32.00,21.00,-1028.00
2024-06-07 01:54:05.828166,1,0,-58,0,0,1,77,81,111,130,40,104.62,120,23.00,9.00,-1092.00
2024-06-07 01:54:05.858819,2,0,-64,0,0,0,77,81,110,120,40,104.26,120,61.00,-7.00,-993.00
2024-06-07 01:54:05.982517,2,0,-70,0,0,0,77,81,108,120,40,104.11,120,68.00,-43.00,-1162.00
2024-06-07 01:54:06.062762,2,0,-76,0,0,0,77,80,107,120,40,104.24,120,54.00,-5.00,-920.00
2024-06-07 01:54:06.237772,2,1,-83,0,0,0,77,80,106,120,40,104.63,120,27.00,3.00,-1119.00
2024-06-07 01:54:06.266813,2,0,-89,0,0,0,77,80,106,120,40,104.46,120,48.00,22.00,-1070.00
2024-06-07 01:54:06.442660,2,0,-95,0,0,0,77,80,106,120,40,104.32,120,30.00,12.00,-1076.00
2024-06-07 01:54:06.470831,2,0,-101,0,0,0,77,80,107,120,40,104.43,120,117.00,-38.00,-994.00
2024-06-07 01:54:06.647994,2,0,-107,0,0,0,77,80,107,120,40,104.12,121,62.00,8.00,-1011.00
2024-06-07 01:54:06.648523,2,0,-113,0,0,0,77,80,108,120,40,104.44,121,161.00,-7.00,-1099.00
2024-06-07 01:54:06.725792,2,0,-119,0,0,0,77,80,108,120,40,104.22,121,-61.00,76.00,-961.00
2024-06-07 01:54:06.852120,2,0,-125,0,0,0,77,80,109,120,40,104.37,121,67.00,8.00,-1055.00
2024-06-07 01:54:06.929677,2,0,-131,0,0,0,77,80,110,120,40,104.19,121,28.00,3.00,-1104.00
2024-06-07 01:54:07.031794,2,0,-137,0,0,0,78,81,111,120,40,104.06,121,57.00,10.00,-1005.00
2024-06-07 01:54:07.163478,2,0,-143,0,0,0,78,81,112,120,40,104.38,121,4.00,41.00,-997.00
2024-06-07 01:54:07.235861,2,0,-149,0,0,0,78,81,114,120,40,104.20,121,-19.00,68.00,-1026.00
2024-06-07 01:54:07.338192,2,0,-155,0,0,0,78,81,115,130,40,104.52,121,86.00,14.00,-972.00
2024-06-07 01:54:07.439704,2,0,-161,0,0,0,78,81,116,130,40,104.37,121,21.00,58.00,-1041.00
2024-06-07 01:54:07.542923,2,0,-167,0,0,-1,78,81,117,130,40,104.33,122,57.00,11.00,-1011.00
2024-06-07 01:54:07.644797,2,-1,-173,0,0,0,78,81,118,130,40,104.24,122,-16.00,44.00,-1013.00
2024-06-07 01:54:07.745521,2,0,-179,0,0,0,78,81,120,130,40,104.55,122,55.00,81.00,-918.00
2024-06-07 01:54:07.849608,1,0,174,0,0,0,78,81,120,130,40,104.67,122,31.00,-46.00,-983.00
2024-06-07 01:54:07.951556,2,0,168,0,1,0,78,81,120,130,40,104.04,122,59.00,43.00,-921.00
2024-06-07 01:54:08.053824,2,1,162,0,0,0,78,81,120,130,40,104.61,122,61.00,27.00,-926.00
2024-06-07 01:54:08.153748,2,0,156,0,0,0,78,81,119,130,40,104.07,122,38.00,22.00,-1016.00
2024-06-07 01:54:08.285675,2,0,150,0,0,0,78,81,118,130,40,104.28,122,71.00,-1.00,-982.00
2024-06-07 01:54:08.357623,1,-1,144,0,0,0,78,81,118,130,40,104.14,122,99.00,-10.00,-1021.00
2024-06-07 01:54:08.494118,1,-1,138,0,0,0,78,81,117,130,40,104.47,122,12.00,2.00,-1049.00
2024-06-07 01:54:08.561951,1,-1,132,0,0,0,78,81,117,130,40,104.42,123,55.00,8.00,-1015.00
2024-06-07 01:54:08.663539,1,-1,126,0,0,0,78,81,116,130,40,104.55,123,75.00,11.00,-1125.00
2024-06-07 01:54:08.800813,1,-1,120,0,0,0,78,81,116,130,40,104.33,123,71.00,1.00,-1019.00
2024-06-07 01:54:08.867865,1,0,114,0,0,0,78,81,115,130,40,104.22,123,-4.00,35.00,-938.00
2024-06-07 01:54:09.002462,1,0,108,0,0,0,78,81,115,130,40,104.16,123,-20.00,15.00,-1000.00
2024-06-07 01:54:09.073144,1,0,103,0,0,0,78,81,114,130,40,104.25,123,46.00,25.00,-987.00
2024-06-07 01:54:09.173687,1,0,97,0,0,0,78,81,113,130,40,104.19,123,41.00,-17.00,-1019.00
2024-06-07 01:54:09.313638,1,0,91,0,0,0,78,81,112,130,40,104.46,123,27.00,27.00,-941.00
2024-06-07 01:54:09.379053,1,0,85,0,0,0,78,81,110,130,40,104.05,123,24.00,0.00,-1003.00
2024-06-07 01:54:09.479450,1,0,79,0,0,0,78,81,109,130,40,104.34,123,98.00,10.00,-1075.00
2024-06-07 01:54:09.616740,1,0,74,0,0,0,78,81,109,120,40,104.42,124,87.00,0.00,-997.00
2024-06-07 01:54:09.683784,2,0,68,0,0,0,78,81,107,120,40,104.16,124,-72.00,73.00,-1012.00
2024-06-07 01:54:09.825273,2,0,62,0,0,0,78,81,106,120,40,104.30,124,25.00,-3.00,-1008.00
2024-06-07 01:54:09.887576,1,0,56,0,0,0,78,81,106,120,40,103.87,124,-49.00,15.00,-1030.00
2024-06-07 01:54:09.989391,1,0,51,0,0,0,78,81,104,120,40,104.11,124,76.00,-5.00,-1097.00
2024-06-07 01:54:10.091439,1,0,45,0,0,0,78,81,103,120,40,103.96,124,28.00,8.00,-1011.00
2024-06-07 01:54:10.231055,2,0,39,0,0,0,78,81,102,120,40,104.12,124,0.00,24.00,-983.00
2024-06-07 01:54:10.295429,2,0,33,0,0,0,78,81,101,120,40,104.30,124,50.00,-11.00,-1035.00
2024-06-07 01:54:10.435883,1,0,29,0,0,0,78,81,100,120,39,104.25,124,-46.00,66.00,-1008.00
2024-06-07 01:54:10.448333,1,0,25,0,0,0,78,81,100,120,39,104.01,124,79.00,9.00,-1057.00
2024-06-07 01:54:10.640702,1,0,23,0,0,0,78,81,100,120,39,104.29,125,0.00,22.00,-1114.00
2024-06-07 01:54:10.652295,0,0,20,0,0,0,78,81,100,120,39,104.33,125,-1.00,45.00,-968.00
2024-06-07 01:54:10.845387,1,0,19,0,0,0,78,81,100,120,39,104.41,125,77.00,-6.00,-1133.00
2024-06-07 01:54:10.857163,1,0,18,0,0,0,78,81,101,120,39,103.95,125,-46.00,51.00,-988.00
2024-06-07 01:54:11.255187,1,0,17,0,0,0,78,81,102,120,39,104.10,125,11.00,-2.00,-948.00
2024-06-07 01:54:11.255397,1,0,16,0,0,0,77,81,103,120,39,104.27,125,42.00,8.00,-1012.00
2024-06-07 01:54:11.255567,1,0,16,0,0,-1,77,81,104,120,39,104.10,125,-31.00,18.00,-1013.00
2024-06-07 01:54:11.264575,1,0,16,0,0,0,77,81,106,120,39,104.28,125,-24.00,11.00,-943.00
2024-06-07 01:54:11.371239,1,0,16,0,0,0,77,81,106,130,39,104.46,125,60.00,-44.00,-1104.00
2024-06-07 01:54:11.554899,1,0,16,0,0,0,77,81,107,130,39,104.11,126,18.00,22.00,-1013.00
2024-06-07 01:54:11.570324,2,0,16,0,0,-1,77,81,108,130,39,104.21,126,8.00,-2.00,-1000.00
2024-06-07 01:54:11.709409,1,0,16,0,0,0,77,81,109,130,39,104.47,126,51.00,-25.00,-1010.00
2024-06-07 01:54:11.803693,1,1,16,0,0,0,77,81,109,130,39,104.17,126,51.00,-3.00,-961.00
2024-06-07 01:54:11.897470,1,0,16,0,0,0,77,81,109,130,39,104.26,126,99.00,-29.00,-1004.00
2024-06-07 01:54:11.984526,1,0,16,0,0,0,77,81,108,130,39,104.00,126,20.00,22.00,-1002.00
2024-06-07 01:54:12.080394,0,0,16,0,0,0,78,81,108,130,39,104.30,126,86.00,-16.00,-930.00
2024-06-07 01:54:12.289989,1,-1,16,0,0,0,78,81,107,130,39,104.06,126,56.00,11.00,-1094.00
2024-06-07 01:54:12.290144,1,-1,16,0,0,0,78,81,105,130,39,104.41,126,44.00,1.00,-963.00
2024-06-07 01:54:12.435605,0,-1,16,0,0,0,78,81,104,130,38,104.33,126,-46.00,20.00,-1034.00
2024-06-07 01:54:12.599630,0,0,16,0,0,0,78,81,103,130,38,104.28,127,50.00,11.00,-1016.00
2024-06-07 01:54:12.599815,0,0,16,0,0,0,78,81,102,120,38,104.25,127,30.00,2.00,-988.00
2024-06-07 01:54:12.740577,1,0,16,0,0,0,78,81,101,120,38,104.27,127,44.00,19.00,-964.00
2024-06-07 01:54:12.904645,2,0,16,0,0,0,78,81,100,120,38,104.00,127,35.00,32.00,-960.00
2024-06-07 01:54:12.904902,2,0,16,0,0,0,78,81,100,120,38,104.25,127,-67.00,36.00,-1056.00
2024-06-07 01:54:13.047805,1,0,16,0,0,0,78,81,98,120,38,104.35,127,27.00,-3.00,-1079.00
2024-06-07 01:54:13.212506,1,0,16,0,0,0,77,80,98,120,38,104.01,127,39.00,7.00,-991.00
2024-06-07 01:54:13.212694,1,0,16,0,0,0,77,80,97,120,38,104.07,127,-16.00,46.00,-978.00
2024-06-07 01:54:13.305890,0,0,16,0,0,0,77,80,97,120,38,104.22,127,0.00,40.00,-986.00
2024-06-07 01:54:13.406233,0,0,16,0,0,0,77,80,97,120,38,104.17,127,46.00,-5.00,-1014.00
2024-06-07 01:54:13.508640,0,0,16,0,0,0,77,80,97,120,38,104.06,128,66.00,-30.00,-1111.00
2024-06-07 01:54:13.610239,1,0,16,0,0,0,77,80,99,120,38,104.28,128,-25.00,31.00,-1166.00
2024-06-07 01:54:13.712337,1,0,16,0,0,-1,77,80,100,120,38,104.22,128,30.00,9.00,-920.00
2024-06-07 01:54:13.818597,1,0,16,0,0,0,77,80,102,120,38,104.01,128,24.00,22.00,-1083.00
2024-06-07 01:54:13.917253,0,-1,16,0,0,-1,77,80,103,130,38,104.15,128,33.00,55.00,-1038.00
2024-06-07 01:54:14.020758,0,-1,16,0,0,-1,77,80,105,130,38,104.21,128,32.00,35.00,-1007.00
2024-06-07 01:54:14.120167,1,-1,16,0,0,-1,78,80,107,130,38,104.09,128,72.00,-19.00,-977.00
2024-06-07 01:54:14.228516,1,0,16,0,0,-1,78,80,108,130,38,104.35,128,85.00,15.00,-1053.00
2024-06-07 01:54:14.324872,1,0,16,0,0,0,78,80,110,130,38,104.20,128,-10.00,77.00,-1014.00
2024-06-07 01:54:14.439214,1,0,16,0,0,0,78,80,111,130,38,104.02,128,21.00,43.00,-1005.00
2024-06-07 01:54:14.477522,1,0,16,0,0,0,78,80,112,130,38,104.58,129,69.00,8.00,-1233.00
2024-06-07 01:54:14.638011,1,0,16,0,0,0,78,80,113,130,38,104.17,129,6.00,-7.00,-972.00
2024-06-07 01:54:14.681103,1,0,16,0,0,0,78,80,114,130,38,104.20,129,62.00,48.00,-1046.00
2024-06-07 01:54:14.839082,1,0,16,0,0,0,78,80,114,130,38,104.23,129,32.00,44.00,-927.00
2024-06-07 01:54:14.886028,1,0,16,0,0,0,78,80,114,130,38,104.23,129,38.00,11.00,-972.00
2024-06-07 01:54:15.047801,0,0,16,0,0,0,78,80,115,130,38,104.46,129,3.00,11.00,-967.00
2024-06-07 01:54:15.089021,0,0,16,0,0,0,77,80,115,130,38,104.45,129,103.00,-40.00,-1078.00
2024-06-07 01:54:15.248774,0,0,16,0,0,0,77,80,115,130,38,104.30,129,75.00,-48.00,-993.00
2024-06-07 01:54:15.292973,0,0,16,0,0,0,77,80,115,130,38,104.41,129,-62.00,109.00,-962.00
2024-06-07 01:54:15.395113,0,0,16,0,0,0,77,80,114,130,38,104.43,129,101.00,-26.00,-984.00
2024-06-07 01:54:15.556338,0,0,16,0,0,0,77,80,114,130,38,104.36,130,14.00,38.00,-992.00
2024-06-07 01:54:15.599093,0,0,16,0,0,0,77,80,115,130,38,104.22,130,127.00,0.00,-1121.00
2024-06-07 01:54:15.760695,1,0,16,0,0,0,77,80,115,130,38,104.21,130,53.00,7.00,-963.00
2024-06-07 01:54:15.802935,1,0,16,0,0,0,77,80,115,130,38,104.71,130,-28.00,23.00,-1021.00
2024-06-07 01:54:15.965462,1,0,16,0,0,0,77,80,115,130,38,104.16,130,128.00,-35.00,-1058.00
2024-06-07 01:54:16.006989,2,0,16,0,0,0,77,80,115,130,38,104.43,130,-25.00,14.00,-996.00
2024-06-07 01:54:16.170487,1,0,16,0,0,0,78,80,116,130,38,104.61,130,28.00,13.00,-976.00
2024-06-07 01:54:16.211326,1,0,16,0,0,0,78,80,114,130,38,104.12,130,48.00,-9.00,-1164.00
2024-06-07 01:54:16.313166,1,0,16,0,0,0,78,80,115,130,38,104.27,130,47.00,14.00,-980.00
2024-06-07 01:54:16.415095,0,0,16,0,0,0,78,80,115,130,38,104.25,130,76.00,-11.00,-930.00
2024-06-07 01:54:16.579792,0,0,16,0,0,0,78,80,114,130,38,104.18,131,-5.00,51.00,-1071.00
2024-06-07 01:54:16.619020,0,0,16,0,0,0,78,80,114,130,38,104.50,131,80.00,-2.00,-1037.00
2024-06-07 01:54:16.788397,0,-1,16,0,0,0,78,80,113,130,38,104.19,131,-49.00,68.00,-1022.00
2024-06-07 01:54:16.822913,0,-1,16,0,0,0,78,80,112,130,38,104.36,131,82.00,-30.00,-980.00
2024-06-07 01:54:16.924834,0,0,16,0,0,0,78,80,111,130,38,103.94,131,-10.00,21.00,-963.00
2024-06-07 01:54:17.091734,0,0,16,0,0,0,78,80,111,130,38,104.25,131,-22.00,0.00,-953.00
2024-06-07 01:54:17.129628,1,0,16,0,0,0,77,81,110,130,38,104.10,131,71.00,-19.00,-977.00
2024-06-07 01:54:17.296442,1,0,16,0,0,0,77,81,109,130,38,104.25,131,-29.00,33.00,-1094.00
2024-06-07 01:54:17.332895,1,0,16,0,0,0,77,81,108,130,38,103.92,131,44.00,-5.00,-942.00
2024-06-07 01:54:17.501423,1,0,16,0,0,0,77,81,106,130,38,104.33,131,68.00,-29.00,-1114.00
2024-06-07 01:54:17.537454,0,0,16,0,0,0,77,81,105,130,38,104.36,132,-39.00,64.00,-948.00
2024-06-07 01:54:17.706282,0,0,16,0,0,0,77,81,103,130,38,104.20,132,-7.00,34.00,-999.00
2024-06-07 01:54:17.741125,0,0,16,0,0,0,77,81,102,130,38,103.95,132,48.00,-19.00,-1012.00
2024-06-07 01:54:17.910895,1,0,16,0,0,0,77,81,100,130,38,104.06,132,-51.00,88.00,-1025.00
2024-06-07 01:54:17.944783,1,-1,16,0,0,0,77,81,99,130,38,104.14,132,10.00,12.00,-984.00
2024-06-07 01:54:18.116128,2,-1,16,0,0,0,77,81,97,120,38,103.87,132,-21.00,22.00,-1192.00
2024-06-07 01:54:18.148917,1,0,16,0,0,0,78,80,96,120,38,104.25,132,-14.00,32.00,-1025.00
2024-06-07 01:54:18.250971,1,0,16,0,0,0,78,80,96,120,38,103.99,132,53.00,2.00,-981.00
2024-06-07 01:54:18.424125,1,0,16,0,0,0,78,80,96,120,38,103.87,132,49.00,3.00,-1026.00
2024-06-07 01:54:18.424450,1,0,16,0,0,0,78,80,96,120,38,104.00,132,-30.00,61.00,-983.00
2024-06-07 01:54:18.507227,1,0,16,0,0,0,78,80,96,120,38,104.19,133,-27.00,29.00,-1024.00
2024-06-07 01:54:18.628345,1,0,16,0,0,-1,78,80,97,120,38,104.02,133,35.00,0.00,-987.00
2024-06-07 01:54:18.709628,1,0,16,0,0,0,78,80,97,120,38,104.18,133,12.00,40.00,-920.00
2024-06-07 01:54:18.832543,1,0,16,0,0,-1,78,80,97,120,38,104.19,133,77.00,-8.00,-957.00
2024-06-07 01:54:18.913898,1,-1,16,0,0,0,78,80,98,120,38,104.12,133,2.00,72.00,-923.00
2024-06-07 01:54:19.017346,1,-1,16,0,0,0,78,80,98,120,38,104.27,133,-39.00,44.00,-971.00
2024-06-07 01:54:19.117740,0,-1,16,0,0,0,78,80,98,120,38,104.01,133,44.00,32.00,-988.00
2024-06-07 01:54:19.242103,0,-1,16,0,0,0,78,80,99,120,38,103.97,133,139.00,-51.00,-1014.00
2024-06-07 01:54:19.321610,0,-2,16,0,0,0,78,80,99,120,38,104.12,133,44.00,29.00,-892.00
2024-06-07 01:54:19.446981,0,-2,16,0,0,0,78,80,100,120,38,103.98,133,108.00,-5.00,-998.00
2024-06-07 01:54:19.526791,0,-1,16,0,0,0,78,80,102,120,38,104.09,134,-20.00,-27.00,-1025.00
2024-06-07 01:54:19.652387,0,-1,16,0,0,0,78,80,104,130,38,104.09,134,0.00,5.00,-1006.00
2024-06-07 01:54:19.729699,1,-1,16,0,0,0,78,80,105,130,38,104.38,134,21.00,18.00,-979.00
2024-06-07 01:54:19.856470,1,-1,16,0,0,0,78,80,106,130,38,103.84,134,12.00,27.00,-954.00
2024-06-07 01:54:19.933998,1,-1,16,0,0,0,78,80,108,130,38,104.17,134,20.00,47.00,-1001.00
2024-06-07 01:54:20.065017,1,-1,16,0,0,0,78,80,110,130,38,103.90,134,75.00,63.00,-920.00
2024-06-07 01:54:20.137970,1,-1,16,0,0,-1,77,81,112,130,38,104.26,134,-47.00,75.00,-947.00
2024-06-07 01:54:20.239631,1,-1,16,0,0,-1,77,81,114,130,38,104.08,134,54.00,17.00,-1031.00
2024-06-07 01:54:20.341633,0,-1,16,0,0,-1,77,81,115,130,37,104.13,134,6.00,59.00,-882.00
2024-06-07 01:54:20.443648,0,-1,16,0,0,-1,77,81,116,140,37,104.20,134,107.00,32.00,-1044.00
2024-06-07 01:54:20.546139,1,-1,16,0,0,0,77,81,116,140,37,104.46,135,0.00,54.00,-888.00
2024-06-07 01:54:20.649604,1,-1,16,0,0,0,77,81,116,140,37,104.06,135,-4.00,62.00,-925.00
2024-06-07 01:54:20.750995,0,-1,16,0,0,0,77,81,115,140,37,104.33,135,75.00,15.00,-968.00
2024-06-07 01:54:20.853339,0,-1,16,0,0,0,77,81,114,140,37,104.26,135,73.00,23.00,-1049.00
2024-06-07 01:54:20.955640,0,-1,16,0,0,0,77,81,113,130,37,104.53,135,-64.00,94.00,-1039.00
2024-06-07 01:54:21.055446,0,-1,16,0,0,0,77,81,113,130,37,104.20,135,16.00,30.00,-1004.00
2024-06-07 01:54:21.157954,0,0,16,0,0,0,77,80,111,130,37,104.47,135,-13.00,35.00,-945.00
2024-06-07 01:54:21.259536,1,0,16,0,0,0,77,80,111,130,37,104.18,135,47.00,34.00,-1031.00
2024-06-07 01:54:21.361527,1,0,16,0,0,0,77,80,110,130,37,104.25,135,-36.00,69.00,-1015.00
2024-06-07 01:54:21.498109,1,0,16,0,0,0,77,80,110,130,37,104.16,135,-18.00,67.00,-1043.00
