TS,pitch,roll,yaw,vgx,vgy,vgz,templ,temph,tof,h,bat,baro,time,agx,agy,agz
2024-06-07 15:18:27.001094,2,0,40,0,0,0,65,66,10,0,98,136.59,0,44.00,-4.00,-1000.00
2024-06-07 15:18:27.139995,2,0,40,0,0,0,65,66,10,0,98,136.67,0,41.00,-4.00,-1000.00
2024-06-07 15:18:27.205080,2,0,40,0,0,0,65,66,10,0,98,136.86,0,40.00,-3.00,-997.00
2024-06-07 15:18:27.350141,2,0,40,0,0,0,65,66,10,0,98,136.81,0,42.00,-3.00,-1000.00
2024-06-07 15:18:27.409190,2,0,40,0,0,0,65,66,10,0,98,136.67,0,43.00,-3.00,-1001.00
2024-06-07 15:18:27.511869,2,0,40,0,0,0,65,66,10,0,98,136.74,0,41.00,-2.00,-997.00
2024-06-07 15:18:27.651816,2,0,40,0,0,0,65,66,10,0,98,136.61,0,42.00,-3.00,-999.00
2024-06-07 15:18:27.714734,2,0,40,0,0,0,65,66,10,0,98,136.78,0,41.00,-4.00,-998.00
2024-06-07 15:18:27.856534,2,0,40,0,0,0,65,66,10,0,98,136.40,0,42.00,-2.00,-999.00
2024-06-07 15:18:27.918860,2,0,40,0,0,0,65,66,10,0,98,136.68,0,42.00,-4.00,-996.00
2024-06-07 15:18:28.061358,2,0,40,0,0,0,65,66,10,0,98,136.61,0,41.00,-4.00,-997.00
2024-06-07 15:18:28.122810,2,0,40,0,0,0,65,67,10,0,98,136.65,0,42.00,-4.00,-997.00
2024-06-07 15:18:28.266088,2,0,40,0,0,0,65,67,10,0,97,136.72,0,42.00,-4.00,-999.00
2024-06-07 15:18:28.326973,2,0,40,0,0,0,65,67,10,0,97,136.63,0,42.00,-3.00,-999.00
2024-06-07 15:18:28.428725,2,0,40,0,0,0,65,67,10,0,97,136.43,0,42.00,-1.00,-999.00
2024-06-07 15:18:28.479936,2,0,40,0,0,0,65,67,10,0,97,136.56,0,44.00,-3.00,-999.00
2024-06-07 15:18:28.675690,2,0,40,0,0,0,65,67,10,0,97,136.59,0,42.00,-2.00,-1000.00
2024-06-07 15:18:28.683867,2,0,40,0,0,0,65,67,10,0,97,136.67,0,43.00,-4.00,-997.00
2024-06-07 15:18:28.880761,2,0,40,0,0,0,65,67,10,0,97,136.70,0,42.00,-3.00,-998.00
2024-06-07 15:18:28.889088,2,0,40,0,0,0,65,67,10,0,97,136.60,0,42.00,-4.00,-998.00
2024-06-07 15:18:29.085332,2,0,40,0,0,0,65,67,10,0,97,136.33,0,44.00,-5.00,-998.00
2024-06-07 15:18:29.092027,2,0,40,0,0,0,65,67,10,0,97,136.70,0,42.00,-4.00,-996.00
2024-06-07 15:18:29.290177,2,0,40,0,0,0,65,67,10,0,97,136.78,0,41.00,-3.00,-996.00
2024-06-07 15:18:29.295757,2,0,40,0,0,0,65,67,10,0,97,136.94,0,43.00,-3.00,-998.00
2024-06-07 15:18:29.397948,2,0,40,0,0,0,65,67,10,0,97,136.84,0,42.00,-4.00,-999.00
2024-06-07 15:18:29.598425,2,0,40,0,0,0,65,67,10,0,97,136.30,0,44.00,-3.00,-997.00
2024-06-07 15:18:29.601818,2,0,40,0,0,0,65,67,10,0,97,136.53,0,41.00,-2.00,-997.00
2024-06-07 15:18:29.802052,2,0,40,0,0,0,65,67,10,0,97,136.68,0,41.00,-3.00,-995.00
2024-06-07 15:18:29.805843,2,0,40,0,0,0,65,67,10,0,97,136.62,0,40.00,-2.00,-998.00
2024-06-07 15:18:29.907897,2,0,40,0,0,0,65,67,10,0,97,136.53,0,42.00,-3.00,-996.00
2024-06-07 15:18:30.009963,2,0,40,0,0,0,65,67,10,0,97,136.66,0,41.00,-3.00,-997.00
2024-06-07 15:18:30.111799,2,0,40,0,0,0,65,67,10,0,97,136.66,0,42.00,-4.00,-1000.00
2024-06-07 15:18:30.213708,2,0,40,0,0,0,65,67,10,0,96,136.63,0,39.00,0.00,-999.00
2024-06-07 15:18:30.315615,2,0,40,0,0,0,65,67,10,0,96,136.63,0,45.00,-12.00,-995.00
2024-06-07 15:18:30.518736,2,0,40,0,0,0,65,67,10,0,96,136.63,0,33.00,12.00,-984.00
2024-06-07 15:18:30.519771,2,0,39,0,0,0,65,67,10,0,96,136.63,0,36.00,-40.00,-944.00
2024-06-07 15:18:30.723928,2,0,39,0,0,0,65,67,10,0,96,136.63,0,58.00,-33.00,-1021.00
2024-06-07 15:18:30.723984,1,0,39,0,0,0,65,67,10,0,96,136.63,0,71.00,-31.00,-1180.00
2024-06-07 15:18:30.826378,0,-1,40,0,0,-1,65,67,10,0,96,136.63,0,58.00,-43.00,-1337.00
2024-06-07 15:18:30.928426,0,1,40,0,-1,-4,65,67,10,0,96,136.63,0,-34.00,-36.00,-1276.00
2024-06-07 15:18:31.030757,0,3,41,0,-1,-7,65,67,18,0,96,136.64,0,-19.00,-71.00,-1134.00
2024-06-07 15:18:31.133019,0,4,41,0,-1,-8,65,68,22,10,96,137.10,0,-75.00,-70.00,-1084.00
2024-06-07 15:18:31.235627,-1,4,40,0,-1,-9,65,68,31,20,96,137.23,1,-30.00,-122.00,-995.00
2024-06-07 15:18:31.337722,-2,6,40,1,-1,-8,65,68,40,30,96,137.66,1,-16.00,-101.00,-921.00
2024-06-07 15:18:31.437678,-1,7,40,1,-1,-7,65,68,47,30,96,137.28,1,-39.00,-51.00,-781.00
2024-06-07 15:18:31.488731,0,6,40,0,-1,-6,65,68,54,40,96,137.39,1,33.00,-62.00,-842.00
2024-06-07 15:18:31.645217,-1,5,40,0,0,-4,65,68,58,40,96,137.39,1,7.00,-43.00,-831.00
2024-06-07 15:18:31.692608,-2,5,40,0,0,-3,65,68,61,50,96,137.29,1,-24.00,-64.00,-867.00
2024-06-07 15:18:31.850076,-1,5,40,0,0,-2,65,68,63,50,96,137.34,1,-54.00,-49.00,-952.00
2024-06-07 15:18:31.896394,-1,4,40,0,0,-1,65,68,64,50,96,137.55,1,-4.00,-40.00,-876.00
2024-06-07 15:18:32.058323,-1,3,40,0,0,0,65,68,65,50,96,137.40,1,-20.00,-55.00,-904.00
2024-06-07 15:18:32.154776,-1,4,40,0,0,0,66,68,66,50,95,137.62,1,-31.00,-81.00,-1153.00
2024-06-07 15:18:32.256494,0,5,40,0,0,-1,66,68,66,50,95,137.67,2,-117.00,-16.00,-994.00
2024-06-07 15:18:32.304429,-1,5,40,0,0,-1,66,68,66,50,95,137.61,2,13.00,-64.00,-940.00
2024-06-07 15:18:32.464423,-3,4,40,0,0,-1,66,68,67,50,95,137.46,2,-65.00,-43.00,-918.00
2024-06-07 15:18:32.508417,-2,4,40,0,0,0,66,68,67,50,95,137.99,2,-46.00,-58.00,-1087.00
2024-06-07 15:18:32.610489,-1,4,40,0,0,-1,66,68,67,50,95,137.31,2,-21.00,-37.00,-974.00
2024-06-07 15:18:32.773436,-2,4,40,0,0,0,66,68,66,50,95,137.63,2,32.00,-103.00,-1089.00
2024-06-07 15:18:32.814350,-1,4,40,0,0,-1,66,68,66,50,95,137.48,2,-50.00,-58.00,-1042.00
2024-06-07 15:18:32.916319,-1,4,40,0,0,-1,66,68,67,50,95,137.53,2,8.00,-47.00,-1002.00
2024-06-07 15:18:33.079163,-2,3,40,0,0,0,66,68,66,50,95,137.25,2,-58.00,-9.00,-963.00
2024-06-07 15:18:33.120425,-2,1,40,-1,0,0,66,67,66,50,95,137.53,2,-36.00,-34.00,-1037.00
2024-06-07 15:18:33.283437,-3,1,40,0,0,-1,66,67,66,50,95,137.58,3,-23.00,-77.00,-971.00
2024-06-07 15:18:33.324432,-3,1,40,0,0,-1,66,67,66,50,95,137.42,3,20.00,-118.00,-981.00
2024-06-07 15:18:33.426429,-2,2,40,0,0,-1,66,67,64,60,95,137.56,3,25.00,-70.00,-1043.00
2024-06-07 15:18:33.528396,-2,2,40,0,0,-1,66,67,64,60,95,137.35,3,-54.00,-38.00,-969.00
2024-06-07 15:18:33.693169,-2,2,40,0,0,-1,66,67,64,60,95,137.43,3,26.00,-53.00,-1033.00
2024-06-07 15:18:33.732320,-2,2,40,0,0,-1,66,67,64,60,95,137.53,3,-46.00,-123.00,-988.00
2024-06-07 15:18:33.897974,-1,3,40,0,0,-2,66,67,63,60,95,137.50,3,7.00,-57.00,-991.00
2024-06-07 15:18:33.936374,0,2,40,0,0,-1,66,67,63,60,95,137.26,3,-6.00,-4.00,-927.00
2024-06-07 15:18:34.102721,0,2,40,0,1,-1,66,67,62,60,95,137.43,3,-113.00,16.00,-961.00
2024-06-07 15:18:34.140321,0,1,40,0,1,-1,66,69,62,70,94,137.50,3,-38.00,-27.00,-934.00
2024-06-07 15:18:34.307515,0,1,40,0,1,-1,66,69,61,70,94,137.18,4,-1.00,-61.00,-950.00
2024-06-07 15:18:34.344391,0,1,40,0,0,-1,66,69,61,70,94,137.65,4,-7.00,-96.00,-993.00
2024-06-07 15:18:34.512405,0,2,40,0,0,-2,66,69,61,70,94,137.59,4,-19.00,-111.00,-1038.00
2024-06-07 15:18:34.548275,1,4,40,0,0,-2,66,69,62,70,94,137.31,4,-34.00,-86.00,-1055.00
2024-06-07 15:18:34.717180,-1,5,40,0,0,-2,66,69,63,80,94,137.64,4,-83.00,-50.00,-1006.00
2024-06-07 15:18:34.752406,-4,4,40,-1,0,-2,66,69,64,80,94,137.78,4,-71.00,-75.00,-1149.00
2024-06-07 15:18:34.922027,-6,3,40,-1,0,-2,66,69,66,80,94,137.57,4,-81.00,-37.00,-918.00
2024-06-07 15:18:34.956293,-6,3,40,0,0,-2,66,69,67,80,94,137.22,4,8.00,-79.00,-969.00
2024-06-07 15:18:35.126777,-5,4,40,0,0,-2,66,69,68,80,94,137.45,4,-75.00,-69.00,-907.00
2024-06-07 15:18:35.160280,-5,4,40,0,0,-2,66,69,68,80,94,137.42,4,-78.00,-93.00,-984.00
2024-06-07 15:18:35.331587,-4,4,40,0,0,-1,66,69,69,90,94,137.75,5,-4.00,-109.00,-1187.00
2024-06-07 15:18:35.364230,-4,5,40,0,0,-2,66,69,70,90,94,137.38,5,-35.00,-70.00,-980.00
2024-06-07 15:18:35.536298,-2,5,40,0,0,-2,66,69,70,90,94,137.22,5,-90.00,-38.00,-998.00
2024-06-07 15:18:35.568127,-2,5,40,0,0,-1,66,69,70,90,94,137.52,5,-6.00,-72.00,-944.00
2024-06-07 15:18:35.741109,-2,4,40,0,0,-1,66,69,69,90,94,137.66,5,-104.00,-86.00,-1017.00
2024-06-07 15:18:35.773950,-3,4,40,0,0,-1,66,69,70,90,94,137.52,5,-7.00,-100.00,-998.00
2024-06-07 15:18:35.824776,-4,4,40,0,0,-1,66,69,71,90,94,137.66,5,-84.00,-60.00,-962.00
2024-06-07 15:18:35.926065,-4,5,40,0,0,-2,66,69,71,90,94,137.38,5,-63.00,-45.00,-981.00
2024-06-07 15:18:36.048501,-5,3,40,0,0,-1,66,69,72,90,94,137.19,5,-57.00,-63.00,-1086.00
2024-06-07 15:18:36.145332,-4,2,40,0,1,-2,67,69,73,100,94,137.12,5,-79.00,-27.00,-958.00
2024-06-07 15:18:36.231450,-3,2,40,0,1,-1,67,69,73,100,94,137.62,6,-88.00,-31.00,-1046.00
2024-06-07 15:18:36.355491,-2,1,40,0,1,-1,67,69,76,100,94,137.11,6,-72.00,-93.00,-1047.00
2024-06-07 15:18:36.435282,-3,1,40,0,0,-2,67,69,77,100,94,137.35,6,-123.00,-28.00,-989.00
2024-06-07 15:18:36.560538,-3,3,40,0,0,-2,67,69,78,100,94,137.51,6,-153.00,0.00,-939.00
2024-06-07 15:18:36.639484,-2,4,40,0,0,-2,67,69,79,110,94,137.52,6,-51.00,-53.00,-898.00
2024-06-07 15:18:36.765150,-2,3,40,0,0,-1,67,69,80,110,94,137.61,6,16.00,-74.00,-1033.00
2024-06-07 15:18:36.843362,-2,4,40,0,0,-1,67,69,80,110,94,137.34,6,60.00,-131.00,-925.00
2024-06-07 15:18:36.969987,-2,4,40,0,0,-1,67,69,80,110,94,137.49,6,-99.00,-4.00,-930.00
2024-06-07 15:18:37.047610,-2,4,40,0,0,-1,67,69,79,110,94,137.36,6,70.00,-131.00,-1031.00
2024-06-07 15:18:37.174885,-1,4,40,0,0,-1,67,68,77,110,94,137.38,6,-83.00,-107.00,-988.00
2024-06-07 15:18:37.251854,-1,4,40,0,0,-1,67,68,76,110,94,137.65,7,-59.00,-55.00,-909.00
2024-06-07 15:18:37.379451,-2,4,40,0,0,-1,67,68,74,110,94,137.57,7,-104.00,-21.00,-956.00
2024-06-07 15:18:37.456503,-3,4,40,0,0,-1,67,68,72,110,94,137.28,7,-89.00,-41.00,-1043.00
2024-06-07 15:18:37.557457,-4,3,40,0,0,-1,67,68,71,110,94,137.29,7,-24.00,-51.00,-1065.00
2024-06-07 15:18:37.686775,-4,2,40,0,0,-1,67,68,70,110,94,137.44,7,-133.00,-57.00,-989.00
2024-06-07 15:18:37.761538,-4,3,40,0,0,-1,67,68,69,120,94,137.33,7,-74.00,-66.00,-1021.00
2024-06-07 15:18:37.863639,-5,2,40,0,0,-1,67,68,68,120,94,137.37,7,-49.00,-53.00,-1044.00
2024-06-07 15:18:37.967521,-5,2,40,0,0,-1,67,68,67,120,94,137.18,7,-76.00,-55.00,-1001.00
2024-06-07 15:18:38.068626,-4,3,40,0,0,1,67,68,65,110,94,137.30,7,-88.00,-30.00,-995.00
2024-06-07 15:18:38.196699,-4,3,40,0,0,1,66,70,64,110,94,137.64,7,-31.00,-34.00,-958.00
2024-06-07 15:18:38.273451,-4,3,40,0,0,1,66,70,63,110,94,137.00,8,-20.00,-75.00,-1024.00
2024-06-07 15:18:38.373449,-4,3,40,0,0,1,66,70,62,110,94,137.30,8,-67.00,-103.00,-965.00
2024-06-07 15:18:38.510121,-4,4,40,0,0,0,66,70,61,110,94,137.14,8,15.00,-112.00,-1070.00
2024-06-07 15:18:38.577379,-3,4,40,0,0,0,66,70,61,110,94,137.39,8,-85.00,-41.00,-956.00
2024-06-07 15:18:38.710753,-3,3,40,0,0,0,66,70,59,110,94,137.16,8,-100.00,13.00,-888.00
2024-06-07 15:18:38.781325,-3,2,40,0,0,0,66,70,58,110,94,137.23,8,-54.00,-31.00,-953.00
2024-06-07 15:18:38.883412,-2,3,40,0,1,0,66,70,57,110,94,136.79,8,-13.00,-63.00,-1012.00
2024-06-07 15:18:39.018130,-1,3,40,0,1,0,66,70,55,110,94,137.37,8,18.00,-87.00,-996.00
2024-06-07 15:18:39.088203,-1,2,40,0,0,0,66,70,54,110,94,137.23,8,21.00,-67.00,-1035.00
2024-06-07 15:18:39.222816,-1,2,40,0,0,0,67,70,54,110,94,137.22,8,-37.00,-56.00,-977.00
2024-06-07 15:18:39.292210,-2,3,40,0,0,0,67,70,53,110,94,137.13,9,-76.00,-11.00,-1056.00
2024-06-07 15:18:39.427742,-2,3,40,0,0,0,67,70,53,100,94,137.06,9,-26.00,-50.00,-1012.00
2024-06-07 15:18:39.496242,-2,2,40,0,0,0,67,70,54,100,94,136.93,9,-20.00,-32.00,-975.00
2024-06-07 15:18:39.548065,-2,2,40,0,0,0,67,70,55,100,94,137.07,9,-53.00,-1.00,-903.00
2024-06-07 15:18:39.734828,-1,2,40,0,0,0,67,70,56,110,94,137.20,9,-53.00,-15.00,-940.00
2024-06-07 15:18:39.752143,-2,1,40,0,0,0,67,70,57,110,94,137.50,9,-10.00,-44.00,-1043.00
2024-06-07 15:18:39.939621,-2,1,40,0,0,0,67,70,58,110,94,137.08,9,-39.00,-38.00,-1055.00
2024-06-07 15:18:39.956005,-3,0,40,0,0,0,67,70,60,110,94,137.33,9,20.00,-37.00,-1032.00
2024-06-07 15:18:40.144578,-3,0,40,0,1,0,67,70,61,110,94,137.30,9,49.00,-59.00,-1027.00
2024-06-07 15:18:40.159981,-1,0,40,0,0,0,67,71,62,110,94,137.23,10,-104.00,38.00,-987.00
2024-06-07 15:18:40.265639,-1,0,40,0,0,0,67,71,64,110,94,137.25,10,-62.00,10.00,-921.00
2024-06-07 15:18:40.364094,-1,0,40,0,0,0,67,71,65,110,94,137.35,10,-37.00,-1.00,-869.00
2024-06-07 15:18:40.554047,-1,0,40,0,0,0,67,71,66,110,94,137.22,10,-13.00,12.00,-945.00
2024-06-07 15:18:40.568041,-1,0,40,0,0,0,67,71,68,110,94,137.24,10,-44.00,9.00,-921.00
2024-06-07 15:18:40.758841,-1,0,40,0,0,0,67,71,69,120,94,137.45,10,-44.00,31.00,-935.00
2024-06-07 15:18:40.772032,-1,0,40,0,0,0,67,71,70,120,94,137.31,10,-95.00,20.00,-871.00
2024-06-07 15:18:40.887071,0,0,40,0,0,0,67,71,71,120,94,137.67,10,-26.00,-17.00,-950.00
2024-06-07 15:18:40.975783,0,0,39,1,0,0,67,71,72,120,94,137.55,10,-19.00,-19.00,-991.00
2024-06-07 15:18:41.168382,0,2,40,1,0,0,67,71,72,120,94,137.42,10,-21.00,-4.00,-1088.00
2024-06-07 15:18:41.179880,0,2,40,1,0,-1,68,71,74,120,94,137.56,11,32.00,-70.00,-1154.00
2024-06-07 15:18:41.373132,0,3,40,1,0,-2,68,71,76,120,94,137.25,11,-71.00,25.00,-1102.00
2024-06-07 15:18:41.383829,0,2,40,0,0,-3,68,71,81,130,94,137.37,11,5.00,-8.00,-1033.00
2024-06-07 15:18:41.578076,0,2,40,0,0,-4,68,71,85,130,94,137.41,11,-10.00,-7.00,-1094.00
2024-06-07 15:18:41.589423,0,0,40,0,0,-5,68,71,90,140,94,137.67,11,-56.00,12.00,-1002.00
2024-06-07 15:18:41.690142,-1,0,40,0,0,-5,68,71,96,140,94,137.12,11,13.00,-8.00,-978.00
2024-06-07 15:18:41.885031,-1,0,40,0,0,-5,68,71,103,150,94,137.55,11,-53.00,22.00,-1016.00
2024-06-07 15:18:41.893913,-1,-1,40,0,0,-5,68,71,109,150,94,137.77,11,6.00,18.00,-989.00
2024-06-07 15:18:42.090044,-1,-2,40,0,0,-5,68,71,117,160,94,137.72,11,7.00,7.00,-1011.00
2024-06-07 15:18:42.097867,-1,-2,40,0,0,-5,68,71,124,170,94,137.96,11,23.00,24.00,-917.00
2024-06-07 15:18:42.294770,0,-2,40,0,0,-5,69,71,130,170,94,137.82,12,3.00,22.00,-899.00
2024-06-07 15:18:42.307070,0,-2,40,0,0,-5,69,71,136,180,94,137.99,12,-15.00,22.00,-964.00
2024-06-07 15:18:42.403887,0,-2,40,0,0,-5,69,71,142,190,94,137.97,12,26.00,16.00,-893.00
2024-06-07 15:18:42.601956,0,-1,40,0,0,-4,69,71,148,190,94,138.07,12,-5.00,29.00,-971.00
2024-06-07 15:18:42.607852,0,-1,40,0,0,-3,69,71,155,200,94,138.03,12,-21.00,44.00,-879.00
2024-06-07 15:18:42.806725,0,-1,40,0,0,-3,69,71,157,200,94,138.09,12,54.00,6.00,-938.00
2024-06-07 15:18:42.811911,0,-1,40,0,0,-3,69,71,161,200,94,138.44,12,63.00,34.00,-1007.00
2024-06-07 15:18:43.011440,0,-2,40,0,0,-3,69,71,165,210,94,138.14,12,4.00,50.00,-930.00
2024-06-07 15:18:43.015877,0,-1,40,0,0,-2,69,71,169,210,94,138.48,12,56.00,34.00,-868.00
2024-06-07 15:18:43.117975,0,-1,40,0,0,-2,69,71,172,210,94,138.71,12,26.00,31.00,-958.00
2024-06-07 15:18:43.318951,0,-2,40,0,0,-1,68,71,176,220,93,138.55,13,-25.00,58.00,-828.00
2024-06-07 15:18:43.321887,0,-2,40,0,0,0,68,71,174,220,93,138.32,13,-9.00,37.00,-981.00
2024-06-07 15:18:43.523503,0,-2,40,0,0,0,68,71,179,220,93,138.40,13,-2.00,30.00,-1067.00
2024-06-07 15:18:43.525977,0,-2,40,0,0,0,68,71,177,220,93,138.26,13,18.00,-7.00,-1205.00
2024-06-07 15:18:43.627993,0,-2,40,0,0,0,68,71,177,220,93,138.40,13,21.00,31.00,-920.00
2024-06-07 15:18:43.678762,0,-1,40,0,0,0,68,71,179,220,93,138.20,13,14.00,62.00,-1055.00
2024-06-07 15:18:43.830889,0,-2,40,0,0,0,68,71,179,220,93,138.32,13,-13.00,52.00,-952.00
2024-06-07 15:18:43.882905,0,-1,40,0,0,0,68,71,180,220,93,138.52,13,26.00,16.00,-971.00
2024-06-07 15:18:44.035562,0,-1,40,0,0,0,68,71,177,220,93,138.27,13,-87.00,108.00,-894.00
2024-06-07 15:18:44.087545,0,-2,40,0,0,0,68,71,176,220,93,138.58,13,-52.00,75.00,-945.00
2024-06-07 15:18:44.240487,0,-2,40,0,0,0,68,71,175,220,93,138.44,14,-21.00,34.00,-944.00
2024-06-07 15:18:44.290913,0,-2,40,0,0,0,68,71,177,220,93,138.57,14,38.00,11.00,-1053.00
2024-06-07 15:18:44.445229,0,-2,40,0,0,0,68,71,178,220,93,138.16,14,24.00,40.00,-1053.00
2024-06-07 15:18:44.494924,0,-1,40,0,0,0,68,71,177,220,93,138.12,14,35.00,-18.00,-1042.00
2024-06-07 15:18:44.650003,0,-1,40,0,0,0,68,71,176,220,93,138.55,14,-11.00,19.00,-954.00
2024-06-07 15:18:44.698790,0,-1,40,0,0,0,68,71,178,220,93,138.39,14,-28.00,38.00,-1014.00
2024-06-07 15:18:44.854771,0,-1,40,0,0,0,68,71,178,220,93,138.32,14,35.00,-21.00,-963.00
2024-06-07 15:18:44.902956,0,-1,40,0,0,0,68,71,179,220,93,138.43,14,-51.00,10.00,-1041.00
2024-06-07 15:18:45.019518,-1,0,40,0,0,0,68,71,178,220,93,138.30,14,2.00,24.00,-1023.00
2024-06-07 15:18:45.106737,-1,-1,40,0,0,0,68,71,175,220,93,138.53,14,-42.00,21.00,-990.00
2024-06-07 15:18:45.265506,-1,-1,40,0,0,0,68,71,178,220,92,138.43,15,8.00,11.00,-977.00
2024-06-07 15:18:45.314475,-1,0,40,0,0,0,68,71,177,220,92,138.29,15,-35.00,68.00,-879.00
2024-06-07 15:18:45.412581,-2,-1,40,0,0,1,68,71,176,220,92,138.58,15,11.00,26.00,-1020.00
2024-06-07 15:18:45.514629,-2,-1,40,0,0,1,68,71,175,220,92,138.17,15,-11.00,33.00,-943.00
2024-06-07 15:18:45.673782,-1,-1,40,0,0,1,68,71,174,220,92,138.24,15,-100.00,19.00,-922.00
2024-06-07 15:18:45.718610,-2,-1,40,0,0,1,68,71,171,220,92,138.12,15,-1.00,5.00,-977.00
2024-06-07 15:18:45.820616,-2,-1,40,0,0,2,68,71,168,220,92,138.38,15,-74.00,16.00,-949.00
2024-06-07 15:18:45.922622,-1,-1,40,0,0,2,68,71,166,220,92,138.05,15,-12.00,22.00,-1069.00
2024-06-07 15:18:46.083398,-1,0,40,1,0,2,68,71,163,210,92,138.42,15,58.00,-50.00,-929.00
2024-06-07 15:18:46.126786,0,0,40,1,0,2,68,71,158,210,92,138.28,15,-12.00,-37.00,-937.00
2024-06-07 15:18:46.288184,0,1,40,1,0,2,69,71,157,210,92,137.84,16,-5.00,-6.00,-1039.00
2024-06-07 15:18:46.330922,0,1,40,1,0,2,69,71,153,200,92,138.16,16,41.00,-45.00,-978.00
2024-06-07 15:18:46.492991,-1,1,40,0,0,2,69,71,149,200,92,138.20,16,-40.00,15.00,-994.00
2024-06-07 15:18:46.534584,-2,0,40,0,0,2,69,71,145,200,92,137.77,16,-67.00,21.00,-917.00
2024-06-07 15:18:46.697771,-2,0,40,0,0,2,69,71,142,200,92,137.68,16,-58.00,-17.00,-1026.00
2024-06-07 15:18:46.740648,-3,0,40,0,0,2,69,71,139,190,92,137.78,16,-6.00,-5.00,-975.00
2024-06-07 15:18:46.840529,-3,0,40,0,0,2,69,71,136,190,92,137.96,16,-54.00,6.00,-969.00
2024-06-07 15:18:47.004973,-3,0,40,0,0,1,69,71,135,190,92,137.85,16,-40.00,-31.00,-1096.00
2024-06-07 15:18:47.044780,-3,0,40,0,0,2,69,71,131,190,92,137.87,16,-58.00,13.00,-1030.00
2024-06-07 15:18:47.146573,-3,0,40,0,0,2,69,71,128,180,92,137.55,16,45.00,11.00,-1082.00
2024-06-07 15:18:47.248706,-2,0,40,0,0,1,69,72,125,180,92,137.47,17,-42.00,45.00,-1063.00
2024-06-07 15:18:47.414692,-2,0,40,0,0,1,69,72,122,180,92,137.49,17,-72.00,30.00,-1071.00
2024-06-07 15:18:47.452617,-2,-1,40,0,0,1,69,72,120,180,92,137.65,17,-34.00,46.00,-998.00
2024-06-07 15:18:47.619507,-3,-1,40,0,0,1,69,72,118,170,92,137.51,17,-33.00,-2.00,-1308.00
2024-06-07 15:18:47.657009,-3,-1,40,0,0,0,69,72,117,170,92,137.61,17,-31.00,7.00,-969.00
2024-06-07 15:18:47.708819,-3,0,40,0,0,0,69,72,115,170,92,137.65,17,-6.00,30.00,-907.00
2024-06-07 15:18:47.824703,-2,0,40,0,0,0,69,72,114,170,92,137.79,17,-77.00,41.00,-955.00
2024-06-07 15:18:47.913726,-2,0,40,0,0,0,69,72,113,170,92,137.36,17,-85.00,20.00,-1010.00
2024-06-07 15:18:48.014179,-2,-1,40,0,0,0,69,72,113,170,92,137.84,17,-24.00,14.00,-953.00
2024-06-07 15:18:48.118813,-3,-1,40,0,0,0,69,72,112,170,91,137.51,17,-43.00,8.00,-1084.00
2024-06-07 15:18:48.219292,-2,-1,40,0,0,0,70,72,114,170,91,137.66,18,5.00,18.00,-1039.00
2024-06-07 15:18:48.319712,-2,-1,40,0,0,0,70,72,114,170,91,137.70,18,-74.00,37.00,-1020.00
2024-06-07 15:18:48.438929,-2,-1,40,0,0,0,70,72,115,170,91,137.68,18,44.00,15.00,-1030.00
2024-06-07 15:18:48.523645,-2,-1,40,0,0,0,70,72,117,170,91,137.78,18,-108.00,48.00,-976.00
2024-06-07 15:18:48.643509,-1,-1,40,0,0,0,70,72,118,170,91,137.38,18,-44.00,33.00,-934.00
2024-06-07 15:18:48.727891,-1,-1,40,0,0,-1,70,72,119,170,91,137.87,18,-2.00,13.00,-1003.00
2024-06-07 15:18:48.848427,-1,0,40,0,0,-1,70,72,119,170,91,137.72,18,-11.00,-14.00,-1033.00
2024-06-07 15:18:48.932605,-1,0,40,0,0,0,70,72,121,170,91,137.74,18,-58.00,22.00,-1001.00
2024-06-07 15:18:49.034705,-1,0,40,0,0,0,70,72,120,170,91,137.69,18,10.00,-27.00,-1132.00
2024-06-07 15:18:49.137227,-2,-1,40,0,0,0,70,72,120,170,91,137.91,18,98.00,-61.00,-1008.00
2024-06-07 15:18:49.239135,-2,0,40,1,0,0,70,73,119,170,91,137.66,19,-61.00,0.00,-1036.00
2024-06-07 15:18:49.339547,-1,0,40,0,0,0,70,73,119,170,91,137.51,19,18.00,-11.00,-1025.00
2024-06-07 15:18:49.441383,-3,0,40,0,0,0,70,73,120,170,91,137.60,19,3.00,0.00,-1036.00
2024-06-07 15:18:49.543572,-8,0,40,1,0,0,70,73,120,170,91,137.82,19,-4.00,6.00,-936.00
2024-06-07 15:18:49.645385,-8,0,40,1,1,0,70,73,119,170,91,137.44,19,-1.00,25.00,-943.00
2024-06-07 15:18:49.747492,-8,0,40,2,2,0,70,73,118,170,91,137.48,19,-41.00,44.00,-965.00
2024-06-07 15:18:49.872153,-8,0,40,3,3,0,70,73,119,170,91,137.58,19,-44.00,49.00,-990.00
2024-06-07 15:18:49.951458,-8,-1,40,3,4,0,70,73,118,170,91,137.32,19,8.00,-22.00,-1139.00
2024-06-07 15:18:50.078021,-8,-2,40,4,4,0,70,73,118,170,91,137.07,19,-116.00,59.00,-1003.00
2024-06-07 15:18:50.155379,-8,-2,40,5,5,0,70,73,117,170,90,137.61,19,-112.00,60.00,-974.00
2024-06-07 15:18:50.281747,-6,-2,40,5,5,0,69,73,116,170,90,137.46,20,-56.00,31.00,-898.00
2024-06-07 15:18:50.359413,-4,-3,40,6,5,0,69,73,115,170,90,137.37,20,-21.00,26.00,-947.00
2024-06-07 15:18:50.486526,-1,-3,40,6,5,0,69,73,116,170,90,137.26,20,-76.00,70.00,-1049.00
2024-06-07 15:18:50.565855,1,-2,40,5,4,0,69,73,117,170,90,137.26,20,-56.00,31.00,-910.00
2024-06-07 15:18:50.665871,3,-2,40,4,4,0,69,73,117,170,90,137.58,20,-83.00,51.00,-981.00
2024-06-07 15:18:50.793839,3,-2,40,3,3,0,69,73,117,170,90,137.44,20,-108.00,80.00,-972.00
2024-06-07 15:18:50.869317,0,-2,40,2,2,0,69,73,119,170,90,137.30,20,-6.00,-2.00,-1060.00
2024-06-07 15:18:50.998536,0,-2,40,2,2,0,69,73,119,170,90,137.31,20,-75.00,52.00,-893.00
2024-06-07 15:18:51.022250,-1,-2,40,2,2,0,69,73,119,170,90,137.56,20,-47.00,25.00,-903.00
2024-06-07 15:18:51.124389,-1,-2,40,2,1,0,69,73,119,170,90,137.49,20,-66.00,74.00,-970.00
2024-06-07 15:18:51.305722,-1,-3,40,2,1,0,71,74,120,170,90,138.17,21,-15.00,20.00,-1072.00
2024-06-07 15:18:51.328400,-1,-3,40,2,1,0,71,74,120,170,90,137.59,21,-8.00,63.00,-1008.00
2024-06-07 15:18:51.510530,-1,-3,40,2,1,0,71,74,119,170,90,137.56,21,-53.00,70.00,-898.00
2024-06-07 15:18:51.532297,-1,-2,40,2,1,0,71,74,120,170,90,137.42,21,4.00,51.00,-1038.00
2024-06-07 15:18:51.715347,0,-4,40,2,1,0,71,74,121,170,90,137.47,21,6.00,23.00,-980.00
2024-06-07 15:18:51.736929,0,-3,40,2,1,0,71,74,120,170,90,137.65,21,40.00,16.00,-981.00
2024-06-07 15:18:51.920134,0,-3,40,2,0,0,71,74,120,170,90,137.73,21,-30.00,26.00,-981.00
2024-06-07 15:18:51.940281,0,-3,40,2,0,0,71,74,118,170,90,137.69,21,-125.00,88.00,-929.00
2024-06-07 15:18:52.124947,-1,-2,40,1,0,0,71,74,117,170,90,137.45,21,-82.00,55.00,-969.00
2024-06-07 15:18:52.144335,-2,-2,40,1,0,0,71,74,117,170,90,137.75,21,19.00,51.00,-980.00
2024-06-07 15:18:52.329707,1,0,40,1,0,0,71,73,116,170,90,137.60,22,41.00,8.00,-1087.00
2024-06-07 15:18:52.348428,0,0,40,0,0,0,71,73,115,170,90,137.58,22,15.00,59.00,-917.00
2024-06-07 15:18:52.483354,-1,-3,40,0,0,0,71,73,115,170,90,137.74,22,6.00,66.00,-966.00
2024-06-07 15:18:52.552217,-4,-6,40,0,0,0,71,73,114,170,90,137.80,22,-9.00,34.00,-1154.00
2024-06-07 15:18:52.739366,-4,-5,40,1,0,0,71,73,113,170,90,137.66,22,41.00,45.00,-1107.00
2024-06-07 15:18:52.756938,-2,-4,40,1,0,0,71,73,113,170,90,137.49,22,-90.00,99.00,-972.00
2024-06-07 15:18:52.944735,1,-1,40,0,0,0,71,73,114,170,90,137.59,22,-53.00,67.00,-1024.00
2024-06-07 15:18:52.960378,0,-1,40,0,0,0,71,73,113,170,90,137.95,22,47.00,40.00,-1009.00
2024-06-07 15:18:53.149078,-1,-2,40,0,0,0,71,73,115,170,90,137.61,22,-14.00,55.00,-1052.00
2024-06-07 15:18:53.167818,0,-3,40,0,0,0,71,73,114,170,90,137.48,22,-27.00,43.00,-1029.00
2024-06-07 15:18:53.266445,-1,-3,40,0,0,0,71,73,116,170,90,137.49,23,-84.00,52.00,-1098.00
2024-06-07 15:18:53.456501,-1,-2,40,0,0,0,71,73,117,170,90,137.79,23,-3.00,45.00,-1051.00
2024-06-07 15:18:53.470388,-1,-3,40,0,0,0,71,73,117,170,90,138.04,23,44.00,21.00,-1051.00
2024-06-07 15:18:53.572757,-2,-3,40,0,0,0,71,73,119,170,90,137.65,23,26.00,58.00,-1087.00
2024-06-07 15:18:53.764125,-2,-4,40,0,0,0,71,73,119,170,90,137.77,23,-17.00,60.00,-1026.00
2024-06-07 15:18:53.776613,-2,-4,40,0,0,0,71,73,120,170,90,137.82,23,88.00,-9.00,-1111.00
2024-06-07 15:18:53.968721,-2,-4,40,0,0,0,71,73,122,170,90,137.78,23,-48.00,71.00,-1061.00
2024-06-07 15:18:53.980209,-2,-5,40,0,0,0,71,73,124,170,90,137.44,23,-16.00,100.00,-994.00
2024-06-07 15:18:54.173149,-2,-5,40,0,0,0,71,73,123,170,90,137.48,23,-31.00,99.00,-1057.00
2024-06-07 15:18:54.185188,-2,-5,40,0,0,0,71,73,124,170,89,137.42,23,36.00,46.00,-1035.00
2024-06-07 15:18:54.377931,-1,-5,40,0,0,0,71,73,124,170,89,137.69,24,-46.00,67.00,-1012.00
2024-06-07 15:18:54.389111,-1,-4,40,0,0,0,71,73,124,170,89,137.54,24,10.00,55.00,-1030.00
2024-06-07 15:18:54.583486,-2,-5,40,0,0,0,71,73,124,170,89,138.01,24,14.00,58.00,-974.00
2024-06-07 15:18:54.593267,-2,-5,40,0,0,0,71,73,124,170,89,137.87,24,-23.00,71.00,-981.00
2024-06-07 15:18:54.759375,-2,-5,40,0,0,0,71,73,125,170,89,137.88,24,-101.00,127.00,-953.00
2024-06-07 15:18:54.797580,-1,-5,40,0,0,0,71,73,125,170,89,137.66,24,17.00,54.00,-957.00
2024-06-07 15:18:54.848801,-2,-5,40,0,0,0,71,73,125,170,89,137.68,24,15.00,70.00,-996.00
2024-06-07 15:18:54.992100,-2,-4,40,0,0,0,71,73,125,170,89,137.81,24,27.00,77.00,-1069.00
2024-06-07 15:18:55.052079,5,-2,40,0,0,0,71,73,127,170,89,137.68,24,0.00,90.00,-1067.00
2024-06-07 15:18:55.157134,8,-3,40,-1,0,0,71,73,128,170,89,137.43,24,-19.00,86.00,-875.00
2024-06-07 15:18:55.307106,7,-5,40,-3,-2,0,71,73,129,170,89,137.70,25,60.00,38.00,-1006.00
2024-06-07 15:18:55.358081,6,-5,40,-4,-3,0,71,73,130,180,89,137.79,25,-50.00,70.00,-946.00
2024-06-07 15:18:55.504606,5,-4,40,-5,-4,0,71,73,130,180,89,137.46,25,83.00,23.00,-1049.00
2024-06-07 15:18:55.562170,3,-4,40,-6,-4,0,71,73,129,180,89,137.78,25,53.00,39.00,-1042.00
2024-06-07 15:18:55.708963,2,-5,40,-6,-5,0,71,73,130,180,89,137.94,25,-9.00,77.00,-946.00
2024-06-07 15:18:55.766114,0,-5,40,-6,-5,0,71,73,131,180,89,137.80,25,48.00,76.00,-1003.00
2024-06-07 15:18:55.913682,-3,-5,40,-6,-5,0,71,73,130,180,89,138.09,25,91.00,72.00,-967.00
2024-06-07 15:18:55.970071,-5,-5,40,-5,-4,0,71,73,132,180,89,137.81,25,18.00,89.00,-1063.00
2024-06-07 15:18:56.118513,-6,-5,40,-4,-3,0,71,73,132,180,89,137.81,25,70.00,104.00,-921.00
2024-06-07 15:18:56.174742,-6,-5,40,-3,-3,0,71,73,132,180,89,137.94,26,66.00,109.00,-1075.00
2024-06-07 15:18:56.323363,-5,-6,40,-3,-2,0,71,75,131,180,89,137.90,26,41.00,105.00,-864.00
2024-06-07 15:18:56.378001,-4,-7,40,-2,-2,0,71,75,131,180,89,137.90,26,6.00,79.00,-1028.00
2024-06-07 15:18:56.480275,-4,-6,40,-1,-2,0,71,75,131,180,89,137.86,26,43.00,117.00,-928.00
2024-06-07 15:18:56.582132,-3,-5,40,0,-2,0,71,75,128,180,89,137.70,26,-28.00,96.00,-1002.00
2024-06-07 15:18:56.732876,-3,-3,40,0,-1,0,71,75,127,180,89,137.59,26,11.00,84.00,-911.00
2024-06-07 15:18:56.786043,-4,-1,40,0,0,0,71,75,126,170,89,137.72,26,51.00,80.00,-1005.00
2024-06-07 15:18:56.938283,-1,-3,40,0,0,0,71,75,124,170,89,137.63,26,-28.00,35.00,-1052.00
2024-06-07 15:18:56.990425,0,-3,40,0,0,0,71,75,124,170,89,137.91,26,-81.00,57.00,-1064.00
2024-06-07 15:18:57.142613,-1,-3,40,0,0,0,71,75,123,170,89,137.37,26,0.00,47.00,-1092.00
2024-06-07 15:18:57.194149,-2,-2,40,0,0,0,71,75,123,170,88,137.75,27,-50.00,98.00,-1005.00
2024-06-07 15:18:57.347477,-3,-2,40,0,0,0,72,75,123,170,88,137.74,27,-28.00,93.00,-1010.00
2024-06-07 15:18:57.398072,-2,-3,40,0,0,0,72,75,123,170,88,137.56,27,-55.00,109.00,-913.00
2024-06-07 15:18:57.552695,-1,-5,40,0,1,0,72,75,124,170,88,137.73,27,46.00,93.00,-953.00
2024-06-07 15:18:57.602817,-1,-6,40,0,0,0,72,75,125,170,88,137.67,27,-48.00,122.00,-1017.00
2024-06-07 15:18:57.757121,-1,-6,40,0,0,0,72,75,124,170,88,137.42,27,9.00,84.00,-988.00
2024-06-07 15:18:57.806146,-2,-7,40,0,0,0,72,75,127,170,88,137.74,27,71.00,60.00,-1073.00
2024-06-07 15:18:57.961893,-1,-6,40,0,0,0,72,75,127,170,88,137.41,27,-39.00,108.00,-965.00
2024-06-07 15:18:58.010103,-1,-5,40,0,0,0,72,75,129,170,88,137.73,27,33.00,60.00,-1025.00
2024-06-07 15:18:58.167011,0,-5,40,0,0,-1,72,75,131,180,88,137.47,27,29.00,83.00,-1042.00
2024-06-07 15:18:58.216357,0,-4,40,1,0,0,72,75,132,180,88,138.01,28,-34.00,139.00,-829.00
2024-06-07 15:18:58.316831,0,-4,40,0,0,0,72,74,131,180,88,137.78,28,-15.00,62.00,-995.00
2024-06-07 15:18:58.474251,0,-4,40,0,0,0,72,74,133,180,88,137.84,28,-21.00,54.00,-975.00
2024-06-07 15:18:58.521362,0,-4,40,0,0,0,72,74,131,180,88,137.99,28,19.00,24.00,-982.00
2024-06-07 15:18:58.678761,0,-4,40,0,0,0,72,74,131,180,88,137.98,28,15.00,75.00,-986.00
2024-06-07 15:18:58.724010,0,-4,40,0,0,1,72,74,130,180,88,137.99,28,23.00,79.00,-966.00
2024-06-07 15:18:58.826819,-1,-5,40,0,0,1,72,74,129,180,88,138.15,28,-13.00,111.00,-1058.00
2024-06-07 15:18:58.877318,-1,-5,40,0,0,1,72,74,127,180,88,137.90,28,43.00,79.00,-1074.00
2024-06-07 15:18:58.978965,0,-5,40,0,0,0,72,74,127,180,88,137.84,28,30.00,96.00,-963.00
2024-06-07 15:18:59.080960,-1,-7,40,0,0,1,72,74,128,170,88,138.14,28,56.00,107.00,-1003.00
2024-06-07 15:18:59.182880,0,-8,40,0,0,0,72,74,127,170,88,137.72,29,-15.00,135.00,-1024.00
2024-06-07 15:18:59.292880,0,-8,40,0,0,0,71,74,128,170,88,138.01,29,-78.00,170.00,-911.00
2024-06-07 15:18:59.386882,0,-8,40,0,0,0,71,74,128,170,88,137.82,29,35.00,119.00,-1118.00
2024-06-07 15:18:59.489160,0,-8,40,1,0,0,71,74,129,180,88,137.85,29,36.00,79.00,-950.00
2024-06-07 15:18:59.600067,0,-8,40,1,-1,0,71,74,130,180,88,137.93,29,46.00,87.00,-1005.00
2024-06-07 15:18:59.692864,0,-7,40,1,-1,0,71,74,129,180,88,138.04,29,-29.00,150.00,-991.00
2024-06-07 15:18:59.794857,-1,-7,40,0,-1,0,71,74,130,180,88,138.09,29,-6.00,121.00,-957.00
2024-06-07 15:18:59.907245,-1,-7,40,0,-1,0,71,74,128,180,88,137.84,29,25.00,73.00,-1012.00
2024-06-07 15:18:59.998867,-1,-7,40,1,-1,0,71,74,127,180,88,137.65,29,-15.00,141.00,-1001.00
2024-06-07 15:19:00.115685,0,-7,40,1,-1,0,71,74,128,180,88,137.54,29,-68.00,143.00,-968.00
2024-06-07 15:19:00.202937,-1,-7,40,0,-1,1,71,74,126,180,88,137.64,30,-14.00,114.00,-928.00
2024-06-07 15:19:00.322522,-3,-7,40,0,-1,0,71,75,126,170,88,137.79,30,4.00,122.00,-951.00
2024-06-07 15:19:00.406960,-2,-6,40,1,-1,0,71,75,126,170,88,137.63,30,-29.00,136.00,-944.00
2024-06-07 15:19:00.521760,-2,-6,40,1,-1,0,71,75,126,170,88,137.80,30,79.00,26.00,-1108.00
2024-06-07 15:19:00.611160,-1,-6,40,1,-1,0,71,75,126,170,88,137.60,30,-7.00,122.00,-957.00
2024-06-07 15:19:00.713110,-1,-6,40,1,-1,0,71,75,127,170,88,137.52,30,100.00,53.00,-1008.00
2024-06-07 15:19:00.815522,0,-6,40,1,0,0,71,75,126,170,88,137.69,30,41.00,111.00,-931.00
2024-06-07 15:19:00.918439,0,-7,40,1,0,0,71,75,128,170,88,137.89,30,-89.00,187.00,-1007.00
2024-06-07 15:19:01.018882,-1,-7,40,1,0,0,71,75,129,170,88,137.63,30,23.00,98.00,-965.00
2024-06-07 15:19:01.136162,-1,-7,40,1,0,0,71,75,131,170,88,137.89,30,20.00,109.00,-1127.00
2024-06-07 15:19:01.222875,0,-7,40,2,0,0,71,75,132,180,87,137.64,31,3.00,130.00,-922.00
2024-06-07 15:19:01.340967,0,-7,40,2,0,0,71,76,133,180,87,137.90,31,-15.00,163.00,-916.00
2024-06-07 15:19:01.426964,0,-7,40,1,0,0,71,76,134,180,87,137.88,31,33.00,85.00,-1084.00
2024-06-07 15:19:01.528931,1,-8,40,1,0,0,71,76,134,180,87,137.89,31,24.00,117.00,-954.00
2024-06-07 15:19:01.648169,1,-7,40,2,-1,0,71,76,133,180,87,138.01,31,-54.00,162.00,-924.00
2024-06-07 15:19:01.732873,1,-6,40,1,-1,0,71,76,135,180,87,138.00,31,-30.00,132.00,-897.00
2024-06-07 15:19:01.852968,1,-6,40,1,-1,0,71,76,134,180,87,138.03,31,37.00,121.00,-973.00
2024-06-07 15:19:01.937312,0,-6,40,1,-1,0,71,76,132,180,87,137.87,31,-43.00,157.00,-904.00
2024-06-07 15:19:02.039371,1,-3,40,0,-1,0,71,76,132,180,87,137.97,31,55.00,118.00,-970.00
2024-06-07 15:19:02.160155,-1,-2,40,0,0,1,71,76,132,180,87,138.08,31,-28.00,130.00,-1048.00
2024-06-07 15:19:02.243141,0,-4,40,0,0,0,71,76,133,180,87,137.97,32,-14.00,138.00,-1029.00
2024-06-07 15:19:02.344892,0,-6,40,0,0,0,72,75,134,180,87,138.16,32,-49.00,155.00,-940.00
2024-06-07 15:19:02.467493,0,-6,40,0,0,0,72,75,135,180,87,138.09,32,-20.00,153.00,-935.00
2024-06-07 15:19:02.548879,-1,-7,40,-1,0,0,72,75,136,180,87,138.05,32,43.00,121.00,-900.00
2024-06-07 15:19:02.599805,-2,-8,40,-1,0,0,72,75,136,180,87,137.86,32,-21.00,138.00,-941.00
2024-06-07 15:19:02.774842,-1,-8,40,0,0,0,72,75,138,180,87,137.71,32,50.00,102.00,-1064.00
2024-06-07 15:19:02.803887,0,-7,40,0,0,0,72,75,138,180,87,138.19,32,-1.00,105.00,-989.00
2024-06-07 15:19:02.905838,0,-7,40,0,0,0,72,75,139,180,87,138.13,32,20.00,105.00,-997.00
2024-06-07 15:19:03.007776,0,-7,40,0,0,0,72,75,139,180,87,138.08,32,-13.00,142.00,-999.00
2024-06-07 15:19:03.184222,0,-7,40,0,0,0,72,75,139,180,87,138.16,32,0.00,136.00,-979.00
2024-06-07 15:19:03.211749,0,-8,40,0,0,0,72,75,139,180,87,138.10,33,-5.00,147.00,-1013.00
2024-06-07 15:19:03.389676,0,-8,40,0,0,0,72,76,137,180,87,138.12,33,-40.00,175.00,-969.00
2024-06-07 15:19:03.416268,-1,-8,40,0,0,0,72,76,138,180,87,138.03,33,-48.00,171.00,-949.00
2024-06-07 15:19:03.517911,0,-8,40,0,0,1,72,76,135,180,87,138.05,33,54.00,129.00,-1062.00
2024-06-07 15:19:03.696171,0,-8,40,0,0,0,72,76,133,180,87,137.98,33,16.00,133.00,-1034.00
2024-06-07 15:19:03.721737,0,-9,40,0,0,0,72,76,132,180,87,137.81,33,59.00,141.00,-1157.00
2024-06-07 15:19:03.905955,0,-8,40,0,0,0,72,76,130,180,87,137.72,33,-3.00,185.00,-949.00
2024-06-07 15:19:03.925775,0,-8,40,0,0,1,72,76,128,170,87,137.84,33,-21.00,179.00,-966.00
2024-06-07 15:19:04.105897,-1,-9,40,-1,0,1,72,76,126,170,87,137.50,33,27.00,128.00,-1132.00
2024-06-07 15:19:04.130164,-1,-8,40,-1,0,1,72,76,125,170,87,137.82,33,-12.00,125.00,-1080.00
2024-06-07 15:19:04.231716,-1,-9,40,-1,1,0,72,76,123,170,87,137.81,34,45.00,102.00,-1174.00
2024-06-07 15:19:04.412928,-1,-9,40,0,1,0,73,76,124,170,87,137.88,34,33.00,105.00,-1065.00
2024-06-07 15:19:04.436201,-1,-5,40,0,0,0,73,76,122,170,87,137.51,34,-19.00,132.00,-907.00
2024-06-07 15:19:04.617718,0,0,40,-1,1,0,73,76,120,170,87,137.52,34,23.00,92.00,-1069.00
2024-06-07 15:19:04.639852,0,-2,40,-2,2,0,73,76,123,170,87,137.54,34,-35.00,121.00,-1041.00
2024-06-07 15:19:04.822482,-1,-5,40,-2,3,0,73,76,124,170,87,137.43,34,0.00,171.00,-860.00
2024-06-07 15:19:04.843517,0,-7,40,-2,3,-1,73,76,126,170,87,137.79,34,27.00,88.00,-1035.00
2024-06-07 15:19:05.027307,0,-8,40,-1,3,0,73,76,127,170,87,137.66,34,-29.00,132.00,-835.00
2024-06-07 15:19:05.047722,0,-7,40,-1,2,-1,73,76,127,170,87,137.69,34,68.00,54.00,-997.00
2024-06-07 15:19:05.232070,1,-7,40,-1,2,0,73,76,128,170,86,137.56,34,-56.00,128.00,-1014.00
2024-06-07 15:19:05.251524,1,-6,40,-1,2,0,73,76,128,170,86,137.77,35,-17.00,133.00,-992.00
2024-06-07 15:19:05.436883,1,-6,40,-1,2,0,72,75,128,170,86,137.84,35,-26.00,148.00,-968.00
2024-06-07 15:19:05.456075,1,-7,40,-2,2,0,72,75,127,170,86,137.74,35,31.00,133.00,-1037.00
2024-06-07 15:19:05.566786,1,-8,40,-2,2,0,72,75,128,170,86,137.66,35,9.00,106.00,-1087.00
2024-06-07 15:19:05.659554,1,-8,40,-2,2,0,72,75,128,170,86,137.87,35,-18.00,141.00,-1014.00
2024-06-07 15:19:05.847653,0,-8,40,-2,2,0,72,75,128,170,86,137.62,35,-66.00,138.00,-1067.00
2024-06-07 15:19:05.863684,0,-8,40,-1,1,0,72,75,128,170,86,137.58,35,-28.00,171.00,-905.00
2024-06-07 15:19:06.051521,0,-8,40,-1,1,0,72,75,129,170,86,137.79,35,-13.00,141.00,-910.00
2024-06-07 15:19:06.051709,0,-8,40,-1,1,0,72,75,129,170,86,137.63,35,2.00,102.00,-974.00
2024-06-07 15:19:06.145376,0,-8,40,-1,1,0,72,75,129,170,86,137.76,35,-37.00,146.00,-1032.00
2024-06-07 15:19:06.221558,0,-8,40,-1,1,0,72,75,129,170,86,137.83,36,39.00,105.00,-1048.00
2024-06-07 15:19:06.374909,0,-8,40,-1,1,0,72,76,129,170,86,137.51,36,15.00,122.00,-997.00
2024-06-07 15:19:06.426874,0,-8,40,0,1,0,72,76,129,170,86,137.66,36,10.00,99.00,-869.00
2024-06-07 15:19:06.563534,0,-8,40,0,1,0,72,76,128,170,86,137.63,36,-32.00,151.00,-959.00
2024-06-07 15:19:06.629845,0,-8,40,0,0,0,72,76,127,170,86,137.84,36,-42.00,158.00,-1014.00
2024-06-07 15:19:06.768128,0,-8,40,-1,0,0,72,76,126,170,86,137.68,36,22.00,127.00,-958.00
2024-06-07 15:19:06.833627,0,-8,40,0,0,0,72,76,125,170,86,137.72,36,-39.00,151.00,-1007.00
2024-06-07 15:19:06.973002,0,-8,40,-1,0,0,72,76,123,170,86,137.47,36,-18.00,150.00,-1079.00
2024-06-07 15:19:07.037520,-1,-9,40,0,0,0,72,76,123,170,86,137.84,36,-33.00,135.00,-918.00
2024-06-07 15:19:07.178346,-1,-9,40,0,0,0,72,76,122,170,86,137.80,36,-32.00,122.00,-964.00
2024-06-07 15:19:07.241848,-2,-8,40,0,0,0,72,76,122,170,86,137.59,37,18.00,108.00,-1076.00
2024-06-07 15:19:07.382557,-2,-8,40,0,0,0,72,76,120,170,86,137.63,37,-6.00,70.00,-1009.00
2024-06-07 15:19:07.445553,-2,-8,40,0,0,0,72,76,121,170,86,137.46,37,-50.00,140.00,-983.00
2024-06-07 15:19:07.547612,-3,-8,40,0,0,0,72,76,121,170,86,137.77,37,-23.00,137.00,-1048.00
2024-06-07 15:19:07.689846,-3,-8,40,0,0,0,72,76,120,170,86,137.70,37,13.00,126.00,-1054.00
2024-06-07 15:19:07.751572,-3,-7,40,0,0,0,72,76,121,170,86,137.65,37,0.00,83.00,-923.00
2024-06-07 15:19:07.867859,-2,-7,40,0,0,0,72,76,121,170,86,137.36,37,-41.00,96.00,-1054.00
2024-06-07 15:19:07.955851,-2,-6,40,1,0,0,72,76,122,170,86,137.53,37,-96.00,130.00,-1034.00
2024-06-07 15:19:08.099329,-1,-5,41,1,-1,0,72,76,122,170,86,137.32,37,-20.00,52.00,-937.00
2024-06-07 15:19:08.162295,-3,-5,47,1,-1,0,72,76,123,170,86,137.39,37,-55.00,84.00,-944.00
2024-06-07 15:19:08.261471,-3,-3,53,1,-1,0,72,76,125,170,86,137.90,38,36.00,98.00,-949.00
2024-06-07 15:19:08.406516,-2,-3,58,1,0,0,73,76,126,170,86,137.55,38,-8.00,151.00,-979.00
2024-06-07 15:19:08.465454,0,-5,64,0,0,0,73,76,125,170,86,137.74,38,-47.00,147.00,-957.00
2024-06-07 15:19:08.567489,0,-6,70,0,0,0,73,76,127,170,86,137.91,38,38.00,126.00,-1005.00
2024-06-07 15:19:08.713671,0,-7,76,0,0,0,73,76,127,170,86,138.03,38,63.00,130.00,-928.00
2024-06-07 15:19:08.776683,1,-8,82,0,0,0,73,76,128,170,86,137.74,38,103.00,110.00,-1044.00
2024-06-07 15:19:08.873417,2,-8,88,0,0,0,73,76,128,170,86,137.56,38,52.00,175.00,-941.00
2024-06-07 15:19:09.021054,3,-7,94,0,0,0,73,76,128,170,86,137.82,38,58.00,116.00,-988.00
2024-06-07 15:19:09.077416,4,-7,100,0,0,0,73,76,128,170,86,137.59,38,153.00,73.00,-1070.00
2024-06-07 15:19:09.179580,5,-6,106,0,0,0,73,76,127,170,86,137.71,38,169.00,38.00,-1003.00
2024-06-07 15:19:09.328065,7,-4,113,0,0,0,73,76,127,170,86,137.28,39,33.00,96.00,-1018.00
2024-06-07 15:19:09.383352,7,-3,119,0,1,0,73,76,127,170,86,137.50,39,163.00,86.00,-1072.00
2024-06-07 15:19:09.532885,8,-2,125,0,0,0,73,76,127,170,86,137.60,39,132.00,76.00,-931.00
2024-06-07 15:19:09.587383,8,-2,132,0,0,0,73,76,126,170,86,137.59,39,117.00,99.00,-1090.00
2024-06-07 15:19:09.737664,8,0,138,0,1,0,73,76,124,170,86,137.44,39,151.00,36.00,-1123.00
2024-06-07 15:19:09.740324,8,1,144,0,1,0,73,76,125,170,86,137.04,39,212.00,3.00,-1010.00
2024-06-07 15:19:09.842398,8,1,151,0,0,0,73,76,123,170,86,137.07,39,238.00,64.00,-1013.00
2024-06-07 15:19:09.944369,8,1,157,0,0,0,73,76,123,170,86,137.01,39,189.00,5.00,-954.00
2024-06-07 15:19:10.147261,8,2,164,0,0,0,73,76,122,170,86,137.04,39,102.00,-19.00,-1051.00
2024-06-07 15:19:10.149251,8,2,170,0,0,0,73,76,122,170,85,137.30,39,63.00,-5.00,-1029.00
2024-06-07 15:19:10.251339,7,4,176,0,0,0,73,76,122,170,85,137.33,40,114.00,-67.00,-1002.00
2024-06-07 15:19:10.454456,6,4,-177,0,0,0,73,76,121,170,85,137.34,40,137.00,-51.00,-1047.00
2024-06-07 15:19:10.455707,5,4,-171,0,0,0,73,76,121,170,85,137.31,40,76.00,-50.00,-947.00
2024-06-07 15:19:10.659363,5,4,-164,0,0,0,73,76,123,170,85,137.50,40,154.00,-94.00,-1056.00
2024-06-07 15:19:10.659571,5,5,-158,0,0,0,73,76,122,170,85,137.61,40,114.00,-65.00,-1104.00
2024-06-07 15:19:10.761844,5,6,-152,0,0,0,73,76,123,170,85,137.63,40,73.00,-66.00,-1015.00
2024-06-07 15:19:10.863919,5,6,-146,0,0,0,73,76,124,170,85,137.81,40,48.00,-50.00,-949.00
2024-06-07 15:19:10.966316,4,7,-141,0,0,0,73,76,124,170,85,137.81,40,25.00,-112.00,-915.00
2024-06-07 15:19:11.068749,4,7,-136,0,0,0,73,76,124,170,85,137.87,40,37.00,-100.00,-1054.00
2024-06-07 15:19:11.171647,2,8,-130,0,0,0,73,76,125,170,85,137.71,40,72.00,-96.00,-916.00
2024-06-07 15:19:11.271222,2,8,-123,0,0,0,73,76,126,170,85,137.88,41,23.00,-137.00,-1120.00
2024-06-07 15:19:11.376669,0,9,-110,0,0,0,73,76,127,170,85,137.76,41,43.00,-93.00,-1056.00
2024-06-07 15:19:11.475904,0,9,-104,0,0,0,73,76,126,170,85,137.65,41,-7.00,-87.00,-979.00
2024-06-07 15:19:11.588145,-1,8,-97,1,-1,-1,73,76,126,170,85,137.82,41,-21.00,-70.00,-996.00
2024-06-07 15:19:11.679172,-2,7,-90,1,-1,0,73,76,126,170,85,137.71,41,-18.00,-63.00,-953.00
2024-06-07 15:19:11.785543,-1,6,-84,1,-1,0,73,76,124,170,85,137.44,41,-69.00,-34.00,-1042.00
2024-06-07 15:19:11.883939,-2,5,-77,1,-1,0,73,76,123,170,85,137.18,41,-58.00,-35.00,-1084.00
2024-06-07 15:19:11.990349,-2,5,-71,1,-1,0,73,76,122,170,85,137.09,41,3.00,-28.00,-950.00
2024-06-07 15:19:12.087999,-3,4,-64,1,-1,0,73,76,120,170,85,137.14,41,22.00,-60.00,-993.00
2024-06-07 15:19:12.189265,-2,4,-58,1,-1,0,73,76,119,170,85,137.38,42,-132.00,-41.00,-967.00
2024-06-07 15:19:12.297544,-3,5,-51,1,-1,0,73,76,117,170,85,137.23,42,-70.00,-61.00,-1102.00
2024-06-07 15:19:12.393184,-3,4,-45,1,-1,0,74,77,117,170,85,137.27,42,-140.00,-45.00,-1032.00
2024-06-07 15:19:12.502340,-4,4,-39,1,-1,0,74,77,115,170,85,137.34,42,-45.00,-45.00,-1010.00
2024-06-07 15:19:12.597163,-4,3,-33,1,0,0,74,77,115,170,85,137.01,42,-70.00,-28.00,-969.00
2024-06-07 15:19:12.707248,-5,2,-26,0,0,0,74,77,114,170,85,137.20,42,-106.00,-13.00,-1069.00
2024-06-07 15:19:12.801186,-6,2,-20,0,0,0,74,77,114,170,85,137.15,42,-124.00,8.00,-885.00
2024-06-07 15:19:12.911922,-7,1,-14,0,0,0,74,77,113,160,85,136.90,42,-167.00,59.00,-931.00
2024-06-07 15:19:13.005096,-7,0,-8,0,0,0,74,77,113,160,85,137.20,42,-63.00,-20.00,-1100.00
2024-06-07 15:19:13.107117,-7,0,-2,0,0,0,74,77,114,160,85,136.89,42,-189.00,80.00,-957.00
2024-06-07 15:19:13.209105,-7,0,3,0,0,0,74,77,114,160,85,136.85,43,-30.00,-18.00,-1059.00
2024-06-07 15:19:13.321651,-6,-1,8,1,0,0,74,77,116,160,85,136.92,43,-150.00,41.00,-1026.00
2024-06-07 15:19:13.413968,-5,0,14,1,0,-1,75,77,117,170,85,137.16,43,-86.00,47.00,-927.00
2024-06-07 15:19:13.515902,-5,-1,20,1,0,-1,75,77,119,170,85,137.33,43,-74.00,52.00,-1081.00
2024-06-07 15:19:13.566168,-5,-1,24,1,0,-1,75,77,120,170,85,137.00,43,-90.00,67.00,-939.00
2024-06-07 15:19:13.731261,-5,-2,27,1,0,-1,75,77,121,170,85,137.27,43,-63.00,28.00,-948.00
2024-06-07 15:19:13.770167,-4,-2,30,1,0,-1,75,77,123,170,85,137.08,43,-98.00,52.00,-945.00
2024-06-07 15:19:13.936034,-4,-2,32,1,0,0,75,77,123,170,85,137.22,43,-105.00,58.00,-967.00
2024-06-07 15:19:13.974078,-5,-2,34,0,0,0,75,77,123,170,85,137.50,43,-131.00,106.00,-953.00
2024-06-07 15:19:14.140811,-4,-1,35,1,0,0,75,77,123,170,85,137.55,43,48.00,23.00,-1100.00
2024-06-07 15:19:14.178441,-2,-1,36,1,0,0,75,77,124,170,85,137.52,44,-28.00,83.00,-925.00
2024-06-07 15:19:14.345523,0,-1,37,1,0,0,75,77,124,170,85,137.39,44,-44.00,107.00,-999.00
2024-06-07 15:19:14.382131,0,-2,37,1,0,0,75,78,126,170,85,137.41,44,-113.00,112.00,-975.00
2024-06-07 15:19:14.500135,0,-2,37,1,0,0,75,78,127,170,85,137.43,44,-120.00,105.00,-951.00
2024-06-07 15:19:14.586792,-1,-2,38,0,0,0,75,78,128,170,85,137.48,44,-82.00,69.00,-900.00
2024-06-07 15:19:14.755129,-1,-3,38,0,0,0,75,78,130,180,85,137.43,44,-33.00,55.00,-1011.00
2024-06-07 15:19:14.790387,-1,-3,38,0,0,0,75,78,130,180,85,137.58,44,-45.00,74.00,-944.00
2024-06-07 15:19:14.959986,-1,-3,38,0,0,0,75,78,131,180,85,137.57,44,-67.00,72.00,-926.00
2024-06-07 15:19:14.994165,-2,-3,38,0,0,0,75,78,132,180,85,137.65,44,-80.00,108.00,-959.00
2024-06-07 15:19:15.164825,-3,-4,38,0,0,0,75,78,132,180,85,137.58,44,-46.00,36.00,-953.00
2024-06-07 15:19:15.198195,-3,-4,38,0,0,0,75,78,133,180,85,137.64,45,-62.00,83.00,-1054.00
2024-06-07 15:19:15.369760,-3,-4,38,0,0,0,75,78,133,180,85,137.62,45,-76.00,109.00,-943.00
2024-06-07 15:19:15.402093,-4,-4,38,0,0,0,74,78,133,180,85,137.75,45,-50.00,64.00,-964.00
2024-06-07 15:19:15.504065,-3,-4,38,0,0,0,74,78,133,180,85,137.46,45,-6.00,81.00,-1072.00
2024-06-07 15:19:15.676993,-3,-3,38,0,0,0,74,78,131,180,85,137.49,45,-50.00,66.00,-955.00
2024-06-07 15:19:15.710245,-3,-3,38,0,0,0,74,78,130,180,85,137.55,45,-65.00,79.00,-1010.00
2024-06-07 15:19:15.810189,-3,-3,38,0,0,0,74,78,128,180,85,137.57,45,-11.00,26.00,-943.00
2024-06-07 15:19:15.912069,-3,-2,38,0,0,0,74,78,128,180,85,137.47,45,-15.00,4.00,-979.00
2024-06-07 15:19:16.015355,-1,-1,38,0,0,0,74,78,126,180,85,137.33,45,-81.00,31.00,-983.00
2024-06-07 15:19:16.116211,-2,-1,38,0,0,0,74,78,124,180,85,137.33,45,-64.00,71.00,-950.00
2024-06-07 15:19:16.218357,-4,-2,38,0,0,1,74,78,125,170,85,137.45,46,-34.00,33.00,-1058.00
2024-06-07 15:19:16.320105,-4,-2,38,0,0,1,74,78,123,170,85,137.35,46,-61.00,71.00,-978.00
2024-06-07 15:19:16.422121,-3,-2,38,0,0,0,74,78,122,170,85,137.27,46,-8.00,39.00,-980.00
2024-06-07 15:19:16.598461,-3,-2,38,0,0,0,74,78,122,170,85,137.55,46,-76.00,81.00,-1050.00
2024-06-07 15:19:16.626169,-2,-2,38,0,0,0,74,78,122,170,85,137.47,46,-45.00,81.00,-1053.00
2024-06-07 15:19:16.758745,-2,-3,38,0,0,0,74,78,123,170,85,137.48,46,-115.00,105.00,-925.00
2024-06-07 15:19:16.829996,-2,-3,38,0,0,0,74,78,123,170,85,137.42,46,15.00,25.00,-1078.00
2024-06-07 15:19:16.880866,-2,-4,37,0,1,0,74,78,124,170,85,137.55,46,-122.00,135.00,-1056.00
2024-06-07 15:19:17.007899,-2,-4,31,0,0,0,74,78,123,170,85,137.39,46,-93.00,94.00,-882.00
2024-06-07 15:19:17.084893,-2,-3,25,0,0,0,74,78,122,170,85,137.43,46,-40.00,62.00,-905.00
2024-06-07 15:19:17.213217,-2,-3,19,0,0,0,74,78,121,170,85,137.31,47,-74.00,78.00,-952.00
2024-06-07 15:19:17.288889,-3,-2,13,0,0,0,74,78,120,170,85,137.28,47,-117.00,77.00,-934.00
2024-06-07 15:19:17.417491,-3,-2,7,0,0,0,74,77,120,170,85,137.36,47,-14.00,11.00,-1092.00
2024-06-07 15:19:17.493501,-3,-1,1,0,0,0,74,77,119,170,85,137.25,47,-77.00,24.00,-1020.00
2024-06-07 15:19:17.595281,-2,0,-4,0,0,0,74,77,118,170,85,137.26,47,-59.00,41.00,-990.00
2024-06-07 15:19:17.724681,-3,0,-10,0,0,0,74,77,119,170,85,137.24,47,-109.00,-16.00,-1026.00
2024-06-07 15:19:17.798961,-4,0,-15,0,0,0,74,77,119,170,85,137.19,47,-122.00,-11.00,-1135.00
2024-06-07 15:19:17.929485,-4,2,-21,0,0,0,74,77,120,170,85,137.24,47,-10.00,-53.00,-1010.00
2024-06-07 15:19:18.002828,-3,2,-27,0,0,0,74,77,121,170,85,137.34,47,2.00,-57.00,-976.00
2024-06-07 15:19:18.134286,-2,4,-32,0,0,0,74,77,121,170,85,137.50,47,-47.00,-33.00,-1050.00
2024-06-07 15:19:18.206815,-1,4,-37,0,0,0,74,77,122,170,85,137.37,48,-1.00,-41.00,-987.00
2024-06-07 15:19:18.339069,-1,4,-42,0,0,0,74,77,123,170,85,137.45,48,-23.00,-52.00,-942.00
2024-06-07 15:19:18.410809,-1,4,-47,0,0,0,76,78,124,170,85,137.75,48,-86.00,0.00,-1003.00
2024-06-07 15:19:18.543896,-1,4,-52,0,0,0,76,78,123,170,85,137.53,48,-75.00,-24.00,-880.00
2024-06-07 15:19:18.615303,0,4,-57,0,0,0,76,78,121,170,85,137.35,48,-21.00,-49.00,-1048.00
2024-06-07 15:19:18.748668,0,4,-63,0,0,-1,76,78,119,170,85,137.65,48,-42.00,-25.00,-855.00
2024-06-07 15:19:18.818848,0,4,-68,0,0,0,76,78,116,170,85,137.65,48,-72.00,0.00,-902.00
2024-06-07 15:19:18.953471,0,4,-74,0,0,1,76,78,112,170,85,137.72,48,11.00,-53.00,-987.00
2024-06-07 15:19:19.022801,0,4,-80,0,0,1,76,78,108,170,85,137.56,48,-13.00,-53.00,-964.00
2024-06-07 15:19:19.160030,0,5,-86,0,0,1,76,78,105,160,84,137.92,48,45.00,-72.00,-984.00
2024-06-07 15:19:19.227613,0,6,-93,0,0,2,76,78,101,160,84,137.72,49,102.00,-80.00,-1152.00
2024-06-07 15:19:19.363059,0,5,-99,0,0,1,76,78,98,160,84,137.63,49,39.00,-61.00,-1084.00
2024-06-07 15:19:19.430759,2,4,-105,0,0,0,76,79,96,150,84,137.59,49,22.00,-17.00,-1151.00
2024-06-07 15:19:19.532849,3,4,-110,0,0,0,76,79,96,150,84,137.48,49,61.00,-69.00,-1057.00
2024-06-07 15:19:19.670503,3,4,-116,0,0,0,76,79,96,150,84,137.44,49,100.00,-67.00,-1272.00
2024-06-07 15:19:19.737642,3,4,-122,0,0,-1,76,79,96,160,84,137.20,49,119.00,-68.00,-972.00
2024-06-07 15:19:19.875076,4,3,-128,0,0,-1,76,79,96,160,84,137.72,49,42.00,-17.00,-982.00
2024-06-07 15:19:19.944832,4,3,-134,0,0,-1,76,79,96,160,84,137.20,49,70.00,-5.00,-945.00
2024-06-07 15:19:20.042713,5,3,-141,0,0,-1,76,79,96,160,84,137.72,49,129.00,-78.00,-1166.00
2024-06-07 15:19:20.183077,5,3,-147,0,0,-1,76,79,95,160,84,137.55,49,57.00,6.00,-916.00
2024-06-07 15:19:20.246784,6,3,-154,0,0,0,76,79,95,160,84,137.48,50,151.00,-11.00,-1023.00
2024-06-07 15:19:20.387057,7,2,-161,0,0,0,76,79,96,160,84,137.29,50,79.00,27.00,-1014.00
2024-06-07 15:19:20.451118,7,0,-168,0,0,0,75,78,96,160,84,137.01,50,181.00,37.00,-1063.00
2024-06-07 15:19:20.552747,6,-1,-175,0,0,0,75,78,97,160,84,137.19,50,61.00,23.00,-1060.00
2024-06-07 15:19:20.694372,6,-1,178,0,0,0,75,78,97,160,84,137.25,50,137.00,7.00,-991.00
2024-06-07 15:19:20.758730,6,-1,171,0,0,-1,75,78,100,160,84,137.25,50,129.00,39.00,-1040.00
2024-06-07 15:19:20.859218,6,-1,165,0,0,-1,75,78,102,160,84,137.23,50,39.00,68.00,-957.00
2024-06-07 15:19:21.001784,7,-1,158,0,0,-1,75,78,104,160,84,137.50,50,11.00,100.00,-1012.00
2024-06-07 15:19:21.064613,5,-2,152,1,0,0,75,78,105,160,84,137.39,50,77.00,101.00,-1017.00
2024-06-07 15:19:21.164671,4,-4,146,1,0,-1,75,78,107,170,84,137.28,50,54.00,76.00,-896.00
2024-06-07 15:19:21.215722,4,-5,140,1,0,-1,75,78,109,170,84,137.73,51,47.00,60.00,-954.00
2024-06-07 15:19:21.411224,3,-4,134,1,0,-1,75,78,111,170,84,137.90,51,67.00,74.00,-968.00
2024-06-07 15:19:21.470696,3,-3,128,1,0,-1,75,79,115,170,84,137.40,51,105.00,47.00,-1016.00
2024-06-07 15:19:21.521741,4,-3,122,1,0,0,75,79,115,170,84,137.54,51,94.00,76.00,-1054.00
2024-06-07 15:19:21.719471,4,-3,116,0,0,0,75,79,117,170,84,137.76,51,-7.00,112.00,-1153.00
2024-06-07 15:19:21.725680,5,-4,110,0,0,0,75,79,118,170,84,137.68,51,37.00,92.00,-960.00
2024-06-07 15:19:21.923059,4,-3,105,0,0,0,75,79,119,180,84,137.47,51,58.00,107.00,-959.00
2024-06-07 15:19:21.929652,5,-3,98,0,0,0,75,79,119,180,84,137.55,51,6.00,127.00,-945.00
2024-06-07 15:19:22.127865,4,-4,92,0,0,0,75,79,118,180,84,137.72,51,-37.00,132.00,-969.00
2024-06-07 15:19:22.133616,4,-6,86,0,0,0,75,79,119,180,84,138.01,51,-8.00,114.00,-938.00
2024-06-07 15:19:22.235588,1,-7,80,0,0,0,75,79,119,180,84,137.54,52,20.00,104.00,-939.00
2024-06-07 15:19:22.437203,0,-6,74,0,0,0,75,79,120,180,84,137.86,52,53.00,121.00,-965.00
2024-06-07 15:19:22.440160,0,-5,68,0,0,0,76,80,121,180,84,137.72,52,-23.00,117.00,-838.00
2024-06-07 15:19:22.639852,0,-5,62,0,0,0,76,80,122,180,84,137.59,52,-42.00,114.00,-907.00
2024-06-07 15:19:22.643566,0,-5,56,0,0,0,76,80,123,180,84,137.92,52,-46.00,75.00,-977.00
2024-06-07 15:19:22.844682,0,-5,52,0,0,0,76,80,123,180,84,137.83,52,-11.00,59.00,-975.00
2024-06-07 15:19:22.847555,-1,-3,48,0,-1,0,76,80,124,180,84,137.54,52,-18.00,67.00,-1001.00
2024-06-07 15:19:22.949659,-1,-2,46,1,-1,0,76,80,124,180,84,137.58,52,-15.00,98.00,-954.00
2024-06-07 15:19:23.051594,-1,-1,44,1,0,0,76,80,124,180,84,137.72,52,76.00,37.00,-1021.00
2024-06-07 15:19:23.153855,0,-1,42,1,0,0,76,80,124,180,84,137.64,52,-83.00,124.00,-1006.00
2024-06-07 15:19:23.255549,0,-1,41,1,0,0,76,80,125,180,84,137.75,53,-7.00,99.00,-866.00
2024-06-07 15:19:23.459012,0,-1,41,0,0,0,76,80,126,180,84,137.39,53,43.00,-1.00,-1178.00
2024-06-07 15:19:23.459658,0,-1,40,0,0,0,76,79,125,180,84,137.71,53,-3.00,44.00,-978.00
2024-06-07 15:19:23.561779,0,-1,40,0,0,0,76,79,126,180,84,137.52,53,-62.00,73.00,-847.00
2024-06-07 15:19:23.663979,0,-1,39,0,0,0,76,79,125,180,84,137.37,53,-35.00,57.00,-980.00
2024-06-07 15:19:23.769307,-2,-1,40,0,0,0,76,79,125,180,84,137.50,53,-48.00,78.00,-915.00
2024-06-07 15:19:23.868901,-2,-1,40,0,0,0,76,79,123,180,84,137.87,53,-9.00,60.00,-1045.00
2024-06-07 15:19:23.971173,-2,-2,39,0,0,0,76,79,123,180,84,137.64,53,-41.00,-17.00,-1022.00
2024-06-07 15:19:24.071609,-1,-2,39,0,0,0,76,79,122,180,84,137.60,53,-39.00,12.00,-944.00
2024-06-07 15:19:24.175912,-1,-1,39,0,0,0,76,79,122,180,84,137.61,53,16.00,39.00,-934.00
2024-06-07 15:19:24.275566,-3,-1,40,0,0,0,76,79,121,180,84,137.89,54,-23.00,79.00,-891.00
2024-06-07 15:19:24.380901,-2,-1,40,0,0,1,76,79,120,180,84,137.58,54,-28.00,78.00,-1037.00
2024-06-07 15:19:24.479511,-2,-3,40,0,0,1,76,79,118,180,84,137.63,54,-5.00,52.00,-1010.00
2024-06-07 15:19:24.585573,-2,-4,40,0,0,0,76,79,119,180,84,137.44,54,-86.00,82.00,-976.00
2024-06-07 15:19:24.683717,-1,-3,39,0,0,0,76,79,117,180,84,137.54,54,-136.00,131.00,-973.00
2024-06-07 15:19:24.790346,-1,-2,39,0,0,0,76,79,117,180,84,137.71,54,-101.00,111.00,-971.00
2024-06-07 15:19:24.887721,-2,-3,39,0,0,0,76,79,116,180,84,137.56,54,-38.00,40.00,-1001.00
2024-06-07 15:19:24.941494,-3,-2,40,0,0,0,76,79,115,180,84,137.62,54,-6.00,46.00,-1080.00
2024-06-07 15:19:25.041119,-3,-2,40,0,0,0,76,79,114,180,84,137.59,54,-126.00,141.00,-935.00
2024-06-07 15:19:25.199847,-3,-2,40,0,0,0,76,79,115,170,84,137.61,54,1.00,62.00,-1105.00
2024-06-07 15:19:25.244548,-4,-4,40,0,0,0,76,79,114,170,84,137.69,55,-44.00,99.00,-935.00
2024-06-07 15:19:25.404720,-2,-4,40,0,0,0,76,79,114,170,84,137.78,55,16.00,44.00,-1023.00
2024-06-07 15:19:25.448484,-2,-4,40,0,0,0,76,79,114,170,84,137.58,55,-72.00,103.00,-909.00
2024-06-07 15:19:25.550624,-1,-5,39,0,0,0,76,79,115,170,84,137.24,55,-66.00,68.00,-1520.00
2024-06-07 15:19:25.711968,0,-5,39,0,0,0,76,79,117,170,84,137.60,55,-99.00,76.00,-1682.00
2024-06-07 15:19:25.755927,0,-5,39,0,-1,-6,76,79,126,180,84,137.89,55,-17.00,296.00,-1278.00
2024-06-07 15:19:25.856993,1,-35,39,0,-3,-11,76,79,536,190,84,137.64,55,-1.00,624.00,-965.00
2024-06-07 15:19:25.958730,0,-146,37,5,-10,-6,76,79,6553,200,84,137.74,55,-40.00,584.00,-901.00
2024-06-07 15:19:26.121444,-2,89,40,4,-10,8,76,79,136,200,84,137.39,55,-34.00,28.00,-1661.00
2024-06-07 15:19:26.162423,3,-4,46,0,-5,11,76,79,113,180,84,137.50,55,43.00,61.00,-1370.00
2024-06-07 15:19:26.264479,5,-1,52,0,-8,8,76,79,98,170,84,138.30,56,120.00,167.00,-1396.00
2024-06-07 15:19:26.367094,-6,5,65,0,-7,5,76,79,90,170,84,138.21,56,45.00,231.00,-1605.00
2024-06-07 15:19:26.510124,-1,-7,101,-3,-3,-1,76,81,85,160,84,137.46,56,52.00,159.00,-1055.00
2024-06-07 15:19:26.570385,2,-8,111,-3,-2,-1,76,81,81,160,84,137.57,56,111.00,138.00,-1014.00
2024-06-07 15:19:26.672377,3,-7,115,-3,-2,-1,76,81,78,160,84,137.08,56,0.00,213.00,-978.00
2024-06-07 15:19:26.838265,3,-8,112,-3,-2,-1,76,81,75,160,84,137.22,56,16.00,209.00,-1004.00
2024-06-07 15:19:26.878428,2,-8,101,-3,-2,-1,76,81,72,160,84,137.02,56,85.00,93.00,-978.00
2024-06-07 15:19:26.978462,0,-8,88,-2,-1,-1,76,81,69,170,84,137.28,56,17.00,126.00,-1320.00
2024-06-07 15:19:27.145473,-1,-7,74,-2,-1,-2,76,81,66,170,84,137.45,56,11.00,97.00,-1082.00
2024-06-07 15:19:27.185893,-2,-6,62,-2,0,-3,76,81,64,170,84,137.33,57,-6.00,159.00,-953.00
2024-06-07 15:19:27.284349,-3,-6,49,-1,0,-3,76,81,62,170,84,137.24,57,-7.00,99.00,-877.00
2024-06-07 15:19:27.452595,-3,-5,40,-1,0,-2,76,81,60,180,84,137.39,57,10.00,18.00,-1020.00
2024-06-07 15:19:27.488886,-2,-4,38,0,0,-2,77,80,57,180,84,137.16,57,-54.00,43.00,-895.00
2024-06-07 15:19:27.657510,-2,-3,38,0,0,-1,77,80,54,180,84,137.09,57,-30.00,52.00,-955.00
2024-06-07 15:19:27.692350,-3,-1,38,0,0,0,77,80,51,180,84,137.26,57,-63.00,79.00,-880.00
2024-06-07 15:19:27.862216,-2,-1,38,0,0,0,77,80,47,180,84,137.12,57,-63.00,81.00,-884.00
2024-06-07 15:19:27.896327,-3,-1,38,0,0,0,77,80,42,180,84,136.96,57,-33.00,90.00,-978.00
2024-06-07 15:19:28.067001,-3,-2,38,0,0,0,77,80,38,180,84,136.96,57,-78.00,60.00,-1032.00
2024-06-07 15:19:28.100276,-3,-2,38,0,0,0,77,80,34,180,84,136.78,57,-46.00,65.00,-954.00
2024-06-07 15:19:28.202403,-4,-2,39,-1,0,0,77,80,30,170,83,137.15,58,-81.00,51.00,-1051.00
2024-06-07 15:19:28.374506,-4,-2,39,-1,0,3,77,80,26,170,83,136.99,58,-37.00,68.00,-1083.00
2024-06-07 15:19:28.406355,-4,-1,39,0,0,2,77,80,23,160,83,137.05,58,-41.00,72.00,-1051.00
2024-06-07 15:19:28.508421,-4,-1,39,0,0,2,77,79,21,160,83,136.70,58,-91.00,58.00,-1178.00
2024-06-07 15:19:28.681486,-3,-2,39,0,0,0,77,79,22,160,83,136.75,58,-45.00,74.00,-990.00
2024-06-07 15:19:28.713190,-2,-1,39,0,0,0,77,79,22,160,83,136.72,58,-31.00,103.00,-1043.00
2024-06-07 15:19:28.886321,-2,-1,39,0,0,0,77,79,23,160,83,137.04,58,-132.00,91.00,-1008.00
2024-06-07 15:19:28.886368,-3,-2,39,-1,0,0,77,79,24,160,83,136.55,58,-108.00,81.00,-952.00
2024-06-07 15:19:28.967326,-5,-2,39,0,0,0,77,79,26,160,83,136.75,58,-95.00,95.00,-942.00
2024-06-07 15:19:29.069754,-4,-2,39,0,0,0,77,79,28,170,83,136.81,58,-17.00,68.00,-1094.00
2024-06-07 15:19:29.194499,-3,-3,39,0,0,-1,77,79,30,170,83,136.73,59,-115.00,44.00,-1050.00
2024-06-07 15:19:29.273408,-3,-3,39,0,0,-1,77,79,33,170,83,136.54,59,-131.00,112.00,-984.00
2024-06-07 15:19:29.398388,-3,-3,39,0,0,0,77,79,35,170,83,136.73,59,-31.00,60.00,-979.00
2024-06-07 15:19:29.477709,-3,-2,39,0,0,-1,76,80,38,170,83,136.78,59,-33.00,37.00,-1053.00
2024-06-07 15:19:29.579374,-3,-1,39,0,0,-1,76,80,41,180,83,136.77,59,-28.00,63.00,-946.00
2024-06-07 15:19:29.705609,-3,-1,39,0,0,0,76,80,43,180,83,136.86,59,-43.00,72.00,-818.00
2024-06-07 15:19:29.783550,-3,-1,39,0,0,0,76,80,46,180,83,136.98,59,-47.00,118.00,-789.00
2024-06-07 15:19:29.911418,-2,-2,39,0,0,0,76,80,48,180,83,137.01,59,-110.00,148.00,-845.00
2024-06-07 15:19:29.988812,-2,-3,39,0,0,0,76,80,51,180,83,136.88,59,-75.00,95.00,-891.00
2024-06-07 15:19:30.115360,-2,-2,39,0,0,0,76,80,53,180,83,136.84,59,32.00,62.00,-982.00
2024-06-07 15:19:30.191477,-1,-2,39,0,0,0,76,80,55,180,82,136.75,60,-126.00,116.00,-928.00
2024-06-07 15:19:30.319934,-2,-2,39,0,0,0,76,80,57,180,82,137.15,60,-37.00,76.00,-997.00
2024-06-07 15:19:30.395464,-1,-2,39,0,0,0,76,80,58,190,82,136.79,60,-52.00,78.00,-874.00
2024-06-07 15:19:30.524812,-2,-2,39,0,0,0,76,81,60,190,82,137.02,60,-69.00,89.00,-936.00
2024-06-07 15:19:30.600041,-2,-2,39,0,0,0,76,81,61,190,82,136.84,60,-62.00,55.00,-857.00
2024-06-07 15:19:30.729581,-2,-1,39,0,0,0,76,81,62,190,82,136.87,60,-39.00,37.00,-914.00
2024-06-07 15:19:30.803319,-2,-1,39,0,0,0,76,81,62,190,82,137.14,60,-57.00,65.00,-980.00
2024-06-07 15:19:30.941892,-2,-2,39,0,0,1,76,81,61,190,82,137.05,60,-64.00,78.00,-1028.00
2024-06-07 15:19:31.011622,-2,-2,39,0,0,1,76,81,60,190,82,136.86,60,-39.00,45.00,-1020.00
2024-06-07 15:19:31.112141,-2,-2,39,0,0,1,76,81,60,190,82,137.01,60,-24.00,40.00,-882.00
2024-06-07 15:19:31.211432,-1,-3,39,0,0,1,76,81,60,190,82,136.88,61,-77.00,59.00,-992.00
2024-06-07 15:19:31.314955,-2,-2,39,0,0,1,76,81,60,190,82,136.60,61,-1.00,4.00,-1044.00
2024-06-07 15:19:31.415524,-2,-1,39,0,0,0,76,81,59,190,82,136.80,61,-125.00,74.00,-892.00
2024-06-07 15:19:31.517800,-2,-1,39,0,0,0,77,80,59,180,82,136.82,61,-62.00,56.00,-900.00
2024-06-07 15:19:31.651093,-3,0,39,0,0,0,77,80,59,180,82,137.01,61,-79.00,46.00,-892.00
2024-06-07 15:19:31.721264,-4,-1,40,0,0,0,77,80,59,180,82,137.10,61,19.00,-21.00,-1001.00
2024-06-07 15:19:31.856020,-4,0,40,0,0,0,77,80,59,180,82,136.69,61,-85.00,49.00,-1063.00
2024-06-07 15:19:31.925383,-3,-1,39,0,0,0,77,80,59,180,82,136.89,61,21.00,11.00,-1092.00
2024-06-07 15:19:32.060753,-2,-1,39,0,0,0,77,80,60,180,82,137.04,61,-32.00,1.00,-1008.00
2024-06-07 15:19:32.129245,-3,-1,40,0,0,0,77,80,60,180,82,136.98,61,-38.00,34.00,-872.00
2024-06-07 15:19:32.180067,-1,0,39,0,0,0,77,80,60,180,82,136.98,62,-51.00,10.00,-1245.00
2024-06-07 15:19:32.282146,0,3,39,0,0,-4,77,80,64,190,82,137.14,62,-33.00,-2.00,-1708.00
2024-06-07 15:19:32.470222,0,20,37,-1,1,-11,77,80,82,190,82,137.25,62,-41.00,-22.00,-1828.00
2024-06-07 15:19:32.486150,1,120,39,-6,7,-9,77,81,6553,210,82,137.27,62,-75.00,689.00,-1052.00
2024-06-07 15:19:32.680175,0,-117,40,-7,8,6,77,81,6553,210,82,137.15,62,-29.00,692.00,-856.00
2024-06-07 15:19:32.690154,2,-8,38,-3,3,12,77,81,70,200,82,136.95,62,-7.00,557.00,-1104.00
2024-06-07 15:19:32.879769,4,11,36,-6,4,10,77,81,59,190,82,136.98,62,-58.00,55.00,-1297.00
2024-06-07 15:19:32.894247,-2,-4,35,-6,4,6,77,81,50,180,82,137.34,62,33.00,-119.00,-1549.00
2024-06-07 15:19:33.084625,-3,-6,39,-5,2,2,77,81,46,170,82,137.20,62,-12.00,-49.00,-1278.00
2024-06-07 15:19:33.098097,-3,-3,40,-3,2,0,77,81,43,170,82,136.92,62,-39.00,26.00,-1435.00
2024-06-07 15:19:33.289417,-2,-2,40,-3,1,-1,77,81,43,170,82,136.97,63,-11.00,-14.00,-893.00
2024-06-07 15:19:33.302178,-1,-1,40,-2,1,-2,77,81,42,170,82,137.11,63,-45.00,11.00,-962.00
2024-06-07 15:19:33.494225,-1,-2,40,-2,1,-1,77,81,41,170,82,136.78,63,-37.00,20.00,-987.00
