TS,pitch,roll,yaw,vgx,vgy,vgz,templ,temph,tof,h,bat,baro,time,agx,agy,agz
2024-06-07 15:20:17.935435,0,0,40,0,0,0,81,83,10,0,79,136.44,84,0.00,-4.00,-1001.00
2024-06-07 15:20:17.982662,0,0,40,0,0,0,81,83,10,0,79,136.37,84,0.00,-4.00,-1001.00
2024-06-07 15:20:18.140261,0,0,40,0,0,0,81,83,10,0,79,136.52,84,0.00,-3.00,-997.00
2024-06-07 15:20:18.140459,0,0,40,0,0,0,81,83,10,0,79,136.28,84,0.00,-2.00,-1000.00
2024-06-07 15:20:18.238938,0,0,40,0,0,0,81,83,10,0,79,136.40,84,0.00,-4.00,-1000.00
2024-06-07 15:20:18.349038,0,0,40,0,0,0,81,83,10,0,79,136.26,84,0.00,-2.00,-1001.00
2024-06-07 15:20:18.443993,0,0,40,0,0,0,81,83,10,0,79,136.15,84,0.00,-3.00,-1001.00
2024-06-07 15:20:18.543672,0,0,40,0,0,0,81,83,10,0,79,136.31,84,-2.00,-4.00,-999.00
2024-06-07 15:20:18.652324,0,0,40,0,0,0,81,83,10,0,79,136.34,84,0.00,-2.00,-1000.00
2024-06-07 15:20:18.747699,0,0,40,0,0,0,80,83,10,0,79,136.63,84,0.00,-4.00,-997.00
2024-06-07 15:20:18.857127,0,0,40,0,0,0,80,83,10,0,79,136.56,84,-1.00,-3.00,-999.00
2024-06-07 15:20:18.951939,0,0,40,0,0,0,80,83,10,0,79,136.63,84,0.00,-3.00,-999.00
2024-06-07 15:20:19.062869,0,0,40,0,0,0,80,83,10,0,79,136.31,84,0.00,-3.00,-1000.00
2024-06-07 15:20:19.156640,0,0,40,0,0,0,80,83,10,0,79,136.54,84,0.00,-3.00,-999.00
2024-06-07 15:20:19.266650,0,0,40,0,0,0,80,83,10,0,79,136.56,84,0.00,-3.00,-1000.00
2024-06-07 15:20:19.360941,0,0,40,0,0,0,80,83,10,0,79,136.59,84,0.00,-3.00,-999.00
2024-06-07 15:20:19.471517,0,0,40,0,0,0,80,83,10,0,79,136.32,84,0.00,-4.00,-1000.00
2024-06-07 15:20:19.566398,0,0,40,0,0,0,80,83,10,0,79,136.57,84,-1.00,-4.00,-1002.00
2024-06-07 15:20:19.665578,0,0,40,0,0,0,80,83,10,0,79,136.18,84,0.00,-4.00,-1002.00
2024-06-07 15:20:19.778755,0,0,40,0,0,0,80,83,10,0,79,136.17,84,0.00,-3.00,-1000.00
2024-06-07 15:20:19.869717,0,0,40,0,0,0,80,83,10,0,79,136.09,84,0.00,-4.00,-1002.00
2024-06-07 15:20:19.971779,0,0,40,0,0,0,80,83,10,0,79,136.77,84,0.00,-3.00,-998.00
2024-06-07 15:20:20.085974,0,0,40,0,0,0,80,83,10,0,79,136.50,84,0.00,-3.00,-1001.00
2024-06-07 15:20:20.175632,0,0,40,0,0,0,80,83,10,0,79,136.28,84,0.00,-4.00,-997.00
2024-06-07 15:20:20.278059,0,0,40,0,0,0,80,83,10,0,79,136.49,84,0.00,-5.00,-1000.00
2024-06-07 15:20:20.380397,0,0,40,0,0,0,80,83,10,0,79,136.49,84,0.00,-4.00,-998.00
2024-06-07 15:20:20.495428,0,0,40,0,0,0,80,83,10,0,79,136.46,84,-2.00,-1.00,-990.00
2024-06-07 15:20:20.585097,0,0,40,0,0,0,80,83,10,0,79,136.38,84,-4.00,-3.00,-1001.00
2024-06-07 15:20:20.685639,0,0,40,0,0,0,80,83,10,0,79,136.38,85,-4.00,-1.00,-1000.00
2024-06-07 15:20:20.787542,0,0,39,0,0,0,81,84,10,0,79,136.38,85,19.00,43.00,-1002.00
2024-06-07 15:20:20.889428,0,0,39,0,0,0,81,84,10,0,79,136.38,85,79.00,-45.00,-975.00
2024-06-07 15:20:20.991465,0,0,40,0,0,0,81,84,10,0,79,136.38,85,83.00,-12.00,-1160.00
2024-06-07 15:20:21.093531,1,0,40,0,0,-1,81,84,10,0,79,136.38,85,56.00,27.00,-1147.00
2024-06-07 15:20:21.195587,0,0,40,0,0,-4,81,84,10,0,79,136.38,85,63.00,-54.00,-1296.00
2024-06-07 15:20:21.314643,0,0,40,0,0,-6,81,84,10,10,79,136.38,85,6.00,26.00,-1071.00
2024-06-07 15:20:21.400134,0,0,40,0,0,-7,81,84,15,10,79,136.67,85,47.00,-17.00,-1098.00
2024-06-07 15:20:21.507055,0,0,40,0,0,-7,81,84,23,20,79,136.82,85,-7.00,-3.00,-1036.00
2024-06-07 15:20:21.552609,0,0,40,0,0,-7,81,84,30,30,79,136.92,86,-57.00,-12.00,-959.00
2024-06-07 15:20:21.724198,0,0,40,0,0,-7,81,84,36,30,79,137.12,86,-62.00,1.00,-912.00
2024-06-07 15:20:21.808055,0,0,40,0,0,-6,81,84,41,40,79,137.04,86,-48.00,8.00,-844.00
2024-06-07 15:20:21.858400,0,0,40,0,0,-4,81,84,47,40,79,137.01,86,-19.00,40.00,-830.00
2024-06-07 15:20:21.960466,0,0,40,0,0,-3,81,84,51,50,79,137.33,86,11.00,-10.00,-912.00
2024-06-07 15:20:22.065687,0,0,40,0,0,-2,81,84,54,50,79,136.99,86,13.00,-12.00,-984.00
2024-06-07 15:20:22.164424,0,1,40,0,0,-2,81,84,57,50,79,137.34,86,12.00,-36.00,-885.00
2024-06-07 15:20:22.338571,0,1,40,0,0,-2,81,84,58,50,79,137.10,86,-111.00,59.00,-894.00
2024-06-07 15:20:22.368820,0,1,40,0,0,-1,81,84,60,50,79,137.14,86,43.00,-45.00,-885.00
2024-06-07 15:20:22.470352,0,2,40,0,0,-1,81,84,61,50,79,137.41,86,69.00,-62.00,-1130.00
2024-06-07 15:20:22.645788,0,2,40,0,0,-1,81,84,62,50,79,137.07,87,30.00,-43.00,-937.00
2024-06-07 15:20:22.674411,-1,2,40,0,0,-1,81,84,63,60,79,137.20,87,-5.00,-24.00,-1006.00
2024-06-07 15:20:22.850848,-1,1,40,0,0,-1,81,84,64,60,79,137.35,87,-17.00,-23.00,-951.00
2024-06-07 15:20:22.878397,0,2,40,0,0,-1,81,84,65,60,79,137.00,87,-29.00,-21.00,-996.00
2024-06-07 15:20:23.055427,0,2,40,0,0,-1,81,84,65,60,79,137.24,87,15.00,8.00,-956.00
2024-06-07 15:20:23.082457,0,1,40,0,0,-1,81,84,65,60,79,137.06,87,-11.00,-7.00,-971.00
2024-06-07 15:20:23.260176,0,1,40,0,0,-1,81,84,66,60,79,137.33,87,-22.00,-14.00,-1003.00
2024-06-07 15:20:23.286535,0,1,40,0,0,-1,81,84,66,60,79,137.13,87,-26.00,-8.00,-980.00
2024-06-07 15:20:23.389086,0,2,40,0,0,-1,81,84,67,60,79,137.38,87,-13.00,-27.00,-1004.00
2024-06-07 15:20:23.490600,0,1,40,0,0,-1,81,84,67,60,79,137.17,87,0.00,-24.00,-1028.00
2024-06-07 15:20:23.669784,-1,1,40,0,0,-1,81,84,67,60,79,137.44,88,-33.00,-28.00,-1029.00
2024-06-07 15:20:23.694311,-1,1,40,0,0,-1,81,84,67,60,79,137.07,88,30.00,-65.00,-1025.00
2024-06-07 15:20:23.874480,-1,1,40,0,0,-1,82,84,67,70,79,137.33,88,-7.00,-52.00,-1000.00
2024-06-07 15:20:23.898338,0,1,40,0,0,-1,82,84,67,70,79,137.40,88,-29.00,-51.00,-1049.00
2024-06-07 15:20:24.079370,0,2,40,0,0,-1,82,84,67,70,79,137.22,88,1.00,-52.00,-1016.00
2024-06-07 15:20:24.104125,0,3,40,0,0,-1,82,84,67,70,79,137.23,88,-10.00,-43.00,-927.00
2024-06-07 15:20:24.204711,0,3,40,0,0,-1,82,84,67,70,79,137.05,88,34.00,-68.00,-1072.00
2024-06-07 15:20:24.386566,0,3,40,0,0,-1,82,84,66,70,79,137.27,88,-35.00,-65.00,-1058.00
2024-06-07 15:20:24.408320,0,3,40,0,0,-1,82,84,66,80,79,137.32,88,-74.00,4.00,-985.00
2024-06-07 15:20:24.593123,0,2,40,0,0,-1,82,84,66,80,79,137.20,88,-59.00,-16.00,-979.00
2024-06-07 15:20:24.613065,0,2,40,0,0,-1,82,84,65,80,79,137.22,89,64.00,-71.00,-935.00
2024-06-07 15:20:24.714371,0,2,40,0,0,-1,82,84,65,80,79,137.22,89,-96.00,19.00,-1082.00
2024-06-07 15:20:24.816321,0,2,40,0,0,-2,81,84,66,80,79,137.45,89,22.00,-46.00,-1030.00
2024-06-07 15:20:25.001827,0,2,40,0,0,-2,81,84,65,80,79,137.51,89,6.00,-44.00,-1070.00
2024-06-07 15:20:25.020307,0,2,40,0,0,-2,81,84,65,90,79,137.08,89,81.00,-84.00,-982.00
2024-06-07 15:20:25.205853,0,2,40,0,0,-2,81,84,65,90,79,137.26,89,20.00,-52.00,-998.00
2024-06-07 15:20:25.224292,0,2,40,0,0,-2,81,84,64,90,79,137.31,89,66.00,-330.00,-908.00
2024-06-07 15:20:25.410546,0,4,40,0,0,-2,81,84,64,90,79,136.95,89,-22.00,-10.00,-998.00
2024-06-07 15:20:25.412759,1,6,40,0,0,-2,81,84,63,90,79,137.44,89,-65.00,-14.00,-1024.00
2024-06-07 15:20:25.480803,0,4,40,0,0,-2,81,84,62,90,79,136.99,89,22.00,-29.00,-904.00
2024-06-07 15:20:25.615386,0,3,40,0,0,-2,81,84,61,90,79,137.25,90,-31.00,-7.00,-912.00
2024-06-07 15:20:25.684268,0,2,40,0,0,-2,81,84,61,100,79,137.55,90,74.00,-63.00,-1000.00
2024-06-07 15:20:25.786414,0,1,40,0,0,-2,82,84,60,100,79,137.35,90,-10.00,-45.00,-1005.00
2024-06-07 15:20:25.922962,0,1,40,0,0,-2,82,84,59,100,79,137.36,90,6.00,-42.00,-1036.00
2024-06-07 15:20:25.990248,0,1,40,0,0,-2,82,84,59,100,79,137.38,90,30.00,-56.00,-1048.00
2024-06-07 15:20:26.128375,0,1,40,0,0,-2,82,84,59,110,79,137.32,90,14.00,-63.00,-1081.00
2024-06-07 15:20:26.194233,1,1,40,0,0,-3,82,84,58,110,79,137.34,90,-103.00,24.00,-1034.00
2024-06-07 15:20:26.296223,1,1,40,0,0,-3,82,84,58,110,79,136.98,90,-27.00,-41.00,-1010.00
2024-06-07 15:20:26.398508,1,2,40,0,0,-3,82,84,57,110,79,137.05,90,-46.00,-17.00,-1036.00
2024-06-07 15:20:26.537360,1,2,40,0,0,-2,82,84,57,110,79,136.98,90,-7.00,-6.00,-952.00
2024-06-07 15:20:26.602200,1,2,40,0,0,-2,82,84,57,120,79,137.19,91,-12.00,-21.00,-1007.00
2024-06-07 15:20:26.736930,1,2,40,0,0,-2,82,84,56,120,79,137.50,91,9.00,-21.00,-1015.00
2024-06-07 15:20:26.806509,1,2,40,0,0,-3,81,84,56,120,79,137.15,91,-86.00,-14.00,-1033.00
2024-06-07 15:20:26.946990,1,2,40,0,0,-3,81,84,57,120,79,137.08,91,-43.00,19.00,-901.00
2024-06-07 15:20:27.010172,1,2,40,0,0,-3,81,84,57,120,79,136.91,91,5.00,-27.00,-1038.00
2024-06-07 15:20:27.151384,1,1,40,0,0,-3,81,84,57,120,79,137.41,91,61.00,-52.00,-1012.00
2024-06-07 15:20:27.214137,1,1,40,0,0,-3,81,84,58,130,79,137.38,91,52.00,-84.00,-1102.00
2024-06-07 15:20:27.356170,1,2,40,0,0,-4,81,84,58,130,79,137.13,91,-32.00,10.00,-904.00
2024-06-07 15:20:27.418213,0,2,40,0,0,-3,81,84,58,130,79,137.03,91,30.00,-27.00,-922.00
2024-06-07 15:20:27.520221,0,1,40,0,0,-3,81,84,58,130,79,137.34,91,-53.00,18.00,-1055.00
2024-06-07 15:20:27.622167,0,1,40,0,0,-3,81,84,57,130,79,137.46,92,-45.00,-2.00,-1012.00
2024-06-07 15:20:27.765910,0,1,40,0,0,-3,81,84,56,140,79,136.99,92,-10.00,0.00,-996.00
2024-06-07 15:20:27.826562,0,1,40,0,0,-3,82,84,55,140,79,137.17,92,82.00,-28.00,-981.00
2024-06-07 15:20:27.970529,0,1,40,0,0,-3,82,84,55,140,79,137.10,92,102.00,-51.00,-1097.00
2024-06-07 15:20:28.030137,0,1,40,0,0,-3,82,84,55,140,79,137.12,92,51.00,-14.00,-1008.00
2024-06-07 15:20:28.175426,0,1,40,0,0,-3,82,84,54,140,79,137.09,92,31.00,20.00,-892.00
2024-06-07 15:20:28.234104,0,1,40,0,0,-3,82,84,53,140,79,137.16,92,-26.00,-9.00,-740.00
2024-06-07 15:20:28.380072,0,1,40,0,0,1,82,84,51,130,79,137.27,92,-78.00,30.00,-937.00
2024-06-07 15:20:28.438194,0,1,40,0,0,1,82,84,48,130,79,137.26,92,38.00,-19.00,-1015.00
2024-06-07 15:20:28.584940,0,1,40,0,0,1,82,84,45,130,79,137.20,92,8.00,-20.00,-1044.00
2024-06-07 15:20:28.642064,0,1,40,0,0,1,82,84,43,120,79,136.86,93,-6.00,-16.00,-1022.00
2024-06-07 15:20:28.789736,1,1,40,0,0,1,82,84,42,120,79,137.11,93,90.00,-71.00,-1042.00
2024-06-07 15:20:28.846153,0,0,40,0,0,0,81,84,41,120,79,137.02,93,57.00,-51.00,-1080.00
2024-06-07 15:20:28.994710,1,1,40,0,0,0,81,84,40,120,79,137.06,93,-43.00,-19.00,-1063.00
2024-06-07 15:20:29.050113,1,1,40,0,0,0,81,84,40,120,79,136.87,93,39.00,-49.00,-1011.00
2024-06-07 15:20:29.199458,1,1,40,0,0,0,81,84,40,120,79,137.24,93,-1.00,-41.00,-975.00
2024-06-07 15:20:29.203185,1,1,40,0,0,0,81,84,40,120,79,136.72,93,79.00,-58.00,-1133.00
2024-06-07 15:20:29.311498,1,1,40,0,0,0,81,84,40,120,79,137.09,93,-50.00,17.00,-960.00
2024-06-07 15:20:29.407449,1,1,40,0,0,0,81,84,41,120,79,136.89,93,133.00,-50.00,-977.00
2024-06-07 15:20:29.509175,1,1,40,0,0,0,81,84,41,120,79,137.23,93,41.00,24.00,-911.00
2024-06-07 15:20:29.611372,1,1,40,0,0,0,81,84,41,120,79,137.03,94,-29.00,-24.00,-1122.00
2024-06-07 15:20:29.713157,1,1,40,0,0,0,81,84,41,120,79,137.03,94,71.00,-62.00,-1086.00
2024-06-07 15:20:29.815397,1,1,40,0,0,0,81,84,41,120,79,137.24,94,80.00,-23.00,-938.00
2024-06-07 15:20:30.020109,1,2,40,0,0,0,81,84,41,120,79,137.23,94,-28.00,-5.00,-1011.00
2024-06-07 15:20:30.020291,1,2,40,0,0,0,81,84,40,120,79,137.10,94,87.00,-57.00,-1105.00
2024-06-07 15:20:30.154145,1,1,40,0,0,0,81,84,40,120,79,137.12,94,5.00,-3.00,-931.00
2024-06-07 15:20:30.223577,1,1,40,0,0,0,81,84,39,120,79,136.82,94,17.00,7.00,-944.00
2024-06-07 15:20:30.325542,1,1,40,0,0,0,81,84,38,120,79,137.11,94,0.00,-26.00,-1015.00
2024-06-07 15:20:30.430171,1,1,40,0,0,0,81,84,37,120,79,137.10,94,-37.00,21.00,-1085.00
2024-06-07 15:20:30.530581,1,0,40,0,0,0,81,84,37,120,79,136.91,94,88.00,-55.00,-1054.00
2024-06-07 15:20:30.633071,1,0,40,0,0,0,81,84,37,120,79,136.99,95,41.00,-20.00,-990.00
2024-06-07 15:20:30.735418,1,1,40,0,0,0,81,84,37,120,79,136.81,95,-2.00,3.00,-960.00
2024-06-07 15:20:30.835133,1,1,40,0,0,0,82,84,37,120,79,136.75,95,-3.00,-14.00,-1063.00
2024-06-07 15:20:30.940184,1,1,40,0,0,0,82,84,38,120,79,136.90,95,-33.00,10.00,-982.00
2024-06-07 15:20:31.039449,1,1,40,0,0,0,82,84,39,120,79,136.91,95,46.00,-44.00,-1020.00
2024-06-07 15:20:31.141296,2,1,40,0,0,0,82,84,40,120,79,137.11,95,38.00,-53.00,-904.00
2024-06-07 15:20:31.248702,2,1,40,0,0,0,82,84,41,120,79,136.91,95,20.00,-69.00,-1206.00
2024-06-07 15:20:31.345245,1,1,40,0,0,-1,82,84,42,120,79,137.00,95,37.00,8.00,-993.00
2024-06-07 15:20:31.448426,1,2,40,0,0,-2,82,84,44,130,79,137.12,95,18.00,-121.00,-1306.00
2024-06-07 15:20:31.549236,1,2,40,0,0,-3,82,84,46,130,79,136.89,95,-12.00,13.00,-1050.00
2024-06-07 15:20:31.651247,1,3,40,0,0,-3,82,84,49,130,79,136.98,96,-55.00,0.00,-1052.00
2024-06-07 15:20:31.759243,1,2,40,0,0,-4,82,84,53,140,79,137.14,96,41.00,-45.00,-944.00
2024-06-07 15:20:31.855048,1,2,40,0,0,-4,82,85,59,140,79,137.33,96,-34.00,-14.00,-989.00
2024-06-07 15:20:31.964054,1,1,40,0,0,-4,82,85,63,140,79,137.08,96,78.00,-72.00,-972.00
2024-06-07 15:20:32.058913,1,0,40,0,0,-4,82,85,68,150,79,137.24,96,-22.00,35.00,-935.00
2024-06-07 15:20:32.168893,2,0,40,0,0,-4,82,85,72,150,79,137.13,96,-41.00,-28.00,-1044.00
2024-06-07 15:20:32.264893,1,0,40,0,0,-4,82,85,78,160,79,137.21,96,123.00,-66.00,-1086.00
2024-06-07 15:20:32.364882,1,0,40,0,0,-4,82,85,83,160,79,137.55,96,36.00,3.00,-1028.00
2024-06-07 15:20:32.466899,1,0,40,0,0,-5,82,85,88,170,79,137.30,96,30.00,-29.00,-987.00
2024-06-07 15:20:32.568810,2,0,40,0,0,-5,82,85,93,170,79,137.17,96,13.00,14.00,-876.00
2024-06-07 15:20:32.681154,1,0,40,0,0,-4,82,85,98,180,79,137.37,97,9.00,2.00,-955.00
2024-06-07 15:20:32.721985,1,0,40,0,0,-4,82,85,102,180,79,137.59,97,-8.00,-9.00,-1011.00
2024-06-07 15:20:32.885692,1,0,40,0,0,-4,82,84,108,180,79,137.32,97,12.00,11.00,-945.00
2024-06-07 15:20:32.976756,1,0,40,0,0,-3,82,84,112,190,79,137.57,97,79.00,-60.00,-1079.00
2024-06-07 15:20:33.078868,1,0,40,0,0,-4,82,84,116,190,79,137.63,97,10.00,-33.00,-926.00
2024-06-07 15:20:33.129875,1,1,40,0,0,-3,82,84,120,200,79,137.64,97,88.00,-35.00,-995.00
2024-06-07 15:20:33.295268,1,1,40,0,0,-3,82,84,124,200,79,137.76,97,21.00,-30.00,-959.00
2024-06-07 15:20:33.333818,1,1,40,0,0,-2,82,84,127,200,79,137.67,97,-6.00,-18.00,-888.00
2024-06-07 15:20:33.435787,2,1,40,0,0,-2,82,84,130,210,79,137.85,97,20.00,12.00,-937.00
2024-06-07 15:20:33.537926,2,1,40,0,0,-2,82,84,133,210,79,137.67,97,75.00,-54.00,-1002.00
2024-06-07 15:20:33.704952,2,1,40,0,0,-2,82,84,133,210,79,138.00,98,64.00,-16.00,-950.00
2024-06-07 15:20:33.741766,2,1,40,0,0,-1,82,84,136,210,79,138.04,98,27.00,-8.00,-970.00
2024-06-07 15:20:33.909683,2,2,40,0,0,-1,82,85,135,220,79,138.05,98,48.00,0.00,-970.00
2024-06-07 15:20:33.945880,2,1,40,0,0,-1,82,85,138,220,79,137.96,98,108.00,17.00,-1001.00
2024-06-07 15:20:34.115027,2,1,40,0,0,-1,82,85,137,220,79,137.80,98,53.00,-14.00,-999.00
2024-06-07 15:20:34.150979,2,0,40,0,0,0,82,85,136,220,79,137.92,98,136.00,-93.00,-981.00
2024-06-07 15:20:34.319494,2,1,40,0,0,0,82,85,136,220,79,137.99,98,41.00,12.00,-908.00
2024-06-07 15:20:34.353977,2,1,40,0,0,0,82,85,135,220,79,137.52,98,50.00,-5.00,-1066.00
2024-06-07 15:20:34.455883,2,0,40,0,0,0,82,85,133,220,79,137.85,98,25.00,-19.00,-991.00
2024-06-07 15:20:34.557968,2,0,40,0,0,0,82,85,134,220,79,137.53,98,-4.00,17.00,-946.00
2024-06-07 15:20:34.729075,2,0,40,0,0,0,82,85,132,220,79,137.83,99,64.00,-9.00,-984.00
2024-06-07 15:20:34.761903,2,1,40,0,0,0,82,85,132,210,79,137.84,99,-48.00,26.00,-1112.00
2024-06-07 15:20:34.933929,3,1,40,0,0,0,82,84,131,210,79,137.79,99,86.00,-7.00,-973.00
2024-06-07 15:20:34.965847,2,1,40,0,0,0,82,84,131,210,79,137.54,99,55.00,-11.00,-978.00
2024-06-07 15:20:35.067783,3,1,40,0,0,0,82,84,130,210,79,137.69,99,57.00,-19.00,-922.00
2024-06-07 15:20:35.169908,3,1,40,0,0,0,82,84,131,210,79,137.44,99,24.00,-12.00,-914.00
2024-06-07 15:20:35.272176,3,1,40,0,0,0,82,84,130,210,79,137.61,99,15.00,-29.00,-1013.00
2024-06-07 15:20:35.373962,3,1,40,0,0,0,82,84,131,210,79,137.74,99,-24.00,19.00,-1032.00
2024-06-07 15:20:35.475810,3,1,40,0,0,0,82,84,132,210,79,137.62,99,123.00,-27.00,-1002.00
2024-06-07 15:20:35.577760,2,1,40,0,0,0,82,84,131,210,79,137.81,99,35.00,-40.00,-1005.00
2024-06-07 15:20:35.753014,2,1,40,0,0,0,82,84,134,210,79,137.37,100,91.00,-1.00,-990.00
2024-06-07 15:20:35.781881,2,1,40,0,0,0,82,84,134,210,79,137.26,100,73.00,-2.00,-952.00
2024-06-07 15:20:35.957834,3,0,40,0,0,0,82,85,133,210,79,138.08,100,36.00,-1.00,-910.00
2024-06-07 15:20:35.985730,3,0,40,0,0,0,82,85,134,210,79,137.75,100,75.00,-85.00,-1228.00
2024-06-07 15:20:36.116563,2,0,40,0,0,0,82,85,135,210,79,138.10,100,81.00,0.00,-900.00
2024-06-07 15:20:36.189799,2,0,40,0,0,0,82,85,136,210,79,137.76,100,86.00,-44.00,-1067.00
2024-06-07 15:20:36.367295,1,0,40,0,0,0,82,85,136,220,79,137.87,100,69.00,-14.00,-988.00
2024-06-07 15:20:36.396233,1,0,40,0,0,0,82,85,137,220,79,138.12,100,25.00,-36.00,-879.00
2024-06-07 15:20:36.495675,1,0,40,0,0,0,82,85,137,220,79,137.69,100,49.00,-18.00,-1052.00
2024-06-07 15:20:36.597657,1,0,40,0,0,1,82,85,137,220,79,137.56,101,-46.00,-6.00,-938.00
2024-06-07 15:20:36.779962,1,1,40,0,0,1,82,85,136,210,79,137.76,101,14.00,-15.00,-1021.00
2024-06-07 15:20:36.801690,1,0,40,0,0,1,82,85,133,210,79,137.61,101,36.00,-14.00,-897.00
2024-06-07 15:20:36.981690,1,0,40,0,0,1,82,84,133,210,79,138.03,101,43.00,9.00,-990.00
2024-06-07 15:20:36.981838,2,0,40,0,0,2,82,84,130,210,79,137.46,101,-20.00,32.00,-962.00
2024-06-07 15:20:37.056725,2,1,40,0,0,2,82,84,128,210,79,137.73,101,112.00,-84.00,-1083.00
2024-06-07 15:20:37.186476,2,1,40,0,0,3,82,84,124,200,79,137.56,101,79.00,7.00,-1153.00
2024-06-07 15:20:37.262370,2,1,40,0,0,3,82,84,120,200,79,137.43,101,76.00,-58.00,-1138.00
2024-06-07 15:20:37.362792,2,1,40,0,0,2,82,84,117,200,79,137.57,101,63.00,-12.00,-992.00
2024-06-07 15:20:37.464915,2,1,40,0,0,2,82,84,115,190,79,137.50,101,94.00,-24.00,-994.00
2024-06-07 15:20:37.596013,3,1,40,0,0,2,82,84,111,190,79,137.25,102,55.00,-6.00,-1046.00
2024-06-07 15:20:37.668652,3,1,40,0,0,2,82,84,108,190,79,137.41,102,76.00,-50.00,-1058.00
2024-06-07 15:20:37.800858,3,1,40,0,0,2,82,84,104,180,79,137.52,102,29.00,-3.00,-899.00
2024-06-07 15:20:37.872662,3,1,40,0,0,2,82,85,102,180,79,137.77,102,47.00,-52.00,-1074.00
2024-06-07 15:20:38.005673,3,1,40,0,0,2,82,85,99,180,79,137.28,102,50.00,-16.00,-1006.00
2024-06-07 15:20:38.076552,2,1,40,0,0,2,82,85,95,180,79,137.40,102,38.00,2.00,-973.00
2024-06-07 15:20:38.210447,3,1,40,0,0,2,82,85,93,170,79,137.51,102,46.00,-19.00,-1176.00
2024-06-07 15:20:38.280606,3,1,40,0,0,2,82,85,90,170,79,137.10,102,72.00,-30.00,-1027.00
2024-06-07 15:20:38.382956,3,1,40,0,0,1,82,85,87,170,79,137.44,102,26.00,-20.00,-1032.00
2024-06-07 15:20:38.484670,2,0,40,0,0,1,82,85,85,170,79,137.22,102,66.00,-45.00,-1048.00
2024-06-07 15:20:38.620261,2,1,40,0,0,0,82,85,83,170,79,137.35,103,48.00,-12.00,-1056.00
2024-06-07 15:20:38.688826,2,1,40,0,0,0,82,85,82,160,79,137.45,103,34.00,-35.00,-1117.00
2024-06-07 15:20:38.824976,2,0,40,0,0,0,82,85,81,160,79,137.17,103,65.00,-25.00,-1050.00
2024-06-07 15:20:38.892955,2,0,40,0,0,0,82,86,79,160,79,137.05,103,85.00,-68.00,-1126.00
2024-06-07 15:20:39.029872,2,0,40,0,0,0,82,86,78,160,79,137.07,103,33.00,15.00,-991.00
2024-06-07 15:20:39.096579,2,0,40,0,0,0,82,86,77,160,79,136.90,103,-40.00,44.00,-965.00
2024-06-07 15:20:39.234527,2,0,40,0,0,0,82,86,76,160,79,137.23,103,-31.00,17.00,-1030.00
2024-06-07 15:20:39.300603,1,0,40,0,0,0,82,86,76,160,79,136.93,103,-6.00,4.00,-1149.00
2024-06-07 15:20:39.439454,2,0,40,0,0,0,82,86,76,160,79,137.21,103,65.00,-23.00,-1242.00
2024-06-07 15:20:39.504751,2,0,40,0,0,0,82,86,76,160,79,137.12,103,90.00,-50.00,-1146.00
2024-06-07 15:20:39.644212,3,1,40,0,0,0,82,86,76,160,79,136.95,104,112.00,-301.00,-1081.00
2024-06-07 15:20:39.708536,3,2,40,0,0,0,82,86,77,160,79,137.02,104,-6.00,46.00,-982.00
2024-06-07 15:20:39.848942,3,1,40,0,0,0,82,86,76,160,79,137.13,104,106.00,-82.00,-1054.00
2024-06-07 15:20:39.912778,2,0,40,0,0,0,82,85,77,160,79,137.22,104,58.00,-28.00,-1008.00
2024-06-07 15:20:40.054078,2,0,40,0,0,0,82,85,77,160,79,137.17,104,94.00,-192.00,-1026.00
2024-06-07 15:20:40.116569,3,1,40,0,0,0,82,85,78,160,79,137.53,104,76.00,-39.00,-1055.00
2024-06-07 15:20:40.262581,3,1,40,0,0,0,82,85,78,160,79,137.13,104,53.00,-40.00,-989.00
2024-06-07 15:20:40.320948,3,1,40,0,0,0,82,85,79,160,79,137.06,104,71.00,0.00,-942.00
2024-06-07 15:20:40.422609,3,0,40,0,0,-1,82,85,79,160,79,137.26,104,48.00,-18.00,-952.00
2024-06-07 15:20:40.474538,1,0,40,0,0,0,82,85,79,160,79,137.27,104,59.00,-36.00,-1054.00
2024-06-07 15:20:40.576980,-4,0,40,0,0,0,82,85,79,160,79,136.86,105,69.00,-15.00,-864.00
2024-06-07 15:20:40.677586,-7,0,40,1,1,0,82,85,79,160,79,136.86,105,4.00,11.00,-1024.00
2024-06-07 15:20:40.779701,-6,0,40,2,2,0,82,85,78,160,79,137.02,105,57.00,-20.00,-1000.00
2024-06-07 15:20:40.975228,-6,0,40,2,2,0,82,86,77,160,79,137.13,105,19.00,-14.00,-1030.00
2024-06-07 15:20:40.983355,-6,0,40,3,3,0,82,86,77,160,79,137.37,105,49.00,-5.00,-985.00
2024-06-07 15:20:41.180024,-5,0,40,4,4,0,82,86,77,160,79,136.94,105,-49.00,-11.00,-1055.00
2024-06-07 15:20:41.187495,-4,0,40,5,4,0,82,86,79,160,79,137.15,105,-57.00,3.00,-1044.00
2024-06-07 15:20:41.384821,-3,0,40,5,4,0,82,86,79,160,79,137.11,105,9.00,-38.00,-1224.00
2024-06-07 15:20:41.391402,-1,0,40,6,5,0,82,86,81,160,79,137.37,105,-58.00,-16.00,-1005.00
2024-06-07 15:20:41.493642,1,0,40,6,5,0,82,86,84,160,79,136.82,105,-44.00,-4.00,-969.00
2024-06-07 15:20:41.692045,4,0,40,6,4,0,82,86,86,160,79,137.33,106,1.00,-27.00,-1021.00
2024-06-07 15:20:41.697417,7,1,40,5,4,0,82,86,89,160,79,137.63,106,-33.00,14.00,-953.00
2024-06-07 15:20:41.898130,7,1,40,4,3,0,82,86,91,160,79,137.10,106,-64.00,37.00,-979.00
2024-06-07 15:20:41.901693,5,1,40,3,2,0,82,86,92,160,79,137.62,106,-30.00,-2.00,-984.00
2024-06-07 15:20:42.101609,4,0,40,2,2,0,82,86,94,160,79,137.12,106,-22.00,-14.00,-1035.00
2024-06-07 15:20:42.105303,3,0,40,2,2,-1,82,86,96,170,79,137.24,106,32.00,-36.00,-1012.00
2024-06-07 15:20:42.207320,2,1,40,2,2,-1,82,86,98,170,79,137.20,106,-2.00,-28.00,-955.00
2024-06-07 15:20:42.309514,2,1,40,2,2,0,82,86,101,170,79,137.64,106,20.00,9.00,-940.00
2024-06-07 15:20:42.411381,6,1,40,2,2,0,82,86,103,170,79,137.59,106,-7.00,29.00,-893.00
2024-06-07 15:20:42.613499,8,0,40,1,1,0,82,86,103,170,79,137.39,106,52.00,-30.00,-996.00
2024-06-07 15:20:42.615587,5,0,40,0,0,0,82,86,102,170,79,137.55,107,90.00,-20.00,-977.00
2024-06-07 15:20:42.717515,4,0,40,0,0,0,82,86,103,170,79,137.48,107,78.00,-23.00,-1075.00
2024-06-07 15:20:42.920960,4,0,40,0,0,0,82,86,103,170,79,137.66,107,55.00,-14.00,-1097.00
2024-06-07 15:20:42.921453,3,0,40,0,0,0,82,85,102,170,79,137.21,107,-12.00,-25.00,-1031.00
2024-06-07 15:20:43.023749,2,0,40,0,0,0,82,85,101,170,79,137.22,107,74.00,-24.00,-1070.00
2024-06-07 15:20:43.125841,2,0,40,0,0,0,82,85,100,170,79,137.58,107,-1.00,5.00,-986.00
2024-06-07 15:20:43.228069,2,0,40,0,0,0,82,85,99,170,79,137.16,107,34.00,-4.00,-950.00
2024-06-07 15:20:43.330916,1,0,40,0,0,1,82,85,96,170,79,137.55,107,80.00,-15.00,-953.00
2024-06-07 15:20:43.432962,1,0,40,0,0,1,82,85,94,170,79,137.32,107,63.00,-28.00,-1015.00
2024-06-07 15:20:43.533800,2,1,40,0,0,1,82,85,93,170,79,137.37,107,58.00,-37.00,-999.00
2024-06-07 15:20:43.639092,2,1,40,0,0,1,82,85,90,170,79,137.32,108,16.00,-17.00,-1048.00
2024-06-07 15:20:43.737217,2,0,40,0,0,0,82,85,88,170,79,136.99,108,71.00,-38.00,-1147.00
2024-06-07 15:20:43.842557,2,0,40,0,0,0,82,85,86,160,79,137.14,108,31.00,-9.00,-1030.00
2024-06-07 15:20:43.941268,2,0,40,0,0,0,82,85,83,160,79,137.33,108,1.00,-13.00,-1090.00
2024-06-07 15:20:44.047316,2,0,40,0,0,1,82,85,82,160,79,137.14,108,20.00,-29.00,-1018.00
2024-06-07 15:20:44.146216,1,0,40,0,0,0,82,85,80,160,79,137.19,108,29.00,-40.00,-1287.00
2024-06-07 15:20:44.196378,1,0,40,0,0,0,82,85,79,160,79,137.22,108,46.00,-22.00,-993.00
2024-06-07 15:20:44.354504,1,1,40,0,0,0,82,85,77,160,79,137.19,108,15.00,-29.00,-1020.00
2024-06-07 15:20:44.400735,1,1,40,0,0,0,82,85,76,160,79,137.07,108,13.00,-5.00,-1010.00
2024-06-07 15:20:44.502577,1,1,40,0,0,0,82,85,74,160,79,136.87,108,73.00,-10.00,-948.00
2024-06-07 15:20:44.618367,2,0,40,0,0,0,82,85,73,150,79,137.35,109,45.00,-1.00,-973.00
2024-06-07 15:20:44.706196,2,0,40,0,0,0,82,85,72,150,79,137.18,109,15.00,-13.00,-999.00
2024-06-07 15:20:44.866393,6,0,40,0,0,0,82,85,73,150,79,137.28,109,40.00,8.00,-1116.00
2024-06-07 15:20:44.910458,8,0,40,0,0,0,82,85,73,150,79,137.04,109,94.00,-43.00,-1095.00
2024-06-07 15:20:45.071196,8,0,40,-1,-1,0,82,85,73,150,79,136.99,109,85.00,-10.00,-1057.00
2024-06-07 15:20:45.114202,8,0,40,-1,-1,0,82,85,74,150,79,137.05,109,41.00,-56.00,-1065.00
2024-06-07 15:20:45.275987,8,0,40,-2,-2,-1,82,85,75,150,79,137.28,109,47.00,36.00,-955.00
2024-06-07 15:20:45.318214,8,1,40,-2,-2,-1,82,85,76,150,79,137.00,109,26.00,3.00,-964.00
2024-06-07 15:20:45.481450,8,0,40,-3,-3,-1,82,85,77,150,79,137.01,109,86.00,-8.00,-914.00
2024-06-07 15:20:45.522774,8,0,40,-4,-3,-1,82,85,78,150,79,137.01,109,58.00,4.00,-928.00
2024-06-07 15:20:45.685590,8,0,40,-4,-3,-1,82,85,79,160,79,136.94,110,63.00,-11.00,-1032.00
2024-06-07 15:20:45.727292,8,0,40,-5,-4,0,82,85,80,160,79,137.00,110,158.00,-38.00,-878.00
2024-06-07 15:20:45.890378,7,0,40,-5,-4,0,82,85,81,160,79,137.00,110,43.00,8.00,-1075.00
2024-06-07 15:20:45.930293,4,0,40,-5,-4,0,83,86,81,160,79,137.07,110,139.00,-17.00,-1118.00
2024-06-07 15:20:46.096504,1,0,40,-5,-4,0,83,86,81,160,79,136.97,110,148.00,-38.00,-952.00
2024-06-07 15:20:46.134134,-1,0,40,-4,-3,0,83,86,81,160,79,137.11,110,74.00,-30.00,-1192.00
2024-06-07 15:20:46.299962,-1,0,40,-4,-3,0,83,86,81,160,79,136.84,110,46.00,-11.00,-981.00
2024-06-07 15:20:46.339206,0,0,40,-3,-2,0,83,86,81,160,79,136.98,110,17.00,-5.00,-980.00
2024-06-07 15:20:46.504753,0,0,40,-3,-2,0,83,86,80,160,79,137.14,110,67.00,-7.00,-1012.00
2024-06-07 15:20:46.542132,1,0,40,-2,-2,0,83,86,80,160,79,136.92,110,92.00,-39.00,-1154.00
2024-06-07 15:20:46.709584,2,0,40,-2,-2,0,83,86,80,160,79,137.32,111,89.00,7.00,-1005.00
2024-06-07 15:20:46.746066,3,1,40,-1,-2,0,83,86,82,160,79,136.83,111,47.00,7.00,-1055.00
2024-06-07 15:20:46.914779,3,2,40,-1,-1,0,83,86,82,160,79,137.06,111,66.00,-6.00,-1001.00
2024-06-07 15:20:46.950277,3,2,40,-2,-1,0,82,86,83,160,79,137.49,111,76.00,23.00,-986.00
2024-06-07 15:20:47.119183,2,3,40,-1,-1,0,82,86,84,160,79,137.17,111,36.00,-22.00,-1118.00
2024-06-07 15:20:47.154202,2,3,40,-1,0,-1,82,86,86,160,79,137.34,111,-12.00,47.00,-977.00
2024-06-07 15:20:47.323953,-1,-1,40,-1,0,0,82,86,86,160,79,136.94,111,59.00,-17.00,-946.00
2024-06-07 15:20:47.358141,0,0,40,0,0,-1,82,86,88,160,79,136.99,111,-11.00,12.00,-957.00
2024-06-07 15:20:47.529040,1,0,40,0,0,0,82,86,90,160,79,137.36,111,44.00,-27.00,-955.00
2024-06-07 15:20:47.529227,1,0,40,0,0,0,82,86,90,160,79,137.30,111,20.00,1.00,-930.00
2024-06-07 15:20:47.618935,2,0,40,0,0,0,82,86,90,160,79,137.28,112,19.00,35.00,-1022.00
2024-06-07 15:20:47.716520,2,0,40,0,0,0,82,86,92,160,79,136.94,112,98.00,-31.00,-972.00
2024-06-07 15:20:47.836117,2,0,40,0,0,0,82,86,93,160,79,137.06,112,-110.00,62.00,-974.00
2024-06-07 15:20:47.920160,3,0,40,0,0,0,82,85,94,160,79,137.11,112,71.00,0.00,-1003.00
2024-06-07 15:20:48.022260,3,0,40,0,0,0,82,85,95,170,79,137.11,112,0.00,-7.00,-1122.00
2024-06-07 15:20:48.143481,3,0,40,0,0,0,82,85,96,170,79,137.46,112,140.00,-21.00,-997.00
2024-06-07 15:20:48.226236,3,0,40,0,0,0,82,85,96,170,79,137.36,112,-35.00,48.00,-1059.00
2024-06-07 15:20:48.348087,3,0,40,0,0,0,82,85,97,170,79,137.30,112,10.00,-4.00,-1048.00
2024-06-07 15:20:48.430522,3,0,40,0,0,0,82,85,97,170,79,136.83,112,131.00,-22.00,-939.00
2024-06-07 15:20:48.552972,3,0,40,0,0,0,82,85,96,170,79,137.28,112,85.00,2.00,-1064.00
2024-06-07 15:20:48.636719,3,0,40,0,0,0,82,85,98,170,79,137.36,113,124.00,-8.00,-867.00
2024-06-07 15:20:48.736196,3,0,40,0,0,0,82,85,97,170,79,137.33,113,-43.00,50.00,-995.00
2024-06-07 15:20:48.860118,2,0,40,0,0,0,82,85,98,170,79,137.15,113,29.00,-20.00,-1027.00
2024-06-07 15:20:48.940080,2,0,40,0,0,0,83,87,98,170,79,137.13,113,69.00,4.00,-1000.00
2024-06-07 15:20:49.065940,2,0,40,0,0,0,83,87,97,170,79,137.44,113,68.00,-11.00,-904.00
2024-06-07 15:20:49.144092,2,0,40,0,0,0,83,87,97,170,79,137.09,113,41.00,-13.00,-923.00
2024-06-07 15:20:49.269974,2,0,40,0,0,0,83,87,97,170,79,137.00,113,61.00,-37.00,-901.00
2024-06-07 15:20:49.348003,3,0,40,0,0,0,83,87,97,170,79,137.36,113,173.00,-40.00,-1119.00
2024-06-07 15:20:49.474501,3,0,40,0,0,0,83,87,97,170,79,137.03,113,63.00,-34.00,-1070.00
2024-06-07 15:20:49.553064,3,-3,40,0,0,0,83,87,96,170,79,137.32,113,-9.00,12.00,-1071.00
2024-06-07 15:20:49.680151,3,-8,40,0,0,0,83,87,96,170,79,136.95,114,46.00,-13.00,-1045.00
2024-06-07 15:20:49.756996,3,-7,40,1,-1,0,83,87,94,170,79,137.13,114,61.00,-9.00,-928.00
2024-06-07 15:20:49.883968,4,-4,40,2,-2,0,83,87,93,170,79,137.41,114,47.00,3.00,-1009.00
2024-06-07 15:20:49.960928,4,-2,40,2,-2,0,83,86,92,170,79,137.27,114,41.00,13.00,-934.00
2024-06-07 15:20:50.088729,3,0,40,1,-2,0,83,86,92,170,79,137.31,114,77.00,33.00,-973.00
2024-06-07 15:20:50.164902,2,0,40,1,-2,0,83,86,92,160,78,137.24,114,47.00,-5.00,-1048.00
2024-06-07 15:20:50.294680,2,0,40,1,-2,0,83,86,91,160,78,137.24,114,53.00,9.00,-1012.00
2024-06-07 15:20:50.369630,2,0,40,1,-2,0,83,86,91,160,78,137.02,114,64.00,7.00,-1000.00
2024-06-07 15:20:50.498503,2,0,40,1,-2,0,83,86,92,160,78,137.35,114,49.00,-6.00,-968.00
2024-06-07 15:20:50.572881,2,0,40,1,-2,0,83,86,92,160,78,137.27,114,34.00,12.00,-1021.00
2024-06-07 15:20:50.703122,2,0,40,1,-1,0,83,86,93,160,78,137.39,115,-19.00,26.00,-1049.00
2024-06-07 15:20:50.776897,3,0,40,2,-1,0,83,86,94,160,78,137.41,115,56.00,-29.00,-988.00
2024-06-07 15:20:50.909267,4,0,40,1,-1,0,83,86,94,160,78,137.17,115,34.00,-7.00,-1048.00
2024-06-07 15:20:50.981503,4,0,40,1,-1,0,83,86,94,160,78,137.27,115,73.00,-8.00,-900.00
2024-06-07 15:20:51.112737,4,0,40,1,-1,0,83,86,95,160,78,137.10,115,65.00,42.00,-924.00
2024-06-07 15:20:51.184881,3,0,40,1,-1,0,83,86,95,170,78,137.22,115,76.00,-9.00,-908.00
2024-06-07 15:20:51.235854,4,3,40,1,-2,0,83,86,96,170,78,137.42,115,48.00,-8.00,-969.00
2024-06-07 15:20:51.419867,1,7,40,0,-1,0,83,86,96,170,78,137.24,115,110.00,-2.00,-1024.00
2024-06-07 15:20:51.440223,2,3,40,0,0,0,83,86,96,170,78,137.57,115,99.00,3.00,-960.00
2024-06-07 15:20:51.542778,2,1,40,0,0,0,83,86,97,170,78,137.19,115,88.00,0.00,-914.00
2024-06-07 15:20:51.727294,2,0,40,0,0,0,83,86,97,170,78,137.08,116,46.00,-7.00,-902.00
2024-06-07 15:20:51.745821,2,0,40,0,0,0,83,86,98,170,78,137.20,116,-25.00,-22.00,-1069.00
2024-06-07 15:20:51.931929,2,0,40,0,0,0,83,86,98,170,78,137.47,116,62.00,-37.00,-1091.00
2024-06-07 15:20:51.949875,2,0,40,0,0,0,83,86,99,170,78,137.06,116,3.00,31.00,-937.00
2024-06-07 15:20:52.136825,2,0,40,0,0,0,83,86,99,170,78,137.27,116,133.00,-19.00,-1202.00
2024-06-07 15:20:52.153766,3,0,40,0,0,0,83,86,98,170,78,137.28,116,57.00,-24.00,-1054.00
2024-06-07 15:20:52.341855,3,0,40,0,0,0,83,86,99,170,78,137.09,116,61.00,-23.00,-1008.00
2024-06-07 15:20:52.357761,3,0,40,0,0,0,83,86,98,170,78,137.09,116,18.00,-23.00,-971.00
2024-06-07 15:20:52.546888,3,0,40,0,0,0,83,86,98,170,78,137.09,116,-28.00,28.00,-1027.00
2024-06-07 15:20:52.561693,3,0,40,0,0,0,83,86,98,170,78,137.04,116,42.00,3.00,-1102.00
2024-06-07 15:20:52.751375,2,0,40,0,0,0,83,86,98,170,78,137.46,117,91.00,-29.00,-1041.00
2024-06-07 15:20:52.766386,3,0,40,0,0,0,83,86,97,170,78,137.14,117,137.00,-31.00,-1003.00
2024-06-07 15:20:52.955859,3,0,40,0,0,0,83,86,96,170,78,137.40,117,85.00,-22.00,-996.00
2024-06-07 15:20:52.969909,3,0,40,0,0,0,83,85,96,170,78,137.01,117,52.00,0.00,-941.00
2024-06-07 15:20:53.160861,3,0,40,0,0,0,83,85,95,170,78,137.18,117,123.00,-5.00,-1036.00
2024-06-07 15:20:53.173769,3,0,40,0,0,0,83,85,93,170,78,136.80,117,61.00,-10.00,-990.00
2024-06-07 15:20:53.365944,3,0,40,0,0,0,83,85,92,160,78,137.39,117,98.00,-30.00,-1011.00
2024-06-07 15:20:53.377841,2,0,40,0,0,0,83,85,92,160,78,137.18,117,114.00,-41.00,-1152.00
2024-06-07 15:20:53.480516,2,0,40,0,0,0,83,85,91,160,78,137.16,117,88.00,-5.00,-964.00
2024-06-07 15:20:53.672715,2,3,40,0,0,0,83,85,91,160,78,137.07,118,104.00,-67.00,-948.00
2024-06-07 15:20:53.684740,3,8,40,0,0,0,83,85,91,160,78,137.20,118,-1.00,-25.00,-1013.00
2024-06-07 15:20:53.877501,3,7,40,-1,1,0,83,85,90,160,78,137.16,118,59.00,-13.00,-1001.00
2024-06-07 15:20:53.888702,3,5,40,-2,2,0,83,85,90,160,78,137.07,118,39.00,-8.00,-1046.00
2024-06-07 15:20:53.990720,2,2,40,-2,2,0,82,86,89,160,78,137.27,118,-5.00,16.00,-1042.00
2024-06-07 15:20:54.184702,2,0,40,-2,2,0,82,86,89,160,78,137.03,118,81.00,-52.00,-1102.00
2024-06-07 15:20:54.194625,2,0,40,-2,2,0,82,86,89,160,77,137.07,118,47.00,-38.00,-977.00
2024-06-07 15:20:54.392122,2,0,40,-1,2,0,82,86,89,160,77,137.23,118,50.00,-16.00,-1020.00
2024-06-07 15:20:54.399281,3,1,40,-1,2,0,82,86,88,160,77,137.29,118,45.00,4.00,-1001.00
2024-06-07 15:20:54.500662,4,0,40,-1,2,0,82,86,87,160,77,137.06,118,74.00,-45.00,-1029.00
2024-06-07 15:20:54.698757,4,1,40,-1,1,0,82,86,86,160,77,137.13,119,33.00,-16.00,-996.00
2024-06-07 15:20:54.704773,3,1,40,-1,1,0,82,86,85,160,77,137.17,119,50.00,-39.00,-1043.00
2024-06-07 15:20:54.755673,3,1,40,-1,1,0,82,86,84,160,77,137.06,119,38.00,-8.00,-939.00
2024-06-07 15:20:54.901483,2,1,40,-1,1,0,82,86,84,160,77,137.32,119,22.00,-32.00,-1017.00
2024-06-07 15:20:54.959624,2,1,40,-1,1,0,84,86,84,160,77,137.07,119,58.00,-54.00,-1176.00
2024-06-07 15:20:55.110197,1,1,40,-1,1,0,84,86,84,160,77,137.15,119,102.00,-35.00,-941.00
2024-06-07 15:20:55.163595,0,0,40,-1,2,0,84,86,84,160,77,137.16,119,51.00,-15.00,-965.00
2024-06-07 15:20:55.311075,3,-4,40,0,1,0,84,86,84,160,77,137.11,119,-21.00,-31.00,-1053.00
2024-06-07 15:20:55.367737,4,-2,40,0,0,0,84,86,85,160,77,137.26,119,47.00,-2.00,-1080.00
2024-06-07 15:20:55.470726,3,0,40,0,0,0,84,86,84,160,77,137.24,119,137.00,-65.00,-1030.00
2024-06-07 15:20:55.618399,3,0,40,0,0,0,84,86,85,160,77,137.11,120,40.00,0.00,-1000.00
2024-06-07 15:20:55.674967,3,0,40,0,0,0,84,86,86,160,77,137.34,120,-5.00,-4.00,-1005.00
2024-06-07 15:20:55.823230,3,0,40,0,0,0,84,86,85,160,77,137.30,120,61.00,-21.00,-1115.00
2024-06-07 15:20:55.878949,2,0,40,0,0,0,84,86,86,160,77,137.35,120,17.00,44.00,-1029.00
2024-06-07 15:20:56.028781,2,0,40,0,0,0,83,86,86,160,77,137.06,120,64.00,5.00,-963.00
2024-06-07 15:20:56.082683,3,0,40,0,0,0,83,86,85,160,77,137.39,120,77.00,-12.00,-942.00
2024-06-07 15:20:56.233757,3,0,40,0,0,0,83,86,86,160,77,137.16,120,53.00,0.00,-1015.00
2024-06-07 15:20:56.286861,3,0,40,0,0,0,83,86,87,160,77,137.14,120,88.00,-22.00,-1028.00
2024-06-07 15:20:56.437665,2,0,40,0,0,0,83,86,87,160,77,137.08,120,50.00,14.00,-972.00
2024-06-07 15:20:56.490980,2,0,40,0,0,0,83,86,88,160,77,137.08,120,55.00,-6.00,-978.00
2024-06-07 15:20:56.642360,2,0,40,0,0,0,83,86,89,160,77,136.99,121,51.00,-5.00,-970.00
2024-06-07 15:20:56.694614,1,0,40,0,0,0,83,86,90,160,77,137.12,121,-3.00,28.00,-920.00
2024-06-07 15:20:56.848656,2,0,40,0,0,0,83,86,91,160,77,137.36,121,70.00,6.00,-929.00
2024-06-07 15:20:56.898678,2,0,40,0,0,0,83,86,92,160,77,137.01,121,47.00,-5.00,-1055.00
2024-06-07 15:20:57.054068,2,0,40,0,0,0,83,85,93,170,77,137.22,121,15.00,36.00,-951.00
2024-06-07 15:20:57.102599,2,0,40,0,0,0,83,85,95,170,77,137.11,121,43.00,47.00,-947.00
2024-06-07 15:20:57.257175,2,0,40,0,0,0,83,85,95,170,77,137.00,121,52.00,-4.00,-971.00
2024-06-07 15:20:57.306545,2,0,40,0,0,0,83,85,95,170,77,137.30,121,5.00,-21.00,-1105.00
2024-06-07 15:20:57.420397,2,0,40,0,0,0,83,85,95,170,77,137.11,121,82.00,16.00,-1143.00
2024-06-07 15:20:57.510527,2,0,40,0,0,0,83,85,96,170,77,137.38,121,-19.00,22.00,-966.00
2024-06-07 15:20:57.666299,2,0,43,0,0,0,83,85,95,170,77,137.09,122,52.00,-1.00,-983.00
2024-06-07 15:20:57.714493,3,0,49,0,0,0,83,85,94,170,77,137.11,122,37.00,1.00,-988.00
2024-06-07 15:20:57.872487,3,1,55,0,0,1,83,85,94,170,77,137.22,122,98.00,-14.00,-1031.00
2024-06-07 15:20:57.918448,3,0,60,0,0,0,83,85,93,170,77,137.25,122,66.00,17.00,-980.00
2024-06-07 15:20:58.077712,3,0,66,0,0,0,83,86,93,170,77,136.99,122,89.00,7.00,-1042.00
2024-06-07 15:20:58.122427,2,0,72,0,0,0,83,86,94,160,77,137.19,122,113.00,-20.00,-1154.00
2024-06-07 15:20:58.282420,2,0,78,0,0,0,83,86,95,170,77,137.03,122,71.00,-22.00,-970.00
2024-06-07 15:20:58.326534,1,0,84,0,0,0,83,86,95,170,77,137.35,122,48.00,10.00,-981.00
2024-06-07 15:20:58.485454,1,0,90,0,0,0,83,86,98,170,77,137.15,122,138.00,-35.00,-1059.00
2024-06-07 15:20:58.485816,2,1,96,0,0,0,83,86,98,170,77,137.31,122,-49.00,26.00,-953.00
2024-06-07 15:20:58.581462,2,1,102,0,0,0,83,86,99,170,77,137.28,123,-19.00,8.00,-952.00
2024-06-07 15:20:58.691847,2,1,108,0,0,0,83,86,100,170,77,137.27,123,-43.00,18.00,-940.00
2024-06-07 15:20:58.785729,2,2,114,0,0,0,83,86,101,170,77,137.16,123,63.00,-29.00,-1049.00
2024-06-07 15:20:58.895068,2,1,120,0,0,0,83,86,101,170,77,137.17,123,-19.00,17.00,-978.00
2024-06-07 15:20:58.989620,1,1,126,0,0,0,83,87,101,170,77,137.35,123,68.00,-35.00,-1011.00
2024-06-07 15:20:59.102526,1,1,132,0,0,0,83,87,102,170,77,136.98,123,19.00,-7.00,-917.00
2024-06-07 15:20:59.193374,1,1,138,0,0,0,83,87,101,170,77,137.43,123,5.00,22.00,-911.00
2024-06-07 15:20:59.306455,1,1,143,0,0,0,83,87,101,170,77,137.52,123,31.00,-14.00,-1037.00
2024-06-07 15:20:59.397436,1,1,149,0,0,0,83,87,102,170,77,137.37,123,-38.00,0.00,-1013.00
2024-06-07 15:20:59.499613,1,1,155,0,0,0,83,87,102,170,77,137.35,123,5.00,-49.00,-1058.00
2024-06-07 15:20:59.601405,1,2,161,0,0,0,83,87,102,170,77,137.38,124,62.00,-29.00,-1165.00
2024-06-07 15:20:59.714848,1,1,167,0,0,0,83,87,102,170,77,137.37,124,42.00,-26.00,-999.00
2024-06-07 15:20:59.805332,1,1,173,0,0,0,83,87,102,170,77,137.32,124,-47.00,-9.00,-1083.00
2024-06-07 15:20:59.919049,1,1,179,0,0,0,83,87,102,170,77,137.33,124,-26.00,36.00,-943.00
2024-06-07 15:21:00.009725,1,2,-174,0,0,0,84,88,101,170,77,137.82,124,-7.00,-9.00,-986.00
2024-06-07 15:21:00.123891,1,1,-168,0,0,0,84,88,101,170,76,137.29,124,-90.00,36.00,-1089.00
2024-06-07 15:21:00.213500,0,1,-162,0,0,0,84,88,101,170,76,137.26,124,-10.00,37.00,-987.00
2024-06-07 15:21:00.328699,0,0,-156,0,0,0,84,88,101,170,76,137.26,124,8.00,46.00,-940.00
2024-06-07 15:21:00.419175,0,0,-151,0,0,0,84,88,100,170,76,137.20,124,40.00,14.00,-1097.00
2024-06-07 15:21:00.521461,0,0,-145,0,0,0,84,88,100,170,76,137.17,124,-118.00,64.00,-1110.00
2024-06-07 15:21:00.624002,0,0,-139,0,0,0,84,88,101,170,76,137.28,125,59.00,-1.00,-949.00
2024-06-07 15:21:00.724350,0,1,-133,0,0,0,84,88,100,170,76,137.40,125,58.00,-9.00,-1048.00
2024-06-07 15:21:00.825648,0,1,-126,0,0,0,84,88,102,170,76,137.10,125,8.00,23.00,-1029.00
2024-06-07 15:21:00.927700,0,1,-120,0,0,0,84,88,102,170,76,137.50,125,-6.00,14.00,-1032.00
2024-06-07 15:21:01.045427,0,1,-114,0,0,0,83,86,102,170,76,137.44,125,-62.00,63.00,-1070.00
2024-06-07 15:21:01.135830,0,1,-108,0,-1,0,83,86,103,170,76,137.53,125,20.00,-3.00,-1049.00
2024-06-07 15:21:01.233700,0,1,-102,0,0,0,83,86,103,170,76,137.38,125,-11.00,-1.00,-1026.00
2024-06-07 15:21:01.338884,0,0,-96,0,-1,0,83,86,103,170,76,137.20,125,34.00,86.00,-859.00
2024-06-07 15:21:01.437299,0,0,-90,0,-1,0,83,86,103,170,76,137.25,125,-31.00,35.00,-1036.00
2024-06-07 15:21:01.539835,1,0,-84,1,-1,0,83,86,103,170,76,137.33,125,29.00,81.00,-1075.00
2024-06-07 15:21:01.659828,1,0,-78,1,-1,0,83,86,103,170,76,137.37,126,31.00,19.00,-888.00
2024-06-07 15:21:01.746778,1,0,-72,1,-1,0,83,86,101,170,76,137.55,126,41.00,26.00,-979.00
2024-06-07 15:21:01.845259,1,0,-66,1,0,0,83,86,100,170,76,137.37,126,42.00,1.00,-1028.00
2024-06-07 15:21:01.968273,1,0,-60,1,0,1,83,86,98,170,76,137.30,126,-6.00,54.00,-1014.00
2024-06-07 15:21:02.050022,1,0,-54,1,0,1,83,86,98,170,76,137.20,126,106.00,-10.00,-1094.00
2024-06-07 15:21:02.151261,0,0,-48,1,0,0,83,86,97,170,76,137.49,126,46.00,9.00,-1001.00
2024-06-07 15:21:02.274280,1,0,-42,1,0,0,83,86,97,170,76,137.55,126,-31.00,38.00,-1013.00
2024-06-07 15:21:02.355363,1,0,-36,1,0,0,83,86,97,170,76,137.27,126,18.00,21.00,-976.00
2024-06-07 15:21:02.406512,1,0,-30,1,0,0,83,86,96,170,76,137.43,126,-10.00,2.00,-1252.00
2024-06-07 15:21:02.582603,2,0,-23,1,0,0,83,86,97,170,76,137.33,126,33.00,25.00,-953.00
2024-06-07 15:21:02.610758,2,0,-17,1,0,0,83,86,96,170,76,137.32,127,-8.00,66.00,-898.00
2024-06-07 15:21:02.786235,2,0,-11,1,0,0,83,86,95,170,76,137.17,127,9.00,13.00,-998.00
2024-06-07 15:21:02.814272,2,0,-5,1,0,0,83,86,96,170,76,137.13,127,42.00,29.00,-953.00
2024-06-07 15:21:02.991018,2,0,0,1,0,0,83,86,94,170,76,137.51,127,81.00,-4.00,-1067.00
2024-06-07 15:21:03.020013,2,0,6,1,0,0,83,87,93,160,76,137.27,127,68.00,-3.00,-1004.00
2024-06-07 15:21:03.120421,1,0,12,1,0,0,83,87,91,160,76,137.31,127,63.00,35.00,-991.00
2024-06-07 15:21:03.223302,1,0,18,0,0,0,83,87,90,160,76,137.29,127,39.00,14.00,-1039.00
2024-06-07 15:21:03.325150,1,0,24,1,0,0,83,87,88,160,76,137.12,127,34.00,-34.00,-1077.00
2024-06-07 15:21:03.426399,2,0,28,1,0,0,83,87,87,160,76,137.19,127,100.00,-15.00,-924.00
2024-06-07 15:21:03.528231,2,0,31,1,0,0,83,87,87,160,76,137.13,127,76.00,9.00,-980.00
2024-06-07 15:21:03.707820,2,0,33,1,0,0,83,87,86,160,76,137.01,128,64.00,43.00,-994.00
2024-06-07 15:21:03.732154,3,0,35,1,0,0,83,87,85,160,76,137.19,128,51.00,11.00,-883.00
2024-06-07 15:21:03.912599,3,0,37,0,0,0,83,87,84,160,76,137.14,128,90.00,12.00,-968.00
2024-06-07 15:21:03.936455,3,0,38,0,0,0,83,87,84,160,76,137.23,128,28.00,12.00,-1020.00
2024-06-07 15:21:04.117978,3,0,38,0,0,0,83,87,83,160,76,137.43,128,64.00,3.00,-917.00
2024-06-07 15:21:04.140128,3,0,39,0,0,0,83,87,83,160,76,137.16,128,36.00,0.00,-887.00
2024-06-07 15:21:04.322915,3,0,39,0,0,0,83,87,82,160,76,137.08,128,-36.00,55.00,-987.00
2024-06-07 15:21:04.356116,3,0,39,0,0,0,83,87,82,160,76,137.16,128,-7.00,6.00,-1011.00
2024-06-07 15:21:04.446665,2,0,39,0,0,0,83,87,82,160,76,137.23,128,10.00,-28.00,-1114.00
2024-06-07 15:21:04.548414,2,0,39,0,0,0,83,87,82,160,76,137.15,128,39.00,0.00,-954.00
2024-06-07 15:21:04.732016,2,1,39,0,0,0,83,87,82,160,76,136.92,129,27.00,0.00,-970.00
2024-06-07 15:21:04.752196,2,0,39,0,0,0,83,87,81,160,76,137.05,129,9.00,20.00,-1025.00
2024-06-07 15:21:04.854499,2,0,39,0,0,0,83,87,81,160,76,137.32,129,-51.00,42.00,-1034.00
2024-06-07 15:21:05.042766,3,0,39,0,0,0,83,87,80,160,76,137.19,129,64.00,-9.00,-991.00
2024-06-07 15:21:05.058165,2,0,39,0,0,0,83,87,80,160,76,137.04,129,84.00,13.00,-1041.00
2024-06-07 15:21:05.243918,2,0,39,0,0,0,83,87,80,160,76,137.15,129,32.00,-24.00,-1156.00
2024-06-07 15:21:05.262128,3,0,39,0,0,0,83,87,79,160,76,137.32,129,137.00,-57.00,-1179.00
2024-06-07 15:21:05.364263,3,0,39,0,0,0,83,87,79,160,76,137.25,129,24.00,-14.00,-958.00
2024-06-07 15:21:05.551163,4,0,39,0,0,0,83,87,78,160,76,137.11,129,26.00,36.00,-927.00
2024-06-07 15:21:05.568182,4,0,39,0,0,0,83,87,77,160,76,137.30,129,28.00,6.00,-1117.00
2024-06-07 15:21:05.755955,3,0,39,0,0,0,83,87,75,160,76,136.86,130,94.00,-66.00,-1122.00
2024-06-07 15:21:05.772091,3,0,39,0,0,0,83,87,77,150,76,137.15,130,42.00,-11.00,-972.00
2024-06-07 15:21:05.939730,3,0,39,0,0,0,83,87,76,150,76,137.02,130,19.00,27.00,-1016.00
2024-06-07 15:21:05.976044,3,0,39,0,0,0,83,87,77,150,76,137.35,130,53.00,5.00,-1149.00
2024-06-07 15:21:06.165398,3,1,39,0,0,0,83,87,77,150,76,137.21,130,18.00,23.00,-1008.00
2024-06-07 15:21:06.180001,3,0,37,0,0,-1,83,87,77,150,76,137.06,130,71.00,-39.00,-1022.00
2024-06-07 15:21:06.370209,3,0,31,0,0,-1,83,87,76,150,76,137.16,130,20.00,35.00,-914.00
2024-06-07 15:21:06.383939,2,0,25,0,0,0,83,87,76,160,76,137.26,130,51.00,14.00,-969.00
2024-06-07 15:21:06.435242,2,0,18,0,0,0,83,87,75,160,76,137.08,130,69.00,-19.00,-1002.00
2024-06-07 15:21:06.537019,2,0,12,0,0,0,83,87,75,160,76,137.06,130,13.00,40.00,-1029.00
2024-06-07 15:21:06.677379,3,0,6,0,0,0,83,87,74,150,76,137.06,131,87.00,-17.00,-1002.00
2024-06-07 15:21:06.741017,3,0,0,0,0,0,83,87,73,150,76,136.97,131,91.00,-6.00,-1004.00
2024-06-07 15:21:06.882230,3,0,-5,0,0,0,83,87,73,150,76,136.95,131,7.00,23.00,-1041.00
2024-06-07 15:21:06.944983,3,0,-11,0,0,0,83,87,72,150,76,136.97,131,11.00,-62.00,-1029.00
2024-06-07 15:21:07.046981,3,0,-17,0,0,0,84,87,73,150,76,137.01,131,62.00,46.00,-992.00
2024-06-07 15:21:07.189374,3,-1,-24,0,0,0,84,87,73,150,75,137.19,131,67.00,23.00,-1119.00
2024-06-07 15:21:07.250992,3,-1,-30,0,0,0,84,87,74,150,75,137.23,131,42.00,40.00,-1000.00
2024-06-07 15:21:07.394113,3,-1,-36,0,0,0,84,87,75,150,75,137.13,131,130.00,6.00,-1022.00
2024-06-07 15:21:07.455010,2,-2,-42,0,0,-1,84,87,76,150,75,137.03,131,41.00,50.00,-918.00
2024-06-07 15:21:07.557009,2,-1,-48,0,0,-1,84,87,77,160,75,137.12,131,1.00,18.00,-1091.00
2024-06-07 15:21:07.706344,2,0,-54,0,0,0,84,87,78,160,75,137.19,132,23.00,60.00,-947.00
2024-06-07 15:21:07.761021,2,-1,-60,0,0,0,84,87,79,160,75,137.09,132,-4.00,51.00,-958.00
2024-06-07 15:21:07.862915,2,0,-67,0,-1,-1,84,87,81,160,75,137.24,132,110.00,14.00,-916.00
2024-06-07 15:21:08.009665,3,0,-73,0,0,0,84,87,82,160,75,137.04,132,15.00,29.00,-1025.00
2024-06-07 15:21:08.066914,1,-1,-85,0,0,0,82,86,83,160,75,137.25,132,43.00,29.00,-895.00
2024-06-07 15:21:08.213327,1,-1,-92,0,0,0,82,86,85,160,75,137.12,132,72.00,67.00,-939.00
2024-06-07 15:21:08.271280,0,-2,-98,0,0,0,82,86,86,160,75,137.34,132,-21.00,25.00,-990.00
2024-06-07 15:21:08.372860,0,-1,-104,0,0,0,82,86,88,160,75,137.40,132,79.00,28.00,-992.00
2024-06-07 15:21:08.474799,0,-1,-110,0,0,0,82,86,89,160,75,137.36,132,-83.00,80.00,-1020.00
2024-06-07 15:21:08.576896,0,-1,-116,0,0,0,82,86,92,170,75,137.24,133,5.00,30.00,-880.00
2024-06-07 15:21:08.725396,0,-1,-122,0,0,0,82,86,94,170,75,137.49,133,-21.00,71.00,-902.00
2024-06-07 15:21:08.780944,0,0,-128,0,0,0,82,86,96,170,75,137.29,133,57.00,17.00,-932.00
2024-06-07 15:21:08.930152,0,0,-134,0,0,0,82,86,97,170,75,137.24,133,59.00,37.00,-918.00
2024-06-07 15:21:08.984915,0,0,-140,0,0,0,82,86,99,170,75,137.41,133,-25.00,28.00,-1051.00
2024-06-07 15:21:09.134957,1,0,-146,0,0,0,84,87,100,170,75,137.19,133,-30.00,23.00,-908.00
2024-06-07 15:21:09.189054,1,0,-152,0,0,0,84,87,102,170,75,137.25,133,70.00,15.00,-897.00
2024-06-07 15:21:09.339741,1,0,-158,0,0,0,84,87,103,170,75,137.41,133,23.00,-8.00,-1037.00
2024-06-07 15:21:09.392860,1,0,-164,0,0,0,84,87,105,170,75,137.45,133,14.00,2.00,-1061.00
2024-06-07 15:21:09.545119,0,0,-170,0,0,0,84,87,106,170,75,137.36,133,-27.00,14.00,-1004.00
2024-06-07 15:21:09.597802,1,0,-176,0,0,0,84,87,106,170,75,137.48,134,-8.00,29.00,-954.00
2024-06-07 15:21:09.749349,1,0,177,0,0,0,84,87,108,180,75,137.75,134,46.00,4.00,-979.00
2024-06-07 15:21:09.801803,1,0,171,0,0,0,84,87,109,180,75,137.75,134,-52.00,65.00,-903.00
2024-06-07 15:21:09.954270,1,0,165,0,0,0,84,87,111,180,75,137.31,134,-36.00,22.00,-1009.00
2024-06-07 15:21:09.954838,1,0,159,0,0,0,84,87,111,180,75,137.21,134,-21.00,-3.00,-988.00
2024-06-07 15:21:10.158957,1,0,153,0,0,0,84,88,111,180,75,137.55,134,-5.00,20.00,-961.00
2024-06-07 15:21:10.212023,1,0,147,0,0,0,84,88,113,180,75,137.56,134,-38.00,15.00,-910.00
2024-06-07 15:21:10.261006,1,0,140,0,0,0,84,88,112,180,75,137.36,134,63.00,-17.00,-1030.00
2024-06-07 15:21:10.363762,1,0,134,0,0,1,84,88,111,180,75,137.25,134,2.00,-9.00,-885.00
2024-06-07 15:21:10.466131,2,1,128,0,0,1,84,88,111,180,75,137.38,134,-11.00,-25.00,-1111.00
2024-06-07 15:21:10.566783,3,1,123,0,0,0,84,88,110,180,75,137.68,135,-66.00,31.00,-961.00
2024-06-07 15:21:10.670989,3,1,117,1,0,0,84,88,111,180,75,137.57,135,7.00,-34.00,-1064.00
2024-06-07 15:21:10.771358,2,1,111,1,0,0,84,88,109,170,75,137.52,135,30.00,1.00,-950.00
2024-06-07 15:21:10.873254,2,1,105,1,0,1,84,88,107,170,75,137.58,135,25.00,14.00,-936.00
2024-06-07 15:21:10.978165,2,1,99,0,0,1,84,88,106,170,75,137.50,135,32.00,13.00,-943.00
2024-06-07 15:21:11.077398,2,1,93,0,0,0,84,88,104,170,75,137.63,135,72.00,-50.00,-1092.00
2024-06-07 15:21:11.182940,3,1,88,1,0,0,84,88,102,170,75,137.48,135,86.00,-41.00,-1046.00
2024-06-07 15:21:11.282043,4,1,82,1,0,0,84,88,102,170,75,136.91,135,89.00,-21.00,-1002.00
2024-06-07 15:21:11.382754,4,1,77,1,0,0,84,88,99,170,75,137.39,135,55.00,-93.00,-1128.00
2024-06-07 15:21:11.486839,4,1,71,1,0,0,84,88,98,170,75,137.25,135,61.00,-55.00,-983.00
2024-06-07 15:21:11.586880,5,1,65,1,0,0,84,88,96,170,75,137.38,136,42.00,-11.00,-977.00
2024-06-07 15:21:11.698604,5,1,59,1,0,0,84,88,94,160,75,136.96,136,98.00,2.00,-880.00
2024-06-07 15:21:11.790750,5,0,54,0,0,0,84,88,94,160,75,137.34,136,71.00,-2.00,-1022.00
2024-06-07 15:21:11.899750,4,0,50,0,0,0,84,88,91,160,75,137.06,136,37.00,17.00,-1192.00
2024-06-07 15:21:11.994690,3,0,47,0,0,0,84,88,90,160,75,137.14,136,95.00,-33.00,-1001.00
2024-06-07 15:21:12.107582,3,0,45,0,0,0,83,87,89,160,75,137.39,136,13.00,-18.00,-1070.00
2024-06-07 15:21:12.198705,3,0,43,0,0,0,83,87,88,160,74,137.41,136,133.00,-13.00,-1022.00
2024-06-07 15:21:12.309369,3,1,42,0,0,0,83,87,88,160,74,137.45,136,42.00,15.00,-1045.00
2024-06-07 15:21:12.402669,4,1,41,0,0,0,83,87,89,160,74,137.34,136,87.00,-29.00,-967.00
2024-06-07 15:21:12.504790,3,1,40,0,0,0,83,87,88,160,74,137.47,136,153.00,-53.00,-1087.00
2024-06-07 15:21:12.617198,4,1,40,0,0,0,83,87,89,160,74,137.29,137,66.00,7.00,-985.00
2024-06-07 15:21:12.709795,4,1,40,0,0,0,83,87,89,160,74,137.46,137,160.00,26.00,-1132.00
2024-06-07 15:21:12.821523,4,0,40,0,0,0,83,87,89,160,74,137.26,137,31.00,36.00,-978.00
2024-06-07 15:21:12.914176,3,0,40,0,0,0,83,87,91,160,74,137.38,137,10.00,36.00,-1059.00
2024-06-07 15:21:13.016629,3,0,40,0,0,0,83,87,91,160,74,137.40,137,99.00,24.00,-1056.00
2024-06-07 15:21:13.118892,3,0,40,0,0,0,83,87,91,160,74,137.24,137,136.00,-22.00,-1060.00
2024-06-07 15:21:13.231053,3,0,40,0,0,0,83,87,92,160,74,137.35,137,64.00,-12.00,-1004.00
2024-06-07 15:21:13.323288,4,0,40,0,0,0,83,87,92,160,74,137.38,137,74.00,11.00,-965.00
2024-06-07 15:21:13.423919,3,0,40,0,0,0,83,87,93,160,74,137.39,137,57.00,-21.00,-984.00
2024-06-07 15:21:13.526423,2,0,40,0,0,0,83,87,92,160,74,137.26,137,104.00,-10.00,-1010.00
2024-06-07 15:21:13.627967,3,0,40,0,0,0,83,87,92,160,74,137.13,138,52.00,29.00,-927.00
2024-06-07 15:21:13.678693,3,0,40,0,0,0,83,87,91,160,74,137.17,138,172.00,-33.00,-1097.00
2024-06-07 15:21:13.846513,3,0,40,0,0,0,83,87,90,160,74,137.17,138,79.00,-44.00,-919.00
2024-06-07 15:21:13.882579,3,0,40,0,0,0,83,87,89,160,74,137.40,138,20.00,8.00,-939.00
2024-06-07 15:21:14.050936,3,0,40,0,0,0,83,87,87,160,74,137.17,138,108.00,-32.00,-967.00
2024-06-07 15:21:14.145039,4,0,40,0,0,0,83,87,86,160,74,137.40,138,96.00,-29.00,-1105.00
2024-06-07 15:21:14.245410,4,1,40,0,0,0,83,87,84,160,74,137.14,138,43.00,-5.00,-1002.00
2024-06-07 15:21:14.343390,4,0,40,0,0,0,83,87,83,160,74,137.15,138,40.00,-10.00,-1091.00
2024-06-07 15:21:14.392720,4,0,40,0,0,0,83,87,82,150,74,137.09,138,46.00,9.00,-1022.00
2024-06-07 15:21:14.494586,4,0,40,0,0,0,83,87,81,150,74,137.35,138,92.00,1.00,-942.00
2024-06-07 15:21:14.596653,3,0,40,0,0,0,83,87,81,150,74,137.61,139,120.00,-36.00,-1513.00
2024-06-07 15:21:14.766918,0,-2,40,0,0,-5,83,87,85,160,74,137.35,139,89.00,31.00,-1538.00
2024-06-07 15:21:14.800539,0,-19,40,2,0,-10,83,87,104,160,74,137.26,139,31.00,432.00,-966.00
2024-06-07 15:21:14.971699,-2,-115,40,7,-4,-9,83,87,6553,180,74,137.75,139,-17.00,669.00,-1067.00
2024-06-07 15:21:15.004539,3,116,42,9,-6,5,83,87,6553,180,74,137.80,139,3.00,371.00,-1252.00
2024-06-07 15:21:15.106999,0,9,33,5,-1,12,83,87,92,170,74,137.59,139,43.00,-128.00,-1426.00
2024-06-07 15:21:15.208750,-2,-10,34,7,-2,10,83,87,80,160,74,137.39,139,97.00,94.00,-1401.00
2024-06-07 15:21:15.381303,2,5,35,8,-2,6,83,87,71,150,74,137.22,139,88.00,-10.00,-1392.00
2024-06-07 15:21:15.412583,4,6,39,6,-1,2,83,87,67,140,74,136.84,139,29.00,39.00,-1264.00
2024-06-07 15:21:15.515726,4,4,40,5,0,0,83,87,66,140,74,136.91,139,31.00,9.00,-1102.00
2024-06-07 15:21:15.616763,4,3,40,4,0,-2,83,87,68,140,74,137.24,140,25.00,53.00,-966.00
2024-06-07 15:21:15.718568,4,2,40,4,0,-2,83,87,70,140,74,137.23,140,110.00,9.00,-1014.00
2024-06-07 15:21:15.820831,3,1,40,3,0,-2,83,87,73,150,74,137.35,140,84.00,17.00,-915.00
2024-06-07 15:21:15.922652,3,1,40,3,0,-2,83,87,75,150,74,137.07,140,75.00,-17.00,-922.00
2024-06-07 15:21:16.024467,3,0,40,3,0,-1,83,87,77,150,74,137.29,140,-26.00,52.00,-1016.00
2024-06-07 15:21:16.126544,3,1,40,2,0,-1,84,88,79,150,74,137.33,140,59.00,7.00,-946.00
2024-06-07 15:21:16.302915,3,0,41,2,0,-1,84,88,81,150,74,137.17,140,119.00,-20.00,-879.00
2024-06-07 15:21:16.330467,4,0,41,2,0,0,84,88,81,160,74,137.22,140,28.00,25.00,-926.00
2024-06-07 15:21:16.507697,4,0,40,2,0,0,84,88,82,160,74,137.35,140,25.00,1.00,-939.00
2024-06-07 15:21:16.534474,4,0,40,2,0,0,84,88,84,160,74,137.03,140,18.00,23.00,-1087.00
2024-06-07 15:21:16.638877,4,1,41,2,0,0,84,88,85,160,74,137.26,141,59.00,2.00,-949.00
2024-06-07 15:21:16.738465,6,3,41,1,0,0,84,88,85,160,74,137.19,141,76.00,-18.00,-1036.00
2024-06-07 15:21:16.917303,5,2,41,1,0,0,84,88,86,160,74,137.12,141,95.00,51.00,-996.00
2024-06-07 15:21:16.942432,4,1,40,0,0,0,84,88,87,160,74,137.12,141,85.00,12.00,-954.00
2024-06-07 15:21:17.122103,4,1,40,0,0,0,84,88,88,160,74,136.95,141,145.00,-8.00,-970.00
2024-06-07 15:21:17.150382,4,2,41,0,0,0,83,87,89,160,73,137.34,141,100.00,30.00,-897.00
2024-06-07 15:21:17.248576,4,2,41,0,0,0,83,87,90,160,73,137.20,141,89.00,-27.00,-998.00
2024-06-07 15:21:17.351005,4,2,40,0,0,0,83,87,90,160,73,137.23,141,55.00,3.00,-955.00
2024-06-07 15:21:17.531670,4,2,40,0,0,0,83,87,91,160,73,137.27,141,100.00,-10.00,-1003.00
2024-06-07 15:21:17.555458,4,2,40,0,0,0,83,87,91,160,73,137.34,141,46.00,-13.00,-1021.00
2024-06-07 15:21:17.736472,4,2,40,0,0,0,83,87,91,160,73,137.23,142,7.00,8.00,-937.00
2024-06-07 15:21:17.758390,4,1,40,0,0,0,83,87,91,160,73,137.33,142,168.00,-58.00,-1040.00
2024-06-07 15:21:17.941283,3,0,40,0,0,0,83,87,91,160,73,137.20,142,151.00,-15.00,-982.00
2024-06-07 15:21:17.941350,3,1,40,0,0,0,83,87,91,160,73,137.06,142,20.00,-3.00,-1011.00
2024-06-07 15:21:18.013411,3,0,40,0,0,0,83,87,91,160,73,137.32,142,45.00,-5.00,-987.00
2024-06-07 15:21:18.115559,3,0,40,0,0,0,84,87,90,160,73,137.28,142,21.00,46.00,-987.00
2024-06-07 15:21:18.248651,3,1,40,0,0,0,84,87,90,160,73,137.13,142,53.00,35.00,-991.00
2024-06-07 15:21:18.319519,3,1,40,0,0,0,84,87,88,160,73,137.24,142,20.00,10.00,-1061.00
2024-06-07 15:21:18.453400,4,1,40,0,0,0,84,87,89,160,73,137.32,142,82.00,5.00,-1005.00
2024-06-07 15:21:18.524514,4,1,40,0,0,0,84,87,88,160,73,137.57,142,14.00,13.00,-967.00
2024-06-07 15:21:18.661646,4,1,40,0,0,0,84,87,88,160,73,137.14,143,49.00,-21.00,-1098.00
2024-06-07 15:21:18.729338,4,1,40,0,0,0,84,87,89,160,73,137.16,143,30.00,-25.00,-1036.00
2024-06-07 15:21:18.863641,4,2,40,0,0,0,84,87,89,160,73,137.30,143,-27.00,23.00,-1047.00
2024-06-07 15:21:18.935223,4,1,40,0,0,0,84,87,89,160,73,137.41,143,90.00,9.00,-882.00
2024-06-07 15:21:19.035625,4,1,40,0,0,0,84,87,88,160,73,137.00,143,102.00,5.00,-891.00
2024-06-07 15:21:19.136482,4,1,40,0,0,0,84,87,88,160,73,136.98,143,56.00,-6.00,-1015.00
2024-06-07 15:21:19.272727,4,0,40,0,0,0,84,87,88,160,73,137.18,143,134.00,1.00,-1068.00
2024-06-07 15:21:19.344039,3,0,40,0,0,0,84,87,89,160,73,137.14,143,53.00,-13.00,-984.00
2024-06-07 15:21:19.442479,4,0,40,0,0,0,84,87,88,160,73,137.50,143,-16.00,14.00,-1003.00
2024-06-07 15:21:19.549033,4,0,40,0,0,0,84,87,87,160,73,137.19,143,17.00,28.00,-900.00
2024-06-07 15:21:19.646822,4,0,40,0,0,0,84,87,87,160,73,137.18,144,6.00,17.00,-986.00
2024-06-07 15:21:19.784637,4,0,40,0,0,0,84,87,86,160,73,137.18,144,34.00,29.00,-981.00
2024-06-07 15:21:19.850399,4,0,40,0,0,0,84,87,85,160,73,137.23,144,100.00,18.00,-1032.00
2024-06-07 15:21:19.989408,3,0,40,0,0,0,84,87,85,160,73,137.10,144,60.00,-53.00,-1175.00
2024-06-07 15:21:20.054896,3,0,40,0,0,0,84,87,84,160,73,137.03,144,13.00,29.00,-923.00
2024-06-07 15:21:20.194317,3,0,40,0,0,0,84,87,84,160,73,137.14,144,102.00,-38.00,-988.00
2024-06-07 15:21:20.258562,3,1,40,0,0,0,84,87,83,160,73,137.36,144,60.00,17.00,-1005.00
2024-06-07 15:21:20.360799,4,1,40,0,0,0,84,87,83,160,73,137.09,144,71.00,-26.00,-1115.00
2024-06-07 15:21:20.501442,4,1,40,0,0,0,84,87,83,160,73,137.13,144,155.00,-11.00,-1216.00
2024-06-07 15:21:20.564571,5,1,40,0,0,0,84,87,82,160,73,137.10,144,58.00,13.00,-1019.00
2024-06-07 15:21:20.706183,5,1,40,0,0,0,84,87,83,160,73,137.15,145,89.00,-46.00,-1049.00
2024-06-07 15:21:20.774637,4,1,40,0,0,0,84,87,82,160,73,137.00,145,34.00,31.00,-1060.00
2024-06-07 15:21:20.870369,4,0,40,0,0,0,84,87,83,160,73,137.26,145,21.00,17.00,-1048.00
2024-06-07 15:21:21.013755,4,0,40,0,0,0,84,87,84,160,73,137.13,145,64.00,-24.00,-979.00
2024-06-07 15:21:21.074302,4,0,40,0,0,0,84,87,84,160,73,137.34,145,69.00,-54.00,-1059.00
2024-06-07 15:21:21.218071,4,0,40,0,0,0,84,87,85,160,73,137.24,145,121.00,-38.00,-947.00
2024-06-07 15:21:21.278249,3,2,40,0,0,0,84,87,87,160,73,137.45,145,123.00,-49.00,-1001.00
2024-06-07 15:21:21.422807,0,4,41,0,0,-4,84,87,95,160,73,137.49,145,98.00,-21.00,-1329.00
2024-06-07 15:21:21.482232,0,16,42,0,2,-10,84,87,192,170,73,137.20,145,148.00,11.00,-1576.00
2024-06-07 15:21:21.585168,-8,105,38,-4,8,-9,84,87,6553,180,73,137.69,145,101.00,-28.00,-1619.00
2024-06-07 15:21:21.635103,12,-123,32,-5,10,6,84,87,172,180,73,137.65,146,189.00,663.00,-1508.00
2024-06-07 15:21:21.832479,4,-11,64,-1,5,12,84,87,93,170,73,136.83,146,288.00,1026.00,-962.00
2024-06-07 15:21:21.839096,-4,6,70,-1,7,11,84,87,80,160,73,137.29,146,276.00,699.00,-899.00
2024-06-07 15:21:22.037274,5,-2,80,-2,8,7,84,87,76,150,73,137.27,146,147.00,33.00,-1187.00
2024-06-07 15:21:22.043240,7,-2,88,-1,6,3,84,87,74,140,73,137.32,146,70.00,-87.00,-1733.00
2024-06-07 15:21:22.242079,6,0,95,0,5,1,84,88,75,140,73,137.34,146,-26.00,11.00,-1149.00
2024-06-07 15:21:22.247179,5,1,99,0,4,0,84,88,77,140,73,137.11,146,-18.00,13.00,-1049.00
2024-06-07 15:21:22.446848,4,1,96,0,3,-1,84,88,81,140,73,137.07,146,-11.00,30.00,-1036.00
2024-06-07 15:21:22.451064,2,0,86,0,3,-1,84,88,85,140,73,137.40,146,32.00,-33.00,-978.00
2024-06-07 15:21:22.651853,2,0,72,0,3,-1,84,88,89,150,73,137.52,146,0.00,3.00,-1024.00
2024-06-07 15:21:22.655189,3,0,58,0,2,-1,84,88,94,150,73,137.21,147,68.00,-11.00,-967.00
2024-06-07 15:21:22.757129,3,-1,45,0,2,-2,84,88,99,150,73,136.89,147,46.00,-39.00,-892.00
2024-06-07 15:21:22.859210,2,-2,39,0,2,-1,84,88,102,160,73,137.28,147,66.00,-12.00,-988.00
2024-06-07 15:21:22.961123,4,-1,38,0,2,-1,84,88,105,160,73,137.22,147,-21.00,-13.00,-862.00
2024-06-07 15:21:23.064338,5,-1,38,1,2,0,84,88,107,160,73,137.03,147,-6.00,11.00,-859.00
2024-06-07 15:21:23.165120,5,-3,38,0,1,0,85,88,110,170,72,137.55,147,68.00,-9.00,-913.00
2024-06-07 15:21:23.311570,5,-2,39,0,0,0,85,88,114,170,72,137.54,147,-7.00,37.00,-932.00
2024-06-07 15:21:23.369092,4,-1,39,0,0,1,85,88,113,160,72,137.55,147,112.00,-2.00,-999.00
2024-06-07 15:21:23.471647,4,0,39,1,0,1,85,88,115,160,72,137.40,147,9.00,22.00,-994.00
2024-06-07 15:21:23.573415,4,0,39,0,0,1,85,88,117,160,72,137.37,148,68.00,-17.00,-995.00
2024-06-07 15:21:23.675381,5,0,39,0,0,1,85,88,118,160,72,137.51,148,144.00,1.00,-901.00
2024-06-07 15:21:23.777956,5,0,39,1,0,1,85,88,119,160,72,137.35,148,72.00,35.00,-976.00
2024-06-07 15:21:23.880414,5,0,39,0,0,0,85,88,120,160,72,137.54,148,92.00,36.00,-1016.00
2024-06-07 15:21:23.982791,5,0,39,0,0,0,85,88,122,170,72,137.86,148,43.00,29.00,-1039.00
2024-06-07 15:21:24.083209,4,-1,39,0,0,-1,85,88,125,170,72,137.78,148,90.00,46.00,-944.00
2024-06-07 15:21:24.185087,4,-1,40,0,0,-1,84,87,126,170,72,137.45,148,197.00,-34.00,-981.00
2024-06-07 15:21:24.290027,4,-1,39,0,0,0,84,87,128,170,72,137.41,148,103.00,-5.00,-916.00
2024-06-07 15:21:24.389941,4,-1,39,0,0,0,84,87,129,170,72,137.84,148,92.00,22.00,-931.00
2024-06-07 15:21:24.494804,4,-1,40,0,0,0,84,87,129,170,72,137.73,148,-37.00,73.00,-928.00
2024-06-07 15:21:24.593280,4,-1,40,0,0,0,84,87,130,170,72,137.27,149,112.00,-15.00,-1052.00
2024-06-07 15:21:24.696493,4,-1,40,0,0,0,84,87,131,170,72,137.39,149,71.00,23.00,-1012.00
2024-06-07 15:21:24.802178,4,-1,40,0,0,0,84,87,130,170,72,137.83,149,46.00,10.00,-1150.00
2024-06-07 15:21:24.901332,3,-1,40,0,0,0,84,87,130,170,72,137.76,149,89.00,-14.00,-1003.00
2024-06-07 15:21:25.001112,3,-1,40,0,0,0,84,87,129,170,72,137.46,149,3.00,16.00,-1019.00
2024-06-07 15:21:25.109357,3,0,40,0,0,0,84,87,129,170,72,137.74,149,24.00,0.00,-1026.00
