TS,pitch,roll,yaw,vgx,vgy,vgz,templ,temph,tof,h,bat,baro,time,agx,agy,agz
22:10.3,2,-1,38,0,0,0,87,88,10,0,69,136.05,168,43,25,-999
22:10.4,2,-1,38,0,0,0,86,89,10,0,69,135.95,168,43,26,-1000
22:10.6,2,-1,38,0,0,0,86,89,10,0,69,136.17,168,43,25,-996
22:10.6,2,-1,38,0,0,0,86,89,10,0,69,136.19,168,44,27,-999
22:10.7,2,-1,38,0,0,0,86,89,10,0,69,136.23,168,43,26,-998
22:10.8,2,-1,38,0,0,0,86,89,10,0,69,136.04,168,42,26,-997
22:11.0,2,-1,38,0,0,0,86,89,10,0,69,136.15,168,41,27,-999
22:11.0,2,-1,38,0,0,0,86,89,10,0,69,136.1,168,43,27,-997
22:11.2,2,-1,38,0,0,0,86,89,10,0,69,136.41,168,44,27,-998
22:11.2,2,-1,38,0,0,0,86,89,10,0,69,136.36,168,42,25,-998
22:11.4,2,-1,38,0,0,0,86,89,10,0,69,136.16,168,43,26,-1000
22:11.4,2,-1,38,0,0,0,86,89,10,0,69,136.21,168,43,27,-999
22:11.5,2,-1,38,0,0,0,86,89,10,0,69,136.19,168,43,26,-998
22:11.7,2,-1,38,0,0,0,86,89,10,0,69,136.16,168,44,27,-999
22:11.7,2,-1,38,0,0,0,86,89,10,0,69,136.2,168,44,27,-1000
22:11.9,2,-1,38,0,0,0,86,89,10,0,69,135.93,168,43,27,-997
22:11.9,2,-1,38,0,0,0,86,89,10,0,69,136.41,168,43,27,-999
22:12.1,2,-1,38,0,0,0,86,89,10,0,69,136.14,168,44,25,-999
22:12.1,2,-1,38,0,0,0,86,89,10,0,69,136.28,168,42,26,-998
22:12.3,2,-1,38,0,0,0,86,89,10,0,69,136.05,168,44,24,-1000
22:12.3,2,-1,38,0,0,0,86,89,10,0,69,136.36,168,43,27,-999
22:12.5,2,-1,38,0,0,0,86,89,10,0,69,136.03,168,43,27,-996
22:12.5,2,-1,38,0,0,0,86,89,10,0,69,136.3,168,44,27,-998
22:12.7,2,-1,38,0,0,0,86,89,10,0,69,136.24,168,50,42,-1013
22:12.7,2,-1,38,0,0,0,86,89,10,0,69,136.24,169,30,8,-1000
22:12.9,1,0,38,0,0,0,86,89,10,0,69,136.24,169,56,19,-1039
22:12.9,1,0,38,0,0,0,86,89,10,0,69,136.24,169,46,18,-919
22:13.1,1,0,40,0,0,0,86,89,10,0,69,136.24,169,49,26,-1014
22:13.1,1,0,42,0,0,0,86,89,10,0,69,136.24,169,93,-6,-1108
22:13.3,0,0,43,0,0,-1,86,89,10,0,69,136.24,169,-5,19,-1315
22:13.4,0,1,43,0,1,-3,86,89,10,0,69,136.24,169,54,-2,-1252
22:13.5,5,-1,43,0,1,-6,87,90,12,0,69,136.24,169,82,34,-1124
22:13.6,3,-1,43,0,1,-7,87,90,19,10,69,136.73,169,53,89,-1054
22:13.7,4,-2,43,0,1,-8,87,90,27,20,69,136.54,169,148,-6,-964
22:13.8,6,-2,43,1,1,-8,87,90,34,20,69,137.05,170,31,1,-965
22:14.0,6,-1,43,1,1,-8,87,90,37,30,69,136.76,170,120,-4,-878
22:14.0,6,-1,43,0,0,-7,87,90,43,40,69,136.92,170,88,-3,-852
22:14.0,6,-1,43,0,0,-6,87,90,46,40,69,136.92,170,8,63,-806
22:14.2,6,-1,43,0,0,-4,87,90,49,50,69,137.07,170,31,28,-963
22:14.2,6,-1,43,0,0,-2,87,90,51,50,69,136.95,170,93,-15,-1019
22:14.3,5,-2,43,0,0,-2,87,90,52,50,69,136.85,170,95,-13,-1012
22:14.5,6,0,43,0,0,-1,87,90,52,50,69,136.76,170,57,40,-958
22:14.5,5,1,43,0,0,-1,87,90,52,50,69,136.98,170,64,36,-1026
22:14.7,4,0,43,0,0,-1,87,90,52,50,69,136.84,170,63,62,-1035
22:14.7,4,0,43,0,0,-1,87,90,52,50,69,137.07,171,8,45,-1066
22:14.9,4,0,43,0,0,-1,87,90,53,50,69,136.81,171,36,34,-1047
22:14.9,4,0,43,0,0,-1,87,90,54,50,69,136.93,171,48,33,-1021
22:15.1,4,-1,43,0,0,-2,87,90,54,50,69,136.94,171,27,27,-1135
22:15.1,5,0,43,0,0,-2,87,90,55,50,69,137.18,171,50,60,-873
22:15.3,5,0,42,0,0,-2,87,90,55,50,69,136.81,171,66,25,-915
22:15.3,5,0,42,0,0,-2,87,90,56,50,69,137.09,171,80,43,-904
22:15.5,4,0,43,0,0,-2,87,90,56,50,69,136.59,171,140,58,-925
22:15.5,4,0,43,0,0,-2,87,90,55,60,69,136.82,171,144,47,-1027
22:15.7,4,-1,43,0,0,-2,87,90,55,60,69,136.9,171,105,46,-1003
22:15.7,5,-2,43,0,0,-2,87,90,55,60,69,136.9,172,66,94,-915
22:15.9,6,-2,43,0,0,-2,87,90,54,60,69,137.15,172,80,73,-886
22:16.0,6,-2,43,0,0,-2,87,90,53,70,69,136.84,172,114,24,-1062
22:16.1,6,-1,43,0,0,-2,87,90,52,70,69,136.83,172,54,2,-975
22:16.2,6,-1,43,0,0,-2,87,90,50,70,69,136.78,172,105,19,-990
22:16.3,6,0,43,0,0,-2,87,90,48,70,69,136.88,172,126,46,-963
22:16.4,6,0,42,0,0,-3,87,90,46,80,69,136.67,172,135,47,-1017
22:16.5,6,0,42,0,0,-3,88,89,45,80,69,136.72,172,11,49,-1033
22:16.6,5,0,42,0,0,-3,88,89,43,80,69,136.55,172,98,57,-924
22:16.7,6,-1,42,0,0,-3,88,89,42,80,69,136.87,172,92,45,-930
22:16.8,6,-2,43,0,0,-3,88,89,41,90,69,136.67,173,167,40,-987
22:16.9,6,-3,43,0,0,-3,88,89,39,90,69,136.61,173,45,71,-1076
22:17.0,5,-3,43,-1,0,-3,88,89,37,90,69,136.6,173,91,40,-938
22:17.1,5,-4,43,0,0,-3,88,89,35,90,69,136.9,173,169,55,-980
22:17.2,6,-2,42,0,0,-2,88,89,33,90,69,136.74,173,175,16,-1080
22:17.3,7,-3,42,0,0,-3,88,89,30,90,69,136.78,173,73,48,-1021
22:17.4,7,-4,42,0,0,-3,88,89,28,100,69,136.75,173,220,66,-1063
22:17.5,8,-3,43,0,0,-3,87,89,25,100,69,136.8,173,98,48,-1007
22:17.6,7,-3,43,0,0,-3,87,89,23,100,69,136.78,173,159,25,-988
22:17.7,7,-1,43,0,0,-3,87,89,20,100,69,136.82,174,168,45,-991
22:17.8,7,-1,43,0,0,-3,87,89,21,100,69,136.76,174,141,21,-1048
22:17.9,8,-1,43,0,0,-4,87,89,18,100,69,136.67,174,136,53,-1167
22:17.9,7,-1,42,0,0,-4,87,89,15,100,69,136.3,174,121,32,-977
22:18.1,6,-2,42,0,0,-4,87,89,13,90,69,136.2,174,134,53,-1060
22:18.1,6,-2,42,-1,0,-4,87,89,11,90,69,135.8,174,183,26,-986
22:18.3,5,-3,42,-1,0,-4,87,89,10,80,69,135.55,174,179,-5,-999
22:18.4,4,-3,42,-1,0,-4,87,89,10,80,69,135.5,174,137,42,-1015
22:18.5,4,-3,43,0,0,-4,87,90,10,70,69,135.6,174,60,59,-954
22:18.6,4,-2,43,0,0,-4,87,90,10,70,69,135.8,174,115,-59,-1115
22:18.7,4,-1,43,0,-1,-4,87,90,10,70,69,136.05,175,189,21,-925
22:18.8,5,0,43,0,0,-5,87,90,10,80,69,135.98,175,143,40,-931
22:18.9,6,-1,43,0,0,-5,87,90,11,90,69,135.83,175,162,-16,-1154
22:19.0,5,-1,42,0,0,-5,87,90,13,90,69,135.85,175,178,20,-1061
22:19.1,6,-1,42,0,0,-5,87,90,14,100,69,136.12,175,107,11,-970
22:19.2,6,-1,42,0,0,-5,87,90,15,100,69,136.32,175,31,96,-920
22:19.3,6,-1,43,0,0,-5,87,90,16,100,69,136.2,175,107,51,-1005
22:19.4,6,-3,42,0,0,-5,87,90,16,110,69,135.93,175,39,49,-998
22:19.5,5,-2,43,0,0,-5,87,89,17,110,69,136.32,175,58,69,-936
22:19.6,5,-2,43,0,0,-5,87,89,17,110,69,136.26,175,55,65,-1059
22:19.7,5,-2,42,0,0,-5,87,89,18,110,69,136.34,176,87,45,-941
22:19.8,5,-2,43,0,0,-4,87,89,18,120,69,136.16,176,72,49,-970
22:19.9,4,-2,43,0,0,-4,87,89,18,120,69,136.21,176,69,14,-1020
22:20.0,4,-1,42,0,0,-4,87,89,18,120,69,136.28,176,109,13,-973
22:20.1,6,-1,43,0,0,-4,87,89,18,120,69,136.61,176,140,50,-1032
22:20.2,5,-1,43,0,0,-4,87,89,19,120,69,136.17,176,42,-17,-1171
22:20.3,0,0,43,0,0,-4,87,89,19,120,69,136.18,176,121,34,-859
22:20.4,0,0,43,0,0,-2,87,89,19,120,69,136.5,176,65,70,-897
22:20.5,0,0,43,1,2,0,87,90,18,110,69,136.62,176,73,24,-917
22:20.6,3,0,43,1,2,0,87,90,17,110,69,136.01,176,63,50,-939
22:20.7,5,-1,43,0,0,0,87,90,15,110,69,136.05,177,-35,79,-1241
22:20.8,0,0,43,0,0,0,87,90,14,110,69,136.2,177,87,63,-1300
22:20.9,0,0,43,0,0,0,87,90,13,110,69,135.78,177,27,67,-1043
22:21.0,0,0,42,0,0,0,87,90,12,100,69,135.95,177,52,33,-985
22:21.1,0,0,42,0,0,0,87,90,12,100,69,136.2,177,-45,79,-1035
22:21.2,0,0,43,0,0,0,87,90,11,100,69,135.93,177,-7,52,-1040
22:21.3,0,0,43,0,0,0,87,90,12,100,69,135.91,177,12,9,-1172
22:21.4,0,0,43,0,0,0,87,90,14,100,69,136.39,177,0,62,-1077
22:21.5,0,0,43,0,0,-1,86,89,16,100,69,136.31,177,-24,55,-957
22:21.6,0,-1,43,0,0,-1,86,89,17,100,69,136.37,177,-40,33,-1033
22:21.7,0,-1,43,0,0,-1,86,89,18,100,69,136.26,178,-23,27,-1016
22:21.8,0,0,42,0,0,-1,86,89,18,110,69,136.39,178,10,0,-884
22:21.9,0,0,42,0,0,0,86,89,19,110,69,136.61,178,31,-6,-905
22:22.0,0,0,42,0,0,0,86,89,20,110,69,136.51,178,-2,4,-1055
22:22.1,0,0,42,0,0,0,86,89,20,110,69,136.51,178,53,-6,-853
22:22.2,1,0,42,5,10,0,86,89,21,110,69,136.79,178,4,17,-984
22:22.3,8,-2,42,5,10,0,86,89,22,110,69,136.76,178,-67,52,-1011
22:22.4,8,-2,42,4,9,0,86,89,22,110,69,136.44,178,29,-39,-1040
22:22.6,7,-2,42,4,8,0,86,90,24,110,69,136.54,178,25,41,-1026
22:22.6,8,-3,42,3,8,0,86,90,25,110,69,136.44,178,53,9,-990
22:22.8,8,-3,42,3,8,0,86,90,26,110,69,136.42,179,13,13,-975
22:22.8,8,-3,42,3,7,0,86,90,28,110,69,136.51,179,72,-4,-1014
22:23.0,7,-3,42,2,6,0,86,90,29,110,69,136.63,179,63,15,-1039
22:23.0,7,-4,42,2,6,0,86,90,31,110,69,136.51,179,134,15,-1099
22:23.2,7,-4,42,2,5,0,86,90,33,110,69,136.59,179,37,91,-996
22:23.2,7,-4,42,1,4,0,86,90,34,110,69,136.78,179,58,55,-1008
22:23.4,7,-4,42,0,3,-1,86,90,36,120,69,136.67,179,74,25,-1094
22:23.4,7,-3,43,0,2,-2,86,90,39,120,69,136.94,179,87,32,-1092
22:23.5,7,-4,43,0,1,-3,87,90,42,130,69,136.67,179,118,26,-1053
22:23.7,5,-4,43,0,0,-4,87,90,43,130,69,136.48,179,195,-39,-1059
22:23.7,5,0,43,1,0,-5,87,90,48,140,69,136.79,180,105,6,-1123
22:23.8,5,1,43,1,0,-5,87,90,52,140,69,136.87,180,86,36,-1021
22:24.0,6,0,43,1,0,-5,87,90,57,150,69,136.93,180,184,61,-1073
22:24.0,6,0,43,1,0,-5,87,90,61,150,69,137.05,180,90,40,-1018
22:24.2,6,0,43,0,0,-5,87,90,66,160,69,137.1,180,147,-4,-1115
22:24.2,6,-1,43,0,1,-6,87,90,70,170,69,136.79,180,113,40,-903
22:24.4,7,-3,43,0,1,-6,87,90,73,170,69,137.02,180,129,43,-915
22:24.4,8,-3,42,0,1,-6,87,90,76,180,69,136.9,180,99,-14,-1039
22:24.5,8,-3,42,0,1,-5,87,90,78,180,69,137.18,180,129,51,-835
22:24.6,8,-3,42,0,1,-5,87,90,81,190,69,137.31,180,31,2,-939
22:24.8,8,-2,42,0,1,-4,87,90,82,190,69,136.94,181,84,74,-963
22:24.8,8,-2,42,0,1,-4,87,90,84,190,69,137.1,181,105,36,-899
22:24.9,8,-3,43,0,0,-3,87,90,85,200,69,137.02,181,233,-60,-918
22:25.0,8,-2,42,0,0,-2,87,90,85,200,69,136.91,181,130,86,-835
22:25.1,8,-1,42,0,0,-1,87,90,84,200,69,137,181,195,21,-960
22:25.2,8,0,42,0,0,-1,87,90,85,190,69,137.11,181,119,56,-990
22:25.3,7,0,43,0,0,-1,87,90,84,190,69,136.76,181,125,61,-853
22:25.4,6,0,43,0,0,0,87,90,84,190,69,137.17,181,-2,132,-1071
22:25.5,5,-1,43,0,0,0,87,89,84,190,69,137,181,129,20,-1030
22:25.6,5,-3,43,-1,0,0,87,89,84,190,69,137.16,181,123,6,-1050
22:25.7,5,-3,43,-1,0,0,87,89,84,190,69,137.09,182,100,66,-920
22:25.8,5,-3,43,-1,0,0,87,89,84,190,69,136.94,182,177,38,-1051
22:25.9,6,-5,42,0,0,-1,87,89,83,190,69,136.83,182,124,47,-885
22:26.0,6,-5,42,0,0,0,87,89,83,190,69,137,182,96,47,-930
22:26.1,7,-4,42,0,0,0,87,89,83,190,69,136.83,182,81,79,-952
22:26.2,7,-4,43,0,0,0,87,89,83,190,69,137.01,182,54,33,-1252
22:26.3,7,-3,43,0,0,-1,87,89,83,180,69,136.79,182,174,-18,-1096
22:26.4,8,-3,43,0,0,-1,87,89,84,180,69,136.71,182,125,61,-963
22:26.5,8,-2,43,1,-1,-1,87,89,84,180,69,136.87,182,156,28,-1007
22:26.6,9,0,43,0,-1,-1,87,89,85,190,69,136.83,182,152,39,-904
22:26.8,8,0,43,0,-1,-1,87,89,85,190,69,136.64,183,111,27,-1042
22:26.8,7,-1,43,0,-1,-1,87,89,85,190,69,136.68,183,178,33,-994
22:27.0,6,-1,42,0,-1,-1,87,89,86,190,69,136.83,183,65,53,-935
22:27.0,6,0,42,0,0,-1,87,89,87,190,69,136.89,183,143,45,-896
22:27.2,6,-1,43,0,0,-1,87,89,89,190,69,136.87,183,115,43,-1049
22:27.2,6,-2,43,0,0,-1,87,89,90,190,69,136.8,183,150,4,-1186
22:27.3,5,-2,43,0,0,-1,87,89,92,190,69,136.75,183,121,57,-971
22:27.5,5,-2,42,0,0,-2,87,89,94,190,69,137.06,183,86,14,-963
22:27.5,6,-1,43,0,0,-2,87,89,96,200,69,136.92,183,32,71,-961
22:27.7,6,-1,43,0,0,-2,87,89,98,200,69,136.83,183,93,7,-944
22:27.7,6,-2,43,0,0,-2,87,89,100,200,69,136.96,184,72,39,-949
22:27.8,6,-2,43,0,0,-2,87,89,101,210,69,137.21,184,137,29,-990
22:27.9,7,0,43,0,0,-2,87,89,103,210,69,136.79,184,136,3,-946
22:28.1,7,0,43,0,0,-1,87,89,103,210,69,136.88,184,155,-17,-1185
22:28.1,7,0,43,0,0,-1,87,89,104,210,69,137.17,184,113,-34,-951
22:28.3,8,0,43,1,0,-1,87,89,105,220,69,137.03,184,99,39,-964
22:28.3,8,0,43,0,0,0,87,89,104,220,69,137.33,184,177,-46,-988
22:28.5,7,0,43,0,0,0,87,89,103,220,69,136.97,184,93,11,-926
22:28.5,7,0,43,0,0,0,86,90,102,220,69,136.97,184,170,-1,-1075
22:28.7,7,0,43,0,0,0,86,90,102,220,69,136.98,184,97,12,-1072
22:28.8,6,0,43,0,0,0,86,90,102,210,69,137.07,185,182,-26,-978
22:28.9,6,-1,43,-1,0,0,86,90,102,210,69,136.76,185,113,-9,-984
22:28.9,5,-3,43,-1,0,0,86,90,101,210,69,136.74,185,37,49,-945
22:29.0,4,-3,42,-1,0,0,86,90,101,210,69,137.17,185,75,43,-1015
22:29.1,3,-4,43,-1,0,0,86,90,102,210,69,137.2,185,70,43,-995
22:29.3,4,-5,43,0,0,0,86,90,102,210,69,137.13,185,106,17,-962
22:29.3,5,-4,43,0,0,0,86,90,102,210,69,136.87,185,134,13,-926
22:29.5,5,-3,43,0,0,0,86,90,102,210,69,136.87,185,60,49,-958
22:29.5,5,-2,43,0,0,0,87,90,102,210,69,136.94,185,85,18,-999
22:29.6,6,-1,43,0,0,0,87,90,102,210,69,137.14,185,133,39,-970
22:29.7,6,0,43,1,0,0,87,90,102,210,69,137.12,186,112,36,-1038
22:29.8,7,0,43,1,0,0,87,90,102,210,69,137.01,186,146,29,-1033
22:29.9,8,0,43,1,0,0,87,90,101,210,69,137.05,186,101,61,-1065
22:30.0,8,0,43,0,0,0,87,90,101,210,69,136.76,186,0,97,-1010
22:30.1,8,0,43,0,0,0,87,90,101,210,69,136.83,186,123,33,-1054
22:30.2,7,-1,43,0,0,0,87,90,99,210,69,137.09,186,127,34,-939
22:30.3,7,-1,43,0,0,0,87,90,99,210,69,136.97,186,122,15,-869
22:30.4,6,-2,43,-1,0,0,87,90,97,210,69,136.87,186,155,4,-921
22:30.5,5,-3,43,-1,0,1,86,90,95,210,69,136.76,186,32,79,-895
22:30.6,4,-3,43,-1,0,1,86,90,93,210,69,137,186,133,33,-841
22:30.7,4,-4,43,-1,0,2,86,90,89,200,69,137.03,187,100,29,-879
22:30.8,4,-4,43,-1,0,2,86,90,86,200,69,136.75,187,113,32,-1057
22:31.0,4,-4,43,0,0,3,86,90,82,200,69,136.76,187,140,53,-1049
22:31.0,4,-3,43,0,0,3,86,90,79,190,69,137.07,187,137,46,-1050
22:31.2,5,-2,43,0,0,4,86,90,75,190,69,136.84,187,109,38,-1104
22:31.3,6,-1,43,0,0,4,86,90,72,180,69,136.68,187,65,33,-1008
22:31.4,6,-1,43,0,0,3,86,90,69,180,69,136.79,187,124,46,-993
22:31.5,6,-1,43,0,0,3,86,90,66,170,69,136.68,187,99,18,-1069
22:31.6,7,-1,43,1,0,3,86,91,64,170,69,136.5,187,124,49,-1227
22:31.7,8,0,43,0,0,2,86,91,62,160,69,136.62,187,152,38,-959
22:31.8,7,0,43,0,0,2,86,91,61,160,69,136.73,188,119,-10,-1144
22:31.9,8,-1,43,0,0,2,86,91,61,160,69,136.79,188,119,28,-1146
22:32.0,7,-2,42,0,0,1,86,91,61,150,69,136.63,188,134,28,-1027
22:32.1,7,-3,42,0,0,0,86,91,62,150,69,136.61,188,89,8,-938
22:32.2,6,-3,42,0,0,0,86,91,63,150,69,136.67,188,44,70,-1039
22:32.3,5,-3,42,-1,0,0,86,91,64,150,69,136.73,188,99,34,-969
22:32.4,4,-3,42,-1,0,0,86,91,66,160,69,136.8,188,78,29,-1090
22:32.5,3,-3,42,-1,0,0,86,91,68,160,69,136.57,188,124,27,-1013
22:32.6,2,-4,42,0,0,0,87,90,69,160,69,136.74,188,170,21,-954
22:32.7,3,-3,43,0,0,0,87,90,71,160,69,136.85,188,63,55,-940
22:32.7,4,-1,43,0,0,0,87,90,73,160,69,136.8,189,39,17,-1007
22:32.8,5,0,43,1,0,0,87,90,74,170,69,136.7,189,142,33,-904
22:33.0,6,0,43,1,0,0,87,90,74,170,69,136.51,189,123,33,-936
22:33.0,7,0,43,1,0,0,87,90,74,170,69,136.6,189,134,56,-845
22:33.2,8,0,43,1,0,0,87,90,73,170,69,136.81,189,90,25,-1017
22:33.2,8,0,43,1,0,0,87,90,72,170,69,136.92,189,74,54,-881
22:33.4,8,0,43,0,0,1,87,90,70,170,69,136.77,189,96,95,-899
22:33.4,7,-1,43,0,0,1,87,90,69,170,69,136.51,189,101,48,-960
22:33.6,6,-2,43,0,0,1,87,90,66,160,69,137.07,189,48,42,-945
22:33.7,3,-2,43,0,0,1,87,90,64,160,69,136.52,189,113,24,-1029
22:33.8,-2,-2,43,0,0,1,87,90,63,160,69,136.54,190,129,0,-1015
22:33.9,-3,-2,43,0,1,1,87,90,62,160,69,136.4,190,121,17,-986
22:34.0,-4,-2,43,2,2,1,87,90,61,150,69,136.56,190,131,-16,-998
22:34.1,-3,-2,43,3,2,1,87,90,60,150,69,136.98,190,95,44,-971
22:34.2,-2,-2,43,4,3,0,87,90,60,150,69,136.76,190,-1,20,-1075
22:34.3,0,-1,43,5,4,0,87,90,60,150,69,136.82,190,13,43,-1055
22:34.4,1,-1,43,6,5,0,87,90,60,150,69,136.54,190,99,-3,-1081
22:34.5,3,-1,43,7,6,0,87,90,60,150,69,136.95,190,15,63,-941
22:34.6,7,0,43,7,6,0,86,89,62,150,69,136.89,190,45,6,-970
22:34.7,7,1,43,7,6,0,86,89,62,150,69,136.9,191,47,-14,-1109
22:34.8,8,0,43,6,6,0,86,89,63,150,69,136.61,191,54,43,-887
22:34.9,8,0,43,5,5,0,86,89,64,150,69,136.69,191,100,8,-1041
22:35.0,8,-1,43,4,5,0,86,89,64,150,69,136.92,191,108,-5,-1183
22:35.1,8,-2,42,2,5,0,86,89,64,150,69,136.5,191,60,46,-982
22:35.3,8,-3,42,1,4,0,86,89,65,150,69,136.92,191,63,52,-1044
22:35.3,7,-4,42,0,4,0,86,89,65,160,69,136.66,191,99,31,-929
22:35.5,7,-5,42,0,3,0,86,89,65,160,69,136.69,191,126,-15,-1013
22:35.5,6,-5,42,0,2,0,86,89,65,160,69,137.02,191,94,-5,-1026
22:35.7,6,-6,42,-1,1,0,87,90,65,160,69,136.81,191,98,50,-886
22:35.7,5,-6,42,-1,0,0,87,90,64,160,69,137.1,192,88,41,-938
22:35.8,5,-7,42,0,0,0,87,90,63,160,69,136.79,192,130,29,-963
22:36.0,5,-7,42,0,-1,0,87,90,63,150,69,136.87,192,98,67,-957
22:36.0,4,-5,43,0,-2,0,87,90,62,150,69,136.6,192,132,36,-1144
22:36.1,2,-3,43,1,-3,0,87,90,62,150,69,136.49,192,132,62,-1071
22:36.3,2,-1,43,1,-2,0,87,90,62,150,69,136.82,192,78,73,-940
22:36.3,1,0,43,2,-2,0,87,90,61,150,69,136.85,192,54,127,-1002
22:36.4,1,1,43,2,-1,0,87,90,61,150,69,136.76,192,38,99,-924
22:36.5,3,0,43,2,0,0,87,90,61,150,69,136.52,192,33,47,-998
22:36.6,5,0,43,2,0,0,87,90,61,150,69,136.78,192,138,-5,-980
22:36.8,5,0,43,2,0,0,87,90,60,150,69,136.7,193,20,83,-962
22:36.8,6,0,42,1,1,0,87,90,60,150,69,136.72,193,7,23,-1049
22:36.9,8,0,42,1,1,0,87,90,61,150,69,136.62,193,139,35,-1041
22:37.0,8,-1,42,0,1,0,87,90,60,150,69,136.6,193,62,41,-1030
22:37.1,7,-4,42,0,1,0,87,90,60,150,69,136.75,193,69,59,-1109
22:37.2,6,-5,42,-1,1,0,87,90,60,150,68,136.68,193,111,11,-1176
22:37.3,5,-6,42,-1,0,0,87,90,60,150,68,136.8,193,57,48,-966
22:37.4,4,-6,42,-1,0,0,87,90,60,150,68,136.32,193,22,67,-1043
22:37.5,3,-6,42,-1,0,0,87,90,59,150,68,136.87,193,81,36,-1009
22:37.6,1,-6,43,-1,0,0,86,90,58,150,68,136.79,193,70,58,-939
22:37.7,2,-5,43,0,0,0,86,90,58,150,68,137.1,194,50,79,-1082
22:37.8,2,-4,42,0,-1,0,86,90,58,150,68,136.63,194,-17,75,-1130
22:37.9,2,-2,43,0,-1,0,86,90,58,150,68,136.78,194,186,33,-1043
22:38.0,3,-1,43,1,-1,0,86,90,58,150,68,136.99,194,-6,93,-967
22:38.1,3,0,43,1,0,0,86,90,58,150,68,136.61,194,67,77,-964
22:38.2,4,0,43,1,0,0,86,90,58,150,68,136.85,194,30,34,-958
22:38.3,4,0,43,1,0,0,86,90,58,150,68,136.58,194,54,15,-933
22:38.4,5,0,43,1,0,0,86,90,59,150,68,136.64,194,60,99,-994
22:38.5,8,0,43,0,0,0,86,90,60,150,68,136.78,194,30,42,-997
22:38.6,8,-1,43,0,0,0,86,90,61,150,68,136.36,194,186,22,-1310
22:38.7,8,-2,43,-1,0,-1,86,90,62,150,68,136.76,195,111,27,-978
22:38.8,8,-3,43,-2,0,0,86,90,63,150,68,136.84,195,100,20,-1016
22:38.9,8,-3,42,-2,0,0,86,90,64,150,68,137.08,195,36,-37,-1123
22:39.0,8,-3,42,-3,0,-1,86,90,65,160,68,136.75,195,74,25,-958
22:39.1,8,-3,42,-4,-1,0,86,90,66,160,68,136.55,195,50,63,-918
22:39.2,7,-3,42,-4,-2,0,86,90,65,160,68,136.72,195,122,-11,-940
22:39.3,7,-4,42,-4,-2,0,86,90,65,160,68,136.87,195,146,28,-928
22:39.5,7,-4,42,-4,-3,0,86,90,65,160,68,136.85,195,152,31,-871
22:39.5,7,-5,42,-3,-4,0,86,90,64,160,68,136.81,195,157,8,-956
22:39.6,7,-5,42,-4,-4,0,86,90,64,160,68,136.85,195,116,63,-924
22:39.8,6,-6,42,-3,-5,0,86,90,62,160,68,136.54,196,54,77,-1039
22:39.8,2,-3,42,-3,-6,0,86,90,62,150,68,136.8,196,118,30,-1013
22:40.0,0,0,43,-2,-6,0,86,90,61,150,68,136.69,196,141,-39,-1132
22:40.0,0,0,43,-2,-5,0,86,90,62,150,68,136.7,196,74,20,-1095
22:40.2,0,1,43,-1,-4,0,86,90,62,150,68,136.66,196,20,83,-944
22:40.2,1,1,43,-2,-3,0,86,90,62,150,68,136.74,196,92,56,-901
22:40.4,2,0,43,-2,-2,0,86,90,62,150,68,136.49,196,57,73,-1005
22:40.4,3,-1,43,-1,-1,0,86,90,63,150,68,136.88,196,85,51,-885
22:40.6,4,-3,43,-1,-1,0,86,90,64,150,68,136.8,196,94,19,-949
22:40.6,6,-4,43,0,0,0,86,90,65,150,68,136.85,196,105,8,-894
22:40.8,7,-4,43,0,0,0,86,90,65,150,68,137.09,197,76,-15,-1011
22:40.8,6,-5,43,0,-1,0,86,90,65,160,68,136.63,197,57,-12,-1011
22:41.0,4,-5,42,0,-1,0,86,90,65,160,68,136.86,197,36,23,-1027
22:41.0,5,-3,42,0,-2,0,86,90,65,160,68,136.95,197,49,11,-983
22:41.1,4,0,42,0,-2,0,86,90,65,160,67,136.73,197,97,16,-908
22:41.3,4,4,42,0,-2,0,86,90,66,160,67,136.65,197,51,79,-1080
22:41.3,4,5,43,0,-2,0,86,90,67,160,67,137.03,197,5,56,-1054
22:41.5,4,3,43,-1,-1,0,86,90,67,160,67,136.87,197,21,33,-1004
22:41.5,3,1,43,-1,-1,0,86,90,68,160,67,136.74,197,117,33,-1004
22:41.7,0,-1,43,-1,0,0,87,91,69,160,67,136.72,197,49,90,-941
22:41.7,0,-3,43,-1,0,0,87,91,70,160,67,136.71,198,87,-7,-1002
22:41.9,3,-5,43,-1,1,-1,87,91,72,160,67,136.9,198,71,21,-918
22:41.9,3,-6,43,-1,1,0,87,91,72,160,67,136.81,198,129,-29,-894
22:42.0,2,-7,42,0,1,0,87,91,72,160,67,136.95,198,39,21,-964
22:42.1,4,-5,42,0,1,0,87,91,72,160,67,136.93,198,8,99,-1044
22:42.2,4,-5,42,0,1,0,87,91,72,160,67,136.83,198,46,54,-937
22:42.3,5,-4,42,0,0,0,87,91,71,160,67,136.56,198,7,96,-976
22:42.5,6,-3,42,1,0,0,87,91,70,160,67,137.16,198,85,5,-1077
22:42.5,5,-1,42,1,0,1,87,91,69,160,67,137.01,198,7,90,-1014
22:42.7,6,0,43,1,0,1,87,90,67,160,67,137.16,198,61,84,-1072
22:42.7,5,0,43,0,0,1,87,90,66,160,67,136.88,199,63,42,-1017
22:42.8,4,0,43,0,0,1,87,90,65,150,67,136.86,199,89,60,-1201
22:42.9,4,0,43,0,0,0,87,90,65,150,67,136.77,199,44,38,-1020
22:43.0,3,-1,42,0,0,0,87,90,64,150,67,136.72,199,95,12,-987
22:43.1,2,-3,42,-1,0,0,87,90,65,150,67,136.88,199,100,3,-969
22:43.2,2,-4,42,-1,0,0,87,90,65,150,67,136.95,199,-29,73,-902
22:43.3,1,-4,42,-1,0,0,87,90,66,150,67,136.55,199,29,20,-1043
22:43.4,1,-4,42,-1,0,0,87,90,67,150,67,136.89,199,-30,54,-1057
22:43.5,1,-5,43,-1,0,0,87,90,67,150,67,136.89,199,112,43,-1030
22:43.6,1,-5,43,0,0,0,86,89,68,150,67,137.09,199,55,51,-1004
22:43.8,3,-4,43,0,0,0,86,89,69,160,67,137.28,200,40,59,-914
22:43.8,3,-3,43,0,0,0,86,89,70,160,67,136.8,200,63,68,-957
22:44.0,4,-2,43,1,0,0,86,89,70,160,67,136.72,200,66,54,-951
22:44.1,4,-2,43,1,0,0,86,89,71,160,67,136.74,200,52,67,-876
22:44.1,5,-4,42,1,0,0,86,89,72,160,67,136.81,200,30,91,-960
22:44.3,4,-7,42,1,0,0,86,89,73,160,67,136.82,200,-32,84,-951
22:44.3,4,-7,42,1,-1,0,86,89,74,160,67,137.04,200,11,93,-848
22:44.4,4,-6,42,1,-2,0,86,89,73,160,67,136.85,200,109,38,-938
22:44.6,3,-5,43,1,-2,0,86,89,74,160,67,137.01,200,153,16,-1088
22:44.6,2,-3,43,1,-3,0,87,90,74,160,67,136.53,200,58,81,-954
22:44.8,2,-2,43,1,-2,0,87,90,73,160,67,136.85,201,-24,78,-1057
22:44.8,1,-2,43,1,-2,0,87,90,73,160,67,136.77,201,75,54,-942
22:45.0,1,-2,43,2,-2,0,87,90,72,160,67,136.94,201,87,41,-853
22:45.0,1,-1,43,2,-2,0,87,90,71,160,67,137.03,201,51,31,-936
22:45.2,2,-2,43,2,-1,1,87,90,70,160,66,136.87,201,99,59,-989
22:45.2,3,-2,43,2,-1,1,87,90,68,160,66,136.91,201,149,-11,-1039
22:45.4,5,-3,43,2,0,1,87,90,67,160,66,136.93,201,0,64,-1233
22:45.4,7,-3,43,2,0,1,87,90,66,150,66,136.82,201,28,-8,-1013
22:45.5,8,-2,43,2,0,1,87,90,65,150,66,137.06,201,136,41,-965
22:45.7,8,-2,43,1,-1,0,87,90,65,150,66,136.8,201,142,52,-1043
22:45.7,8,-2,43,1,-1,0,87,90,65,150,66,136.9,202,99,45,-975
22:45.8,7,-2,42,0,-2,0,87,90,65,150,66,136.8,202,42,74,-1011
22:45.9,5,-2,43,0,-2,0,87,90,67,150,66,137.18,202,95,74,-899
22:46.1,0,1,43,0,-2,0,87,90,67,150,66,136.88,202,144,11,-1148
22:46.1,0,-1,43,-1,-1,0,87,90,68,150,66,136.98,202,116,51,-993
22:46.2,-1,-4,43,0,-1,-1,87,90,69,150,66,136.67,202,-3,88,-1129
22:46.4,0,-4,43,0,0,0,87,90,69,150,66,136.84,202,61,-3,-1005
22:46.5,0,-4,43,1,0,0,87,90,69,150,66,137.02,202,72,11,-989
22:46.6,2,-3,43,2,0,0,87,90,68,150,66,136.96,202,18,37,-1016
22:46.7,5,-2,43,2,0,0,87,90,68,150,66,136.75,202,77,66,-937
22:46.8,9,0,43,2,0,0,87,90,67,150,66,137.26,203,108,-3,-1055
22:46.9,8,0,43,2,0,0,87,90,67,150,66,136.88,203,110,56,-964
22:47.0,8,0,43,2,0,0,87,90,67,150,66,136.83,203,46,17,-1076
22:47.1,8,0,43,1,0,0,87,90,68,150,66,136.78,203,99,33,-972
22:47.2,6,0,43,1,0,0,87,90,69,150,66,136.69,203,121,-31,-1014
22:47.3,6,-1,43,0,0,0,87,90,70,150,66,137.08,203,107,9,-1056
22:47.4,5,0,43,0,0,0,87,90,71,150,66,136.94,203,74,1,-1103
22:47.5,3,-1,43,0,0,0,87,90,72,150,66,137.11,203,120,-3,-939
22:47.6,2,-1,43,0,0,0,87,90,73,160,66,137.03,203,99,11,-900
22:47.7,1,-2,43,0,0,0,87,91,73,160,66,137.06,203,63,8,-1003
22:47.8,0,-2,43,0,0,0,87,91,74,160,66,136.98,204,126,-22,-925
22:47.9,1,-1,43,0,0,0,87,91,74,160,66,137.23,204,35,17,-970
22:47.9,2,0,43,0,0,0,87,91,75,160,66,136.88,204,32,14,-1062
22:48.1,3,0,43,1,0,0,87,91,74,160,66,137.22,204,106,-19,-1070
22:48.1,4,0,43,1,0,0,87,91,74,160,66,137,204,119,-27,-1215
22:48.3,5,0,43,1,0,0,87,91,73,160,66,136.9,204,59,17,-923
22:48.3,5,0,43,1,0,0,87,91,73,160,66,136.83,204,13,15,-984
22:48.5,6,1,43,1,0,0,87,91,72,160,66,137.01,204,39,23,-997
22:48.5,6,1,43,1,0,0,87,91,71,160,66,136.73,204,32,33,-1042
22:48.7,6,0,43,0,0,0,87,90,71,160,66,137.06,204,100,10,-991
22:48.7,5,0,43,0,0,0,87,90,70,160,66,137.13,205,170,-4,-1040
22:48.8,4,0,42,0,0,0,87,90,69,160,66,136.66,205,77,-79,-943
22:49.0,4,0,43,0,0,0,87,90,68,150,66,136.82,205,105,18,-962
22:49.1,3,6,43,0,0,0,87,90,68,150,66,136.94,205,62,-18,-943
22:49.2,2,5,43,-1,1,0,87,90,68,150,65,136.74,205,-12,81,-887
22:49.3,2,3,43,-2,1,0,87,90,68,150,65,137.04,205,45,-28,-1047
22:49.4,2,1,43,-2,2,0,87,90,68,150,65,136.94,205,240,-66,-957
22:49.5,3,-1,43,-2,2,0,87,90,69,150,65,137.06,205,62,-1,-1034
22:49.6,2,-2,43,-2,2,0,87,90,70,150,65,136.78,205,92,17,-951
22:49.7,3,-2,43,-2,3,0,86,89,71,150,65,137.05,206,107,18,-984
22:49.8,5,-3,43,-1,3,0,86,89,72,160,65,137.17,206,50,46,-1015
22:49.9,7,-3,43,-1,3,0,86,89,73,160,65,137.25,206,48,4,-1003
22:50.0,8,-3,42,-1,2,0,86,89,73,160,65,136.87,206,95,7,-913
22:50.1,8,-2,42,0,1,0,86,89,73,160,65,136.99,206,131,15,-957
22:50.2,8,-1,42,0,0,0,86,89,73,160,65,136.98,206,157,-21,-980
22:50.3,8,0,42,0,0,0,86,89,72,160,65,136.76,206,74,32,-1103
22:50.4,6,0,42,-1,0,0,86,89,71,160,65,136.78,206,27,19,-953
22:50.5,0,-2,43,-1,-1,1,86,89,70,160,65,137.05,206,57,-6,-1071
22:50.6,-2,0,43,0,0,1,86,89,70,150,65,136.81,206,101,-8,-963
22:50.7,0,2,43,0,0,0,86,90,70,150,65,136.86,207,84,13,-982
22:50.8,0,1,43,0,0,0,86,90,70,150,65,136.57,207,18,57,-1068
22:50.9,0,0,43,0,1,0,86,90,71,150,65,136.76,207,7,7,-937
22:51.0,2,0,43,0,1,0,86,90,71,150,65,137.06,207,135,-42,-988
22:51.1,3,0,43,0,2,0,86,90,72,150,65,136.95,207,21,-15,-1120
22:51.2,7,-2,42,0,2,0,86,90,72,160,65,136.88,207,60,-181,-983
22:51.3,8,-3,42,1,2,0,86,90,73,160,65,136.93,207,109,-12,-862
22:51.4,8,-1,43,1,1,0,86,90,73,160,65,136.97,207,134,-8,-1000
22:51.5,7,-1,43,1,0,0,86,90,73,160,65,137.01,207,6,50,-937
22:51.6,6,0,43,0,0,0,86,90,72,160,65,136.99,207,96,-40,-934
22:51.7,6,0,43,0,0,0,87,90,71,160,65,136.74,208,97,10,-895
22:51.8,4,0,43,0,0,0,87,90,70,160,65,136.9,208,25,-2,-1050
22:51.9,3,1,43,0,-1,1,87,90,69,150,65,136.71,208,24,-5,-1125
22:52.1,2,1,43,0,-1,0,87,90,68,150,65,137.06,208,88,-6,-1067
22:52.1,1,1,43,0,-1,0,87,90,67,150,65,136.9,208,68,12,-995
22:52.3,1,1,43,0,0,0,87,90,66,150,65,137.07,208,82,-25,-1077
22:52.3,1,1,43,0,0,0,87,90,65,150,65,136.97,208,72,19,-941
22:52.5,2,1,43,0,0,0,87,90,65,150,65,136.99,208,54,-7,-1073
22:52.5,3,1,43,0,0,0,87,90,65,150,65,136.7,208,72,-12,-1003
22:52.7,4,1,43,0,0,0,87,90,65,150,65,136.94,208,63,1,-987
22:52.7,4,0,43,0,0,0,87,89,66,150,65,136.88,209,78,-38,-921
22:52.9,4,0,43,0,0,0,87,89,65,150,65,137.06,209,66,-22,-969
22:52.9,5,0,43,0,0,0,87,89,66,150,65,136.96,209,14,34,-949
22:53.1,5,0,43,0,0,0,87,89,66,150,65,136.96,209,70,-33,-898
22:53.1,5,0,43,0,0,0,87,89,66,150,65,137.02,209,21,-7,-1134
22:53.3,4,0,43,0,0,0,87,89,65,150,65,136.87,209,95,-25,-954
22:53.3,4,0,43,0,0,0,87,89,65,150,65,137.03,209,44,-21,-993
22:53.4,3,0,43,0,0,0,87,89,64,150,65,136.88,209,73,27,-924
22:53.6,2,0,46,0,0,0,87,89,63,150,65,136.63,209,129,-11,-1083
22:53.6,3,1,52,0,0,0,87,89,62,150,65,137.03,209,149,-60,-1051
22:53.8,3,1,58,0,0,0,87,91,61,150,65,136.99,210,20,13,-975
22:53.8,2,1,64,0,0,0,87,91,60,150,65,136.86,210,31,-17,-957
22:53.9,2,1,70,0,0,0,87,91,59,150,65,137.04,210,14,10,-921
22:54.1,1,2,76,0,0,0,87,91,58,140,65,136.77,210,121,-43,-942
22:54.1,1,2,82,0,0,0,87,91,58,140,65,136.93,210,87,-43,-1017
22:54.3,2,2,88,0,0,0,87,91,57,140,65,137.18,210,68,-59,-1093
22:54.3,2,2,94,0,0,0,87,91,57,140,65,136.99,210,123,-56,-990
22:54.5,2,2,100,0,0,0,87,91,57,140,65,136.89,210,41,-27,-1185
22:54.5,3,2,106,0,1,0,87,91,57,140,65,136.76,210,79,-40,-934
22:54.7,3,3,112,0,0,0,87,91,58,140,65,137.15,210,45,-49,-958
22:54.7,3,3,118,0,0,0,86,90,59,140,65,136.84,211,12,10,-914
22:54.9,3,3,124,0,0,0,86,90,60,140,65,137.03,211,7,-12,-1030
22:54.9,1,2,130,0,0,0,86,90,61,150,65,136.97,211,-90,6,-1042
22:55.0,0,1,137,0,-1,-1,86,90,62,150,65,137.12,211,-87,4,-1020
22:55.1,0,0,143,0,-1,-1,86,90,64,150,65,136.76,211,34,4,-959
22:55.2,0,0,149,0,-1,-1,86,90,65,150,64,137.18,211,-72,-15,-976
22:55.3,0,0,155,0,-1,0,86,90,66,150,64,136.9,211,-61,2,-883
22:55.4,0,0,161,0,-1,0,86,90,68,150,64,137.06,211,2,57,-835
22:55.5,0,0,166,0,0,-1,86,90,69,160,64,136.83,211,93,-73,-897
22:55.6,0,0,172,0,0,0,86,90,70,160,64,137.08,211,-23,-54,-1062
22:55.7,0,0,179,0,0,0,87,90,71,160,64,137.11,212,45,0,-863
22:55.8,0,1,-174,0,0,0,87,90,71,160,64,136.75,212,-59,42,-1028
22:55.9,0,0,-168,0,0,0,87,90,72,160,64,136.97,212,-95,79,-938
22:56.0,0,0,-162,0,0,0,87,90,72,160,64,136.85,212,-54,59,-871
22:56.1,-1,0,-156,0,0,0,87,90,71,160,64,136.81,212,-21,29,-1028
22:56.2,-1,0,-150,0,0,0,87,90,70,160,64,136.84,212,-48,37,-932
22:56.3,0,0,-144,0,0,0,87,90,69,160,64,137.06,212,-48,55,-978
22:56.4,0,0,-138,0,0,0,87,90,68,160,64,137.08,212,-34,24,-1055
22:56.6,0,0,-132,0,0,1,87,90,67,160,64,136.85,212,29,40,-1082
22:56.6,0,0,-126,0,-1,1,87,90,67,160,64,137.06,212,-9,49,-913
22:56.7,0,0,-120,0,-1,1,87,91,66,150,64,137.29,213,-13,68,-1095
22:56.8,1,0,-114,0,-1,0,87,91,66,150,64,136.92,213,22,26,-1139
22:56.9,1,0,-108,1,-1,0,87,91,66,150,64,137.21,213,-50,100,-947
22:57.0,1,-1,-102,1,-1,0,87,91,66,150,64,137.02,213,20,59,-1003
22:57.2,1,-2,-96,1,-1,0,87,91,66,150,64,137.16,213,44,48,-988
22:57.2,2,-2,-90,1,-1,0,87,91,67,150,64,137.3,213,64,50,-946
22:57.3,2,-2,-84,1,0,0,87,91,68,150,64,137.04,213,9,65,-1008
22:57.5,2,-2,-79,1,0,0,87,91,68,150,64,136.9,213,17,90,-1020
22:57.5,2,-2,-73,0,0,0,87,91,68,160,64,137.18,213,51,59,-916
22:57.6,2,-1,-68,0,0,0,87,91,68,160,64,137.07,213,51,23,-913
22:57.8,2,0,-62,0,0,0,87,91,69,160,64,137.47,214,29,41,-958
22:57.8,3,0,-57,0,0,0,87,91,68,160,64,137.15,214,-56,64,-964
22:57.9,2,0,-51,0,0,0,87,91,68,160,64,136.97,214,4,107,-885
22:58.1,2,0,-45,0,0,0,87,91,67,160,64,137.25,214,-2,66,-990
22:58.1,1,0,-39,0,0,0,87,91,67,150,64,136.96,214,125,-7,-969
22:58.2,2,0,-33,1,0,0,87,91,67,150,64,136.78,214,137,25,-969
22:58.3,2,0,-27,1,0,0,87,91,68,150,64,137.17,214,43,34,-991
22:58.4,2,-1,-21,1,0,0,87,91,68,160,64,137.03,214,141,29,-904
22:58.6,3,-1,-14,1,0,0,87,91,68,160,64,136.99,214,41,52,-957
22:58.6,4,0,-8,1,0,0,87,91,68,160,64,137.17,214,94,11,-988
22:58.8,3,0,-2,1,0,0,86,91,68,160,64,137.27,215,34,53,-1090
22:58.8,3,0,3,1,0,0,86,91,68,160,64,137.13,215,46,43,-990
22:58.9,3,0,9,1,0,0,86,91,67,160,64,137.2,215,67,11,-971
22:59.0,3,1,16,1,0,0,86,91,66,160,64,136.99,215,66,-7,-967
22:59.2,3,1,22,0,0,0,86,91,66,150,64,136.99,215,12,64,-1043
22:59.3,2,1,27,0,0,0,86,91,65,150,64,137.11,215,6,15,-1041
22:59.4,2,1,31,0,0,0,86,91,63,150,64,136.92,215,134,-35,-977
22:59.5,2,1,34,0,0,0,86,91,62,150,64,137.09,215,89,3,-951
22:59.5,2,1,36,0,0,0,86,91,61,150,64,136.88,215,107,-24,-977
22:59.6,2,1,38,0,0,0,86,91,59,150,64,137.22,215,79,-15,-1080
22:59.7,3,1,40,0,0,0,87,90,58,150,64,136.82,216,11,-16,-1057
22:59.8,3,2,40,0,0,0,87,90,57,150,64,136.98,216,36,-23,-984
22:59.9,2,2,41,0,0,0,87,90,55,150,64,137.06,216,63,-24,-1032
23:00.0,2,1,41,0,0,0,87,90,55,140,64,136.89,216,65,-6,-1035
23:00.1,2,1,41,0,0,0,87,90,54,140,63,136.9,216,-13,5,-1147
23:00.2,3,1,41,0,0,0,87,90,54,140,63,137,216,7,-1,-1131
23:00.3,2,1,41,0,0,0,87,90,54,140,63,136.88,216,37,-51,-1070
23:00.4,2,1,41,0,0,0,87,90,55,140,63,136.84,216,120,-34,-935
23:00.5,2,1,41,0,0,0,87,90,56,140,63,136.89,216,95,-15,-1045
23:00.6,2,0,41,0,0,-1,87,90,58,140,63,136.68,216,114,-14,-879
23:00.7,2,0,41,0,0,-1,87,90,60,140,63,137.18,217,-18,-11,-1125
23:00.8,2,0,41,0,0,-1,87,90,63,150,63,136.65,217,17,-17,-922
23:01.0,2,0,41,0,0,-2,87,90,65,150,63,136.92,217,7,31,-907
23:01.0,2,0,41,0,0,-2,87,90,67,150,63,137,217,82,5,-847
23:01.2,3,0,41,0,0,-2,87,90,67,160,63,136.89,217,3,11,-780
23:01.2,2,0,41,0,0,-1,87,90,66,160,63,136.76,217,86,-25,-789
23:01.4,3,0,41,0,0,0,87,90,65,160,63,136.86,217,136,-23,-963
23:01.4,2,1,41,0,0,0,87,90,64,160,63,136.96,217,74,-18,-925
23:01.5,2,1,41,0,0,0,87,90,62,160,63,136.93,217,71,-45,-1027
23:01.7,1,1,41,0,0,0,87,90,60,160,63,136.94,217,53,-23,-1065
23:01.8,2,1,41,0,0,1,86,90,58,150,63,136.99,218,46,18,-1149
23:01.9,2,1,41,0,0,1,86,90,56,150,63,137.06,218,72,-41,-1126
23:02.0,2,2,41,0,0,1,86,90,54,150,63,136.77,218,73,-23,-1015
23:02.1,3,2,41,0,0,1,86,90,52,150,63,136.75,218,119,-68,-1019
23:02.2,3,1,36,0,0,1,86,90,51,140,63,136.9,218,51,9,-1071
23:02.3,3,0,30,0,0,1,86,90,50,140,63,136.78,218,60,-4,-1024
23:02.4,3,0,24,0,0,0,86,90,50,140,63,136.94,218,53,-36,-1018
23:02.5,3,0,18,0,0,0,86,90,50,140,63,136.9,218,39,3,-972
23:02.6,2,-1,12,0,0,0,86,90,51,140,63,136.82,218,95,-40,-1125
23:02.7,2,-1,6,0,0,0,86,90,52,140,63,136.68,218,103,50,-918
23:02.8,3,-1,0,0,0,-1,87,90,53,140,63,136.36,219,46,22,-1013
23:02.9,4,0,-5,0,0,-1,87,90,55,140,63,136.93,219,107,-12,-1026
23:03.0,4,0,-12,0,0,-1,87,90,56,140,63,136.9,219,80,46,-924
23:03.1,4,0,-18,0,0,-1,87,90,58,150,63,137.02,219,113,-30,-1113
23:03.2,4,0,-24,0,0,-1,87,90,59,150,63,136.92,219,84,34,-897
23:03.3,3,-1,-30,0,0,-1,87,90,60,150,63,136.97,219,19,24,-961
23:03.3,3,-1,-36,0,0,-1,87,90,60,150,63,136.84,219,23,48,-935
23:03.5,3,-1,-42,0,0,0,87,90,62,150,63,136.98,219,59,42,-947
23:03.5,3,-1,-47,0,0,0,87,90,62,150,63,136.76,219,73,29,-978
23:03.6,3,-2,-53,0,0,0,87,90,63,150,63,136.87,219,87,49,-939
23:03.8,3,-2,-59,0,0,0,87,90,63,150,63,136.87,220,71,74,-978
23:03.8,3,-2,-65,0,0,0,87,90,64,160,63,136.6,220,113,31,-1086
23:03.9,3,-2,-71,0,0,0,87,90,64,160,63,136.94,220,31,62,-970
23:04.0,3,-1,-77,0,0,-1,87,90,64,160,63,136.97,220,-1,110,-941
23:04.2,2,-1,-83,0,0,0,87,90,64,160,62,136.83,220,60,73,-982
23:04.2,1,-1,-88,0,0,0,87,90,62,160,62,137.14,220,-13,113,-946
23:04.4,1,-1,-94,0,0,0,87,90,61,160,62,137.11,220,0,94,-984
23:04.5,1,-1,-99,0,0,0,87,90,59,160,62,137.11,220,54,80,-942
23:04.6,1,-1,-105,0,0,0,87,90,58,150,62,136.89,220,18,73,-1150
23:04.7,2,-1,-112,0,0,1,87,90,57,150,62,136.92,220,41,-228,-1064
23:04.8,3,-1,-124,0,0,1,86,91,55,150,62,137.02,221,4,115,-1051
23:04.9,3,-1,-130,0,0,1,86,91,54,150,62,136.88,221,0,49,-1024
23:05.0,3,-2,-137,0,0,0,86,91,54,150,62,136.65,221,2,62,-1066
23:05.2,1,-3,-143,0,0,0,86,91,54,140,62,136.89,221,-58,67,-1170
23:05.2,1,-2,-150,0,1,0,86,91,54,150,62,136.84,221,-55,48,-1087
23:05.4,1,0,-156,0,1,0,86,91,55,150,62,136.86,221,44,13,-1009
23:05.4,0,0,-163,0,1,0,86,91,55,150,62,136.78,221,47,-10,-1037
23:05.6,0,0,-169,0,1,0,86,91,56,150,62,136.82,221,-62,27,-1051
23:05.6,0,0,-175,0,1,-1,86,91,57,150,62,136.8,221,68,7,-998
23:05.8,0,0,178,0,1,0,86,91,58,150,62,136.91,222,-54,38,-974
23:05.8,0,0,172,0,0,0,87,90,59,150,62,137.1,222,-109,66,-1053
23:06.0,0,0,167,0,0,0,87,90,60,150,62,136.91,222,0,4,-860
23:06.0,0,0,161,0,0,0,87,90,60,150,62,137.12,222,22,-2,-1096
23:06.1,1,1,156,0,0,0,87,90,60,150,62,136.69,222,22,24,-881
23:06.3,1,0,150,0,0,0,87,90,59,150,62,136.83,222,25,5,-993
23:06.3,1,0,145,0,0,0,87,90,58,150,62,136.87,222,-12,59,-933
23:06.5,1,0,139,0,0,0,87,90,58,150,62,136.98,222,9,34,-1117
23:06.5,2,0,133,0,0,0,87,90,57,150,62,136.89,222,87,8,-945
23:06.7,2,0,128,0,0,0,87,90,57,150,62,137.01,222,-15,10,-941
23:06.7,2,0,122,0,0,0,87,90,56,150,62,136.88,223,2,1,-980
23:06.9,2,0,116,0,0,0,86,90,56,150,62,136.65,223,-1,52,-955
23:06.9,2,0,110,0,0,0,86,90,56,150,62,136.79,223,1,44,-976
23:07.0,2,0,104,0,0,0,86,90,56,150,62,136.75,223,83,-26,-1038
23:07.2,2,0,98,1,0,0,86,90,57,150,62,137.06,223,28,-50,-1071
23:07.2,2,1,92,1,0,0,86,90,57,150,62,137.02,223,23,7,-917
23:07.4,2,1,86,1,0,0,86,90,58,150,62,137.17,223,7,22,-934
23:07.4,3,1,80,1,0,0,86,90,59,150,62,136.72,223,7,11,-959
23:07.5,3,1,74,1,0,0,86,90,59,150,62,137.27,223,2,34,-953
23:07.6,2,1,68,0,0,0,86,90,59,150,62,136.93,223,-22,15,-1035
23:07.7,3,1,62,1,0,0,86,90,59,150,62,137.05,224,42,-34,-981
23:07.8,3,1,57,0,0,0,86,90,59,150,62,137.05,224,73,1,-950
23:07.9,3,1,53,0,0,0,86,90,59,150,62,136.93,224,23,-2,-1036
23:08.0,3,0,50,0,0,0,86,90,60,150,62,136.98,224,-25,43,-902
23:08.1,3,0,48,0,0,0,86,90,60,150,62,136.93,224,-6,30,-1016
23:08.2,2,0,46,0,0,0,86,90,61,150,62,137.33,224,33,-10,-943
23:08.3,2,0,45,0,0,0,86,90,62,150,62,137.16,224,-23,56,-988
23:08.4,1,0,44,0,0,0,86,90,63,150,62,137.12,224,81,6,-881
23:08.5,1,0,43,0,0,0,86,90,64,160,62,137.07,224,82,-20,-911
23:08.6,2,0,42,0,0,0,86,90,64,160,62,137.52,224,69,12,-974
23:08.7,2,0,42,0,0,0,86,90,65,160,62,136.94,225,-3,39,-1008
23:08.8,2,0,42,0,0,0,87,90,65,160,62,137.05,225,-14,19,-963
23:08.9,2,0,41,0,0,0,87,90,66,160,62,137.15,225,94,10,-910
23:09.0,2,0,41,0,0,0,87,90,66,160,62,137.21,225,56,22,-973
23:09.1,3,0,41,0,0,0,87,90,66,160,62,136.86,225,-5,11,-1002
23:09.2,3,0,40,0,0,0,87,90,66,160,61,136.94,225,77,25,-908
23:09.4,3,0,40,0,0,0,87,90,66,160,61,137.05,225,78,2,-1030
23:09.4,3,0,40,0,0,0,87,90,66,160,61,137.04,225,100,15,-1104
23:09.5,3,-1,40,0,0,0,87,90,65,160,61,136.95,225,-8,47,-977
23:09.7,2,-1,40,0,0,0,87,90,65,160,61,137.06,225,38,32,-906
23:09.7,2,-1,40,0,0,0,87,90,65,160,61,136.85,226,-43,40,-951
23:09.8,2,0,40,0,0,0,86,90,64,160,61,137,226,11,67,-871
23:10.0,2,0,40,0,0,0,86,90,63,160,61,137.03,226,67,26,-947
23:10.0,2,0,40,0,0,0,86,90,62,160,61,137.17,226,41,27,-994
23:10.1,3,0,40,0,0,0,86,90,62,160,61,137.21,226,74,17,-967
23:10.3,3,0,40,0,0,0,86,90,61,150,61,137.32,226,55,27,-1186
23:10.3,3,0,40,0,0,0,86,90,60,150,61,137.05,226,69,3,-1004
23:10.4,3,-1,40,0,0,0,86,90,59,150,61,137.08,226,42,10,-1011
23:10.5,3,-1,40,0,0,0,86,90,59,150,61,137.09,226,73,-2,-981
23:10.6,1,-2,41,0,0,0,86,90,59,150,61,137.11,226,156,-57,-1503
23:10.7,0,-2,44,0,0,-5,86,90,63,150,61,137.07,227,109,6,-1594
23:10.8,2,-15,50,1,0,-10,86,91,78,160,61,137.35,227,205,322,-941
23:10.9,13,-98,40,5,-4,-9,86,91,6553,170,61,137.36,227,202,898,-868
23:11.1,-7,127,33,8,-7,4,86,91,6553,180,61,137.03,227,54,624,-1429
23:11.1,-2,15,49,3,-1,12,86,91,73,170,61,137.36,227,60,-162,-1526
23:11.2,0,-1,51,3,-1,10,86,91,61,160,61,137.01,227,71,-171,-1338
23:11.3,1,3,53,3,0,6,86,91,51,150,61,136.96,227,55,48,-1235
23:11.4,2,2,51,3,0,2,86,91,46,140,61,137.12,227,13,57,-1176
23:11.5,2,0,44,2,0,0,86,91,43,140,61,136.94,227,77,-43,-1147
23:11.6,3,0,39,3,0,-1,86,91,42,140,61,137.2,227,-24,66,-1017
23:11.7,3,1,39,2,0,-1,86,91,41,140,61,136.68,228,40,44,-944
23:11.8,3,0,39,2,0,-2,87,90,42,140,61,136.78,228,56,-11,-952
23:11.9,3,0,39,2,0,-2,87,90,42,140,61,137.11,228,49,-26,-1029
23:12.0,3,0,39,2,0,-1,87,90,42,140,61,137.14,228,26,8,-1091
23:12.1,3,0,39,2,0,-1,87,90,43,140,61,136.78,228,89,19,-983
23:12.2,3,1,39,1,0,0,87,90,43,140,61,136.63,228,44,46,-954
23:12.3,4,2,39,1,0,0,87,90,44,140,61,136.79,228,67,51,-939
23:12.4,4,1,39,1,0,0,87,90,44,140,61,136.91,228,102,8,-962
23:12.5,4,1,39,0,0,0,87,90,46,140,61,136.77,228,55,17,-935
23:12.6,4,0,39,0,0,0,87,90,47,140,61,136.93,228,59,40,-981
23:12.7,4,0,39,0,0,0,87,90,48,140,61,137.06,229,63,9,-1069
23:12.8,4,0,39,0,0,0,87,90,50,140,61,137.03,229,49,6,-981
23:12.9,4,0,40,0,0,0,87,90,52,140,61,137.07,229,94,6,-1064
23:13.0,4,0,39,0,0,0,87,90,55,140,61,137.09,229,67,31,-994
23:13.1,4,0,39,0,0,-1,87,90,58,140,60,136.94,229,55,20,-949
23:13.2,4,0,39,0,0,-1,87,90,61,140,60,136.92,229,74,-8,-1073
23:13.3,3,0,39,0,0,-1,87,90,63,150,60,137,229,123,34,-922
23:13.4,3,0,40,0,0,-1,87,90,66,150,60,136.85,229,-46,46,-1004
23:13.5,2,0,40,0,0,-1,87,90,68,160,60,137.21,229,25,-5,-1071
23:13.6,2,0,39,-1,0,-1,87,90,70,160,60,137,229,64,15,-933
23:13.7,2,0,39,-1,0,0,87,90,72,160,60,137.05,230,106,6,-1023
23:13.9,2,0,40,0,0,0,86,90,74,160,60,137.07,230,73,22,-993
23:13.9,2,0,40,0,0,0,86,90,76,160,60,136.92,230,57,-14,-1112
23:14.1,2,0,40,0,0,0,86,90,78,160,60,137.03,230,66,19,-1025
23:14.1,2,0,40,0,0,0,86,90,79,160,60,137.17,230,-27,10,-1095
23:14.3,2,0,40,0,0,0,86,90,80,170,60,136.92,230,61,-7,-1016
23:14.3,3,0,40,0,0,0,86,90,81,170,60,137.08,230,48,-34,-1007
23:14.5,3,0,40,0,0,0,86,90,81,170,60,136.91,230,71,34,-893
23:14.6,3,0,40,0,0,0,86,90,82,170,60,137.08,230,31,-16,-996
23:14.6,2,0,40,0,0,0,86,90,82,170,60,136.79,230,64,12,-970
23:14.7,2,0,40,0,0,0,86,90,82,170,60,136.91,231,57,2,-913
23:14.9,2,0,40,0,0,0,86,90,82,170,60,136.94,231,46,14,-911
23:14.9,3,0,40,0,0,0,86,90,81,170,60,137.21,231,28,30,-1011
23:15.1,3,0,40,0,0,0,86,90,80,170,60,137.13,231,120,-1,-919
23:15.1,3,0,40,0,0,0,86,90,79,170,60,137.11,231,159,-32,-972
23:15.3,3,0,40,0,0,0,86,90,79,170,60,137.24,231,106,-29,-976
23:15.3,3,0,40,0,0,0,86,90,79,170,60,137.04,231,110,-3,-1141
23:15.5,3,0,40,0,0,0,86,90,78,170,60,136.85,231,69,-27,-1027
23:15.5,3,0,40,0,0,0,86,90,78,170,60,136.93,231,62,-9,-996
23:15.7,3,0,40,0,0,0,86,90,78,170,60,136.99,231,88,3,-1083
23:15.7,3,0,40,0,0,0,86,90,78,160,60,137.16,232,77,24,-1017
23:15.8,3,0,40,0,0,0,87,90,79,160,60,137.03,232,70,17,-975
23:16.0,2,0,40,0,0,0,87,90,80,170,60,137.2,232,78,5,-921
23:16.0,2,0,40,0,0,0,87,90,80,170,60,137.13,232,65,4,-962
23:16.2,3,0,40,0,0,0,87,90,81,170,60,136.97,232,12,18,-961
23:16.2,3,0,40,0,0,0,87,90,81,170,60,137.13,232,-27,52,-936
23:16.4,3,1,40,0,0,0,87,90,81,170,60,137.39,232,48,-11,-961
23:16.4,2,0,40,0,0,0,87,90,81,170,60,136.77,232,48,22,-956
23:16.6,2,0,40,0,0,0,87,90,80,170,60,137.23,232,53,7,-1002
23:16.6,2,0,40,0,0,0,87,90,81,170,60,136.95,232,58,-12,-1117
23:16.8,2,0,40,0,0,0,87,90,80,170,60,136.9,233,56,12,-998
23:16.8,2,0,40,0,0,0,87,90,80,170,60,137.04,233,98,-18,-897
23:17.0,2,0,40,0,0,0,87,90,80,170,60,136.92,233,93,-47,-1182
23:17.1,2,0,40,0,0,0,87,90,80,170,60,137,233,119,-34,-1027
23:17.2,1,1,40,0,0,0,87,90,81,170,60,137.11,233,114,-53,-1536
23:17.3,0,2,42,0,0,-5,87,90,88,170,60,137.38,233,64,-30,-1577
23:17.4,0,12,44,0,1,-10,87,90,156,180,60,137.16,233,105,166,-1540
23:17.5,-9,95,39,-3,6,-10,87,90,6553,190,60,137.5,233,214,926,-1027
23:17.6,9,-133,30,-5,9,3,87,90,197,190,60,137.54,233,290,952,-1123
23:17.7,4,-16,59,-1,4,11,87,90,87,190,60,137.01,233,116,377,-650
23:17.9,-5,16,59,-2,6,11,87,90,72,180,60,137.1,234,-32,41,-1501
23:17.9,1,-3,58,-3,8,8,87,90,65,160,60,136.94,234,41,27,-1489
23:18.0,2,-8,54,-2,6,3,87,90,63,160,60,136.98,234,-33,2,-1414
23:18.1,2,-7,46,-1,5,0,87,90,61,160,60,136.9,234,51,43,-1238
23:18.3,1,-4,40,0,4,-1,87,90,61,160,60,137,234,-60,28,-1134
23:18.3,2,-2,39,0,3,-2,87,90,64,160,60,137.21,234,11,-12,-1060
23:18.5,2,-1,39,0,3,-3,87,90,68,160,60,136.93,234,23,-4,-925
23:18.5,3,-1,39,1,2,-2,87,90,71,160,60,137.23,234,55,-41,-964
23:18.5,3,0,39,1,2,-2,87,90,73,160,60,136.98,234,-5,9,-872
23:18.7,3,0,39,1,2,-2,87,90,75,160,60,137.45,234,69,-3,-878
23:18.7,3,0,39,1,1,-1,87,90,76,170,60,136.96,235,90,-1,-861
23:18.8,3,0,39,0,1,-1,86,90,78,170,60,137.2,235,-10,25,-964
23:19.0,2,0,39,0,1,0,86,90,80,170,60,137.26,235,74,2,-893
23:19.0,4,-2,39,0,1,0,86,90,80,170,60,137.12,235,64,-11,-955
23:19.2,4,-2,39,0,1,0,86,90,82,170,59,137.03,235,76,-17,-1145
23:19.2,4,-1,39,0,0,0,86,90,82,170,59,136.86,235,-21,6,-998
23:19.4,4,-1,39,0,0,0,86,90,83,170,59,137.21,235,59,17,-942
23:19.4,3,0,40,0,0,0,86,90,84,170,59,137.17,235,117,-22,-992
23:19.6,3,0,40,0,0,0,86,90,85,170,59,137.17,235,53,-15,-924
23:19.7,2,0,40,0,0,0,86,90,86,170,59,136.94,235,56,-3,-988
23:19.8,2,0,40,0,0,0,86,90,88,170,59,137.2,236,37,20,-943
23:19.9,1,0,40,0,0,0,87,90,90,180,59,137.12,236,98,-6,-954
23:20.0,2,0,40,0,0,0,87,90,91,180,59,137.23,236,30,6,-979
23:20.1,1,0,40,0,0,0,87,90,92,180,59,137.2,236,65,3,-1096
23:20.2,2,0,40,0,0,0,87,90,93,180,59,137.24,236,82,25,-959
23:20.3,3,0,40,0,0,0,87,90,94,180,59,136.9,236,35,-14,-877
23:20.4,3,0,40,0,0,0,87,90,95,180,59,137.03,236,-38,32,-995
23:20.5,3,0,40,0,0,0,87,90,95,180,59,137.56,236,84,-56,-1046
23:20.6,3,0,40,0,0,0,87,90,95,180,59,137.13,236,72,-4,-982
23:20.7,3,0,40,0,0,0,87,90,95,180,59,137.15,237,103,-54,-968
23:20.8,3,0,40,0,0,0,87,90,94,180,59,137.02,237,1,32,-966
23:20.9,2,0,40,0,0,0,88,91,94,180,59,137.32,237,14,-5,-963
23:21.0,2,0,40,0,0,0,88,91,93,180,59,137.1,237,46,-1,-891
23:21.1,2,0,40,0,0,0,88,91,94,180,59,137.39,237,35,10,-1015
23:21.2,2,0,40,0,0,0,88,91,92,180,58,137.24,237,95,-85,-1058
23:21.3,2,1,40,0,0,0,88,91,91,180,58,137.25,237,48,-40,-1120
23:21.4,2,1,40,0,0,0,88,91,90,180,58,137.17,237,93,-48,-1063
23:21.5,2,1,40,0,0,0,88,91,89,180,58,137.06,237,49,-53,-1183
23:21.6,2,1,40,0,0,0,88,91,87,180,58,137.06,237,95,-37,-933
23:21.7,2,1,40,0,0,0,88,91,85,170,58,136.98,238,-35,30,-1014
23:21.8,2,1,40,0,0,0,88,91,84,170,58,136.99,238,61,-52,-960
23:21.9,2,1,40,0,0,1,87,91,81,170,58,136.93,238,37,-35,-1064
23:22.0,2,2,40,0,0,1,87,91,79,170,58,137.11,238,80,-61,-983
23:22.1,2,2,40,0,0,0,87,91,78,170,58,136.84,238,46,-40,-1037
23:22.3,2,2,40,0,0,0,87,91,77,170,58,136.87,238,-7,17,-1017
23:22.3,2,1,40,0,0,0,87,91,76,170,58,136.93,238,3,-21,-1030
23:22.4,2,1,40,0,0,0,87,91,75,170,58,136.89,238,93,-49,-1131
23:22.5,2,2,40,0,0,0,87,91,75,170,58,136.78,238,57,-44,-1026
23:22.6,2,2,40,0,0,0,87,91,75,170,58,137.1,238,126,-111,-1139
23:22.7,2,3,40,0,0,0,87,91,75,170,58,136.96,239,63,-42,-910
23:22.8,2,2,40,0,0,0,87,91,76,170,58,137,239,82,-49,-1014
23:22.9,2,2,40,0,0,0,86,91,76,170,58,136.96,239,59,-36,-1187
23:23.0,1,1,40,0,0,0,86,91,77,170,58,137.02,239,55,-57,-971
23:23.1,2,0,40,0,0,0,86,91,78,170,58,137.18,239,13,-17,-1383
23:23.2,1,0,40,0,0,0,86,91,79,170,58,136.82,239,9,-12,-956
23:23.3,2,0,40,0,0,0,86,91,80,170,58,136.95,239,55,-8,-865
23:23.4,2,0,40,0,0,0,86,91,80,170,58,136.97,239,67,-62,-1066
23:23.5,2,1,40,0,0,0,86,91,80,170,58,137.07,239,43,-23,-986
23:23.6,3,1,40,0,0,0,86,91,80,170,58,136.92,239,87,-28,-1060
23:23.7,3,1,40,0,0,0,86,91,81,170,58,136.94,240,135,-75,-1080
23:23.8,0,0,40,0,0,0,86,91,82,170,58,137.01,240,104,-101,-1362
23:23.9,-2,0,42,1,0,-5,87,91,87,170,58,137.41,240,61,-60,-1613
23:24.0,-17,-1,44,2,1,-10,87,91,108,180,58,137.36,240,17,-37,-1447
23:24.1,-69,-161,-158,7,5,-8,87,91,6553,190,58,137.76,240,534,-47,-1053
23:24.2,60,166,-155,9,7,6,87,91,211,190,57,137.24,240,707,-97,-853
23:24.3,8,0,52,5,3,13,87,91,94,180,57,137.43,240,435,-83,-1023
23:24.4,-21,-14,57,7,3,13,87,91,89,170,57,137.08,240,85,-160,-989
23:24.5,5,2,56,10,4,11,87,91,66,160,57,136.94,240,-40,29,-1092
23:24.6,7,7,64,8,3,8,87,91,57,150,57,136.87,240,-80,-109,-1466
23:24.7,4,9,76,6,2,4,87,91,52,140,57,136.81,241,-8,25,-1521
23:24.8,1,6,86,3,1,0,87,91,52,140,57,136.8,241,-19,41,-1236
23:24.9,0,2,90,2,1,-2,87,90,54,140,57,136.86,241,-41,-5,-1153
23:25.0,0,1,88,2,1,-3,87,90,59,140,57,136.93,241,-86,3,-1072
23:25.1,0,1,80,2,1,-3,87,90,65,140,57,136.78,241,17,-62,-1065
23:25.2,0,1,67,2,1,-3,87,90,71,150,57,137.15,241,-5,-5,-959
23:25.3,1,0,54,1,1,-3,87,90,77,150,57,136.95,241,15,-35,-922
23:25.4,1,0,41,1,1,-3,87,90,83,160,57,137.05,241,119,-53,-924
23:25.5,5,0,38,1,1,-2,87,90,89,160,57,137.21,241,4,-42,-888
23:25.6,5,1,38,1,0,-2,87,90,94,160,57,137.35,241,57,-81,-887
23:25.7,5,1,38,1,0,-1,87,90,98,170,57,137.45,242,41,-36,-933
23:25.8,5,1,38,0,0,-1,87,90,101,170,57,137,242,30,-11,-836
23:25.9,4,0,38,0,0,0,87,91,104,170,57,137.28,242,29,-38,-887
23:26.0,3,0,39,0,0,0,87,91,106,180,57,137.44,242,99,-51,-841
23:26.1,3,0,39,0,0,0,87,91,108,180,57,137.26,242,-14,-38,-1018
23:26.2,3,0,39,0,0,0,87,91,110,180,57,137.17,242,85,-4,-993
23:26.4,3,0,39,0,0,0,87,91,111,180,57,137.36,242,84,-32,-886
23:26.4,3,0,39,0,0,1,87,91,112,180,57,137.38,242,3,-15,-961
23:26.6,3,0,39,0,0,0,87,91,113,190,57,137.12,242,82,-69,-1083
23:26.6,2,0,39,0,0,-1,87,91,114,190,57,137.81,242,75,-50,-995
23:26.8,3,0,39,0,0,0,87,91,116,190,57,137.25,243,-38,20,-960
23:26.8,3,0,39,0,0,0,87,91,117,190,57,137.51,243,82,-14,-883
23:27.0,3,0,39,0,0,0,87,90,118,190,57,137.51,243,103,-47,-1042
23:27.0,2,0,39,0,0,0,87,90,118,190,57,137.32,243,30,-34,-964
23:27.1,2,0,39,0,0,0,87,90,120,190,56,137.49,243,112,-35,-989
23:27.2,2,1,39,0,0,0,87,90,120,190,56,137.15,243,59,-6,-888
23:27.4,2,1,39,0,0,0,87,90,120,190,56,137.42,243,-38,16,-999
23:27.4,2,1,39,0,0,0,87,90,120,190,56,137.25,243,148,-61,-1067
23:27.5,2,0,39,0,0,0,87,90,119,190,56,137.53,243,-9,1,-1015
23:27.7,2,0,39,0,0,0,87,90,120,190,56,137.52,243,23,37,-1116
23:27.7,2,0,39,0,0,0,87,90,119,190,56,137.46,244,-18,-39,-1107
23:27.9,2,0,39,0,0,0,87,90,119,190,56,137.32,244,35,-46,-1067
23:27.9,1,0,39,0,0,0,88,90,118,190,56,137.22,244,47,-31,-919
23:28.0,2,1,39,0,0,0,88,90,118,190,56,137.19,244,15,-31,-975
23:28.1,2,1,39,0,0,0,88,90,118,190,56,137.34,244,89,-56,-991
23:28.3,2,1,39,0,0,0,88,90,118,190,56,137.54,244,91,-61,-1037
23:28.3,3,2,40,0,0,0,88,90,118,190,56,137.59,244,0,-23,-1130
23:28.5,3,2,40,0,0,0,88,90,118,190,56,137.27,244,34,36,-960
23:28.5,3,2,40,0,0,0,88,90,118,190,56,137.2,244,88,-43,-948
23:28.7,3,2,40,0,0,0,88,90,118,190,56,137.45,244,105,-54,-900
23:28.7,3,1,40,0,0,0,88,90,119,190,56,137.26,245,-24,31,-955
23:28.9,2,1,40,0,0,0,88,90,120,190,56,137.56,245,57,-12,-919
23:28.9,2,1,40,0,0,0,88,91,120,190,56,137.35,245,13,-7,-1008
23:29.1,3,1,40,0,0,0,88,91,118,190,56,137.31,245,78,-18,-874
23:29.1,2,1,40,0,0,0,88,91,119,190,56,137.33,245,34,-40,-1050
23:29.3,2,1,40,0,0,0,88,91,119,190,56,137.26,245,104,-51,-970
23:29.3,2,1,40,0,0,0,88,91,118,190,56,137.47,245,61,-15,-995
23:29.5,2,1,40,0,0,0,88,91,118,190,56,137.48,245,-21,-3,-962
23:29.5,2,1,40,0,0,0,88,91,117,190,56,137.19,245,0,11,-923
23:29.7,2,1,40,0,0,0,88,91,116,190,56,137.4,245,-9,-5,-1019
23:29.7,2,0,40,0,0,0,88,91,115,190,56,137.52,246,15,-13,-1181
23:29.8,1,0,40,0,0,0,88,91,114,190,56,137.15,246,48,-8,-985
23:29.9,1,0,40,0,0,0,88,91,112,190,56,137.44,246,31,-50,-995
23:30.0,1,0,40,0,0,0,88,91,110,180,56,137.66,246,112,-57,-1072
23:30.1,1,0,40,0,0,0,88,91,108,180,56,137.65,246,6,-23,-947
23:30.2,2,2,40,0,0,0,88,91,106,180,56,137.1,246,-32,1,-1009
23:30.3,3,1,40,0,0,0,88,91,104,180,56,137.2,246,52,-111,-1420
23:30.4,3,0,40,0,0,-3,88,91,107,180,56,137.36,246,40,-10,-1543
23:30.5,8,0,40,0,0,-9,88,91,117,190,56,137.43,246,214,2,-1036
23:30.6,74,-3,37,-3,-3,-10,88,91,135,200,56,137.43,246,587,25,-920
23:30.7,-25,176,-135,-7,-7,3,88,91,6553,200,56,137.12,247,594,-6,-1157
23:30.9,-30,3,32,-1,-3,12,88,91,122,190,56,137.02,247,-36,64,-1445
23:30.9,21,-5,31,-1,-4,11,88,91,94,180,56,137.72,247,146,-7,-1260
23:31.0,0,0,29,-3,-6,10,88,91,88,170,56,137.27,247,137,22,-1509
23:31.1,-6,4,21,-2,-5,5,88,91,81,160,56,137.23,247,73,-3,-1479
23:31.3,-4,6,12,0,-3,1,88,91,78,160,56,137.33,247,109,-42,-1381
23:31.3,0,3,7,0,-2,-2,88,91,78,160,56,137.11,247,58,-30,-1142
23:31.5,1,1,10,0,-1,-3,88,91,81,160,56,136.74,247,64,-35,-1045
23:31.5,1,2,20,0,-1,-4,88,91,85,170,56,137.1,247,108,-72,-977
23:31.7,1,2,31,0,0,-4,88,91,89,170,56,137.27,247,-17,46,-924
23:31.7,2,1,40,0,0,-3,88,91,94,170,56,137.16,248,16,7,-926
23:31.9,1,1,41,0,0,-3,88,91,96,180,56,137.31,248,75,2,-881
23:31.9,0,0,40,0,0,-2,88,91,101,180,56,137.27,248,80,-67,-931
23:32.0,0,0,40,0,0,-1,88,91,102,180,56,137.05,248,44,-1,-969
23:32.2,1,0,40,0,0,-1,88,91,104,180,56,137.12,248,89,-14,-987
23:32.2,1,0,40,0,0,-1,88,91,105,180,56,137.08,248,65,-35,-938
23:32.4,1,0,40,0,0,0,88,91,105,180,56,137.36,248,27,13,-1015
23:32.5,2,0,40,0,0,0,88,91,107,180,56,137.31,248,106,22,-841
23:32.6,2,0,40,0,0,0,88,91,108,180,56,137.38,248,-72,69,-976
23:32.7,2,0,40,0,0,0,88,91,109,190,56,137.49,248,-23,8,-1062
23:32.8,2,0,40,0,0,0,88,91,109,190,56,137.27,249,78,-6,-899
23:32.9,2,0,40,0,0,0,88,91,110,190,56,137.25,249,54,-19,-902
23:33.0,1,0,40,0,0,0,88,91,111,190,56,137.4,249,-3,7,-943
23:33.1,1,0,40,0,0,0,88,91,110,190,56,137.34,249,19,-22,-943
23:33.2,1,0,40,0,0,0,88,91,111,190,55,137.17,249,-3,-4,-1007
23:33.3,1,0,40,0,0,0,88,91,111,190,55,137.41,249,-4,-22,-971
23:33.4,1,1,40,0,0,0,88,91,110,190,55,137.15,249,27,7,-944
23:33.4,1,1,40,0,0,0,88,91,109,190,55,137.6,249,83,-9,-949
23:33.5,0,0,40,0,0,0,88,91,110,190,55,137.35,249,-25,-21,-1046
23:33.7,0,0,40,0,0,0,88,91,109,190,55,137.66,249,92,-19,-978
23:33.7,0,0,40,0,0,0,88,91,110,190,55,137.53,250,8,-17,-1013
23:33.8,0,0,40,0,0,0,88,91,110,190,55,137.34,250,79,-30,-989
23:34.0,0,0,40,0,0,0,88,91,110,190,55,137.42,250,55,-17,-1009
23:34.0,0,1,40,0,0,0,88,91,110,190,55,137.43,250,21,-11,-1016
23:34.2,1,0,40,0,0,0,88,91,112,190,55,137.27,250,-20,12,-1005
23:34.2,1,0,40,0,0,0,88,91,114,190,55,137.64,250,90,-30,-968
23:34.4,1,0,40,0,0,0,88,91,114,190,55,137.28,250,0,33,-908
23:34.4,1,0,40,0,0,0,88,91,115,190,55,137.42,250,-3,-20,-1018
23:34.5,2,0,40,0,0,0,88,91,116,190,55,137.45,250,-54,41,-951
23:34.6,2,1,40,0,0,0,88,91,117,190,55,137.42,250,125,22,-1031
23:34.8,1,0,40,0,0,0,88,91,119,190,55,137.37,251,83,0,-908
23:34.9,1,0,40,0,0,0,88,91,118,190,55,137.51,251,97,-39,-869
23:35.1,0,0,40,0,0,0,88,91,118,190,55,137.37,251,-23,19,-943
23:35.1,1,0,40,0,0,0,88,91,119,190,55,137.55,251,-16,-14,-1072
23:35.2,1,0,40,0,0,0,88,91,118,190,55,137.35,251,0,46,-1020
23:35.3,0,-1,40,0,0,0,88,91,118,190,55,137.6,251,111,14,-872
23:35.4,1,-1,40,0,0,0,88,91,117,190,55,137.49,251,108,0,-1057
23:35.5,1,-1,40,0,0,0,88,91,115,190,55,137.58,251,6,44,-968
23:35.6,1,0,40,0,0,0,88,91,115,190,55,137.58,251,38,12,-1025
23:35.7,1,0,40,0,0,0,88,91,114,190,55,137.24,251,14,9,-963
23:35.8,1,0,40,0,0,0,88,91,113,190,55,137.25,252,61,-21,-1013
23:35.9,1,0,40,0,0,0,88,91,112,190,55,137.36,252,73,-18,-1031
23:36.0,1,0,40,0,0,0,88,91,112,190,55,137.37,252,94,35,-912
23:36.1,1,0,40,0,0,0,88,91,111,190,55,137.26,252,66,-10,-1107
23:36.2,1,0,40,0,0,0,88,91,111,190,55,137.43,252,53,-5,-954
23:36.3,1,0,40,1,0,0,88,91,110,190,55,137.25,252,67,-7,-1006
23:36.4,2,1,40,0,0,0,88,91,110,190,55,137.68,252,72,-26,-1041
23:36.5,2,0,40,0,0,0,88,91,111,190,55,137.23,252,70,-28,-1172
23:36.6,2,0,40,0,0,0,88,91,110,190,55,137.26,252,85,-4,-973
23:36.7,2,0,40,0,0,0,88,91,110,190,55,137.34,253,52,-11,-937
23:36.8,2,0,40,0,0,0,88,91,110,190,55,137.6,253,30,0,-934
23:36.9,1,0,40,0,0,0,88,91,108,190,55,137.18,253,80,-56,-989
23:37.0,1,0,40,0,0,0,88,91,108,190,55,137.09,253,3,8,-984
23:37.1,1,0,40,0,0,0,88,91,109,190,55,137.4,253,57,-1,-939
23:37.2,1,0,40,0,0,0,88,91,107,190,55,137.69,253,80,-11,-930
23:37.2,2,0,40,0,0,0,88,91,108,190,55,137.33,253,-52,38,-984
23:37.3,1,0,40,0,0,0,88,91,107,190,55,137.35,253,43,-4,-882
23:37.5,1,0,40,0,0,1,88,91,105,180,55,137.43,253,-29,63,-791
23:37.6,1,0,40,0,0,2,88,91,103,180,55,137.22,253,-4,12,-969
23:37.7,1,0,40,0,0,3,88,91,99,180,55,137.23,254,65,3,-859
23:37.8,1,0,40,0,0,4,88,91,96,180,55,137.49,254,46,-20,-844
23:37.9,2,0,40,0,0,5,88,91,91,170,55,137.37,254,59,1,-846
23:38.0,2,0,40,0,0,5,88,91,87,160,55,137.09,254,35,8,-964
23:38.1,1,0,40,0,0,5,88,91,81,160,55,137.01,254,90,-47,-1018
23:38.2,1,0,40,0,0,5,88,91,76,150,55,137.2,254,7,11,-1037
23:38.3,2,0,40,0,0,5,88,91,71,150,55,137.16,254,-29,15,-1001
23:38.4,2,0,40,0,0,5,88,91,65,140,55,136.69,254,18,-3,-938
23:38.5,1,1,40,0,0,5,88,91,61,140,55,137.07,254,21,-6,-979
23:38.6,2,1,40,0,0,5,88,91,55,130,55,136.85,254,28,-21,-1018
23:38.7,1,1,40,0,0,4,88,91,51,130,55,136.79,255,45,-53,-914
23:38.8,1,1,40,0,0,4,88,91,46,120,55,136.68,255,28,0,-959
23:38.9,1,1,40,0,0,4,88,91,41,120,55,136.81,255,18,-30,-1013
23:39.0,1,1,40,0,0,4,88,91,34,110,55,136.72,255,-44,55,-939
23:39.2,1,1,40,0,0,4,88,91,30,110,55,136.75,255,62,-17,-944
23:39.2,1,1,40,0,0,4,88,91,25,100,55,136.59,255,103,-29,-1056
23:39.3,1,1,40,0,0,3,88,91,21,100,55,136.45,255,31,-10,-963
23:39.5,1,2,40,0,0,4,88,91,19,100,55,136.12,255,24,-46,-1048
23:39.5,2,1,40,0,0,3,88,91,14,90,55,136.25,255,4,26,-935
23:39.7,2,1,40,0,0,3,88,91,10,90,55,135.82,255,-22,1,-1101
23:39.7,1,0,40,0,0,3,88,91,10,90,55,134.59,256,33,-8,-958
23:39.9,0,1,40,0,0,3,88,91,10,80,55,132.89,256,27,32,-1082
23:39.9,0,-3,40,1,0,-1,88,91,10,80,55,133.48,256,9,0,-929
23:40.0,3,0,39,1,0,0,87,90,10,80,55,133.75,256,40,5,-769
23:40.1,-3,3,40,1,0,1,87,90,10,80,55,133.57,256,-128,-162,-1378
23:40.3,-2,2,41,1,0,1,87,90,10,80,55,133.66,256,11,-15,-931
23:40.3,-1,1,42,1,0,1,87,90,10,80,55,133.71,256,-114,-44,-1113
23:40.5,-2,1,47,1,0,1,87,90,10,80,55,134.26,256,-56,-35,-1041
23:40.5,-2,1,53,1,0,1,87,90,10,80,55,134.53,256,-73,-37,-1012
23:40.7,-2,0,58,1,0,1,87,90,10,80,55,134.65,256,-63,-23,-1003
23:40.7,-1,0,60,1,0,1,87,90,10,80,55,134.68,257,-142,-175,-979
23:40.8,-1,0,60,1,-1,1,87,90,10,80,55,134.72,257,39,-82,-1013
23:40.9,-1,1,59,1,0,1,87,90,10,80,55,134.42,257,-21,-28,-971
23:41.0,-1,1,58,1,0,1,88,92,10,80,55,134.85,257,-56,-35,-968
23:41.1,-1,1,57,1,-1,1,88,92,10,80,55,135,257,26,-54,-987
23:41.2,-1,1,55,2,-1,1,88,92,10,80,55,134.65,257,-55,-33,-922
23:41.3,-1,1,54,2,0,1,88,92,10,80,55,135,257,-31,-32,-924
23:41.4,-1,1,54,2,-1,1,88,92,10,80,55,135.16,257,-28,-18,-1010
23:41.5,-1,1,54,2,-1,1,88,92,10,80,55,135.34,257,-13,-54,-980
23:41.6,-1,1,54,2,-1,1,88,92,10,80,55,135.57,257,-33,-45,-972
23:41.7,-1,1,54,0,0,1,88,92,10,0,55,135.89,257,-33,-30,-974
23:41.8,-1,1,54,0,0,1,88,92,10,0,55,136,257,-38,-29,-974
23:41.9,-2,1,54,0,0,0,88,92,10,0,55,136.08,257,-47,-44,-978
23:42.0,-2,0,54,0,0,0,88,91,10,0,55,135.76,257,-36,-45,-980
23:42.1,-2,0,54,0,0,0,88,91,10,0,55,136.21,257,-25,-18,-963
23:42.2,-2,0,53,0,0,0,88,91,10,0,55,136.04,257,-17,-31,-998
23:42.3,-2,0,54,0,0,0,88,91,10,0,55,136.15,257,-61,-38,-993
23:42.4,-2,0,53,0,0,0,88,91,10,0,55,136.01,257,-47,-17,-984
23:42.5,-2,0,53,0,0,0,88,91,10,0,55,136.13,257,-32,-25,-988
23:42.6,-2,0,53,0,0,0,88,91,10,0,55,135.94,257,-37,-32,-992
23:42.7,-2,0,53,0,0,0,88,91,10,0,55,136.06,257,-54,-17,-984
23:42.8,-2,0,53,0,0,-1,88,91,10,0,55,136.08,257,-37,-30,-994
23:42.9,-2,1,53,0,0,-1,88,91,10,0,55,136.45,257,-36,-30,-994
23:43.0,-2,1,53,0,0,-3,88,91,10,0,55,136.1,257,-48,-21,-996
23:43.1,-2,1,53,0,0,-4,88,91,10,0,55,135.86,257,-48,-22,-999
23:43.2,-2,1,53,0,0,-6,88,91,10,0,55,136.36,257,-46,-22,-1001
