TS,pitch,roll,yaw,vgx,vgy,vgz,templ,temph,tof,h,bat,baro,time,agx,agy,agz
2024-05-19 09:29:53.989569,0,0,0,0,0,0,86,89,10,0,49,107.92,330,8.00,10.00,-997.00
2024-05-19 09:29:54.052567,0,0,0,0,0,0,86,89,10,0,49,107.69,330,9.00,9.00,-999.00
2024-05-19 09:29:54.194688,0,0,0,0,0,0,86,89,10,0,49,107.98,330,9.00,10.00,-1000.00
2024-05-19 09:29:54.256543,0,0,0,0,0,0,86,89,10,0,49,108.04,330,8.00,11.00,-999.00
2024-05-19 09:29:54.399029,0,0,0,0,0,0,86,89,10,0,49,108.01,330,8.00,9.00,-1001.00
2024-05-19 09:29:54.460006,0,0,0,0,0,0,86,89,10,0,49,107.91,330,9.00,10.00,-1001.00
2024-05-19 09:29:54.604017,0,0,0,0,0,0,86,89,10,0,49,108.01,330,9.00,9.00,-1002.00
2024-05-19 09:29:54.664376,0,0,0,0,0,0,86,89,10,0,49,108.04,330,8.00,9.00,-999.00
2024-05-19 09:29:54.808740,0,0,0,0,0,0,87,90,10,0,49,108.17,330,9.00,10.00,-1001.00
2024-05-19 09:29:54.868170,0,0,0,0,0,0,87,90,10,0,49,108.16,330,10.00,9.00,-1000.00
2024-05-19 09:29:55.013500,0,0,0,0,0,0,87,90,10,0,49,108.24,330,8.00,10.00,-1000.00
2024-05-19 09:29:55.072117,0,0,0,0,0,0,87,90,10,0,49,108.15,330,8.00,11.00,-1001.00
2024-05-19 09:29:55.218705,0,0,0,0,0,0,87,90,10,0,49,108.21,330,9.00,10.00,-1001.00
2024-05-19 09:29:55.225269,0,0,0,0,0,0,87,90,10,0,49,108.20,330,9.00,11.00,-1000.00
2024-05-19 09:29:55.423154,0,0,0,0,0,0,87,90,10,0,49,107.97,330,9.00,10.00,-1001.00
2024-05-19 09:29:55.429764,0,0,0,0,0,0,87,90,10,0,49,107.91,330,8.00,10.00,-998.00
2024-05-19 09:29:55.627831,0,0,0,0,0,0,87,90,10,0,49,107.99,330,9.00,10.00,-998.00
2024-05-19 09:29:55.633128,0,0,0,0,0,0,87,90,10,0,49,108.16,330,9.00,9.00,-1000.00
2024-05-19 09:29:55.833094,0,0,0,0,0,0,87,90,10,0,49,108.30,330,9.00,10.00,-1000.00
2024-05-19 09:29:55.837054,0,0,0,0,0,0,87,90,10,0,49,108.02,330,8.00,10.00,-1001.00
2024-05-19 09:29:56.038174,0,0,0,0,0,0,87,90,10,0,49,107.88,330,10.00,10.00,-1001.00
2024-05-19 09:29:56.041339,0,0,0,0,0,0,87,90,10,0,49,108.00,330,8.00,10.00,-1001.00
2024-05-19 09:29:56.150049,0,0,0,0,0,0,87,90,10,0,49,108.01,330,10.00,10.00,-997.00
2024-05-19 09:29:56.245121,0,0,0,0,0,0,87,90,10,0,49,108.06,330,10.00,10.00,-999.00
2024-05-19 09:29:56.347030,0,0,0,0,0,0,87,90,10,0,49,108.08,330,8.00,9.00,-1002.00
2024-05-19 09:29:56.448951,0,0,0,0,0,0,87,90,10,0,49,107.77,330,9.00,11.00,-999.00
2024-05-19 09:29:56.652080,0,0,0,0,0,0,87,90,10,0,49,107.92,330,8.00,9.00,-998.00
2024-05-19 09:29:56.653094,0,0,0,0,0,0,87,90,10,0,49,108.05,330,10.00,11.00,-1001.00
2024-05-19 09:29:56.798357,0,0,0,0,0,0,89,90,10,0,49,107.91,330,9.00,11.00,-1001.00
2024-05-19 09:29:56.856890,0,0,0,0,0,0,89,90,10,0,49,108.30,330,7.00,9.00,-998.00
2024-05-19 09:29:56.959124,0,0,0,0,0,0,89,90,10,0,49,108.24,330,39.00,29.00,-1005.00
2024-05-19 09:29:57.061392,0,0,0,0,0,0,89,90,10,0,49,108.08,330,15.00,9.00,-997.00
2024-05-19 09:29:57.163805,0,0,1,0,0,0,89,90,10,0,49,108.08,330,61.00,34.00,-1002.00
2024-05-19 09:29:57.267292,0,0,3,0,0,0,89,90,10,0,49,108.08,330,1.00,51.00,-1038.00
2024-05-19 09:29:57.366884,0,0,3,0,0,0,89,90,10,0,49,108.08,330,47.00,-5.00,-1023.00
2024-05-19 09:29:57.468969,0,0,3,0,0,0,89,90,10,0,49,108.08,330,46.00,-65.00,-1178.00
2024-05-19 09:29:57.573952,1,1,4,0,0,-1,89,90,10,0,49,108.08,330,27.00,23.00,-1149.00
2024-05-19 09:29:57.675992,2,0,3,0,1,-4,89,90,10,0,49,108.08,331,25.00,29.00,-1302.00
2024-05-19 09:29:57.775805,1,-3,3,0,1,-5,88,91,10,0,49,108.08,331,0.00,22.00,-1191.00
2024-05-19 09:29:57.880602,0,-2,3,0,1,-6,88,91,19,10,49,108.31,331,-62.00,82.00,-1025.00
2024-05-19 09:29:57.979824,-1,-2,3,0,1,-7,88,91,28,20,49,108.43,331,-12.00,73.00,-1081.00
2024-05-19 09:29:58.085382,-1,-4,3,0,1,-7,88,91,36,20,49,108.54,331,-14.00,106.00,-921.00
2024-05-19 09:29:58.183839,-1,-5,3,0,1,-7,88,91,39,30,49,108.82,331,-6.00,73.00,-951.00
2024-05-19 09:29:58.290484,-2,-5,3,0,1,-6,88,91,47,40,49,108.77,331,-32.00,83.00,-874.00
2024-05-19 09:29:58.387877,-2,-5,3,0,0,-5,88,91,55,40,49,108.95,331,27.00,64.00,-893.00
2024-05-19 09:29:58.494984,-1,-5,3,0,0,-4,88,91,59,50,49,109.01,331,10.00,-5.00,-897.00
2024-05-19 09:29:58.591796,-1,-4,3,0,0,-3,88,91,63,50,49,108.92,331,7.00,0.00,-866.00
2024-05-19 09:29:58.699775,-1,-3,3,0,0,-2,88,91,67,50,49,108.81,332,-22.00,83.00,-945.00
2024-05-19 09:29:58.796126,-1,-3,4,0,0,-2,88,90,71,60,49,109.04,332,17.00,82.00,-866.00
2024-05-19 09:29:58.904581,0,-2,4,0,0,-1,88,90,73,60,49,109.16,332,-39.00,158.00,-808.00
2024-05-19 09:29:58.999959,0,-4,3,0,0,0,88,90,74,60,49,109.10,332,2.00,97.00,-991.00
2024-05-19 09:29:59.057208,0,-5,3,0,0,0,88,90,75,60,49,109.14,332,-28.00,63.00,-1025.00
2024-05-19 09:29:59.153136,0,-5,3,0,0,0,88,90,77,60,49,109.28,332,-40.00,128.00,-1039.00
2024-05-19 09:29:59.255967,0,-4,3,0,0,0,88,90,78,60,49,109.05,332,-6.00,50.00,-1056.00
2024-05-19 09:29:59.358523,0,-2,3,0,0,-1,88,90,79,60,49,109.07,332,-5.00,96.00,-1050.00
2024-05-19 09:29:59.460626,1,-3,3,1,0,0,88,90,80,60,49,109.22,332,-16.00,101.00,-887.00
2024-05-19 09:29:59.563717,2,-3,3,0,0,0,88,90,80,60,49,109.06,332,50.00,44.00,-1015.00
2024-05-19 09:29:59.665842,3,-2,3,0,0,0,88,90,81,70,49,108.90,333,-43.00,114.00,-1036.00
2024-05-19 09:29:59.767835,2,-3,3,0,0,0,87,91,81,70,49,108.79,333,58.00,48.00,-1072.00
2024-05-19 09:29:59.870804,1,-3,4,0,0,0,87,91,81,70,49,108.79,333,-40.00,108.00,-693.00
2024-05-19 09:29:59.972545,1,-2,4,0,0,0,87,91,81,70,49,108.98,333,55.00,84.00,-1137.00
2024-05-19 09:30:00.071019,2,-2,4,0,0,0,87,91,80,70,49,108.82,333,17.00,97.00,-887.00
2024-05-19 09:30:00.235765,1,-3,4,0,0,0,87,91,80,70,49,109.03,333,22.00,76.00,-1004.00
2024-05-19 09:30:00.274703,1,-3,4,0,0,0,87,91,80,70,49,109.06,333,27.00,80.00,-1030.00
2024-05-19 09:30:00.440567,1,-3,4,0,0,0,87,91,80,70,49,109.25,333,31.00,81.00,-1089.00
2024-05-19 09:30:00.480441,0,-3,3,0,0,0,87,91,80,60,49,108.85,333,-7.00,93.00,-1034.00
2024-05-19 09:30:00.580847,0,-3,3,0,0,0,87,91,80,60,49,108.96,333,18.00,48.00,-985.00
2024-05-19 09:30:00.747787,0,-4,3,0,0,0,87,91,80,70,49,108.98,334,-46.00,84.00,-1028.00
2024-05-19 09:30:00.786526,0,-3,3,0,0,0,88,90,80,70,49,108.81,334,8.00,64.00,-1025.00
2024-05-19 09:30:00.887889,0,-2,3,0,0,0,88,90,80,70,49,109.10,334,6.00,76.00,-953.00
2024-05-19 09:30:01.055197,-1,-3,3,-1,0,0,88,90,81,70,49,109.19,334,-62.00,150.00,-920.00
2024-05-19 09:30:01.092632,-1,-4,3,-1,0,0,88,90,81,70,49,108.87,334,-79.00,102.00,-1023.00
2024-05-19 09:30:01.193130,-1,-3,3,0,0,0,88,90,82,70,49,108.81,334,87.00,14.00,-1053.00
2024-05-19 09:30:01.362381,-1,-2,3,0,0,0,88,90,83,70,49,108.81,334,-31.00,72.00,-953.00
2024-05-19 09:30:01.397706,0,-2,3,0,0,0,88,90,83,70,49,108.66,334,1.00,104.00,-872.00
2024-05-19 09:30:01.498869,0,-2,3,0,0,0,88,90,84,70,49,108.90,334,1.00,97.00,-1091.00
2024-05-19 09:30:01.600831,0,-3,3,0,0,0,88,90,86,70,49,108.72,334,-2.00,88.00,-1055.00
2024-05-19 09:30:01.771958,0,-3,3,0,0,0,88,90,87,70,49,108.93,335,-68.00,64.00,-1021.00
2024-05-19 09:30:01.805123,0,-3,4,0,0,0,86,91,88,70,49,108.95,335,-35.00,92.00,-927.00
2024-05-19 09:30:01.976710,0,-3,4,0,0,0,86,91,89,70,49,109.12,335,-56.00,54.00,-1101.00
2024-05-19 09:30:02.008830,0,-3,3,0,0,0,86,91,91,70,49,108.88,335,-35.00,76.00,-1029.00
2024-05-19 09:30:02.181851,0,-3,3,0,0,0,86,91,92,70,49,108.83,335,35.00,42.00,-1094.00
2024-05-19 09:30:02.212790,0,-2,3,0,0,0,86,91,94,70,49,108.87,335,-26.00,61.00,-989.00
2024-05-19 09:30:02.386368,0,-2,3,0,0,0,86,91,97,70,49,109.00,335,43.00,25.00,-1027.00
2024-05-19 09:30:02.416779,0,-2,3,0,0,0,86,91,99,80,49,108.93,335,23.00,81.00,-1006.00
2024-05-19 09:30:02.467926,1,-1,3,0,0,0,86,91,100,80,49,108.75,335,41.00,13.00,-925.00
2024-05-19 09:30:02.591122,1,-2,3,0,0,0,86,91,102,80,49,109.02,335,33.00,16.00,-872.00
2024-05-19 09:30:02.671786,1,-2,3,0,0,0,86,91,103,80,49,108.83,336,-23.00,90.00,-1059.00
2024-05-19 09:30:02.795893,1,-2,3,0,0,0,87,90,103,80,49,109.15,336,59.00,55.00,-1012.00
2024-05-19 09:30:02.875597,0,-3,3,0,0,0,87,90,103,80,49,108.79,336,-72.00,78.00,-896.00
2024-05-19 09:30:03.001262,0,-2,3,0,0,0,87,90,103,80,49,109.00,336,-25.00,54.00,-1028.00
2024-05-19 09:30:03.079623,-1,-2,4,0,0,0,87,90,103,80,49,109.01,336,41.00,18.00,-1185.00
2024-05-19 09:30:03.205420,0,-2,4,0,0,-1,87,90,104,90,49,109.34,336,10.00,58.00,-998.00
2024-05-19 09:30:03.283607,0,-1,4,0,0,-1,87,90,106,90,49,108.86,336,-68.00,112.00,-1110.00
2024-05-19 09:30:03.410219,0,-2,4,0,0,-2,87,90,108,90,49,109.06,336,17.00,3.00,-1118.00
2024-05-19 09:30:03.487775,0,-2,4,0,0,-3,87,90,112,90,49,108.95,336,49.00,24.00,-1169.00
2024-05-19 09:30:03.589864,0,-2,4,0,0,-4,87,90,116,100,49,109.11,336,-29.00,24.00,-1115.00
2024-05-19 09:30:03.717331,0,-1,3,0,0,-4,87,90,121,100,49,109.40,337,-33.00,56.00,-1007.00
2024-05-19 09:30:03.793917,0,-1,3,0,0,-5,88,90,126,110,49,109.03,337,-40.00,72.00,-995.00
2024-05-19 09:30:03.922231,1,-1,3,0,0,-5,88,90,131,110,49,108.70,337,50.00,13.00,-1050.00
2024-05-19 09:30:03.997755,1,-1,3,0,0,-5,88,90,137,120,49,108.97,337,-25.00,47.00,-1033.00
2024-05-19 09:30:04.127027,1,-1,3,0,0,-5,88,90,142,130,49,109.16,337,-34.00,67.00,-1028.00
2024-05-19 09:30:04.202115,1,-1,3,0,0,-5,88,90,148,130,49,109.62,337,33.00,61.00,-1035.00
2024-05-19 09:30:04.332030,2,0,3,0,0,-5,88,90,154,140,49,109.25,337,48.00,14.00,-991.00
2024-05-19 09:30:04.405705,2,0,3,0,0,-5,88,90,159,140,49,109.36,337,88.00,34.00,-1016.00
2024-05-19 09:30:04.507526,2,0,3,0,0,-4,88,90,163,150,49,109.43,337,63.00,-11.00,-1083.00
2024-05-19 09:30:04.640128,1,-1,3,0,0,-4,88,90,167,150,49,109.27,337,-39.00,57.00,-956.00
2024-05-19 09:30:04.711541,1,-1,3,0,0,-4,88,90,170,160,49,109.61,338,51.00,27.00,-994.00
2024-05-19 09:30:04.843841,1,0,3,0,0,-3,87,90,173,160,49,109.43,338,51.00,21.00,-996.00
2024-05-19 09:30:04.915534,1,0,3,0,0,-3,87,90,176,160,49,109.58,338,26.00,20.00,-943.00
2024-05-19 09:30:05.048603,1,-1,3,0,0,-3,87,90,178,160,49,109.76,338,130.00,-25.00,-1013.00
2024-05-19 09:30:05.119555,0,-1,3,0,0,-2,87,90,180,170,49,109.89,338,-34.00,70.00,-917.00
2024-05-19 09:30:05.253730,0,-1,3,0,0,-1,87,90,180,170,49,109.65,338,112.00,-38.00,-977.00
2024-05-19 09:30:05.325023,0,-1,3,0,0,-1,87,90,181,170,49,109.84,338,-73.00,59.00,-868.00
2024-05-19 09:30:05.425559,1,0,3,0,0,-1,87,90,183,170,49,109.83,338,-9.00,24.00,-897.00
2024-05-19 09:30:05.527846,0,0,3,0,0,-1,87,90,182,170,49,109.91,338,96.00,-27.00,-1079.00
2024-05-19 09:30:05.662893,1,0,3,0,0,-1,87,90,184,170,49,109.94,338,13.00,25.00,-974.00
2024-05-19 09:30:05.731417,1,1,3,0,0,0,87,90,185,170,49,109.44,339,48.00,-4.00,-1028.00
2024-05-19 09:30:05.867706,1,1,3,0,0,-1,87,90,185,170,49,109.66,339,71.00,-33.00,-994.00
2024-05-19 09:30:05.935387,2,1,3,0,0,-1,87,90,186,170,49,110.07,339,73.00,-7.00,-1011.00
2024-05-19 09:30:06.072446,2,1,3,0,0,0,87,90,185,170,49,109.84,339,8.00,42.00,-887.00
2024-05-19 09:30:06.088538,2,0,4,0,0,0,87,90,185,170,49,109.79,339,-16.00,24.00,-1095.00
2024-05-19 09:30:06.277328,2,0,4,0,0,0,87,90,186,170,49,109.69,339,80.00,-40.00,-1057.00
2024-05-19 09:30:06.292399,2,0,4,0,0,0,87,90,187,170,49,109.37,339,104.00,-20.00,-973.00
2024-05-19 09:30:06.482089,2,0,4,0,0,0,87,90,188,170,49,109.61,339,56.00,-31.00,-1035.00
2024-05-19 09:30:06.498277,2,0,4,0,0,0,87,90,187,170,49,109.88,339,94.00,-25.00,-1065.00
2024-05-19 09:30:06.600137,3,0,4,0,0,0,87,90,190,170,49,109.78,339,37.00,43.00,-902.00
2024-05-19 09:30:06.700930,3,0,4,0,0,0,87,90,191,170,49,109.87,340,-34.00,25.00,-1011.00
2024-05-19 09:30:06.891844,3,0,4,0,0,0,87,90,193,180,49,109.97,340,50.00,-13.00,-969.00
2024-05-19 09:30:06.904746,3,0,4,0,0,0,87,90,193,180,49,109.58,340,63.00,-8.00,-947.00
2024-05-19 09:30:07.097289,3,1,4,0,0,0,87,90,193,180,49,109.68,340,38.00,-9.00,-948.00
2024-05-19 09:30:07.108836,4,2,4,0,0,0,87,90,194,180,49,109.70,340,79.00,-35.00,-941.00
2024-05-19 09:30:07.301605,3,1,4,0,0,0,87,90,195,180,49,109.66,340,59.00,-25.00,-957.00
2024-05-19 09:30:07.313688,3,1,4,0,0,0,87,90,195,180,49,109.93,340,39.00,-15.00,-926.00
2024-05-19 09:30:07.506891,3,1,3,0,0,0,87,90,196,180,49,109.70,340,-1.00,2.00,-979.00
2024-05-19 09:30:07.516472,4,3,3,0,0,0,87,90,196,180,49,109.85,340,79.00,-68.00,-1055.00
2024-05-19 09:30:07.618522,4,4,3,0,0,0,87,90,197,180,49,109.94,340,45.00,-24.00,-977.00
2024-05-19 09:30:07.813491,2,2,3,0,0,0,87,90,196,180,49,109.61,341,74.00,-39.00,-1018.00
2024-05-19 09:30:07.822416,2,2,3,0,0,0,87,90,194,180,49,109.91,341,44.00,-37.00,-950.00
2024-05-19 09:30:08.018458,3,2,3,0,0,0,87,90,194,180,49,109.55,341,128.00,-32.00,-891.00
2024-05-19 09:30:08.026705,3,2,3,0,0,0,87,90,193,180,49,109.74,341,53.00,-42.00,-1060.00
2024-05-19 09:30:08.223772,3,2,3,0,0,0,87,90,193,180,49,109.93,341,16.00,-31.00,-998.00
2024-05-19 09:30:08.230374,1,0,3,0,0,0,87,90,192,180,49,109.80,341,114.00,-63.00,-969.00
2024-05-19 09:30:08.428624,2,1,3,0,0,0,87,90,191,180,49,109.75,341,41.00,-16.00,-953.00
2024-05-19 09:30:08.434366,3,1,3,0,0,0,87,90,190,180,49,109.54,341,72.00,-33.00,-1010.00
2024-05-19 09:30:08.633096,2,1,3,0,0,0,87,90,190,180,49,109.87,341,-13.00,-10.00,-1019.00
2024-05-19 09:30:08.639745,2,2,3,0,0,0,87,90,188,180,49,109.59,341,-16.00,-30.00,-980.00
2024-05-19 09:30:08.741241,1,3,3,0,0,0,87,90,189,180,49,109.53,342,111.00,-52.00,-1036.00
2024-05-19 09:30:08.939716,2,3,3,0,0,0,87,90,188,180,49,109.67,342,55.00,-59.00,-993.00
2024-05-19 09:30:08.945262,1,2,3,0,0,0,87,90,186,180,49,109.53,342,-18.00,4.00,-864.00
2024-05-19 09:30:09.144671,1,2,3,0,0,0,87,90,184,170,49,109.84,342,99.00,-74.00,-939.00
2024-05-19 09:30:09.149121,1,2,3,0,0,1,87,90,182,170,49,109.74,342,6.00,-15.00,-841.00
2024-05-19 09:30:09.350267,1,3,3,0,0,2,87,90,179,170,49,109.81,342,14.00,-12.00,-1023.00
2024-05-19 09:30:09.353219,1,2,3,0,0,2,87,90,175,170,49,109.77,342,-46.00,-5.00,-834.00
2024-05-19 09:30:09.554734,1,2,3,0,0,2,87,90,172,160,49,109.77,342,78.00,-57.00,-984.00
2024-05-19 09:30:09.557778,1,1,3,0,0,2,87,90,167,160,49,109.54,342,-3.00,-9.00,-1021.00
2024-05-19 09:30:09.659198,1,0,3,0,0,3,87,90,163,160,49,109.48,342,82.00,-82.00,-1090.00
2024-05-19 09:30:09.761527,0,0,3,0,0,3,87,90,159,150,49,109.45,343,78.00,-36.00,-992.00
2024-05-19 09:30:09.863230,2,1,3,0,0,3,87,90,155,150,49,109.59,343,112.00,-78.00,-1086.00
2024-05-19 09:30:10.066434,3,2,3,0,0,3,87,90,152,150,49,109.21,343,112.00,-42.00,-984.00
2024-05-19 09:30:10.067237,2,2,3,1,0,2,87,90,149,140,49,109.49,343,204.00,-38.00,-995.00
2024-05-19 09:30:10.118475,5,2,3,1,0,2,87,90,145,140,49,109.36,343,125.00,-34.00,-1142.00
2024-05-19 09:30:10.270963,6,2,3,1,0,2,87,90,143,130,49,109.77,343,124.00,-22.00,-945.00
2024-05-19 09:30:10.323424,6,2,3,1,0,2,87,90,140,130,49,109.29,343,37.00,-52.00,-1068.00
2024-05-19 09:30:10.475926,6,2,3,1,0,1,87,90,138,130,49,109.45,343,64.00,-97.00,-1144.00
2024-05-19 09:30:10.527927,7,3,3,1,0,1,87,90,135,130,49,109.34,343,129.00,-63.00,-1054.00
2024-05-19 09:30:10.630157,7,3,4,1,0,1,87,90,133,120,49,109.41,343,57.00,-48.00,-1012.00
2024-05-19 09:30:10.732552,7,3,4,0,0,0,87,90,130,120,49,109.37,344,79.00,-68.00,-1044.00
2024-05-19 09:30:10.834816,6,3,3,0,0,0,87,90,128,120,49,109.32,344,42.00,-36.00,-1010.00
2024-05-19 09:30:10.936502,5,3,3,0,0,0,87,90,127,120,49,109.16,344,51.00,-46.00,-1020.00
2024-05-19 09:30:11.036375,4,3,3,0,0,0,87,90,126,120,49,109.37,344,29.00,-34.00,-1115.00
2024-05-19 09:30:11.193715,4,3,3,0,0,0,87,90,125,110,49,109.38,344,175.00,-65.00,-1003.00
2024-05-19 09:30:11.240244,4,3,3,0,0,0,87,90,124,110,49,109.40,344,6.00,-32.00,-1077.00
2024-05-19 09:30:11.397787,4,2,3,0,0,0,87,90,124,110,49,109.30,344,110.00,-67.00,-1035.00
2024-05-19 09:30:11.444292,4,1,3,0,0,0,87,90,124,110,49,109.29,344,19.00,-34.00,-976.00
2024-05-19 09:30:11.547373,4,2,3,0,0,0,87,90,123,110,49,109.16,344,184.00,-81.00,-1134.00
2024-05-19 09:30:11.704614,4,3,3,0,0,0,87,90,122,110,49,109.15,344,35.00,-44.00,-970.00
2024-05-19 09:30:11.750053,4,2,3,0,0,0,87,90,122,110,49,109.02,345,89.00,-57.00,-933.00
2024-05-19 09:30:11.909758,4,3,3,0,0,0,87,89,122,110,49,109.21,345,104.00,-58.00,-1032.00
2024-05-19 09:30:11.954135,4,4,3,0,0,0,87,89,121,110,49,109.06,345,153.00,-44.00,-1054.00
2024-05-19 09:30:12.056149,5,4,3,0,0,0,87,89,122,110,49,108.87,345,128.00,-10.00,-1000.00
2024-05-19 09:30:12.159353,4,3,3,0,0,0,87,89,121,110,49,109.02,345,141.00,13.00,-960.00
2024-05-19 09:30:12.261713,5,2,3,0,0,0,87,89,122,110,49,108.99,345,140.00,-17.00,-1097.00
2024-05-19 09:30:12.363214,6,2,3,0,0,0,87,89,123,110,49,109.13,345,64.00,-30.00,-1066.00
2024-05-19 09:30:12.465575,6,1,3,0,1,0,87,89,123,110,49,109.37,345,141.00,-57.00,-1027.00
2024-05-19 09:30:12.567713,2,-1,3,0,1,0,87,89,123,110,49,109.08,345,111.00,-43.00,-957.00
2024-05-19 09:30:12.728440,-4,-2,4,0,0,0,87,89,123,110,49,108.96,345,89.00,-74.00,-1112.00
2024-05-19 09:30:12.772707,-4,0,3,2,0,0,87,89,122,110,49,109.34,346,72.00,-26.00,-1009.00
2024-05-19 09:30:12.877698,-4,0,3,3,0,0,87,90,122,110,49,109.05,346,45.00,-42.00,-1027.00
2024-05-19 09:30:12.978345,-3,0,3,5,0,0,87,90,122,110,49,108.81,346,100.00,-67.00,-1028.00
2024-05-19 09:30:13.076088,-2,1,3,5,0,0,87,90,121,110,49,109.02,346,95.00,-43.00,-1035.00
2024-05-19 09:30:13.240435,-3,2,3,6,0,0,87,90,120,110,49,108.65,346,31.00,-8.00,-960.00
2024-05-19 09:30:13.279996,-1,2,3,7,0,0,87,90,121,110,49,109.00,346,51.00,-10.00,-1040.00
2024-05-19 09:30:13.445614,0,3,4,8,0,0,87,90,120,110,49,108.78,346,16.00,-3.00,-965.00
2024-05-19 09:30:13.484205,5,2,4,7,0,0,87,90,120,110,49,109.14,346,6.00,-20.00,-1018.00
2024-05-19 09:30:13.586241,7,1,4,6,0,0,87,90,120,110,49,108.97,346,-35.00,31.00,-985.00
2024-05-19 09:30:13.752457,7,0,4,5,0,0,87,90,120,110,49,109.08,347,58.00,-20.00,-1064.00
2024-05-19 09:30:13.789971,6,0,4,4,0,0,87,90,120,110,49,109.10,347,7.00,26.00,-950.00
2024-05-19 09:30:13.840889,6,0,4,3,0,0,87,91,120,110,49,109.38,347,16.00,2.00,-1088.00
2024-05-19 09:30:13.957167,4,0,3,3,0,0,87,91,120,110,49,108.92,347,6.00,25.00,-975.00
2024-05-19 09:30:14.045248,3,0,3,2,1,0,87,91,120,110,49,109.33,347,61.00,40.00,-970.00
2024-05-19 09:30:14.161950,3,0,3,2,1,0,87,91,121,110,49,109.10,347,-4.00,16.00,-1153.00
2024-05-19 09:30:14.248941,2,-1,4,2,0,0,87,91,120,110,49,109.20,347,75.00,-20.00,-955.00
2024-05-19 09:30:14.367158,2,-1,4,2,0,0,87,91,122,110,49,109.22,347,2.00,-8.00,-1008.00
2024-05-19 09:30:14.453528,3,0,4,2,0,0,87,91,122,110,49,109.21,347,5.00,12.00,-916.00
2024-05-19 09:30:14.555569,3,0,4,2,0,0,87,91,121,110,49,109.09,347,87.00,-54.00,-981.00
2024-05-19 09:30:14.673978,7,1,3,2,0,0,87,91,120,110,49,109.09,348,79.00,-13.00,-1029.00
2024-05-19 09:30:14.759568,7,1,3,1,0,0,87,91,121,110,49,108.93,348,12.00,23.00,-1013.00
2024-05-19 09:30:14.861817,5,0,3,0,0,0,87,91,119,110,49,109.25,348,133.00,-16.00,-1149.00
2024-05-19 09:30:14.981361,4,1,3,0,0,0,87,91,119,110,49,109.22,348,44.00,11.00,-914.00
2024-05-19 09:30:15.065387,5,1,3,0,0,0,87,91,118,110,49,109.20,348,123.00,-18.00,-1072.00
2024-05-19 09:30:15.186815,5,1,3,0,0,0,87,91,118,110,49,109.26,348,124.00,-3.00,-926.00
2024-05-19 09:30:15.271508,5,0,3,0,0,0,87,91,118,110,49,109.20,348,26.00,58.00,-1031.00
2024-05-19 09:30:15.370989,5,0,3,0,0,0,87,91,117,110,49,109.32,348,98.00,11.00,-978.00
2024-05-19 09:30:15.474538,5,0,3,0,0,0,87,91,116,110,49,109.09,348,158.00,-26.00,-1006.00
2024-05-19 09:30:15.575473,6,0,3,0,0,0,87,91,116,110,49,109.08,348,137.00,-15.00,-960.00
2024-05-19 09:30:15.698037,5,0,3,0,0,0,87,91,116,110,49,108.84,349,145.00,-7.00,-881.00
2024-05-19 09:30:15.779705,5,0,3,0,0,0,87,91,115,110,49,109.06,349,57.00,28.00,-971.00
2024-05-19 09:30:15.903283,5,0,3,0,0,0,87,90,114,110,49,109.01,349,75.00,8.00,-1013.00
2024-05-19 09:30:15.984466,5,0,3,0,0,0,87,90,113,110,49,108.97,349,83.00,30.00,-990.00
2024-05-19 09:30:16.108487,5,0,3,0,0,0,87,90,111,110,49,109.26,349,165.00,-24.00,-1021.00
2024-05-19 09:30:16.187136,5,0,3,0,0,0,87,90,110,110,49,109.13,349,189.00,-67.00,-1028.00
2024-05-19 09:30:16.312923,4,0,3,0,0,0,87,90,109,110,49,109.11,349,-24.00,43.00,-984.00
2024-05-19 09:30:16.391150,4,0,3,0,0,0,87,90,107,110,49,109.21,349,45.00,10.00,-1098.00
2024-05-19 09:30:16.519291,4,0,3,0,0,0,87,90,105,100,49,108.84,349,58.00,52.00,-962.00
2024-05-19 09:30:16.595717,4,0,3,0,0,0,87,90,104,100,49,108.84,349,93.00,-10.00,-1056.00
2024-05-19 09:30:16.722595,4,0,3,0,0,0,87,90,103,100,49,108.71,350,91.00,2.00,-951.00
2024-05-19 09:30:16.799170,4,0,3,0,0,0,87,90,101,100,49,109.12,350,57.00,18.00,-975.00
2024-05-19 09:30:16.901207,4,0,3,0,0,0,87,90,99,100,49,108.75,350,74.00,27.00,-893.00
2024-05-19 09:30:17.029279,6,0,3,0,0,0,87,90,99,100,49,108.98,350,158.00,-42.00,-1088.00
2024-05-19 09:30:17.104857,9,1,3,0,0,0,87,90,99,100,49,108.89,350,76.00,53.00,-722.00
2024-05-19 09:30:17.234652,8,0,3,0,0,0,87,90,98,100,49,108.89,350,147.00,-26.00,-1127.00
2024-05-19 09:30:17.309093,8,0,3,-1,0,0,87,90,99,100,49,109.17,350,105.00,-29.00,-1138.00
2024-05-19 09:30:17.439556,8,0,3,-1,0,0,87,90,100,100,49,108.84,350,125.00,-43.00,-1075.00
2024-05-19 09:30:17.463490,9,0,3,-2,0,-1,87,90,102,100,49,108.94,350,162.00,1.00,-1017.00
2024-05-19 09:30:17.565098,8,0,3,-3,0,-1,87,90,103,100,49,109.10,350,84.00,23.00,-1008.00
2024-05-19 09:30:17.745983,8,0,3,-3,0,-1,87,90,104,100,49,108.96,351,67.00,80.00,-918.00
2024-05-19 09:30:17.768661,8,0,3,-4,0,-1,87,90,104,110,49,108.95,351,96.00,33.00,-856.00
2024-05-19 09:30:17.951197,8,0,3,-4,0,-1,87,90,104,110,49,109.11,351,93.00,50.00,-914.00
2024-05-19 09:30:17.971825,8,-1,3,-5,0,0,87,90,104,110,49,108.84,351,83.00,36.00,-906.00
2024-05-19 09:30:18.155838,8,-1,3,-5,0,0,87,90,104,110,49,108.70,351,44.00,72.00,-1011.00
2024-05-19 09:30:18.176435,8,-2,3,-5,0,0,87,90,105,110,49,108.96,351,35.00,45.00,-1088.00
2024-05-19 09:30:18.360418,6,-2,3,-6,0,0,87,90,104,110,49,108.81,351,33.00,45.00,-921.00
2024-05-19 09:30:18.379714,2,0,3,-6,0,0,87,90,103,110,49,109.04,351,78.00,22.00,-922.00
2024-05-19 09:30:18.481986,0,0,3,-5,0,0,87,90,102,110,49,108.77,351,112.00,25.00,-905.00
2024-05-19 09:30:18.583723,0,-1,3,-4,0,0,87,90,102,110,49,108.62,351,-1.00,52.00,-1012.00
2024-05-19 09:30:18.770002,1,-1,3,-3,0,0,87,90,101,110,49,109.01,352,53.00,21.00,-1067.00
2024-05-19 09:30:18.787818,2,0,3,-3,0,0,87,90,101,100,49,109.05,352,60.00,18.00,-1104.00
2024-05-19 09:30:18.975220,2,0,3,-3,0,0,87,90,100,100,49,108.74,352,67.00,2.00,-1010.00
2024-05-19 09:30:18.991982,2,0,3,-3,0,0,87,90,100,100,49,108.83,352,110.00,10.00,-1035.00
2024-05-19 09:30:19.179632,2,-1,3,-3,0,0,87,90,100,100,49,109.03,352,103.00,-1.00,-1105.00
2024-05-19 09:30:19.195719,3,1,3,-3,0,0,87,90,101,100,49,109.21,352,168.00,-26.00,-1268.00
2024-05-19 09:30:19.384449,2,0,3,-3,0,-1,87,90,101,100,49,108.97,352,44.00,35.00,-998.00
2024-05-19 09:30:19.399663,0,0,3,-3,0,-1,87,90,102,100,49,109.09,352,35.00,17.00,-951.00
2024-05-19 09:30:19.590451,-2,0,3,-2,0,0,87,90,103,110,49,109.25,352,20.00,64.00,-745.00
2024-05-19 09:30:19.603744,-1,0,3,-1,0,0,87,90,103,110,49,109.04,352,5.00,25.00,-998.00
2024-05-19 09:30:19.794703,0,0,3,-1,0,0,87,90,105,110,49,108.94,353,-16.00,51.00,-942.00
2024-05-19 09:30:19.812771,1,0,3,0,0,0,87,90,106,110,49,109.17,353,43.00,0.00,-1031.00
2024-05-19 09:30:19.909803,1,0,3,0,0,0,87,90,107,110,49,109.10,353,80.00,-8.00,-971.00
2024-05-19 09:30:20.101640,1,0,3,0,0,0,87,90,108,110,49,108.94,353,7.00,17.00,-897.00
2024-05-19 09:30:20.114394,1,0,3,0,0,0,87,90,110,110,49,109.29,353,64.00,-33.00,-1028.00
2024-05-19 09:30:20.306599,1,1,3,0,0,0,87,90,111,110,48,109.13,353,-13.00,25.00,-933.00
2024-05-19 09:30:20.318833,1,0,3,0,0,0,87,90,113,110,48,108.89,353,38.00,11.00,-1001.00
2024-05-19 09:30:20.511228,1,0,3,0,0,-1,87,90,114,110,48,109.25,353,19.00,-29.00,-1107.00
2024-05-19 09:30:20.521701,1,0,3,0,0,0,87,90,115,110,48,109.35,353,-21.00,43.00,-989.00
2024-05-19 09:30:20.716034,0,0,3,0,0,0,87,90,116,110,48,109.04,353,81.00,-31.00,-1035.00
2024-05-19 09:30:20.725683,0,0,3,0,0,0,87,90,116,110,48,109.28,354,0.00,11.00,-973.00
2024-05-19 09:30:20.923712,0,0,3,0,0,0,87,90,116,120,48,109.26,354,-8.00,18.00,-913.00
2024-05-19 09:30:20.929710,0,-1,3,0,0,0,86,90,116,120,48,109.18,354,-37.00,31.00,-946.00
2024-05-19 09:30:21.125705,1,-1,3,0,0,0,86,90,116,120,48,108.98,354,-15.00,12.00,-920.00
2024-05-19 09:30:21.133779,1,0,3,0,0,0,86,90,116,120,48,109.23,354,100.00,-53.00,-1099.00
2024-05-19 09:30:21.184696,1,0,3,0,0,0,86,90,116,120,48,109.34,354,87.00,-47.00,-1094.00
2024-05-19 09:30:21.330092,2,0,3,0,0,0,86,90,116,120,48,109.27,354,-16.00,13.00,-925.00
2024-05-19 09:30:21.389709,2,0,4,0,0,0,86,90,115,120,48,109.09,354,-2.00,10.00,-921.00
2024-05-19 09:30:21.490858,2,0,4,0,0,0,86,90,114,120,48,109.14,354,-11.00,1.00,-920.00
2024-05-19 09:30:21.592677,2,1,3,0,0,0,86,90,114,110,48,109.41,354,-23.00,20.00,-993.00
2024-05-19 09:30:21.739771,2,1,3,0,0,0,86,90,114,110,48,109.10,355,33.00,9.00,-968.00
2024-05-19 09:30:21.796610,2,1,3,0,0,0,86,90,113,110,48,109.14,355,71.00,-8.00,-1050.00
2024-05-19 09:30:21.944353,1,0,3,0,0,0,86,90,114,110,48,109.23,355,0.00,21.00,-899.00
2024-05-19 09:30:22.000543,2,-4,3,0,0,0,86,90,114,110,48,109.15,355,11.00,-20.00,-1071.00
2024-05-19 09:30:22.149154,3,-8,3,0,-1,0,86,90,115,110,48,109.52,355,45.00,-43.00,-1075.00
2024-05-19 09:30:22.204806,3,-5,3,0,-2,0,86,90,115,110,47,108.98,355,-1.00,16.00,-1057.00
2024-05-19 09:30:22.353958,2,-2,3,0,-3,0,86,90,116,110,47,109.12,355,72.00,-11.00,-1025.00
2024-05-19 09:30:22.413507,2,-1,3,0,-3,0,86,90,116,110,47,109.52,355,57.00,43.00,-947.00
2024-05-19 09:30:22.510726,2,0,3,0,-3,0,86,90,117,120,47,109.29,355,73.00,-20.00,-1039.00
2024-05-19 09:30:22.661154,2,0,3,0,-3,0,86,90,118,120,47,109.02,355,-36.00,22.00,-982.00
2024-05-19 09:30:22.714469,2,0,4,0,-3,0,86,90,118,120,47,109.04,356,25.00,4.00,-948.00
2024-05-19 09:30:22.866599,2,0,4,0,-3,0,86,90,118,120,47,109.47,356,98.00,-31.00,-955.00
2024-05-19 09:30:22.918460,1,0,4,0,-3,0,87,90,117,120,47,109.48,356,77.00,-48.00,-937.00
2024-05-19 09:30:23.071077,1,2,4,0,-3,0,87,90,117,120,47,109.36,356,6.00,-18.00,-1078.00
2024-05-19 09:30:23.122643,2,2,4,0,-3,0,87,90,117,120,47,109.46,356,42.00,-16.00,-991.00
2024-05-19 09:30:23.276224,2,3,4,0,-3,0,87,90,117,120,47,109.32,356,16.00,2.00,-982.00
2024-05-19 09:30:23.327754,2,3,4,0,-2,0,87,90,116,120,47,109.51,356,62.00,2.00,-951.00
2024-05-19 09:30:23.480999,1,4,4,0,-2,0,87,90,115,120,47,109.68,356,21.00,-18.00,-995.00
2024-05-19 09:30:23.531179,-1,4,3,0,-1,0,87,90,113,120,47,109.13,356,4.00,-50.00,-963.00
2024-05-19 09:30:23.632611,-3,4,3,0,-1,0,87,90,112,110,47,109.38,356,9.00,-37.00,-946.00
2024-05-19 09:30:23.734414,-1,3,4,0,-1,0,87,90,111,110,47,109.44,357,-24.00,-24.00,-1004.00
2024-05-19 09:30:23.891853,-1,3,3,0,0,0,87,90,111,110,47,109.41,357,0.00,-26.00,-990.00
2024-05-19 09:30:23.938421,3,2,3,0,0,0,87,90,110,110,47,109.33,357,-10.00,-66.00,-1072.00
2024-05-19 09:30:24.095338,4,2,4,0,0,0,87,90,110,110,47,109.60,357,35.00,-67.00,-1067.00
2024-05-19 09:30:24.143552,1,2,3,0,0,0,87,90,109,110,47,109.04,357,70.00,-63.00,-1110.00
2024-05-19 09:30:24.299676,0,1,3,0,0,0,87,90,109,110,47,109.23,357,31.00,-52.00,-1049.00
2024-05-19 09:30:24.346550,0,2,3,0,0,0,87,90,109,110,47,109.46,357,26.00,-27.00,-982.00
2024-05-19 09:30:24.477746,1,2,3,0,0,0,87,90,109,110,47,109.60,357,32.00,-74.00,-981.00
2024-05-19 09:30:24.550563,1,2,3,0,0,0,87,90,108,110,47,109.65,357,-11.00,-74.00,-952.00
2024-05-19 09:30:24.652913,1,2,3,0,0,0,87,90,108,110,47,109.31,357,10.00,-99.00,-988.00
2024-05-19 09:30:24.703660,1,2,3,0,-1,0,87,90,108,110,47,109.79,358,27.00,-87.00,-1003.00
2024-05-19 09:30:24.811973,0,3,3,0,-1,0,87,90,107,110,47,109.44,358,35.00,-81.00,-1074.00
2024-05-19 09:30:24.958885,0,4,3,0,-1,0,86,89,108,110,47,109.65,358,27.00,-90.00,-1013.00
2024-05-19 09:30:25.118954,0,5,3,0,0,0,86,89,109,110,47,109.55,358,-10.00,-66.00,-1150.00
2024-05-19 09:30:25.119686,1,4,3,0,0,0,86,89,109,110,47,109.53,358,21.00,-59.00,-1017.00
2024-05-19 09:30:25.214727,1,4,3,0,0,0,86,89,110,110,47,109.43,358,8.00,-39.00,-1100.00
2024-05-19 09:30:25.325808,0,4,3,0,0,0,86,89,110,110,47,109.43,358,-3.00,-67.00,-1060.00
2024-05-19 09:30:25.417714,0,4,3,0,0,0,86,89,110,110,47,109.28,358,-14.00,-87.00,-1005.00
2024-05-19 09:30:25.528973,0,4,3,0,0,0,86,89,110,110,47,109.61,358,-34.00,-110.00,-971.00
2024-05-19 09:30:25.621375,0,3,3,0,0,0,86,89,109,110,47,109.47,358,20.00,-119.00,-981.00
2024-05-19 09:30:25.733589,0,4,3,0,0,0,86,89,110,110,47,109.59,359,15.00,-83.00,-983.00
2024-05-19 09:30:25.825724,0,5,3,0,0,0,86,89,110,110,47,109.48,359,10.00,-107.00,-1124.00
2024-05-19 09:30:25.938478,2,6,3,1,0,0,87,89,110,110,47,109.53,359,23.00,-86.00,-1073.00
2024-05-19 09:30:26.029775,3,5,3,1,0,0,87,89,110,110,47,109.04,359,77.00,-95.00,-1008.00
2024-05-19 09:30:26.131271,3,4,3,1,0,0,87,89,110,110,47,109.70,359,38.00,-97.00,-1035.00
2024-05-19 09:30:26.245804,3,3,3,1,0,0,87,89,112,110,46,109.20,359,90.00,-82.00,-994.00
2024-05-19 09:30:26.338458,3,6,3,1,0,0,87,89,114,110,46,109.31,359,83.00,-48.00,-926.00
2024-05-19 09:30:26.444215,3,8,3,1,1,0,87,89,116,110,46,109.25,359,-18.00,-16.00,-945.00
2024-05-19 09:30:26.539163,5,7,3,0,2,0,87,89,116,110,46,109.23,359,-9.00,-46.00,-1100.00
2024-05-19 09:30:26.655690,5,7,3,0,2,0,87,89,117,110,46,109.17,359,27.00,-90.00,-1000.00
2024-05-19 09:30:26.743534,5,5,3,0,3,0,87,89,118,110,46,109.38,360,-6.00,-142.00,-1034.00
2024-05-19 09:30:26.860442,2,2,3,-1,2,0,87,89,118,110,46,109.46,360,31.00,-61.00,-925.00
2024-05-19 09:30:26.948098,0,3,3,-1,2,0,86,90,119,120,46,109.48,360,36.00,-87.00,-1046.00
2024-05-19 09:30:27.064620,1,3,3,-1,2,0,86,90,119,120,46,109.58,360,-41.00,-11.00,-785.00
2024-05-19 09:30:27.151321,0,2,3,-1,2,0,86,90,119,120,46,109.41,360,-42.00,-60.00,-999.00
2024-05-19 09:30:27.269440,0,3,3,0,2,0,86,90,119,120,46,109.31,360,-58.00,-20.00,-999.00
2024-05-19 09:30:27.356611,0,2,3,0,2,0,86,90,118,120,46,109.35,360,-5.00,-64.00,-1063.00
2024-05-19 09:30:27.474187,0,3,3,0,2,0,86,90,118,120,46,109.35,360,125.00,-86.00,-1003.00
2024-05-19 09:30:27.559239,0,4,3,0,2,0,86,90,117,120,46,109.02,360,76.00,-86.00,-1059.00
2024-05-19 09:30:27.661217,2,3,4,0,2,0,86,90,116,120,46,109.15,360,25.00,-57.00,-991.00
2024-05-19 09:30:27.781355,1,3,3,0,2,0,86,90,114,120,46,109.47,361,13.00,-21.00,-945.00
2024-05-19 09:30:27.865225,0,1,3,0,2,0,86,90,113,120,46,109.17,361,75.00,-86.00,-1114.00
2024-05-19 09:30:27.985845,0,1,3,0,2,0,87,91,111,120,46,109.56,361,66.00,-80.00,-981.00
2024-05-19 09:30:28.069228,1,2,3,0,2,0,87,91,109,120,46,109.02,361,-49.00,-31.00,-928.00
2024-05-19 09:30:28.190699,2,0,3,0,2,1,87,91,107,110,46,109.08,361,75.00,-69.00,-962.00
2024-05-19 09:30:28.273559,2,-2,4,0,1,0,87,91,105,110,46,109.29,361,79.00,-61.00,-1004.00
2024-05-19 09:30:28.395547,2,1,4,0,0,0,87,91,104,110,46,109.15,361,92.00,-52.00,-1019.00
2024-05-19 09:30:28.477554,2,1,4,0,0,0,87,91,103,110,46,108.85,361,24.00,-75.00,-1047.00
2024-05-19 09:30:28.529193,1,1,3,0,0,0,87,91,103,110,46,109.06,361,112.00,-75.00,-1036.00
2024-05-19 09:30:28.702945,1,2,3,0,0,0,87,91,102,110,46,109.20,361,73.00,-87.00,-1003.00
2024-05-19 09:30:28.733289,1,2,3,0,0,0,87,91,102,110,46,109.04,362,47.00,-56.00,-1046.00
2024-05-19 09:30:28.907702,0,2,3,0,0,0,87,91,102,110,46,109.41,362,73.00,-94.00,-1000.00
2024-05-19 09:30:28.987642,0,3,3,0,0,0,86,90,102,110,46,109.23,362,87.00,-22.00,-1129.00
2024-05-19 09:30:29.113711,1,1,3,0,0,0,86,90,103,110,46,109.09,362,-17.00,-47.00,-1014.00
2024-05-19 09:30:29.140296,1,1,3,0,0,0,86,90,103,110,46,108.88,362,42.00,-35.00,-1077.00
2024-05-19 09:30:29.317665,1,2,3,0,0,0,86,90,103,110,45,109.13,362,93.00,-72.00,-1018.00
2024-05-19 09:30:29.344889,2,3,4,0,0,0,86,90,104,110,45,109.08,362,46.00,-67.00,-980.00
2024-05-19 09:30:29.522390,2,2,4,0,0,0,86,90,104,110,45,109.01,362,1.00,-54.00,-1014.00
2024-05-19 09:30:29.549260,1,2,4,0,0,0,86,90,104,110,45,109.20,362,75.00,-91.00,-1067.00
2024-05-19 09:30:29.727526,0,3,3,0,0,0,86,90,105,110,45,109.00,363,-11.00,-60.00,-990.00
2024-05-19 09:30:29.752210,0,3,3,0,0,0,86,90,105,110,45,109.12,363,97.00,-76.00,-997.00
2024-05-19 09:30:29.931658,0,2,3,0,0,0,86,90,106,110,45,109.20,363,118.00,-93.00,-1029.00
2024-05-19 09:30:29.956147,1,3,3,0,0,0,86,90,108,110,45,109.26,363,46.00,-61.00,-995.00
2024-05-19 09:30:30.137077,2,4,4,0,-1,0,86,90,110,110,45,109.16,363,143.00,-132.00,-1050.00
2024-05-19 09:30:30.160220,2,5,3,0,-1,0,86,90,111,110,45,109.39,363,26.00,-92.00,-982.00
2024-05-19 09:30:30.262377,2,6,3,0,-1,0,86,90,113,110,45,109.31,363,125.00,-152.00,-951.00
2024-05-19 09:30:30.443484,0,6,6,0,-1,0,86,90,113,110,45,109.30,363,68.00,-127.00,-994.00
2024-05-19 09:30:30.466480,1,9,12,1,-1,0,86,90,115,110,45,109.27,363,29.00,-158.00,-991.00
2024-05-19 09:30:30.568007,2,9,19,0,-1,0,86,90,118,110,45,108.94,363,-10.00,-75.00,-996.00
2024-05-19 09:30:30.750672,0,8,25,0,0,0,86,90,119,110,45,109.40,364,22.00,-103.00,-1046.00
2024-05-19 09:30:30.771977,-2,6,31,0,0,0,86,90,119,110,45,109.46,364,-59.00,-36.00,-978.00
2024-05-19 09:30:30.956145,-3,5,37,0,0,0,86,90,120,120,45,108.88,364,10.00,-86.00,-943.00
2024-05-19 09:30:30.976012,-3,4,43,0,0,0,87,90,120,120,45,109.16,364,-34.00,-39.00,-992.00
2024-05-19 09:30:31.160998,-2,4,50,0,0,0,87,90,121,120,45,108.94,364,6.00,-54.00,-1011.00
2024-05-19 09:30:31.181767,-2,3,55,0,0,0,87,90,122,120,45,109.00,364,27.00,-63.00,-1068.00
2024-05-19 09:30:31.282232,-2,1,61,0,1,0,87,90,123,120,45,109.14,364,16.00,-72.00,-980.00
2024-05-19 09:30:31.467479,-1,2,68,0,0,0,87,90,124,120,45,109.14,364,-59.00,-52.00,-965.00
2024-05-19 09:30:31.485939,-2,2,74,0,0,0,87,90,125,120,45,109.19,364,-57.00,-29.00,-979.00
2024-05-19 09:30:31.588659,-3,1,80,0,0,0,87,90,126,120,45,109.11,364,-68.00,-45.00,-1030.00
2024-05-19 09:30:31.775846,-3,1,86,0,0,0,87,90,127,120,45,108.87,365,-12.00,-55.00,-1005.00
2024-05-19 09:30:31.791909,-3,1,92,0,0,0,87,90,128,120,45,108.97,365,-95.00,-31.00,-972.00
2024-05-19 09:30:31.979466,-2,2,98,0,0,0,87,90,128,120,45,109.13,365,-39.00,-29.00,-929.00
2024-05-19 09:30:31.995875,-3,2,104,0,0,0,87,90,129,120,45,108.89,365,-103.00,-12.00,-913.00
2024-05-19 09:30:32.184579,-3,2,110,0,0,0,87,90,129,120,45,109.10,365,-70.00,-11.00,-1071.00
2024-05-19 09:30:32.199964,-4,1,116,0,0,0,87,90,130,120,45,108.85,365,-93.00,-5.00,-945.00
2024-05-19 09:30:32.389336,-3,1,122,0,0,0,87,90,130,120,45,108.80,365,-64.00,38.00,-1012.00
2024-05-19 09:30:32.403867,-4,0,128,0,0,0,87,90,130,120,45,108.88,365,-97.00,46.00,-997.00
2024-05-19 09:30:32.594167,-3,-1,134,0,0,0,87,90,131,130,45,108.68,365,-107.00,39.00,-951.00
2024-05-19 09:30:32.607813,-4,-1,140,0,0,0,87,90,132,130,45,108.82,365,-45.00,20.00,-1097.00
2024-05-19 09:30:32.658983,-5,-1,146,0,0,0,87,90,132,130,45,109.27,366,-104.00,65.00,-923.00
2024-05-19 09:30:32.799299,-4,-1,151,0,0,1,87,90,131,130,45,109.10,366,-137.00,109.00,-999.00
2024-05-19 09:30:32.863604,-5,-2,157,0,0,1,87,90,132,130,45,108.93,366,-53.00,75.00,-932.00
2024-05-19 09:30:33.003439,-4,-3,162,0,0,1,86,89,133,130,45,109.03,366,-41.00,73.00,-1022.00
2024-05-19 09:30:33.067227,-3,-3,167,0,0,1,86,89,133,130,45,109.17,366,-16.00,85.00,-1014.00
2024-05-19 09:30:33.208245,-3,-3,172,0,0,0,86,89,136,130,45,108.88,366,14.00,78.00,-993.00
2024-05-19 09:30:33.270920,-1,-2,178,0,0,0,86,89,137,130,45,109.02,366,-22.00,87.00,-969.00
2024-05-19 09:30:33.413294,0,-2,-176,0,0,0,86,89,138,130,45,109.42,366,-75.00,134.00,-1008.00
2024-05-19 09:30:33.475741,0,-2,-170,0,0,0,86,89,139,130,45,109.16,366,-73.00,124.00,-886.00
2024-05-19 09:30:33.576790,0,-2,-165,0,0,0,86,89,140,130,45,109.00,366,30.00,53.00,-1051.00
2024-05-19 09:30:33.678851,0,-2,-160,0,0,0,86,89,141,130,45,109.20,367,-18.00,96.00,-958.00
2024-05-19 09:30:33.822725,0,-2,-154,0,0,0,86,89,141,130,45,109.04,367,-5.00,62.00,-990.00
2024-05-19 09:30:33.883236,0,-1,-148,0,0,1,86,89,142,130,45,109.30,367,-87.00,82.00,-955.00
2024-05-19 09:30:34.027451,0,-2,-142,0,0,1,86,90,143,130,45,109.28,367,6.00,91.00,-828.00
2024-05-19 09:30:34.086955,0,-2,-135,0,0,1,86,90,143,130,45,109.17,367,6.00,85.00,-935.00
2024-05-19 09:30:34.232242,0,-2,-129,0,0,0,86,90,143,130,45,109.48,367,30.00,100.00,-935.00
2024-05-19 09:30:34.291482,1,-1,-123,0,0,0,86,90,143,130,45,109.22,367,73.00,72.00,-980.00
2024-05-19 09:30:34.437690,1,-1,-116,0,-1,0,86,90,142,130,45,109.10,367,24.00,125.00,-796.00
2024-05-19 09:30:34.494877,2,0,-110,0,-1,1,86,90,141,130,45,109.41,367,91.00,20.00,-967.00
2024-05-19 09:30:34.597167,3,0,-104,0,-1,1,86,90,141,130,45,109.15,367,117.00,48.00,-1040.00
2024-05-19 09:30:34.744252,4,0,-97,0,-1,0,86,90,139,130,45,109.29,368,97.00,47.00,-898.00
2024-05-19 09:30:34.800972,4,0,-91,0,-1,1,86,90,139,130,45,109.44,368,68.00,58.00,-917.00
2024-05-19 09:30:34.949688,3,-1,-84,0,-1,1,86,90,137,130,45,108.91,368,96.00,45.00,-945.00
2024-05-19 09:30:35.005006,3,-1,-77,0,0,1,87,90,136,120,45,109.10,368,87.00,36.00,-973.00
2024-05-19 09:30:35.153821,3,0,-71,0,0,1,87,90,136,120,45,109.30,368,73.00,4.00,-906.00
2024-05-19 09:30:35.212921,3,0,-65,0,0,1,87,90,135,120,45,109.21,368,82.00,45.00,-970.00
2024-05-19 09:30:35.310813,2,0,-59,0,0,0,87,90,133,120,45,109.11,368,39.00,32.00,-1019.00
2024-05-19 09:30:35.461351,3,1,-53,0,0,0,87,90,134,120,45,109.06,368,118.00,-4.00,-1043.00
2024-05-19 09:30:35.515114,3,2,-47,0,0,0,87,90,133,120,45,108.69,368,71.00,0.00,-984.00
2024-05-19 09:30:35.616769,2,1,-42,0,0,0,87,90,133,120,45,109.27,368,145.00,-34.00,-1022.00
2024-05-19 09:30:35.768233,2,0,-36,0,0,0,87,90,132,120,45,109.16,369,23.00,20.00,-1002.00
2024-05-19 09:30:35.820746,2,1,-30,0,0,0,87,90,132,120,45,109.00,369,-12.00,46.00,-1109.00
2024-05-19 09:30:35.972960,2,1,-24,0,0,0,87,90,132,120,45,109.23,369,112.00,8.00,-919.00
2024-05-19 09:30:36.025739,2,1,-18,0,0,0,87,89,130,120,45,109.13,369,64.00,61.00,-826.00
2024-05-19 09:30:36.178158,2,2,-13,1,0,0,87,89,130,120,45,108.97,369,95.00,-18.00,-1081.00
2024-05-19 09:30:36.228795,2,1,-9,1,0,0,87,89,128,120,44,109.29,369,60.00,21.00,-939.00
2024-05-19 09:30:36.382648,3,1,-6,1,0,0,87,89,127,120,44,109.03,369,71.00,-18.00,-990.00
2024-05-19 09:30:36.432695,2,1,-3,1,0,0,87,89,126,120,44,109.26,369,27.00,3.00,-1043.00
2024-05-19 09:30:36.485034,2,1,-1,0,0,0,87,89,125,120,44,108.99,369,3.00,19.00,-903.00
2024-05-19 09:30:36.587355,2,0,0,1,0,0,87,89,123,110,44,108.83,369,43.00,-23.00,-1011.00
2024-05-19 09:30:36.690665,2,0,1,0,0,0,87,89,121,110,44,109.20,370,44.00,6.00,-876.00
2024-05-19 09:30:36.790125,2,0,2,1,0,0,87,89,119,110,44,109.00,370,102.00,-39.00,-1051.00
2024-05-19 09:30:36.895492,3,1,3,1,0,0,87,89,116,110,44,108.89,370,71.00,-10.00,-1030.00
2024-05-19 09:30:36.993926,3,1,3,1,0,0,86,89,114,110,44,109.23,370,20.00,-10.00,-1153.00
2024-05-19 09:30:37.096545,4,1,4,0,0,0,86,89,113,110,44,109.10,370,-39.00,7.00,-1016.00
2024-05-19 09:30:37.202518,3,1,5,0,0,0,86,89,111,110,44,108.98,370,-12.00,-5.00,-1002.00
2024-05-19 09:30:37.305604,3,0,6,0,0,0,86,89,109,100,44,109.07,370,6.00,4.00,-989.00
2024-05-19 09:30:37.401968,3,0,6,0,0,0,86,89,108,100,44,109.03,370,77.00,-28.00,-1094.00
2024-05-19 09:30:37.509681,3,1,6,0,0,0,86,89,107,100,44,108.87,370,23.00,3.00,-973.00
2024-05-19 09:30:37.605786,3,1,6,0,0,0,86,89,106,100,44,108.80,370,103.00,-64.00,-1098.00
2024-05-19 09:30:37.714808,4,1,6,0,0,0,86,89,105,100,44,109.06,371,37.00,24.00,-940.00
2024-05-19 09:30:37.811008,5,1,6,0,0,-1,86,89,105,100,44,108.94,371,52.00,16.00,-886.00
2024-05-19 09:30:37.919528,5,2,6,0,0,-1,86,89,104,100,44,108.70,371,69.00,32.00,-928.00
2024-05-19 09:30:38.014409,4,0,6,0,0,0,86,90,103,100,44,108.90,371,19.00,32.00,-1022.00
2024-05-19 09:30:38.231395,3,0,6,0,0,0,86,90,102,100,44,109.06,371,91.00,34.00,-1029.00
2024-05-19 09:30:38.231537,4,0,6,0,0,-1,86,90,102,100,44,109.18,371,80.00,42.00,-1047.00
2024-05-19 09:30:38.319710,5,0,6,0,0,-1,86,90,102,100,44,109.14,371,102.00,14.00,-959.00
2024-05-19 09:30:38.430669,5,0,6,0,0,-1,86,90,101,100,44,109.00,371,44.00,27.00,-1041.00
2024-05-19 09:30:38.524050,5,0,6,0,0,-1,86,90,100,100,44,109.06,371,67.00,33.00,-1031.00
2024-05-19 09:30:38.627656,5,0,6,0,0,-1,86,90,100,100,44,109.02,371,65.00,-6.00,-959.00
2024-05-19 09:30:38.727646,5,0,6,0,0,0,86,90,99,100,44,108.87,372,42.00,40.00,-1041.00
2024-05-19 09:30:38.840624,6,0,6,0,0,-1,86,90,99,100,44,108.77,372,70.00,22.00,-974.00
2024-05-19 09:30:38.931970,5,0,1,0,0,0,86,90,98,100,44,108.90,372,93.00,29.00,-1034.00
2024-05-19 09:30:39.045377,5,-2,-4,0,0,0,86,90,97,100,44,108.75,372,80.00,48.00,-1002.00
2024-05-19 09:30:39.140253,4,-1,-11,0,0,0,86,90,96,100,44,108.72,372,0.00,62.00,-1057.00
2024-05-19 09:30:39.237567,4,-2,-18,0,0,0,86,90,95,100,43,108.81,372,108.00,17.00,-1026.00
2024-05-19 09:30:39.352256,4,-3,-24,0,0,0,86,90,93,100,43,108.72,372,108.00,22.00,-1002.00
2024-05-19 09:30:39.441925,4,-3,-30,0,0,0,86,90,92,100,43,108.51,372,122.00,59.00,-959.00
2024-05-19 09:30:39.543616,3,-4,-37,0,0,-1,86,90,90,100,43,108.53,372,112.00,39.00,-963.00
2024-05-19 09:30:39.659463,2,-4,-43,0,0,0,86,90,88,100,43,108.63,372,97.00,71.00,-957.00
2024-05-19 09:30:39.749188,2,-3,-49,0,0,0,86,90,87,100,43,108.77,373,30.00,58.00,-1049.00
2024-05-19 09:30:39.850788,2,-3,-55,0,0,-1,86,90,85,100,43,108.71,373,79.00,57.00,-1077.00
2024-05-19 09:30:39.902655,2,-2,-61,-1,0,-1,86,90,84,100,43,108.61,373,0.00,77.00,-1146.00
2024-05-19 09:30:40.069046,1,-2,-67,-1,0,-1,87,90,82,100,43,108.71,373,5.00,36.00,-1009.00
2024-05-19 09:30:40.107501,1,-1,-74,-1,0,0,87,90,81,100,43,108.63,373,8.00,41.00,-1067.00
2024-05-19 09:30:40.207747,1,-1,-80,-1,0,0,87,90,79,100,43,108.38,373,44.00,49.00,-936.00
2024-05-19 09:30:40.310526,1,-1,-86,-1,0,0,87,90,77,100,43,108.59,373,-23.00,71.00,-928.00
2024-05-19 09:30:40.411613,1,-1,-92,0,0,0,87,90,75,100,43,108.75,373,9.00,53.00,-1036.00
2024-05-19 09:30:40.512454,0,-1,-98,0,0,0,87,90,74,100,43,108.32,373,-97.00,79.00,-1069.00
2024-05-19 09:30:40.614388,0,0,-104,0,0,-1,87,90,72,100,43,108.62,373,5.00,98.00,-865.00
2024-05-19 09:30:40.786157,-1,0,-110,0,0,0,87,90,71,100,43,108.59,374,-43.00,50.00,-1076.00
2024-05-19 09:30:40.818558,0,0,-117,0,0,0,87,90,69,90,43,108.63,374,13.00,-7.00,-1094.00
2024-05-19 09:30:40.990557,0,0,-123,0,0,-1,87,90,68,90,43,108.88,374,6.00,15.00,-1128.00
2024-05-19 09:30:41.022529,0,0,-129,0,0,-1,86,90,68,90,43,108.66,374,0.00,60.00,-906.00
2024-05-19 09:30:41.195808,1,0,-135,0,0,-1,86,90,68,90,43,108.88,374,-90.00,83.00,-974.00
2024-05-19 09:30:41.227036,1,0,-141,0,0,-1,86,90,68,100,43,108.54,374,-51.00,33.00,-1038.00
2024-05-19 09:30:41.400176,2,0,-147,0,0,-1,86,90,68,100,43,108.43,374,23.00,2.00,-1023.00
2024-05-19 09:30:41.430519,2,0,-153,0,0,-1,86,90,69,100,43,108.51,374,17.00,3.00,-946.00
2024-05-19 09:30:41.605060,2,0,-159,0,0,-1,86,90,69,100,43,108.67,374,17.00,12.00,-967.00
2024-05-19 09:30:41.635505,2,1,-165,0,0,-1,86,90,70,100,43,108.56,374,5.00,13.00,-976.00
2024-05-19 09:30:41.810132,2,1,-170,0,0,-1,86,90,70,100,43,108.68,375,80.00,4.00,-1040.00
2024-05-19 09:30:41.839678,1,1,-176,0,0,-1,86,90,69,100,43,108.71,375,44.00,22.00,-1001.00
2024-05-19 09:30:42.014981,2,1,177,0,0,-1,86,90,69,100,43,108.93,375,-4.00,0.00,-1017.00
2024-05-19 09:30:42.043736,2,1,171,0,0,-1,86,90,69,100,43,108.46,375,-34.00,16.00,-983.00
2024-05-19 09:30:42.219419,2,1,166,0,0,0,86,90,69,100,43,109.08,375,65.00,-17.00,-929.00
2024-05-19 09:30:42.247432,2,1,160,0,0,0,86,90,68,100,43,108.77,375,60.00,30.00,-980.00
2024-05-19 09:30:42.424589,3,1,154,0,0,0,86,90,68,100,43,108.63,375,48.00,16.00,-953.00
2024-05-19 09:30:42.451402,2,0,148,0,0,0,86,90,68,100,43,108.89,375,-24.00,54.00,-1032.00
2024-05-19 09:30:42.553569,2,0,141,0,0,0,86,90,68,100,43,108.64,375,-19.00,16.00,-1148.00
2024-05-19 09:30:42.731463,2,0,135,0,0,-1,86,90,69,100,43,108.35,375,107.00,5.00,-954.00
2024-05-19 09:30:42.757418,2,0,129,0,0,-1,86,90,69,100,43,108.66,376,52.00,8.00,-971.00
2024-05-19 09:30:42.863917,4,0,123,0,0,0,86,90,70,100,43,108.60,376,104.00,-2.00,-1006.00
2024-05-19 09:30:42.961385,5,0,117,0,0,0,86,90,71,100,43,108.56,376,68.00,0.00,-1047.00
2024-05-19 09:30:43.141024,4,0,111,0,0,-1,86,89,71,100,43,108.55,376,-10.00,23.00,-970.00
2024-05-19 09:30:43.165462,3,0,105,0,0,-1,86,89,72,100,43,108.65,376,56.00,22.00,-923.00
2024-05-19 09:30:43.345815,3,0,99,1,0,0,86,89,73,100,42,108.78,376,19.00,15.00,-1028.00
2024-05-19 09:30:43.369407,3,0,94,1,0,-1,86,89,75,110,42,108.95,376,38.00,0.00,-1008.00
2024-05-19 09:30:43.551257,2,0,88,1,0,-1,86,89,75,110,42,108.75,376,-27.00,24.00,-876.00
2024-05-19 09:30:43.552842,2,1,82,1,0,-1,86,89,76,110,42,108.96,376,3.00,-33.00,-995.00
2024-05-19 09:30:43.624690,2,1,76,1,-1,0,86,89,77,110,42,108.55,376,-15.00,-5.00,-997.00
2024-05-19 09:30:43.755387,1,1,70,1,-1,0,86,89,77,110,42,108.76,377,72.00,-35.00,-899.00
2024-05-19 09:30:43.828374,1,2,64,1,-1,0,86,89,78,110,42,108.62,377,-32.00,25.00,-873.00
2024-05-19 09:30:43.960463,2,2,59,1,-1,0,86,89,78,110,42,108.89,377,22.00,10.00,-932.00
2024-05-19 09:30:44.032255,3,2,53,1,0,0,86,89,79,110,42,108.62,377,32.00,8.00,-969.00
2024-05-19 09:30:44.165071,3,1,47,0,0,0,86,89,80,110,42,108.61,377,22.00,1.00,-1021.00
2024-05-19 09:30:44.236785,3,0,41,0,0,0,86,89,82,110,42,108.66,377,-1.00,37.00,-1006.00
2024-05-19 09:30:44.369757,3,0,35,0,0,0,86,89,84,110,42,108.86,377,105.00,-6.00,-1142.00
2024-05-19 09:30:44.440326,4,0,29,0,0,0,86,89,86,110,42,108.77,377,102.00,0.00,-1117.00
2024-05-19 09:30:44.574488,4,0,23,0,0,0,86,89,88,110,42,108.83,377,33.00,0.00,-960.00
2024-05-19 09:30:44.649247,4,0,19,0,0,0,86,89,90,120,42,108.57,377,117.00,-7.00,-1043.00
2024-05-19 09:30:44.747083,4,0,16,0,0,-1,86,89,92,120,42,108.42,378,88.00,-7.00,-1129.00
2024-05-19 09:30:44.882470,4,0,14,0,-1,0,86,89,94,120,42,108.72,378,38.00,-27.00,-964.00
2024-05-19 09:30:44.950919,5,0,12,0,-1,0,86,89,94,120,42,108.83,378,53.00,-10.00,-1038.00
2024-05-19 09:30:45.091280,4,1,10,0,-1,0,86,89,95,120,42,108.58,378,193.00,-77.00,-1024.00
2024-05-19 09:30:45.154699,4,2,9,0,-1,0,86,89,95,120,42,108.50,378,197.00,-73.00,-1040.00
2024-05-19 09:30:45.291335,4,2,8,0,-1,0,86,89,94,120,42,108.33,378,65.00,-12.00,-984.00
2024-05-19 09:30:45.358384,4,2,8,0,-1,1,86,89,93,120,42,109.01,378,118.00,-37.00,-1040.00
2024-05-19 09:30:45.493069,3,2,7,0,-1,0,86,89,93,120,42,108.63,378,111.00,-60.00,-981.00
2024-05-19 09:30:45.562942,4,3,7,0,0,0,86,89,92,120,42,108.54,378,73.00,-10.00,-1009.00
2024-05-19 09:30:45.701452,3,2,6,0,0,0,86,89,91,120,42,108.62,379,176.00,-60.00,-1000.00
2024-05-19 09:30:45.767473,5,3,6,0,0,0,86,89,91,120,42,108.57,379,32.00,23.00,-989.00
2024-05-19 09:30:45.908751,5,3,6,0,0,0,86,89,91,120,42,108.68,379,144.00,-52.00,-1010.00
2024-05-19 09:30:45.971381,5,3,6,0,0,0,86,89,91,120,42,108.55,379,84.00,17.00,-985.00
2024-05-19 09:30:46.110746,5,3,6,0,0,0,87,89,89,120,42,108.63,379,145.00,-63.00,-1099.00
2024-05-19 09:30:46.180649,4,2,5,0,0,0,87,89,88,120,42,108.53,379,84.00,13.00,-916.00
2024-05-19 09:30:46.277661,4,1,5,0,0,0,87,89,86,120,42,108.31,379,135.00,-25.00,-994.00
2024-05-19 09:30:46.417848,5,0,6,0,0,0,87,89,85,120,42,108.47,379,144.00,-8.00,-1063.00
2024-05-19 09:30:46.481306,5,0,6,0,0,0,87,89,83,120,42,108.34,379,131.00,-66.00,-1007.00
2024-05-19 09:30:46.623830,5,0,6,0,0,0,87,89,82,120,42,108.73,379,98.00,-30.00,-1027.00
2024-05-19 09:30:46.685763,3,0,5,0,0,0,87,89,80,120,42,108.32,380,111.00,-11.00,-1016.00
2024-05-19 09:30:46.827809,3,0,6,0,0,0,87,89,79,110,42,107.99,380,53.00,12.00,-991.00
2024-05-19 09:30:46.889184,5,0,6,0,0,0,87,89,78,110,42,108.43,380,102.00,-49.00,-1056.00
2024-05-19 09:30:47.032206,6,0,6,0,0,0,87,89,77,110,42,108.29,380,126.00,-42.00,-1058.00
2024-05-19 09:30:47.094013,6,1,6,0,0,0,87,89,76,110,42,108.15,380,69.00,-33.00,-970.00
2024-05-19 09:30:47.237469,5,3,6,0,-1,0,87,89,74,110,42,107.86,380,-74.00,13.00,-936.00
2024-05-19 09:30:47.297656,5,5,6,0,0,0,87,89,73,110,42,108.02,380,45.00,-38.00,-1022.00
2024-05-19 09:30:47.399286,3,4,6,0,0,0,87,89,71,110,42,108.39,380,103.00,-43.00,-1087.00
2024-05-19 09:30:47.450113,3,3,6,0,0,0,87,89,70,110,42,108.17,380,141.00,-14.00,-929.00
2024-05-19 09:30:47.648364,4,2,6,0,0,0,87,89,69,110,42,108.12,380,112.00,-19.00,-1076.00
2024-05-19 09:30:47.655911,5,0,6,0,0,0,87,89,69,100,42,108.21,381,80.00,-27.00,-1000.00
2024-05-19 09:30:47.852099,5,1,6,0,0,0,87,89,69,100,42,108.21,381,107.00,-2.00,-977.00
2024-05-19 09:30:47.859788,4,0,6,0,0,0,87,89,68,100,42,108.05,381,84.00,-11.00,-965.00
2024-05-19 09:30:47.961203,4,0,6,0,0,0,87,89,68,100,42,108.03,381,111.00,-34.00,-1071.00
2024-05-19 09:30:48.158625,5,1,6,0,0,0,86,90,68,100,42,108.07,381,-10.00,10.00,-1107.00
2024-05-19 09:30:48.165697,3,1,7,-1,0,0,86,90,67,100,42,108.23,381,50.00,-27.00,-890.00
2024-05-19 09:30:48.363926,2,-1,9,-1,0,0,86,90,67,100,42,107.87,381,77.00,-53.00,-992.00
2024-05-19 09:30:48.369556,1,0,14,-1,0,0,86,90,66,100,42,107.76,381,17.00,-18.00,-942.00
2024-05-19 09:30:48.496825,0,0,20,-2,0,0,86,90,65,100,42,107.93,381,-42.00,29.00,-929.00
2024-05-19 09:30:48.573400,-1,0,24,-2,0,0,86,90,63,100,42,107.96,381,17.00,-118.00,-1290.00
2024-05-19 09:30:48.772982,-2,0,26,-2,0,0,86,90,60,100,42,107.73,382,-84.00,113.00,-1053.00
2024-05-19 09:30:48.777810,-3,0,24,-2,0,0,86,90,57,100,42,107.84,382,-48.00,40.00,-1017.00
2024-05-19 09:30:48.978567,-3,0,18,-1,0,-1,86,90,54,100,42,107.68,382,-96.00,69.00,-953.00
2024-05-19 09:30:48.981173,-3,0,7,-1,0,0,86,90,50,100,42,107.77,382,-78.00,19.00,-1036.00
2024-05-19 09:30:49.083760,-4,0,4,-1,0,0,87,90,46,100,42,108.00,382,-40.00,-49.00,-915.00
2024-05-19 09:30:49.185281,-3,2,4,0,-1,0,87,90,46,100,42,108.01,382,10.00,-58.00,-1051.00
2024-05-19 09:30:49.287727,-2,3,4,0,-1,0,87,90,41,100,42,107.82,382,-51.00,-76.00,-1069.00
2024-05-19 09:30:49.389140,-1,4,4,0,-1,0,87,90,37,100,42,107.95,382,-73.00,-37.00,-1078.00
2024-05-19 09:30:49.592171,-1,5,4,0,-1,0,87,90,35,90,42,107.74,382,64.00,-73.00,-1065.00
2024-05-19 09:30:49.593329,0,5,4,1,-1,-1,87,90,33,90,42,107.49,382,38.00,-34.00,-986.00
2024-05-19 09:30:49.797233,2,7,5,1,0,-1,87,90,32,90,42,107.67,383,67.00,-33.00,-1000.00
2024-05-19 09:30:49.797372,3,5,5,2,0,-1,87,90,31,90,42,107.78,383,20.00,-26.00,-1057.00
2024-05-19 09:30:49.899791,4,5,5,2,0,-1,87,90,31,90,42,107.48,383,51.00,-37.00,-1057.00
2024-05-19 09:30:50.001954,6,4,4,1,0,-1,87,90,32,80,42,107.82,383,21.00,-23.00,-1050.00
2024-05-19 09:30:50.104491,5,3,4,1,1,-1,86,90,33,80,42,108.05,383,55.00,-31.00,-1084.00
2024-05-19 09:30:50.206296,5,2,4,0,1,-1,86,90,34,80,42,107.91,383,102.00,-33.00,-1076.00
2024-05-19 09:30:50.307175,3,0,4,0,2,-2,86,90,36,80,41,107.83,383,13.00,31.00,-1008.00
2024-05-19 09:30:50.409109,4,-1,4,0,2,-2,86,90,38,90,41,107.79,383,-6.00,31.00,-1018.00
2024-05-19 09:30:50.514846,4,-2,4,0,2,-2,86,90,40,90,41,107.79,383,-11.00,-26.00,-1014.00
2024-05-19 09:30:50.612991,1,-2,4,0,1,-2,86,90,44,90,41,107.57,383,-116.00,62.00,-995.00
2024-05-19 09:30:50.718729,0,-2,4,-1,1,-2,86,90,48,90,41,107.62,384,-14.00,10.00,-1050.00
2024-05-19 09:30:50.817299,-1,-1,4,-1,0,-2,86,90,52,100,41,107.86,384,53.00,-58.00,-1026.00
2024-05-19 09:30:50.868406,-1,0,5,-1,0,-2,86,90,56,100,41,107.91,384,1.00,-11.00,-940.00
2024-05-19 09:30:51.025826,-1,0,5,0,0,-2,86,90,59,100,41,107.79,384,-55.00,60.00,-794.00
2024-05-19 09:30:51.072008,0,1,5,0,0,-1,87,90,63,110,41,107.95,384,99.00,-20.00,-1095.00
2024-05-19 09:30:51.231745,-2,1,5,0,0,-1,87,90,68,110,41,108.18,384,88.00,-12.00,-1017.00
2024-05-19 09:30:51.289470,0,0,5,0,0,-1,87,90,73,110,41,108.24,384,49.00,5.00,-1050.00
2024-05-19 09:30:51.378722,1,0,5,1,0,-1,87,90,78,120,41,108.44,384,47.00,48.00,-826.00
2024-05-19 09:30:51.538567,2,0,5,1,0,-1,87,90,83,120,41,108.45,384,50.00,38.00,-1041.00
2024-05-19 09:30:51.596630,2,-1,5,0,1,-1,87,90,87,120,41,108.63,384,103.00,-14.00,-961.00
2024-05-19 09:30:51.686477,2,-2,5,1,0,-1,87,90,91,130,41,108.46,385,78.00,-31.00,-963.00
2024-05-19 09:30:51.787549,3,0,5,1,0,0,87,90,95,130,41,108.61,385,106.00,32.00,-979.00
2024-05-19 09:30:51.888059,4,0,5,1,0,0,87,90,97,130,41,108.40,385,89.00,25.00,-949.00
2024-05-19 09:30:52.049845,4,0,4,1,0,0,87,90,100,130,41,108.80,385,37.00,-7.00,-959.00
2024-05-19 09:30:52.094580,3,1,4,0,0,0,87,90,103,130,41,108.91,385,11.00,54.00,-898.00
2024-05-19 09:30:52.196755,3,0,4,0,1,0,87,90,105,130,40,109.16,385,94.00,74.00,-997.00
2024-05-19 09:30:52.299326,2,-1,4,0,1,1,87,90,107,130,40,108.70,385,12.00,128.00,-1036.00
2024-05-19 09:30:52.401761,3,-3,5,0,2,1,87,90,109,130,40,108.86,385,87.00,44.00,-1064.00
2024-05-19 09:30:52.503862,4,-6,6,0,2,1,87,90,111,130,40,108.93,385,37.00,57.00,-988.00
2024-05-19 09:30:52.602227,2,-8,6,0,1,0,87,90,114,130,40,108.79,385,51.00,48.00,-992.00
2024-05-19 09:30:52.766992,3,-6,6,0,0,0,87,90,116,130,40,108.97,386,39.00,26.00,-1010.00
2024-05-19 09:30:52.806605,3,-4,8,0,0,0,87,90,117,140,40,109.24,386,155.00,-32.00,-1037.00
2024-05-19 09:30:52.971772,1,-3,11,0,0,1,87,90,116,140,40,108.88,386,43.00,-61.00,-1164.00
2024-05-19 09:30:53.010212,0,-2,17,-1,0,1,87,90,116,140,40,108.63,386,-29.00,48.00,-1013.00
2024-05-19 09:30:53.176860,0,-2,21,-1,0,1,87,91,114,140,40,108.64,386,-130.00,189.00,-1004.00
2024-05-19 09:30:53.213905,-1,-2,21,-1,0,2,87,91,111,140,40,108.86,386,82.00,-50.00,-1172.00
2024-05-19 09:30:53.364042,-3,-2,14,-1,0,1,87,91,108,140,40,108.59,386,-32.00,70.00,-851.00
2024-05-19 09:30:53.429700,-3,-3,5,-1,0,2,87,91,104,130,40,108.33,386,53.00,-53.00,-982.00
2024-05-19 09:30:53.520819,-3,-2,4,0,0,2,87,91,100,130,40,108.66,386,47.00,39.00,-1006.00
2024-05-19 09:30:53.623508,-3,0,5,0,0,2,87,91,96,130,40,108.75,386,-37.00,66.00,-1070.00
2024-05-19 09:30:53.741122,-2,-2,5,0,0,1,87,91,93,130,40,108.74,387,20.00,21.00,-1096.00
2024-05-19 09:30:53.826367,0,-2,5,0,0,1,87,91,90,120,40,108.54,387,48.00,14.00,-1070.00
2024-05-19 09:30:53.996460,0,-2,5,0,0,1,87,91,88,120,40,108.87,387,0.00,50.00,-984.00
2024-05-19 09:30:54.030013,0,0,5,0,0,1,87,91,86,120,40,108.48,387,-37.00,105.00,-1066.00
2024-05-19 09:30:54.205119,1,0,5,0,0,1,86,89,85,120,40,108.53,387,-90.00,125.00,-1070.00
2024-05-19 09:30:54.233911,0,-2,5,0,0,0,86,89,84,110,40,108.61,387,-57.00,43.00,-1097.00
2024-05-19 09:30:54.405337,0,-5,5,0,0,0,86,89,83,110,40,108.60,387,-114.00,90.00,-1077.00
2024-05-19 09:30:54.438220,-2,-1,5,-1,0,0,86,89,84,110,40,108.39,387,-69.00,65.00,-1020.00
2024-05-19 09:30:54.609766,-5,-3,4,-1,0,0,86,89,84,110,40,108.49,387,-76.00,26.00,-1022.00
2024-05-19 09:30:54.610701,-5,-3,5,0,0,0,86,89,85,110,40,108.33,387,-115.00,61.00,-1054.00
2024-05-19 09:30:54.692878,-4,-2,5,0,-1,0,86,89,87,110,40,108.43,388,-106.00,15.00,-978.00
2024-05-19 09:30:54.814567,-5,0,5,0,-1,0,86,89,88,110,40,108.16,388,-112.00,9.00,-998.00
2024-05-19 09:30:54.897496,-5,1,5,0,-1,0,86,89,89,110,40,108.59,388,-101.00,-31.00,-935.00
2024-05-19 09:30:55.019310,-6,3,5,0,-1,0,86,89,91,110,40,108.55,388,-166.00,28.00,-872.00
2024-05-19 09:30:55.100787,-7,2,5,-1,-1,0,86,90,93,110,40,108.43,388,-146.00,18.00,-906.00
2024-05-19 09:30:55.224155,-8,2,5,-1,0,0,86,90,95,120,40,108.22,388,-93.00,18.00,-1040.00
2024-05-19 09:30:55.304862,-8,0,5,0,0,0,86,90,96,120,40,108.56,388,-55.00,-36.00,-1068.00
2024-05-19 09:30:55.429663,-8,0,5,0,0,0,86,90,98,120,40,108.62,388,-76.00,-5.00,-997.00
2024-05-19 09:30:55.509812,-7,1,5,0,0,0,86,90,99,120,40,108.75,388,-20.00,-6.00,-929.00
2024-05-19 09:30:55.616304,-5,0,5,1,0,0,86,90,101,120,40,108.79,388,-62.00,-14.00,-981.00
2024-05-19 09:30:55.712816,-3,1,5,1,0,0,86,90,103,120,40,108.59,389,0.00,-13.00,-1025.00
2024-05-19 09:30:55.843275,-1,1,5,1,0,0,86,90,105,120,40,108.78,389,-51.00,-140.00,-1171.00
2024-05-19 09:30:55.917690,0,0,5,2,0,0,86,90,107,120,40,108.99,389,-71.00,18.00,-810.00
2024-05-19 09:30:56.043303,0,0,5,1,0,0,86,90,109,120,40,108.87,389,6.00,-26.00,-946.00
2024-05-19 09:30:56.122214,0,0,5,1,0,0,86,90,111,120,40,108.87,389,46.00,-48.00,-1138.00
2024-05-19 09:30:56.248110,0,0,5,1,0,0,86,90,114,120,40,108.94,389,75.00,-76.00,-1127.00
2024-05-19 09:30:56.325878,0,0,5,1,0,0,86,90,116,120,40,108.87,389,17.00,-25.00,-970.00
2024-05-19 09:30:56.429046,1,0,6,1,0,0,86,90,119,120,40,108.99,389,-43.00,1.00,-1007.00
2024-05-19 09:30:56.531836,1,0,6,1,0,0,86,90,122,120,40,109.08,389,8.00,5.00,-951.00
2024-05-19 09:30:56.630740,2,0,6,1,0,0,86,90,125,130,40,109.04,389,15.00,12.00,-907.00
2024-05-19 09:30:56.760467,2,0,6,1,0,0,86,90,128,130,40,108.98,390,-11.00,-18.00,-994.00
2024-05-19 09:30:56.834754,2,0,6,1,0,0,86,90,131,130,40,109.33,390,62.00,-75.00,-899.00
2024-05-19 09:30:56.965675,1,0,6,1,0,0,86,90,133,130,40,109.05,390,106.00,-117.00,-1020.00
2024-05-19 09:30:57.040426,2,0,6,0,0,0,86,90,135,140,40,108.87,390,10.00,1.00,-933.00
2024-05-19 09:30:57.140853,1,1,6,0,0,0,87,90,138,140,40,109.03,390,-48.00,51.00,-991.00
2024-05-19 09:30:57.242747,1,1,6,0,0,0,87,90,139,140,40,109.04,390,19.00,-49.00,-951.00
2024-05-19 09:30:57.374925,1,0,6,0,0,0,87,90,138,140,40,109.30,390,19.00,-34.00,-896.00
2024-05-19 09:30:57.447357,0,1,6,0,0,1,87,90,137,140,40,109.45,390,55.00,-43.00,-899.00
2024-05-19 09:30:57.579411,0,0,6,0,0,1,87,90,136,140,40,109.11,390,59.00,-15.00,-937.00
2024-05-19 09:30:57.650900,0,0,6,0,0,1,87,90,135,140,40,109.02,390,-46.00,26.00,-989.00
2024-05-19 09:30:57.784451,0,0,5,0,0,2,87,90,133,130,40,109.26,391,43.00,-17.00,-992.00
2024-05-19 09:30:57.855573,0,2,5,0,0,1,87,90,132,130,40,108.97,391,57.00,-47.00,-1020.00
2024-05-19 09:30:57.989748,2,1,5,0,0,2,87,90,130,130,40,109.22,391,51.00,-30.00,-1025.00
2024-05-19 09:30:58.059313,2,0,6,1,0,2,87,90,128,130,40,108.85,391,-5.00,45.00,-908.00
2024-05-19 09:30:58.194318,4,1,6,1,0,2,87,90,127,130,40,108.66,391,83.00,-17.00,-1022.00
2024-05-19 09:30:58.263146,4,1,6,1,0,1,87,90,126,130,39,108.85,391,154.00,-83.00,-1064.00
2024-05-19 09:30:58.398574,4,2,6,1,0,1,87,90,125,120,39,108.87,391,67.00,-50.00,-1067.00
2024-05-19 09:30:58.467726,4,3,6,1,0,1,87,90,125,120,39,109.12,391,49.00,-38.00,-1009.00
2024-05-19 09:30:58.518483,5,2,6,1,0,1,87,90,124,120,39,109.11,391,101.00,-34.00,-1053.00
2024-05-19 09:30:58.706566,5,2,6,0,0,0,87,90,123,120,39,109.08,391,112.00,-36.00,-1055.00
2024-05-19 09:30:58.721645,5,1,6,0,0,0,87,90,123,120,39,108.81,392,121.00,-59.00,-978.00
2024-05-19 09:30:58.910670,4,0,6,0,0,0,87,90,122,120,39,108.71,392,46.00,-11.00,-966.00
2024-05-19 09:30:58.925982,4,1,5,0,0,0,87,90,121,120,39,108.99,392,101.00,-12.00,-993.00
2024-05-19 09:30:59.115376,2,2,6,0,0,0,87,90,120,120,39,108.83,392,97.00,-7.00,-1081.00
2024-05-19 09:30:59.130874,3,2,6,0,0,0,86,90,119,120,39,108.82,392,18.00,-6.00,-1007.00
2024-05-19 09:30:59.320097,3,2,6,0,0,1,86,90,118,120,39,109.05,392,101.00,3.00,-972.00
2024-05-19 09:30:59.333502,3,2,6,0,0,0,86,90,117,120,39,109.16,392,120.00,-39.00,-981.00
2024-05-19 09:30:59.436448,3,2,6,0,0,0,86,90,115,120,39,108.85,392,133.00,-82.00,-987.00
2024-05-19 09:30:59.627216,3,2,6,0,0,0,86,90,114,120,39,108.91,392,136.00,-32.00,-886.00
2024-05-19 09:30:59.640385,4,2,6,0,0,0,86,90,113,120,39,108.78,392,67.00,-56.00,-1002.00
2024-05-19 09:30:59.832042,4,2,6,0,0,0,86,90,112,120,39,109.05,393,87.00,-41.00,-1010.00
2024-05-19 09:30:59.843509,4,2,6,0,0,0,86,90,111,120,39,108.90,393,75.00,-52.00,-946.00
2024-05-19 09:31:00.037125,3,2,6,0,0,0,86,90,109,110,39,109.06,393,11.00,-18.00,-1018.00
2024-05-19 09:31:00.047311,3,2,6,0,0,1,86,90,107,110,39,108.79,393,43.00,-7.00,-944.00
2024-05-19 09:31:00.242753,1,2,6,0,0,2,86,89,105,110,39,108.85,393,14.00,-5.00,-939.00
2024-05-19 09:31:00.251366,1,2,6,0,0,2,86,89,101,110,39,108.95,393,34.00,-46.00,-870.00
2024-05-19 09:31:00.446377,1,1,6,0,0,3,86,89,96,100,39,109.06,393,46.00,-19.00,-944.00
2024-05-19 09:31:00.455687,0,0,6,0,0,4,86,89,90,100,39,108.91,393,37.00,-16.00,-919.00
2024-05-19 09:31:00.651505,0,0,6,0,0,5,86,89,84,90,39,108.76,393,60.00,-34.00,-897.00
2024-05-19 09:31:00.659346,0,0,7,0,0,6,86,89,77,90,39,108.64,393,-18.00,-18.00,-883.00
2024-05-19 09:31:00.855982,1,1,8,0,0,6,86,89,70,80,39,108.57,394,33.00,-24.00,-979.00
2024-05-19 09:31:00.863403,2,2,12,0,0,6,86,89,63,70,39,108.77,394,-5.00,-37.00,-912.00
2024-05-19 09:31:01.061532,0,1,17,0,0,5,86,89,54,70,39,108.61,394,-26.00,32.00,-971.00
2024-05-19 09:31:01.067979,0,0,24,0,0,5,86,89,51,60,39,108.23,394,-64.00,39.00,-924.00
