TS,pitch,roll,yaw,vgx,vgy,vgz,templ,temph,tof,h,bat,baro,time,agx,agy,agz
2024-05-17 17:05:35.574989,0,0,-5,0,0,0,71,73,10,0,75,169.38,83,2.00,12.00,-999.00
2024-05-17 17:05:35.637949,0,0,-5,0,0,0,71,73,10,0,75,169.29,83,2.00,11.00,-1000.00
2024-05-17 17:05:35.777884,0,0,-5,0,0,0,71,73,10,0,75,169.06,83,3.00,12.00,-998.00
2024-05-17 17:05:35.843463,0,0,-5,0,0,0,71,73,10,0,75,168.97,83,2.00,12.00,-1001.00
2024-05-17 17:05:35.944198,0,0,-5,0,0,0,71,73,10,0,75,169.26,83,2.00,11.00,-999.00
2024-05-17 17:05:36.085262,0,0,-5,0,0,0,71,73,10,0,75,169.31,83,2.00,11.00,-1003.00
2024-05-17 17:05:36.151823,0,0,-5,0,0,0,71,73,10,0,75,169.32,83,0.00,13.00,-999.00
2024-05-17 17:05:36.252399,0,0,-5,0,0,0,71,73,10,0,75,169.43,83,1.00,12.00,-1001.00
2024-05-17 17:05:36.352065,0,0,-5,0,0,0,71,73,10,0,75,169.20,83,1.00,11.00,-1001.00
2024-05-17 17:05:36.453789,0,0,-5,0,0,0,71,73,10,0,75,169.26,83,1.00,13.00,-1002.00
2024-05-17 17:05:36.599658,0,0,-5,0,0,0,71,73,10,0,75,169.33,83,1.00,12.00,-999.00
2024-05-17 17:05:36.657887,0,0,-5,0,0,0,71,73,10,0,75,169.44,83,1.00,12.00,-1001.00
2024-05-17 17:05:36.801728,0,0,-5,0,0,0,71,73,10,0,75,169.47,83,0.00,11.00,-996.00
2024-05-17 17:05:36.861964,0,0,-5,0,0,0,71,75,10,0,75,169.29,83,1.00,13.00,-1001.00
2024-05-17 17:05:37.006302,0,0,-5,0,0,0,71,75,10,0,75,169.28,83,2.00,11.00,-999.00
2024-05-17 17:05:37.065773,0,0,-5,0,0,0,71,75,10,0,75,169.37,83,2.00,14.00,-999.00
2024-05-17 17:05:37.172311,0,0,-5,0,0,0,71,75,10,0,75,169.39,83,2.00,13.00,-998.00
2024-05-17 17:05:37.270195,0,0,-5,0,0,0,71,75,10,0,75,169.50,83,3.00,12.00,-999.00
2024-05-17 17:05:37.416081,0,0,-5,0,0,0,71,75,10,0,75,169.34,83,3.00,13.00,-1000.00
2024-05-17 17:05:37.473924,0,0,-5,0,0,0,71,75,10,0,75,169.48,83,1.00,11.00,-999.00
2024-05-17 17:05:37.575884,0,0,-5,0,0,0,71,75,10,0,75,169.41,83,1.00,13.00,-999.00
2024-05-17 17:05:37.644967,0,0,-5,0,0,0,71,75,10,0,75,169.51,83,1.00,12.00,-1001.00
2024-05-17 17:05:37.732501,0,0,-5,0,0,0,71,75,10,0,75,168.97,83,1.00,13.00,-1001.00
2024-05-17 17:05:37.831068,0,0,-5,0,0,0,72,74,10,0,75,169.46,83,1.00,12.00,-1000.00
2024-05-17 17:05:38.030970,0,0,-5,0,0,0,72,74,10,0,75,169.03,83,1.00,11.00,-1001.00
2024-05-17 17:05:38.035057,0,0,-5,0,0,0,72,74,10,0,75,169.20,83,1.00,10.00,-1000.00
2024-05-17 17:05:38.237454,0,0,-5,0,0,0,72,74,10,0,75,169.29,83,0.00,13.00,-999.00
2024-05-17 17:05:38.239635,0,0,-5,0,0,0,72,74,10,0,75,169.35,83,2.00,10.00,-1000.00
2024-05-17 17:05:38.440107,0,0,-5,0,0,0,72,74,10,0,75,169.41,83,1.00,11.00,-1000.00
2024-05-17 17:05:38.442843,0,0,-5,0,0,0,72,74,10,0,75,169.24,83,2.00,11.00,-1000.00
2024-05-17 17:05:38.544955,0,0,-5,0,0,0,72,74,10,0,75,169.18,83,1.00,12.00,-998.00
2024-05-17 17:05:38.751820,0,0,-5,0,0,0,72,74,10,0,75,169.16,83,2.00,12.00,-997.00
2024-05-17 17:05:38.753892,0,0,-5,0,0,0,72,74,10,0,75,169.38,83,2.00,12.00,-1000.00
2024-05-17 17:05:38.853430,0,0,-5,0,0,0,71,75,10,0,75,169.46,83,1.00,10.00,-1000.00
2024-05-17 17:05:38.957114,0,0,-5,0,0,0,71,75,10,0,75,169.17,83,2.00,13.00,-1000.00
2024-05-17 17:05:39.054981,0,0,-5,0,0,0,71,75,10,0,75,169.14,83,2.00,12.00,-999.00
2024-05-17 17:05:39.157106,0,0,-5,0,0,0,71,75,10,0,75,169.27,83,2.00,12.00,-1001.00
2024-05-17 17:05:39.259214,0,0,-5,0,0,0,71,75,10,0,75,169.20,83,1.00,11.00,-1001.00
2024-05-17 17:05:39.361646,0,0,-5,0,0,0,71,75,10,0,75,169.28,83,1.00,12.00,-999.00
2024-05-17 17:05:39.463839,0,0,-5,0,0,0,71,75,10,0,75,169.32,83,2.00,11.00,-999.00
2024-05-17 17:05:39.567485,0,0,-5,0,0,0,71,75,10,0,75,169.23,83,1.00,13.00,-998.00
2024-05-17 17:05:39.671503,0,0,-5,0,0,0,71,75,10,0,75,169.26,83,1.00,12.00,-998.00
2024-05-17 17:05:39.768945,0,0,-5,0,0,0,71,75,10,0,75,169.22,83,1.00,11.00,-998.00
2024-05-17 17:05:39.874526,0,0,-5,0,0,0,72,73,10,0,75,169.28,83,2.00,12.00,-996.00
2024-05-17 17:05:39.972853,0,0,-5,0,0,0,72,73,10,0,75,169.04,83,2.00,11.00,-999.00
2024-05-17 17:05:40.078461,0,0,-5,0,0,0,72,73,10,0,75,169.48,83,2.00,12.00,-1000.00
2024-05-17 17:05:40.177895,0,0,-5,0,0,0,72,73,10,0,75,169.17,83,0.00,12.00,-999.00
2024-05-17 17:05:40.283188,0,0,-5,0,0,0,72,73,10,0,75,169.15,83,2.00,11.00,-1000.00
2024-05-17 17:05:40.380827,0,0,-5,0,0,0,72,73,10,0,75,169.31,83,2.00,12.00,-1002.00
2024-05-17 17:05:40.488125,0,0,-5,0,0,0,72,73,10,0,75,169.41,83,1.00,12.00,-1000.00
2024-05-17 17:05:40.585511,0,0,-5,0,0,0,72,73,10,0,75,169.12,83,2.00,12.00,-1000.00
2024-05-17 17:05:40.686641,0,0,-5,0,0,0,72,73,10,0,75,169.48,83,3.00,12.00,-999.00
2024-05-17 17:05:40.739153,0,0,-5,0,0,0,72,73,10,0,75,169.32,83,7.00,20.00,-999.00
2024-05-17 17:05:40.898065,0,0,-5,0,0,0,72,75,10,0,75,169.32,83,0.00,11.00,-989.00
2024-05-17 17:05:40.997122,0,0,-5,0,0,0,72,75,10,0,75,169.32,84,53.00,-10.00,-984.00
2024-05-17 17:05:41.095693,0,0,-4,0,0,0,72,75,10,0,75,169.32,84,13.00,-9.00,-1045.00
2024-05-17 17:05:41.145586,0,0,-3,0,0,0,72,75,10,0,75,169.32,84,47.00,53.00,-1146.00
2024-05-17 17:05:41.307215,1,0,-3,0,0,0,72,75,10,0,75,169.32,84,3.00,40.00,-1146.00
2024-05-17 17:05:41.349886,1,1,-2,0,0,-2,72,75,10,0,75,169.32,84,3.00,39.00,-1144.00
2024-05-17 17:05:41.511931,1,-2,-2,0,1,-5,72,75,10,0,75,169.32,84,-44.00,56.00,-1060.00
2024-05-17 17:05:41.553655,0,-2,-2,0,0,-7,72,75,14,10,75,169.45,84,32.00,51.00,-1362.00
2024-05-17 17:05:41.718762,0,-1,-2,0,0,-8,72,75,26,20,75,169.58,84,24.00,-41.00,-1191.00
2024-05-17 17:05:41.765190,1,-1,-2,0,0,-8,72,75,35,20,75,169.85,84,27.00,32.00,-1100.00
2024-05-17 17:05:41.860045,1,-2,-3,0,0,-8,72,75,44,30,75,170.11,84,91.00,11.00,-1019.00
2024-05-17 17:05:42.023937,1,-2,-3,0,0,-7,72,75,52,40,75,169.74,85,53.00,47.00,-927.00
2024-05-17 17:05:42.063610,0,-2,-3,0,0,-6,72,75,56,50,75,169.97,85,-2.00,29.00,-808.00
2024-05-17 17:05:42.228737,1,-1,-3,0,0,-5,72,75,60,50,75,169.93,85,-6.00,26.00,-802.00
2024-05-17 17:05:42.267549,2,0,-3,0,0,-4,72,75,64,60,75,170.16,85,1.00,54.00,-889.00
2024-05-17 17:05:42.433692,2,-1,-3,0,0,-2,72,75,66,60,75,170.12,85,7.00,56.00,-934.00
2024-05-17 17:05:42.472567,2,0,-3,0,0,-1,72,75,68,60,75,170.18,85,18.00,81.00,-919.00
2024-05-17 17:05:42.638310,2,0,-3,0,0,-1,72,75,70,60,75,170.31,85,41.00,13.00,-932.00
2024-05-17 17:05:42.676846,2,0,-3,0,0,-1,72,75,70,60,75,170.15,85,-61.00,52.00,-891.00
2024-05-17 17:05:42.843082,2,0,-2,0,0,0,72,75,70,60,75,170.22,85,-19.00,21.00,-867.00
2024-05-17 17:05:42.880549,1,0,-2,0,0,0,72,74,71,60,75,170.19,85,-7.00,20.00,-992.00
2024-05-17 17:05:43.047846,1,0,-2,0,0,0,72,74,69,60,75,170.15,86,70.00,-2.00,-1039.00
2024-05-17 17:05:43.084464,1,0,-2,0,0,0,72,74,70,60,75,170.26,86,9.00,23.00,-947.00
2024-05-17 17:05:43.252699,2,0,-2,0,0,0,72,74,69,60,75,169.96,86,15.00,30.00,-993.00
2024-05-17 17:05:43.288559,2,0,-2,0,0,0,72,74,69,60,75,170.25,86,-33.00,33.00,-979.00
2024-05-17 17:05:43.457955,2,0,-2,0,0,0,72,74,68,60,75,170.06,86,3.00,30.00,-966.00
2024-05-17 17:05:43.492589,1,0,-2,0,0,0,72,74,68,60,75,170.36,86,88.00,-15.00,-1028.00
2024-05-17 17:05:43.594464,2,0,-2,0,0,-1,72,74,69,60,75,170.18,86,38.00,18.00,-1025.00
2024-05-17 17:05:43.773877,2,0,-3,0,0,-1,72,74,69,70,75,169.97,86,27.00,44.00,-1025.00
2024-05-17 17:05:43.798460,1,0,-3,0,0,0,72,74,70,70,75,170.13,86,-55.00,94.00,-1019.00
2024-05-17 17:05:43.900917,1,-1,-3,0,0,-1,71,75,70,70,75,170.21,86,-29.00,63.00,-873.00
2024-05-17 17:05:44.002478,1,0,-3,0,0,0,71,75,71,70,75,170.01,87,23.00,10.00,-991.00
2024-05-17 17:05:44.174298,1,-1,-3,0,0,-1,71,75,73,70,75,170.37,87,87.00,54.00,-991.00
2024-05-17 17:05:44.206466,2,0,-3,0,0,-1,71,75,73,70,75,169.98,87,-10.00,45.00,-990.00
2024-05-17 17:05:44.379439,1,0,-3,0,0,-1,71,75,74,70,75,170.32,87,57.00,19.00,-1079.00
2024-05-17 17:05:44.410452,1,0,-3,0,0,-1,71,75,75,70,75,170.06,87,84.00,-33.00,-1013.00
2024-05-17 17:05:44.583821,2,0,-3,0,0,-1,71,75,76,70,75,170.20,87,73.00,15.00,-1063.00
2024-05-17 17:05:44.614457,1,0,-3,0,0,0,71,75,77,70,75,170.34,87,42.00,23.00,-974.00
2024-05-17 17:05:44.665419,1,0,-3,0,0,0,71,75,78,70,75,170.44,87,-31.00,17.00,-964.00
2024-05-17 17:05:44.789000,1,-1,-3,0,0,0,71,75,79,70,75,170.31,87,43.00,12.00,-982.00
2024-05-17 17:05:44.921171,2,0,-3,0,0,0,72,75,80,70,75,169.96,87,15.00,68.00,-945.00
2024-05-17 17:05:44.971539,2,0,-3,0,0,0,72,75,80,70,75,170.43,88,53.00,17.00,-1022.00
2024-05-17 17:05:45.095878,2,-1,-3,0,0,0,72,75,82,70,75,170.20,88,77.00,27.00,-1025.00
2024-05-17 17:05:45.175405,2,0,-3,0,0,0,72,75,82,70,75,170.31,88,40.00,12.00,-1058.00
2024-05-17 17:05:45.300686,2,-1,-3,0,0,0,72,75,82,70,75,170.25,88,75.00,13.00,-1011.00
2024-05-17 17:05:45.379652,2,0,-3,0,0,0,72,75,83,80,75,170.39,88,44.00,24.00,-984.00
2024-05-17 17:05:45.505518,2,0,-3,0,0,0,72,75,82,80,75,170.34,88,126.00,-6.00,-1046.00
2024-05-17 17:05:45.583511,2,0,-3,0,0,0,72,75,82,80,75,170.10,88,21.00,38.00,-935.00
2024-05-17 17:05:45.710652,2,0,-3,0,0,0,72,75,81,80,75,170.31,88,90.00,12.00,-1011.00
2024-05-17 17:05:45.787459,2,-1,-3,0,0,0,72,75,79,70,75,170.38,88,88.00,26.00,-1112.00
2024-05-17 17:05:45.915264,2,-1,-2,0,0,0,73,75,78,70,75,170.28,88,13.00,42.00,-990.00
2024-05-17 17:05:45.991334,2,-1,-2,0,0,0,73,75,77,70,75,170.17,89,18.00,27.00,-1007.00
2024-05-17 17:05:46.119887,2,0,-2,0,0,0,73,75,76,70,75,170.16,89,30.00,32.00,-1021.00
2024-05-17 17:05:46.195346,2,0,-2,0,0,0,73,75,75,70,75,170.44,89,20.00,42.00,-1004.00
2024-05-17 17:05:46.325078,1,-1,-2,0,0,0,73,75,75,70,75,170.07,89,-3.00,40.00,-926.00
2024-05-17 17:05:46.399827,1,-1,-2,0,0,0,73,75,75,70,75,170.37,89,-19.00,69.00,-994.00
2024-05-17 17:05:46.529636,1,-1,-2,0,0,0,73,75,75,70,75,170.22,89,78.00,-11.00,-1022.00
2024-05-17 17:05:46.603697,1,0,-3,0,0,0,73,75,76,70,75,170.30,89,15.00,33.00,-1033.00
2024-05-17 17:05:46.746443,2,0,-3,0,0,0,73,75,77,70,75,170.20,89,17.00,21.00,-939.00
2024-05-17 17:05:46.807403,3,0,-3,0,0,0,73,75,78,70,75,170.15,89,88.00,-8.00,-1009.00
2024-05-17 17:05:46.939312,3,0,-3,0,0,0,72,75,78,70,75,170.46,89,7.00,60.00,-981.00
2024-05-17 17:05:47.011373,2,0,-3,0,0,0,72,75,80,70,75,170.38,90,74.00,1.00,-960.00
2024-05-17 17:05:47.144055,2,0,-3,0,0,0,72,75,80,70,75,170.33,90,27.00,7.00,-996.00
2024-05-17 17:05:47.215516,2,0,-3,0,0,0,72,75,81,70,75,170.21,90,42.00,16.00,-1094.00
2024-05-17 17:05:47.349034,2,0,-3,0,0,0,72,75,82,70,75,170.26,90,48.00,49.00,-1016.00
2024-05-17 17:05:47.419950,2,0,-3,0,0,0,72,75,83,70,75,170.20,90,27.00,52.00,-958.00
2024-05-17 17:05:47.561123,2,0,-3,0,0,0,72,75,83,70,75,170.34,90,43.00,38.00,-991.00
2024-05-17 17:05:47.625523,2,0,-3,0,0,0,72,75,84,70,75,170.47,90,-20.00,22.00,-922.00
2024-05-17 17:05:47.758441,2,0,-3,0,0,0,72,75,84,80,75,170.15,90,76.00,28.00,-1027.00
2024-05-17 17:05:47.828738,2,-1,-3,0,0,0,72,75,85,80,75,170.01,90,51.00,20.00,-1020.00
2024-05-17 17:05:47.963279,2,-1,-3,0,0,0,71,74,85,80,75,170.80,90,72.00,11.00,-1064.00
2024-05-17 17:05:48.032517,2,-1,-3,0,0,0,71,74,86,80,75,170.13,91,94.00,-10.00,-1017.00
2024-05-17 17:05:48.148027,2,-1,-3,0,0,0,71,74,85,80,75,170.19,91,54.00,-3.00,-941.00
2024-05-17 17:05:48.236320,2,0,-3,0,0,0,71,74,85,80,75,170.20,91,73.00,10.00,-998.00
2024-05-17 17:05:48.372720,2,0,-3,0,0,0,71,74,85,80,75,170.26,91,10.00,45.00,-1031.00
2024-05-17 17:05:48.390213,2,-1,-3,0,0,0,71,74,85,80,75,170.14,91,39.00,37.00,-1079.00
2024-05-17 17:05:48.578918,2,-1,-3,0,0,-1,71,74,86,80,75,170.51,91,88.00,5.00,-1131.00
2024-05-17 17:05:48.594222,2,-1,-3,0,0,-1,71,74,88,80,75,170.32,91,61.00,33.00,-1116.00
2024-05-17 17:05:48.782270,2,-1,-3,0,0,-2,71,74,91,80,75,170.24,91,58.00,30.00,-1118.00
2024-05-17 17:05:48.798265,2,-1,-3,0,0,-3,71,74,94,80,75,170.46,91,0.00,44.00,-1060.00
2024-05-17 17:05:48.987079,1,-1,-3,0,0,-3,72,74,98,90,75,170.07,91,3.00,50.00,-1101.00
2024-05-17 17:05:49.002544,1,-1,-3,0,0,-4,72,74,102,90,75,170.52,92,99.00,10.00,-1218.00
2024-05-17 17:05:49.191825,1,-1,-3,0,0,-5,72,74,106,100,75,170.39,92,62.00,-7.00,-1022.00
2024-05-17 17:05:49.206302,1,-1,-3,0,0,-5,72,74,110,100,75,170.73,92,68.00,-18.00,-1086.00
2024-05-17 17:05:49.396728,1,0,-3,0,0,-5,72,74,115,110,75,170.65,92,-7.00,33.00,-901.00
2024-05-17 17:05:49.410557,1,0,-3,0,0,-5,72,74,119,110,75,170.57,92,67.00,-26.00,-979.00
2024-05-17 17:05:49.601530,1,0,-3,0,0,-5,72,74,124,110,75,170.61,92,87.00,29.00,-1056.00
2024-05-17 17:05:49.617028,1,0,-3,0,0,-4,72,74,129,120,75,170.93,92,32.00,51.00,-998.00
2024-05-17 17:05:49.716179,1,-1,-3,0,0,-4,72,74,134,120,75,170.94,92,28.00,47.00,-1013.00
2024-05-17 17:05:49.910869,1,-1,-3,0,0,-4,72,74,138,130,75,170.83,92,64.00,15.00,-1019.00
2024-05-17 17:05:49.920158,1,-1,-3,0,0,-3,72,75,142,130,75,170.78,93,27.00,59.00,-1007.00
2024-05-17 17:05:50.022177,1,-1,-3,0,0,-3,72,75,146,140,75,170.70,93,157.00,-31.00,-1098.00
2024-05-17 17:05:50.124306,1,-1,-3,0,0,-3,72,75,150,140,75,170.87,93,3.00,39.00,-966.00
2024-05-17 17:05:50.320852,2,0,-3,0,0,-3,72,75,153,150,75,170.94,93,86.00,4.00,-1056.00
2024-05-17 17:05:50.328182,2,0,-3,0,0,-3,72,75,157,150,75,170.97,93,104.00,-55.00,-934.00
2024-05-17 17:05:50.430323,2,0,-3,0,0,-3,72,75,160,150,75,171.06,93,21.00,16.00,-873.00
2024-05-17 17:05:50.625562,2,0,-3,0,0,-2,72,75,163,150,75,171.17,93,70.00,41.00,-1017.00
2024-05-17 17:05:50.634702,1,-1,-3,0,0,-2,72,75,165,160,75,171.20,93,25.00,48.00,-943.00
2024-05-17 17:05:50.830371,1,-1,-3,0,0,-1,72,75,168,160,75,171.11,93,25.00,1.00,-949.00
2024-05-17 17:05:50.838193,0,-1,-3,0,0,-1,72,75,171,160,75,171.04,93,10.00,62.00,-1002.00
2024-05-17 17:05:50.940728,1,-1,-3,0,0,-1,73,75,174,160,75,171.29,94,-30.00,102.00,-937.00
2024-05-17 17:05:51.043066,1,-1,-3,0,0,-1,73,75,178,170,75,171.37,94,104.00,16.00,-1107.00
2024-05-17 17:05:51.144348,1,-1,-3,0,0,-1,73,75,181,170,75,171.30,94,128.00,24.00,-1085.00
2024-05-17 17:05:51.246148,2,0,-3,0,0,-1,73,75,183,170,75,171.22,94,23.00,49.00,-1000.00
2024-05-17 17:05:51.349352,2,0,-3,0,0,-2,73,75,185,170,75,170.94,94,-6.00,7.00,-899.00
2024-05-17 17:05:51.450660,2,0,-3,0,0,-1,73,75,187,180,75,171.21,94,17.00,34.00,-933.00
2024-05-17 17:05:51.649805,1,0,-3,0,0,-1,73,75,189,180,75,171.15,94,80.00,6.00,-1065.00
2024-05-17 17:05:51.655364,2,0,-3,0,0,0,73,75,190,180,75,171.06,94,59.00,40.00,-1017.00
2024-05-17 17:05:51.756222,1,0,-3,0,0,0,73,75,191,180,75,171.42,94,22.00,51.00,-944.00
2024-05-17 17:05:51.859200,1,-1,-3,0,0,0,73,75,190,180,75,171.11,94,-30.00,33.00,-853.00
2024-05-17 17:05:51.960578,1,-1,-3,0,0,0,71,75,190,180,75,171.30,95,16.00,-17.00,-949.00
2024-05-17 17:05:52.062343,1,0,-3,0,0,0,71,75,190,180,75,171.23,95,9.00,31.00,-1026.00
2024-05-17 17:05:52.167619,2,0,-3,0,0,0,71,75,189,180,75,170.92,95,36.00,50.00,-984.00
2024-05-17 17:05:52.266137,2,-1,-3,0,0,0,71,75,188,180,75,171.21,95,0.00,81.00,-1048.00
2024-05-17 17:05:52.320253,2,-1,-3,0,0,0,71,75,189,180,75,171.27,95,46.00,13.00,-1050.00
2024-05-17 17:05:52.422970,2,-1,-3,0,0,0,71,75,190,180,75,170.82,95,-34.00,44.00,-949.00
2024-05-17 17:05:52.525447,2,-1,-3,0,0,0,71,75,189,180,75,171.08,95,22.00,41.00,-995.00
2024-05-17 17:05:52.623538,2,-1,-3,0,0,0,71,75,190,180,75,171.07,95,-25.00,68.00,-954.00
2024-05-17 17:05:52.775858,2,-1,-3,0,0,0,71,75,189,180,75,171.07,95,24.00,29.00,-1038.00
2024-05-17 17:05:52.826948,2,-1,-3,0,0,0,71,75,189,180,75,171.28,95,59.00,18.00,-979.00
2024-05-17 17:05:52.929211,1,-1,-3,0,0,0,71,74,190,180,75,171.20,96,67.00,52.00,-1044.00
2024-05-17 17:05:53.031075,2,-1,-3,0,0,0,71,74,189,180,75,171.26,96,65.00,25.00,-1006.00
2024-05-17 17:05:53.185589,2,-1,-3,0,0,0,71,74,190,180,75,171.21,96,23.00,2.00,-890.00
2024-05-17 17:05:53.235127,2,0,-3,0,0,0,71,74,188,180,75,171.59,96,69.00,27.00,-995.00
2024-05-17 17:05:53.339405,2,0,-3,0,0,0,71,74,188,180,75,171.11,96,105.00,-50.00,-970.00
2024-05-17 17:05:53.438987,2,-1,-3,0,0,0,71,74,187,180,75,171.38,96,13.00,26.00,-929.00
2024-05-17 17:05:53.541885,1,-1,-3,0,0,0,71,74,187,180,75,171.26,96,-53.00,61.00,-935.00
2024-05-17 17:05:53.697360,0,-2,-3,0,0,1,71,74,187,180,75,171.17,96,60.00,15.00,-974.00
2024-05-17 17:05:53.745943,0,-2,-3,0,0,1,71,74,185,180,75,171.19,96,10.00,26.00,-907.00
2024-05-17 17:05:53.902205,1,-1,-3,0,0,1,71,74,183,180,75,171.13,96,77.00,26.00,-1025.00
2024-05-17 17:05:53.949952,1,-1,-3,0,0,2,71,75,181,170,75,171.06,97,-51.00,84.00,-965.00
2024-05-17 17:05:54.111309,1,-1,-3,0,0,2,71,75,179,170,75,171.24,97,58.00,26.00,-1045.00
2024-05-17 17:05:54.154022,1,-1,-3,0,0,2,71,75,176,170,75,171.02,97,30.00,33.00,-975.00
2024-05-17 17:05:54.315962,1,-1,-3,0,0,2,71,75,174,170,75,171.08,97,76.00,0.00,-1003.00
2024-05-17 17:05:54.357884,2,-1,-3,0,0,2,71,75,171,160,75,171.21,97,87.00,12.00,-1082.00
2024-05-17 17:05:54.459832,2,-1,-3,0,0,2,71,75,169,160,75,171.09,97,65.00,21.00,-983.00
2024-05-17 17:05:54.561847,2,-1,-3,0,0,2,71,75,166,160,75,171.18,97,77.00,-41.00,-981.00
2024-05-17 17:05:54.663837,2,-1,-3,0,0,2,71,75,164,160,75,171.10,97,94.00,-1.00,-994.00
2024-05-17 17:05:54.825456,2,-1,-3,0,0,2,71,75,162,150,75,170.81,97,117.00,51.00,-1145.00
2024-05-17 17:05:54.867947,1,-1,-3,0,0,2,71,75,159,150,75,170.97,97,115.00,0.00,-1207.00
2024-05-17 17:05:55.030726,1,-1,-3,0,0,2,72,75,157,150,75,170.67,98,-6.00,17.00,-1015.00
2024-05-17 17:05:55.074837,1,-1,-3,0,0,2,72,75,154,150,75,170.77,98,-39.00,45.00,-989.00
2024-05-17 17:05:55.174359,1,-1,-3,0,0,1,72,75,152,140,75,170.51,98,10.00,-4.00,-932.00
2024-05-17 17:05:55.348151,1,-1,-3,0,0,1,72,75,150,140,75,170.77,98,77.00,-9.00,-1001.00
2024-05-17 17:05:55.377980,2,-1,-3,0,0,1,72,75,147,140,75,170.83,98,-3.00,19.00,-1020.00
2024-05-17 17:05:55.479824,1,-1,-3,0,0,1,72,75,145,140,75,170.81,98,9.00,27.00,-977.00
2024-05-17 17:05:55.581906,1,-1,-3,0,0,1,72,75,143,140,75,170.29,98,-55.00,62.00,-1037.00
2024-05-17 17:05:55.760215,1,-1,-3,0,0,1,72,75,143,140,75,170.88,98,37.00,35.00,-1004.00
2024-05-17 17:05:55.789341,0,-2,-3,0,0,1,72,75,141,130,75,170.82,98,133.00,-33.00,-1083.00
2024-05-17 17:05:55.838934,0,-2,-3,0,0,0,72,75,140,130,75,170.69,98,24.00,-5.00,-1042.00
2024-05-17 17:05:55.938915,1,-2,-3,0,0,0,71,75,139,130,75,170.74,99,64.00,-14.00,-999.00
2024-05-17 17:05:56.099483,1,-1,-3,0,0,0,71,75,138,130,75,170.77,99,-6.00,51.00,-997.00
2024-05-17 17:05:56.195262,1,-1,-3,0,0,0,71,75,136,130,75,170.80,99,107.00,0.00,-1214.00
2024-05-17 17:05:56.364213,1,-1,-3,0,0,0,71,75,136,130,75,170.58,99,-34.00,106.00,-1008.00
2024-05-17 17:05:56.364362,1,-1,-3,0,0,0,71,75,134,130,75,170.55,99,53.00,22.00,-1095.00
2024-05-17 17:05:56.451476,1,0,-3,0,0,0,71,75,133,130,75,171.07,99,1.00,13.00,-1009.00
2024-05-17 17:05:56.551389,1,0,-3,0,0,0,71,75,133,130,75,170.55,99,29.00,20.00,-1023.00
2024-05-17 17:05:56.671651,1,0,-3,0,0,0,71,75,133,130,75,170.75,99,36.00,3.00,-974.00
2024-05-17 17:05:56.756603,1,-1,-3,0,0,0,71,75,134,130,75,170.70,99,11.00,39.00,-1020.00
2024-05-17 17:05:56.857217,1,-1,-3,0,0,0,71,75,135,130,75,170.93,99,-21.00,64.00,-957.00
2024-05-17 17:05:56.977237,1,-1,-3,0,0,0,72,75,136,130,75,170.66,100,2.00,86.00,-931.00
2024-05-17 17:05:57.061402,1,-1,-3,0,0,0,72,75,137,130,75,170.32,100,10.00,32.00,-981.00
2024-05-17 17:05:57.183015,1,-1,-3,0,0,0,72,75,139,130,75,170.80,100,44.00,17.00,-1046.00
2024-05-17 17:05:57.267857,1,-1,-3,0,0,0,72,75,140,130,75,170.63,100,56.00,12.00,-1099.00
2024-05-17 17:05:57.367041,1,-2,-3,0,0,0,72,75,142,130,75,170.75,100,-14.00,79.00,-951.00
2024-05-17 17:05:57.468908,1,-2,-3,0,0,0,72,75,142,130,75,170.70,100,-35.00,61.00,-968.00
2024-05-17 17:05:57.570785,1,-1,-3,0,0,0,72,75,143,130,75,170.82,100,32.00,46.00,-1054.00
2024-05-17 17:05:57.764193,0,-1,-3,0,0,0,72,75,143,130,75,170.83,100,63.00,-22.00,-947.00
2024-05-17 17:05:57.774809,0,-1,-3,0,0,0,72,75,145,130,75,171.00,100,52.00,61.00,-1101.00
2024-05-17 17:05:57.878605,1,-2,-3,0,0,0,72,75,145,140,75,170.88,100,-33.00,37.00,-923.00
2024-05-17 17:05:57.979867,1,-2,-3,0,0,0,71,75,145,140,75,170.83,101,67.00,0.00,-1083.00
2024-05-17 17:05:58.102077,1,-2,-3,0,0,0,71,75,145,140,75,170.72,101,22.00,10.00,-948.00
2024-05-17 17:05:58.183772,1,-1,-3,0,0,0,71,75,145,140,75,170.71,101,67.00,13.00,-914.00
2024-05-17 17:05:58.308946,2,-1,-3,0,0,0,71,75,144,140,75,170.75,101,60.00,33.00,-969.00
2024-05-17 17:05:58.387740,2,-1,-3,0,0,0,71,75,144,140,75,170.62,101,34.00,13.00,-966.00
2024-05-17 17:05:58.489820,1,-1,-3,0,0,0,71,75,143,130,75,170.93,101,35.00,54.00,-1041.00
2024-05-17 17:05:58.616270,1,-1,-3,0,0,0,71,75,142,130,75,170.69,101,15.00,4.00,-950.00
2024-05-17 17:05:58.695873,1,-1,-3,0,0,0,71,75,141,130,75,170.83,101,42.00,78.00,-1068.00
2024-05-17 17:05:58.796100,1,-1,-3,0,0,0,71,75,141,130,75,170.90,101,80.00,34.00,-1086.00
2024-05-17 17:05:58.920577,0,-1,-3,0,0,0,71,75,142,130,75,170.66,101,-30.00,46.00,-1008.00
2024-05-17 17:05:59.000363,1,-1,-3,0,0,0,72,75,143,130,75,170.49,102,-37.00,47.00,-924.00
2024-05-17 17:05:59.229793,1,-1,-3,0,0,0,72,75,142,130,75,170.55,102,20.00,42.00,-980.00
2024-05-17 17:05:59.229975,1,-1,-3,0,0,0,72,75,143,130,75,170.54,102,40.00,14.00,-1033.00
2024-05-17 17:05:59.305816,2,0,-3,0,0,0,72,75,144,130,75,170.81,102,20.00,51.00,-941.00
2024-05-17 17:05:59.434984,2,-1,-3,0,0,0,72,75,144,130,75,170.73,102,29.00,39.00,-970.00
2024-05-17 17:05:59.509899,2,-1,-3,0,0,0,72,75,145,130,75,170.65,102,6.00,49.00,-1035.00
2024-05-17 17:05:59.637746,1,-1,-3,0,0,0,72,75,145,140,75,170.70,102,74.00,-33.00,-1031.00
2024-05-17 17:05:59.714734,1,-1,-3,0,0,0,72,75,146,140,75,170.92,102,-35.00,63.00,-945.00
2024-05-17 17:05:59.765874,1,-1,-3,0,0,0,72,75,147,140,75,170.72,102,-51.00,61.00,-881.00
2024-05-17 17:05:59.867679,1,-1,-3,0,0,0,72,75,147,140,75,170.76,102,30.00,31.00,-914.00
2024-05-17 17:06:00.049209,3,-2,-3,0,0,0,72,75,147,140,75,170.86,103,8.00,32.00,-1029.00
2024-05-17 17:06:00.071625,8,-2,-3,0,0,0,72,75,149,140,75,170.87,103,15.00,16.00,-1001.00
2024-05-17 17:06:00.253002,8,-1,-3,-1,0,0,72,75,149,140,75,171.11,103,-11.00,60.00,-971.00
2024-05-17 17:06:00.275620,8,-1,-3,-2,0,0,72,75,148,140,75,170.71,103,73.00,26.00,-1064.00
2024-05-17 17:06:00.457596,8,-1,-3,-3,0,0,72,75,149,140,75,170.75,103,11.00,31.00,-1044.00
2024-05-17 17:06:00.479629,8,-2,-3,-4,0,0,72,75,147,140,75,170.81,103,58.00,42.00,-1044.00
2024-05-17 17:06:00.660830,8,-2,-3,-5,0,0,72,75,147,140,75,170.94,103,93.00,6.00,-1013.00
2024-05-17 17:06:00.683512,8,-2,-3,-5,0,0,72,75,147,140,75,170.70,103,95.00,15.00,-978.00
2024-05-17 17:06:00.865307,8,-1,-3,-6,0,0,72,75,146,140,75,170.69,103,45.00,15.00,-937.00
2024-05-17 17:06:00.888160,8,-1,-3,-7,0,0,72,75,146,140,75,170.72,103,104.00,-20.00,-1018.00
2024-05-17 17:06:01.070352,6,0,-3,-7,0,0,71,75,142,140,75,170.70,104,59.00,18.00,-932.00
2024-05-17 17:06:01.094804,2,0,-3,-7,0,0,71,75,143,140,75,170.77,104,55.00,38.00,-985.00
2024-05-17 17:06:01.194019,0,0,-3,-7,0,0,71,75,143,140,75,170.61,104,98.00,-40.00,-1072.00
2024-05-17 17:06:01.296490,-2,0,-3,-6,0,0,71,75,143,130,75,170.63,104,78.00,26.00,-1078.00
2024-05-17 17:06:01.398185,-2,0,-3,-5,0,0,71,75,141,130,75,170.49,104,29.00,37.00,-1034.00
2024-05-17 17:06:01.499506,-1,0,-3,-4,0,0,71,75,141,130,75,170.61,104,59.00,-14.00,-998.00
2024-05-17 17:06:01.601547,0,0,-3,-3,0,0,71,75,142,130,75,170.79,104,83.00,-21.00,-1059.00
2024-05-17 17:06:01.703653,0,0,-3,-3,0,0,71,75,144,130,75,170.45,104,9.00,38.00,-991.00
2024-05-17 17:06:01.805676,1,0,-3,-3,0,0,71,75,144,130,75,170.49,104,58.00,-10.00,-1063.00
2024-05-17 17:06:01.991705,1,0,-3,-2,0,0,71,75,144,130,75,170.84,104,29.00,29.00,-905.00
2024-05-17 17:06:02.011576,1,0,-3,-2,0,0,72,75,144,130,75,170.71,105,-59.00,41.00,-875.00
2024-05-17 17:06:02.111604,2,0,-3,-2,0,0,72,75,145,140,75,170.63,105,112.00,20.00,-1117.00
2024-05-17 17:06:02.299579,2,-3,-3,-2,0,0,72,75,145,140,75,170.81,105,51.00,14.00,-1002.00
2024-05-17 17:06:02.315353,2,-2,-3,-1,0,0,72,75,146,140,75,170.99,105,21.00,24.00,-1013.00
2024-05-17 17:06:02.504106,2,-1,-3,-2,0,0,72,75,145,140,75,170.83,105,-1.00,32.00,-946.00
2024-05-17 17:06:02.519429,0,0,-3,-1,0,0,72,75,145,140,75,170.59,105,102.00,-3.00,-931.00
2024-05-17 17:06:02.713566,-1,0,-3,0,0,0,72,75,145,140,75,170.67,105,53.00,8.00,-984.00
2024-05-17 17:06:02.727645,0,0,-3,0,0,0,72,75,146,140,75,170.72,105,-2.00,24.00,-865.00
2024-05-17 17:06:02.827351,1,0,-3,0,0,0,72,75,146,140,75,170.81,105,35.00,52.00,-995.00
2024-05-17 17:06:02.927823,2,-1,-3,0,0,0,72,75,146,140,75,170.63,105,87.00,-31.00,-1001.00
2024-05-17 17:06:03.118252,1,-1,-3,0,0,0,72,74,145,140,75,170.84,106,14.00,13.00,-1024.00
2024-05-17 17:06:03.131589,1,-1,-3,0,0,0,72,74,145,140,75,170.95,106,24.00,3.00,-1034.00
2024-05-17 17:06:03.331793,1,0,-3,0,0,0,72,74,144,140,75,171.00,106,21.00,9.00,-1025.00
2024-05-17 17:06:03.346145,1,0,-3,0,0,0,72,74,143,140,75,170.49,106,43.00,0.00,-1082.00
2024-05-17 17:06:03.438248,1,0,-3,0,0,0,72,74,143,140,75,170.71,106,58.00,16.00,-1089.00
2024-05-17 17:06:03.488919,1,-1,-3,0,0,0,72,74,142,130,75,170.63,106,60.00,0.00,-1035.00
2024-05-17 17:06:03.590542,1,-1,-3,0,0,0,72,74,142,130,75,170.68,106,28.00,25.00,-1035.00
2024-05-17 17:06:03.732720,1,-1,-3,0,0,0,72,74,141,130,75,170.75,106,17.00,49.00,-1022.00
2024-05-17 17:06:03.796535,1,-2,-3,0,0,0,72,74,141,130,75,170.72,106,-11.00,40.00,-947.00
2024-05-17 17:06:03.896390,1,-2,-3,0,0,0,72,74,141,130,75,170.88,106,25.00,20.00,-1092.00
2024-05-17 17:06:04.042615,1,-2,-3,0,0,0,72,75,142,130,75,170.87,107,-11.00,27.00,-870.00
2024-05-17 17:06:04.100570,2,-1,-3,0,0,0,72,75,141,130,75,170.87,107,24.00,32.00,-1010.00
2024-05-17 17:06:04.244718,2,-1,-3,0,0,0,72,75,140,130,75,170.84,107,2.00,58.00,-956.00
2024-05-17 17:06:04.309216,2,-1,-3,0,0,0,72,75,139,130,75,170.72,107,15.00,38.00,-1005.00
2024-05-17 17:06:04.408353,2,-1,-3,0,0,0,72,75,139,130,75,170.53,107,15.00,57.00,-968.00
2024-05-17 17:06:04.508860,1,-2,-3,0,0,0,72,75,138,130,75,170.53,107,-4.00,38.00,-972.00
2024-05-17 17:06:04.654184,1,-1,-3,0,0,0,72,75,137,130,75,170.72,107,-72.00,84.00,-952.00
2024-05-17 17:06:04.712406,1,-2,-3,0,0,0,72,75,136,130,75,170.69,107,82.00,34.00,-1104.00
2024-05-17 17:06:04.818903,2,-2,-3,0,0,0,72,75,136,130,75,170.61,107,-6.00,69.00,-1015.00
2024-05-17 17:06:04.916306,1,-2,-3,0,0,0,72,75,134,130,75,170.34,107,80.00,2.00,-988.00
2024-05-17 17:06:05.063693,1,-8,-3,0,-1,0,71,74,136,130,75,170.49,108,26.00,38.00,-1024.00
2024-05-17 17:06:05.120301,1,-6,-3,0,-3,0,71,74,135,130,75,170.70,108,9.00,32.00,-1002.00
2024-05-17 17:06:05.268661,1,-4,-3,0,-3,0,71,74,133,130,75,170.42,108,-20.00,45.00,-913.00
2024-05-17 17:06:05.324814,1,-2,-3,0,-3,0,71,74,133,130,75,170.48,108,114.00,45.00,-1160.00
2024-05-17 17:06:05.473331,1,-1,-3,0,-3,0,71,74,132,130,75,170.76,108,59.00,-11.00,-952.00
2024-05-17 17:06:05.529234,1,-1,-3,0,-2,0,71,74,132,130,75,170.65,108,61.00,18.00,-1086.00
2024-05-17 17:06:05.680533,1,-1,-3,0,-2,0,71,74,132,130,75,170.61,108,-32.00,66.00,-960.00
2024-05-17 17:06:05.733841,1,-2,-3,0,-2,0,71,74,132,130,75,170.70,108,117.00,-48.00,-1029.00
2024-05-17 17:06:05.882983,1,-2,-3,0,-2,0,71,74,132,130,75,170.78,108,12.00,48.00,-876.00
2024-05-17 17:06:05.938740,1,-2,-3,0,-2,0,71,74,133,130,75,170.49,109,-3.00,62.00,-1039.00
2024-05-17 17:06:06.087697,1,-2,-3,0,-2,0,72,75,133,130,75,170.73,109,161.00,-23.00,-1181.00
2024-05-17 17:06:06.141268,1,-1,-3,0,-2,0,72,75,133,130,75,170.83,109,20.00,44.00,-988.00
2024-05-17 17:06:06.292694,1,-1,-3,0,-2,0,72,75,132,130,75,171.04,109,-39.00,52.00,-1000.00
2024-05-17 17:06:06.345755,1,-2,-3,0,-2,0,72,75,133,130,75,170.65,109,105.00,21.00,-1092.00
2024-05-17 17:06:06.497398,2,-1,-3,0,-2,0,72,75,134,130,75,170.80,109,63.00,23.00,-977.00
2024-05-17 17:06:06.550325,2,-1,-3,0,-2,0,72,75,135,130,75,170.84,109,6.00,46.00,-958.00
2024-05-17 17:06:06.704299,2,0,-3,0,-2,0,72,75,136,130,75,170.83,109,29.00,22.00,-967.00
2024-05-17 17:06:06.754320,2,2,-3,0,-1,0,72,75,136,130,75,170.85,109,0.00,71.00,-922.00
2024-05-17 17:06:06.856280,2,0,-3,0,0,0,72,75,136,130,75,170.79,109,44.00,15.00,-922.00
2024-05-17 17:06:07.009674,2,0,-3,0,0,0,72,75,137,130,75,170.37,110,103.00,4.00,-1090.00
2024-05-17 17:06:07.060394,1,-1,-3,0,0,0,72,75,137,130,75,170.71,110,49.00,16.00,-1009.00
2024-05-17 17:06:07.217290,1,-1,-3,0,0,0,72,75,138,130,75,170.79,110,56.00,10.00,-1021.00
2024-05-17 17:06:07.264536,1,-1,-3,0,0,0,72,75,138,130,75,170.69,110,108.00,22.00,-1039.00
2024-05-17 17:06:07.419629,2,-1,-3,0,0,0,72,75,138,130,75,170.81,110,-10.00,76.00,-921.00
2024-05-17 17:06:07.419813,2,-1,-3,0,0,0,72,75,140,130,75,170.71,110,43.00,31.00,-1038.00
2024-05-17 17:06:07.529404,1,-1,-3,0,0,0,72,75,140,130,75,170.83,110,56.00,43.00,-1046.00
2024-05-17 17:06:07.623993,1,-1,-3,0,0,0,72,75,141,130,75,170.66,110,62.00,20.00,-1031.00
2024-05-17 17:06:07.723376,1,-2,-3,0,0,0,72,75,141,130,75,170.68,110,47.00,26.00,-943.00
2024-05-17 17:06:07.828764,1,-1,-3,0,0,0,72,75,141,130,75,170.67,110,36.00,14.00,-993.00
2024-05-17 17:06:07.927347,1,-1,-3,0,0,0,72,75,141,130,75,170.87,111,22.00,-12.00,-1003.00
2024-05-17 17:06:08.034301,2,-1,-3,0,0,0,71,75,141,130,75,170.64,111,90.00,24.00,-1019.00
2024-05-17 17:06:08.132417,2,-1,-2,0,0,0,71,75,140,130,75,170.85,111,-4.00,66.00,-990.00
2024-05-17 17:06:08.234436,2,-1,-2,0,0,0,71,75,139,130,75,170.64,111,60.00,9.00,-1011.00
2024-05-17 17:06:08.340691,1,-1,-2,0,0,0,71,75,139,130,75,170.41,111,10.00,25.00,-941.00
2024-05-17 17:06:08.438263,0,-2,-2,0,0,0,71,75,139,130,75,170.75,111,77.00,42.00,-1081.00
2024-05-17 17:06:08.539245,0,-2,-2,0,0,0,71,75,139,130,75,170.76,111,36.00,11.00,-977.00
2024-05-17 17:06:08.647770,1,-2,-2,0,0,0,71,75,138,130,75,170.67,111,-5.00,31.00,-944.00
2024-05-17 17:06:08.743575,1,-2,-2,0,0,0,71,75,137,130,75,170.60,111,10.00,26.00,-988.00
2024-05-17 17:06:08.852638,1,-1,-2,0,0,0,71,75,137,130,75,170.52,111,18.00,59.00,-1032.00
2024-05-17 17:06:08.948520,1,-1,-2,0,0,0,71,75,136,130,75,170.73,112,-7.00,71.00,-895.00
2024-05-17 17:06:09.049808,2,3,-2,0,0,0,72,75,137,130,75,170.69,112,59.00,55.00,-998.00
2024-05-17 17:06:09.159677,2,7,-2,0,1,0,72,75,137,130,75,170.94,112,-32.00,76.00,-876.00
2024-05-17 17:06:09.253087,1,4,-2,0,2,0,72,75,135,130,75,170.54,112,-94.00,92.00,-988.00
2024-05-17 17:06:09.364711,1,2,-2,0,3,0,72,75,135,130,75,170.67,112,-1.00,32.00,-1046.00
2024-05-17 17:06:09.457440,1,0,-2,0,3,0,72,75,134,130,75,170.57,112,-41.00,43.00,-962.00
2024-05-17 17:06:09.559089,1,-2,-2,0,3,0,72,75,134,130,75,170.47,112,-65.00,42.00,-956.00
2024-05-17 17:06:09.674032,0,-1,-3,0,2,0,72,75,133,130,75,170.67,112,-24.00,25.00,-894.00
2024-05-17 17:06:09.764106,0,-1,-3,0,2,0,72,75,132,130,75,170.86,112,-18.00,17.00,-1047.00
2024-05-17 17:06:09.866543,0,0,-3,0,2,0,72,75,134,130,75,170.74,112,3.00,0.00,-1034.00
2024-05-17 17:06:09.972048,0,0,-3,0,2,0,72,75,135,130,75,170.58,113,16.00,-12.00,-1063.00
2024-05-17 17:06:10.069124,0,0,-3,0,2,-1,71,74,135,130,75,170.78,113,28.00,15.00,-966.00
2024-05-17 17:06:10.175853,0,0,-3,0,2,0,71,74,135,130,75,170.74,113,-7.00,24.00,-955.00
2024-05-17 17:06:10.273070,0,0,-3,0,2,0,71,74,134,130,75,170.76,113,30.00,-7.00,-1032.00
2024-05-17 17:06:10.391836,-1,0,-3,0,2,0,71,74,133,130,75,170.66,113,-8.00,18.00,-1084.00
2024-05-17 17:06:10.496113,-1,0,-3,0,2,0,71,74,132,130,75,170.59,113,29.00,17.00,-1033.00
2024-05-17 17:06:10.579084,-1,-1,-3,0,2,0,71,74,131,130,75,170.43,113,3.00,4.00,-975.00
2024-05-17 17:06:10.695810,-1,-1,-3,0,2,0,71,74,131,130,75,170.80,113,25.00,-4.00,-1063.00
2024-05-17 17:06:10.782995,-1,-1,-3,0,2,0,71,74,132,130,75,170.69,113,-18.00,20.00,-985.00
2024-05-17 17:06:10.835011,-2,-1,-3,0,1,0,71,74,132,130,75,170.56,113,-26.00,13.00,-927.00
2024-05-17 17:06:11.003934,-2,-2,-3,1,1,0,71,74,134,130,75,170.61,114,-27.00,43.00,-961.00
2024-05-17 17:06:11.038354,0,-4,-3,1,1,0,72,75,135,130,75,170.59,114,-70.00,48.00,-992.00
2024-05-17 17:06:11.207669,4,-4,-3,0,0,0,72,75,137,130,75,170.43,114,-12.00,33.00,-1065.00
2024-05-17 17:06:11.245709,2,-2,-3,0,0,0,72,75,138,130,75,170.59,114,-2.00,40.00,-974.00
2024-05-17 17:06:11.344171,1,-1,-3,0,0,0,72,75,140,130,75,170.63,114,0.00,25.00,-878.00
2024-05-17 17:06:11.515168,1,-1,-3,0,0,0,72,75,142,130,75,170.72,114,65.00,25.00,-1058.00
2024-05-17 17:06:11.549334,2,-2,-3,0,0,0,72,75,143,130,75,170.56,114,53.00,-17.00,-980.00
2024-05-17 17:06:11.719838,2,-1,-3,0,0,0,72,75,145,130,75,170.81,114,65.00,17.00,-1018.00
2024-05-17 17:06:11.752104,2,-1,-3,0,0,0,72,75,146,140,75,170.66,114,32.00,42.00,-952.00
2024-05-17 17:06:11.927857,1,-1,-3,0,0,0,72,75,146,140,75,170.59,114,23.00,12.00,-918.00
2024-05-17 17:06:11.956035,1,0,-3,0,0,0,72,75,146,140,75,170.86,115,44.00,37.00,-952.00
2024-05-17 17:06:12.129754,1,-1,-3,0,0,0,72,75,147,140,75,170.62,115,40.00,-16.00,-915.00
2024-05-17 17:06:12.162676,1,-1,-3,0,0,0,72,75,147,140,75,170.57,115,117.00,-13.00,-1011.00
2024-05-17 17:06:12.262526,1,-1,-3,0,0,0,72,75,146,140,75,170.56,115,-8.00,44.00,-975.00
2024-05-17 17:06:12.437486,1,-1,-3,0,0,0,72,75,147,140,75,170.61,115,14.00,29.00,-954.00
2024-05-17 17:06:12.466432,1,-1,-3,0,0,0,72,75,147,140,75,170.83,115,46.00,42.00,-1024.00
2024-05-17 17:06:12.641622,1,-1,-3,0,0,0,72,75,146,140,75,170.99,115,30.00,37.00,-972.00
2024-05-17 17:06:12.670664,1,-1,-3,0,0,0,72,75,145,140,75,170.77,115,46.00,6.00,-996.00
2024-05-17 17:06:12.846505,1,-1,-3,0,0,0,72,75,144,140,75,170.84,115,20.00,14.00,-1013.00
2024-05-17 17:06:12.874104,1,-1,-3,0,0,0,72,75,142,140,75,170.66,115,6.00,56.00,-1038.00
2024-05-17 17:06:13.051537,0,-1,-3,0,0,0,72,75,140,140,75,170.87,116,61.00,4.00,-988.00
2024-05-17 17:06:13.078951,0,-1,-3,0,0,0,72,75,138,130,75,170.81,116,33.00,13.00,-1041.00
2024-05-17 17:06:13.180260,0,-1,-3,0,0,1,72,75,135,130,75,170.65,116,1.00,34.00,-968.00
2024-05-17 17:06:13.282101,0,-1,-3,0,0,1,72,75,133,130,75,170.83,116,-17.00,41.00,-950.00
2024-05-17 17:06:13.460729,0,-2,-2,0,0,1,72,75,132,130,75,170.31,116,3.00,9.00,-1047.00
2024-05-17 17:06:13.486203,0,-2,2,0,0,1,72,75,130,130,75,170.62,116,9.00,31.00,-1033.00
2024-05-17 17:06:13.587823,0,-1,8,0,0,0,72,75,130,120,75,170.70,116,23.00,38.00,-948.00
2024-05-17 17:06:13.768078,1,-1,15,0,0,0,72,75,130,120,75,170.66,116,26.00,19.00,-1074.00
2024-05-17 17:06:13.791858,1,-1,21,0,0,0,72,75,132,120,75,170.83,116,17.00,46.00,-1047.00
2024-05-17 17:06:13.972577,1,-1,27,0,0,0,72,75,133,120,75,170.66,116,24.00,32.00,-995.00
2024-05-17 17:06:13.996276,0,-2,33,0,0,-1,72,75,135,130,75,170.59,117,-23.00,59.00,-933.00
2024-05-17 17:06:14.189489,1,-2,39,0,0,-1,72,76,136,130,75,170.74,117,-11.00,36.00,-918.00
2024-05-17 17:06:14.199872,1,-2,45,0,0,-1,72,76,137,130,75,170.83,117,14.00,46.00,-1010.00
2024-05-17 17:06:14.383401,1,-1,51,0,0,0,72,76,138,130,75,170.36,117,16.00,45.00,-1008.00
2024-05-17 17:06:14.425487,2,-1,57,0,0,0,72,76,137,130,75,170.71,117,41.00,34.00,-948.00
2024-05-17 17:06:14.455525,2,0,63,0,0,0,72,76,139,130,75,170.57,117,43.00,48.00,-1071.00
2024-05-17 17:06:14.556830,1,-1,69,0,0,0,72,76,141,130,75,170.62,117,-9.00,37.00,-918.00
2024-05-17 17:06:14.692477,1,-1,75,0,0,0,72,76,141,130,75,170.40,117,-67.00,51.00,-935.00
2024-05-17 17:06:14.760777,1,-1,81,0,0,0,72,76,143,130,75,170.83,117,82.00,39.00,-1036.00
2024-05-17 17:06:14.894043,1,-1,87,0,0,0,72,76,143,130,75,170.64,117,20.00,17.00,-938.00
2024-05-17 17:06:14.964803,2,0,93,0,0,0,72,76,143,130,75,170.60,118,-42.00,64.00,-948.00
2024-05-17 17:06:15.098830,2,0,98,0,0,0,72,75,145,130,75,170.76,118,50.00,41.00,-1021.00
2024-05-17 17:06:15.169258,2,0,104,0,0,0,72,75,145,140,75,170.92,118,91.00,-8.00,-934.00
2024-05-17 17:06:15.303670,3,0,110,0,0,0,72,75,146,140,75,170.80,118,-61.00,18.00,-895.00
2024-05-17 17:06:15.372842,3,0,116,0,0,0,72,75,146,140,75,170.81,118,6.00,44.00,-960.00
2024-05-17 17:06:15.508580,2,0,121,0,0,0,72,75,147,140,75,170.68,118,82.00,-6.00,-1101.00
2024-05-17 17:06:15.576816,2,0,127,0,0,0,72,75,147,140,75,170.86,118,39.00,1.00,-960.00
2024-05-17 17:06:15.714350,2,0,133,0,0,0,72,75,147,140,75,170.55,118,-11.00,46.00,-974.00
2024-05-17 17:06:15.780785,1,0,138,0,0,0,72,75,147,140,75,170.71,118,50.00,-8.00,-1084.00
2024-05-17 17:06:15.920635,1,0,144,0,0,0,72,75,147,140,75,170.61,118,51.00,-37.00,-998.00
2024-05-17 17:06:15.984753,1,0,150,0,0,0,72,75,147,140,75,170.76,119,-4.00,-10.00,-946.00
2024-05-17 17:06:16.122828,1,0,155,0,0,0,72,75,147,140,75,171.00,119,-36.00,31.00,-1023.00
2024-05-17 17:06:16.188738,1,0,161,0,0,0,72,75,149,140,75,170.92,119,72.00,-15.00,-1032.00
2024-05-17 17:06:16.327696,1,1,167,0,0,0,72,75,151,140,75,170.83,119,36.00,-15.00,-931.00
2024-05-17 17:06:16.392587,1,1,172,0,0,0,72,75,152,140,75,170.61,119,51.00,-9.00,-992.00
2024-05-17 17:06:16.524882,0,1,178,0,0,0,72,75,153,140,75,171.06,119,-13.00,28.00,-872.00
2024-05-17 17:06:16.596736,0,1,-174,0,0,0,72,75,153,140,75,170.92,119,-10.00,48.00,-983.00
2024-05-17 17:06:16.737994,0,1,-168,0,0,0,72,75,155,140,75,170.47,119,-10.00,43.00,-923.00
2024-05-17 17:06:16.800733,0,1,-162,0,-1,0,72,75,155,140,75,170.96,119,53.00,15.00,-1030.00
2024-05-17 17:06:16.942114,0,0,-156,0,-1,0,72,75,155,140,75,170.99,119,20.00,22.00,-998.00
2024-05-17 17:06:17.004737,0,0,-150,0,-1,0,72,75,155,140,75,170.97,120,66.00,32.00,-1023.00
2024-05-17 17:06:17.147369,0,0,-144,0,-1,0,71,75,155,140,75,170.75,120,-4.00,8.00,-889.00
2024-05-17 17:06:17.209060,0,0,-138,0,-1,0,71,75,156,140,75,171.01,120,90.00,-27.00,-973.00
2024-05-17 17:06:17.351578,0,0,-131,0,-1,0,71,75,156,140,75,170.75,120,-37.00,37.00,-978.00
2024-05-17 17:06:17.413277,0,0,-125,0,-1,0,71,75,157,140,75,171.03,120,50.00,2.00,-1024.00
2024-05-17 17:06:17.514627,0,1,-119,0,-1,0,71,75,156,140,75,171.03,120,-77.00,68.00,-962.00
2024-05-17 17:06:17.659161,0,0,-113,0,-1,0,71,75,155,140,75,170.95,120,24.00,3.00,-949.00
2024-05-17 17:06:17.719366,0,0,-107,0,-1,0,71,75,154,140,75,171.02,120,-20.00,68.00,-1001.00
2024-05-17 17:06:17.863708,0,0,-101,0,0,0,71,75,154,140,75,170.85,120,9.00,29.00,-972.00
2024-05-17 17:06:17.923979,0,0,-95,0,-1,0,71,75,153,140,75,170.99,120,-49.00,14.00,-972.00
2024-05-17 17:06:18.068469,0,0,-89,0,-1,0,71,75,152,140,75,170.72,121,15.00,26.00,-1022.00
2024-05-17 17:06:18.126816,0,0,-84,0,-1,0,72,75,151,140,75,170.84,121,10.00,13.00,-984.00
2024-05-17 17:06:18.273270,0,0,-78,0,-1,0,72,75,150,140,75,170.79,121,22.00,28.00,-1103.00
2024-05-17 17:06:18.333823,0,0,-73,0,-1,0,72,75,150,140,75,170.74,121,41.00,3.00,-1000.00
2024-05-17 17:06:18.434229,0,0,-67,0,0,0,72,75,148,140,75,170.79,121,14.00,36.00,-1034.00
2024-05-17 17:06:18.486263,0,0,-62,0,0,0,72,75,147,140,75,170.84,121,-26.00,39.00,-957.00
2024-05-17 17:06:18.585605,0,0,-57,0,0,1,72,75,146,140,75,170.78,121,62.00,-9.00,-1008.00
2024-05-17 17:06:18.786327,0,0,-51,0,0,0,72,75,145,140,75,170.68,121,-40.00,72.00,-987.00
2024-05-17 17:06:18.793279,0,0,-46,0,0,0,72,75,144,140,75,170.93,121,-23.00,49.00,-948.00
2024-05-17 17:06:18.891636,0,0,-40,0,0,0,72,75,145,130,75,170.76,121,48.00,-13.00,-1082.00
2024-05-17 17:06:18.993629,0,0,-34,0,0,0,72,75,144,130,75,171.00,122,-37.00,-6.00,-966.00
2024-05-17 17:06:19.095669,0,1,-28,0,0,0,72,76,145,130,75,170.92,122,-90.00,74.00,-870.00
2024-05-17 17:06:19.203915,0,0,-22,0,0,0,72,76,143,130,75,170.96,122,-51.00,41.00,-926.00
2024-05-17 17:06:19.299634,0,0,-18,0,0,0,72,76,143,130,75,170.77,122,-21.00,40.00,-943.00
2024-05-17 17:06:19.402372,0,0,-14,0,0,0,72,76,143,130,75,171.03,122,21.00,22.00,-950.00
2024-05-17 17:06:19.503863,0,0,-11,0,0,0,72,76,143,130,75,170.59,122,10.00,6.00,-978.00
2024-05-17 17:06:19.707098,0,0,-9,0,0,0,72,76,143,130,75,170.93,122,40.00,19.00,-993.00
2024-05-17 17:06:19.707584,0,0,-7,0,0,0,72,76,143,130,75,171.05,122,40.00,13.00,-1011.00
2024-05-17 17:06:19.810082,0,0,-6,0,0,0,72,76,143,130,75,170.67,122,27.00,-6.00,-975.00
2024-05-17 17:06:19.911590,0,0,-5,0,0,0,72,76,142,130,75,170.88,122,-11.00,23.00,-1024.00
2024-05-17 17:06:20.013735,0,0,-4,0,0,0,72,76,141,130,75,170.75,123,28.00,6.00,-1020.00
2024-05-17 17:06:20.116191,0,0,-4,0,0,0,72,75,141,130,75,170.71,123,36.00,-5.00,-974.00
2024-05-17 17:06:20.219255,1,0,-4,0,0,0,72,75,140,130,75,170.84,123,86.00,-5.00,-1028.00
2024-05-17 17:06:20.321414,1,0,-3,0,0,0,72,75,140,130,75,170.89,123,45.00,-56.00,-985.00
2024-05-17 17:06:20.421811,1,0,-3,0,0,0,72,75,139,130,75,170.77,123,16.00,16.00,-1045.00
2024-05-17 17:06:20.529485,1,0,-3,0,0,0,72,75,138,130,75,171.01,123,8.00,23.00,-997.00
2024-05-17 17:06:20.625753,1,0,-3,0,0,0,72,75,137,130,75,170.67,123,-75.00,94.00,-934.00
2024-05-17 17:06:20.732982,1,0,-2,0,0,0,72,75,137,130,75,170.95,123,54.00,-14.00,-1001.00
2024-05-17 17:06:20.829772,0,0,-2,0,0,0,72,75,137,130,75,170.89,123,40.00,41.00,-1124.00
2024-05-17 17:06:20.935754,0,-1,-1,0,0,0,72,75,136,130,75,170.66,123,-18.00,22.00,-963.00
2024-05-17 17:06:21.033671,0,-1,-1,0,0,0,72,75,136,130,75,170.87,124,44.00,-25.00,-1043.00
2024-05-17 17:06:21.140548,0,-1,-1,0,0,0,72,75,136,130,75,171.23,124,40.00,55.00,-1119.00
2024-05-17 17:06:21.237615,0,-1,-1,0,0,0,72,75,136,130,75,170.70,124,60.00,-12.00,-965.00
2024-05-17 17:06:21.345552,0,-1,-1,0,0,0,72,75,136,130,75,171.00,124,-36.00,46.00,-947.00
2024-05-17 17:06:21.441632,0,-1,-1,0,0,0,72,75,136,130,75,170.64,124,-2.00,18.00,-1029.00
2024-05-17 17:06:21.544341,0,-1,-1,0,0,0,72,75,137,130,75,170.85,124,19.00,39.00,-1005.00
2024-05-17 17:06:21.652593,0,-1,-1,0,0,0,72,75,137,130,75,170.72,124,-8.00,47.00,-990.00
2024-05-17 17:06:21.748694,0,0,-1,0,0,0,72,75,137,130,75,170.77,124,-34.00,47.00,-952.00
2024-05-17 17:06:21.857480,0,-1,-1,0,0,0,72,75,138,130,75,170.92,124,14.00,18.00,-994.00
2024-05-17 17:06:21.953564,1,0,-1,0,0,0,72,75,137,130,75,170.56,125,11.00,18.00,-1022.00
2024-05-17 17:06:22.062022,1,0,-2,0,0,0,72,75,138,130,75,170.89,125,40.00,21.00,-1081.00
2024-05-17 17:06:22.156451,0,0,-7,0,0,0,72,75,139,130,75,170.85,125,26.00,15.00,-1002.00
2024-05-17 17:06:22.266824,0,-1,-13,0,0,0,72,75,140,130,75,170.95,125,-18.00,46.00,-919.00
2024-05-17 17:06:22.360423,0,-1,-19,0,0,0,72,75,141,130,75,170.47,125,-16.00,42.00,-1042.00
2024-05-17 17:06:22.411572,0,-1,-25,0,0,0,72,75,142,130,75,170.64,125,-14.00,28.00,-982.00
2024-05-17 17:06:22.574166,0,0,-31,0,0,0,72,75,143,130,75,170.88,125,62.00,9.00,-991.00
2024-05-17 17:06:22.616265,1,0,-37,0,0,0,72,75,143,130,75,170.76,125,-15.00,7.00,-900.00
2024-05-17 17:06:22.717440,1,0,-44,0,0,0,72,75,144,130,75,170.73,125,48.00,2.00,-1054.00
2024-05-17 17:06:22.881905,1,0,-50,0,0,0,72,75,144,140,75,170.79,125,-37.00,55.00,-966.00
2024-05-17 17:06:22.921569,1,0,-56,0,0,0,72,75,145,140,75,170.75,126,21.00,6.00,-1104.00
2024-05-17 17:06:23.086047,1,0,-62,0,0,0,72,75,146,140,75,171.08,126,-37.00,11.00,-978.00
2024-05-17 17:06:23.125373,1,0,-68,0,0,0,72,76,148,140,75,171.00,126,-29.00,16.00,-954.00
2024-05-17 17:06:23.291010,2,0,-75,0,0,0,72,76,148,140,75,170.68,126,22.00,26.00,-937.00
2024-05-17 17:06:23.329481,2,0,-81,0,0,0,72,76,149,140,75,170.82,126,39.00,0.00,-941.00
2024-05-17 17:06:23.495536,2,1,-87,0,0,0,72,76,150,140,75,170.76,126,84.00,2.00,-1004.00
2024-05-17 17:06:23.533653,2,1,-94,0,0,0,72,76,149,140,75,170.89,126,-25.00,46.00,-959.00
2024-05-17 17:06:23.636089,2,1,-100,0,0,0,72,76,149,140,75,170.83,126,12.00,-15.00,-925.00
2024-05-17 17:06:23.812428,2,1,-106,0,0,0,72,76,148,140,75,171.02,126,7.00,24.00,-972.00
2024-05-17 17:06:23.839335,1,1,-113,0,0,0,72,76,148,140,75,171.20,126,1.00,21.00,-991.00
2024-05-17 17:06:24.007552,1,0,-119,0,0,0,72,76,146,140,75,170.78,127,26.00,27.00,-1060.00
2024-05-17 17:06:24.043915,1,0,-125,0,0,0,72,76,146,140,75,170.66,127,-24.00,68.00,-956.00
2024-05-17 17:06:24.212422,2,0,-131,0,0,0,72,76,145,140,75,170.75,127,1.00,34.00,-982.00
2024-05-17 17:06:24.247446,1,0,-137,0,0,0,72,76,143,140,75,171.04,127,-2.00,7.00,-907.00
2024-05-17 17:06:24.417303,1,0,-143,0,0,0,72,76,143,130,75,170.61,127,32.00,11.00,-964.00
2024-05-17 17:06:24.451265,2,0,-150,0,0,0,72,76,142,130,75,170.61,127,33.00,24.00,-967.00
2024-05-17 17:06:24.554494,2,0,-156,0,0,0,72,76,142,130,75,170.96,127,-4.00,45.00,-952.00
2024-05-17 17:06:24.655555,3,0,-162,0,0,0,72,76,142,130,75,170.74,127,24.00,-5.00,-996.00
2024-05-17 17:06:24.757820,2,0,-169,0,0,0,72,76,141,130,75,170.85,127,43.00,-10.00,-974.00
2024-05-17 17:06:24.929182,2,0,-175,0,0,0,72,76,141,130,75,170.69,127,42.00,18.00,-1011.00
2024-05-17 17:06:24.961412,2,0,178,0,0,0,72,76,140,130,75,170.78,128,8.00,33.00,-906.00
2024-05-17 17:06:25.133926,2,0,172,0,0,0,72,76,140,130,75,170.55,128,-50.00,6.00,-951.00
2024-05-17 17:06:25.165285,2,0,166,0,0,0,72,75,140,130,75,170.95,128,97.00,23.00,-1062.00
2024-05-17 17:06:25.338703,2,0,160,0,0,0,72,75,141,130,75,170.80,128,37.00,48.00,-1064.00
2024-05-17 17:06:25.369358,2,0,155,0,0,0,72,75,141,130,75,170.92,128,-1.00,48.00,-952.00
2024-05-17 17:06:25.543560,2,0,149,0,0,0,72,75,141,130,75,170.85,128,-8.00,21.00,-1012.00
2024-05-17 17:06:25.574623,2,0,143,0,0,0,72,75,142,130,75,170.79,128,74.00,5.00,-1045.00
2024-05-17 17:06:25.748281,3,0,137,0,0,0,72,75,142,130,75,170.80,128,52.00,14.00,-968.00
2024-05-17 17:06:25.777185,3,0,131,0,0,0,72,75,142,130,75,171.12,128,14.00,49.00,-1032.00
2024-05-17 17:06:25.828529,3,0,125,0,0,0,72,75,142,130,75,171.02,128,15.00,36.00,-918.00
2024-05-17 17:06:25.953083,3,0,119,0,0,0,72,75,142,130,75,170.59,129,74.00,50.00,-1008.00
2024-05-17 17:06:26.032923,2,-1,113,0,0,0,72,75,143,130,75,170.64,129,38.00,8.00,-1000.00
2024-05-17 17:06:26.158082,1,-1,107,0,0,0,71,76,143,130,75,170.81,129,48.00,42.00,-1053.00
2024-05-17 17:06:26.236286,1,0,101,0,0,0,71,76,142,130,75,170.69,129,1.00,30.00,-957.00
2024-05-17 17:06:26.362725,2,0,95,0,0,0,71,76,142,130,75,170.76,129,18.00,23.00,-948.00
2024-05-17 17:06:26.444767,2,0,89,0,0,0,71,76,141,130,75,170.83,129,-6.00,82.00,-963.00
2024-05-17 17:06:26.542567,2,0,83,0,0,0,71,76,140,130,75,170.70,129,78.00,9.00,-979.00
2024-05-17 17:06:26.669959,2,-1,78,0,0,0,71,76,140,130,75,170.73,129,-67.00,84.00,-897.00
2024-05-17 17:06:26.746275,1,-1,72,0,0,0,71,76,141,130,75,170.85,129,-35.00,88.00,-950.00
2024-05-17 17:06:26.876090,1,-1,66,0,0,0,71,76,140,130,75,170.68,129,39.00,35.00,-1100.00
2024-05-17 17:06:26.950075,2,-1,60,0,0,0,71,76,140,130,75,171.02,130,-47.00,49.00,-831.00
2024-05-17 17:06:27.083963,2,0,54,0,0,0,71,76,139,130,75,170.95,130,108.00,-33.00,-1020.00
2024-05-17 17:06:27.154099,2,0,48,0,0,0,72,76,139,130,75,170.77,130,47.00,61.00,-1127.00
2024-05-17 17:06:27.284226,2,0,42,0,0,0,72,76,138,130,75,170.86,130,7.00,35.00,-970.00
2024-05-17 17:06:27.358121,2,0,36,0,0,0,72,76,139,130,75,170.77,130,10.00,59.00,-997.00
2024-05-17 17:06:27.489125,2,0,31,0,0,0,72,76,138,130,75,170.51,130,72.00,37.00,-1107.00
2024-05-17 17:06:27.562196,2,0,25,0,0,0,72,76,137,130,75,170.79,130,68.00,31.00,-1124.00
2024-05-17 17:06:27.693918,1,-1,19,0,0,0,72,76,138,130,75,170.81,130,21.00,30.00,-967.00
2024-05-17 17:06:27.767540,1,-1,14,0,0,0,72,76,138,130,75,170.55,130,19.00,40.00,-944.00
2024-05-17 17:06:27.871952,1,-1,11,0,0,0,72,76,138,130,75,170.87,130,29.00,27.00,-1018.00
2024-05-17 17:06:27.970095,1,-1,8,0,0,0,72,76,139,130,75,170.60,131,11.00,47.00,-988.00
2024-05-17 17:06:28.106147,1,-1,6,0,0,0,72,76,139,130,75,170.51,131,6.00,50.00,-980.00
2024-05-17 17:06:28.174179,1,-1,4,0,0,0,72,76,140,130,74,170.47,131,34.00,14.00,-1026.00
2024-05-17 17:06:28.308321,1,-1,3,0,0,0,72,76,140,130,74,170.42,131,121.00,-32.00,-1021.00
2024-05-17 17:06:28.378138,1,-1,2,0,0,0,72,76,139,130,74,170.61,131,63.00,4.00,-1021.00
2024-05-17 17:06:28.513175,2,-1,1,0,0,0,72,76,138,130,74,170.87,131,-2.00,46.00,-972.00
2024-05-17 17:06:28.582107,1,-1,0,0,0,0,72,76,138,130,74,170.55,131,18.00,16.00,-894.00
2024-05-17 17:06:28.718719,1,-1,0,0,0,0,72,76,137,130,74,170.78,131,56.00,61.00,-1037.00
2024-05-17 17:06:28.786674,1,-1,0,0,0,0,72,76,137,130,74,170.84,131,27.00,29.00,-976.00
2024-05-17 17:06:28.928319,1,-1,0,0,0,0,72,76,136,130,74,170.88,131,37.00,46.00,-989.00
2024-05-17 17:06:28.990494,1,-1,0,0,0,0,72,76,137,130,74,170.78,132,7.00,49.00,-985.00
2024-05-17 17:06:29.129404,1,-1,0,0,0,0,72,76,136,130,74,170.73,132,54.00,35.00,-1071.00
2024-05-17 17:06:29.194126,1,-1,0,0,0,0,72,76,138,130,74,170.96,132,31.00,26.00,-957.00
2024-05-17 17:06:29.296356,1,-1,0,0,0,0,72,76,138,130,74,170.82,132,37.00,28.00,-984.00
2024-05-17 17:06:29.435838,2,-1,0,0,0,0,72,76,139,130,74,170.87,132,17.00,18.00,-1046.00
2024-05-17 17:06:29.500261,2,-1,0,0,0,0,72,76,140,130,74,170.82,132,50.00,15.00,-1026.00
2024-05-17 17:06:29.640137,1,-1,0,0,0,0,72,76,140,130,74,170.76,132,-3.00,75.00,-979.00
2024-05-17 17:06:29.654007,1,-1,0,0,0,0,72,76,141,130,74,170.64,132,-3.00,47.00,-1005.00
2024-05-17 17:06:29.849853,2,-1,0,0,0,0,72,76,141,130,74,170.83,132,15.00,48.00,-951.00
2024-05-17 17:06:29.858131,2,0,0,0,0,0,72,76,141,130,74,170.71,132,37.00,47.00,-988.00
2024-05-17 17:06:30.049281,2,0,0,0,0,0,72,76,142,140,74,170.81,133,40.00,37.00,-980.00
2024-05-17 17:06:30.062109,1,0,0,0,0,0,72,76,141,140,74,170.86,133,56.00,5.00,-1040.00
2024-05-17 17:06:30.255715,1,0,0,0,0,0,71,75,140,130,74,170.85,133,-7.00,25.00,-957.00
2024-05-17 17:06:30.268954,2,0,0,0,0,0,71,75,140,130,74,170.68,133,88.00,34.00,-1069.00
2024-05-17 17:06:30.368128,1,-1,0,0,0,0,71,75,139,130,74,170.69,133,71.00,-2.00,-1061.00
2024-05-17 17:06:30.570038,1,-1,0,0,0,0,71,75,139,130,74,170.56,133,67.00,21.00,-1025.00
2024-05-17 17:06:30.572073,1,-1,0,0,0,0,71,75,139,130,74,170.90,133,28.00,34.00,-984.00
2024-05-17 17:06:30.673964,0,-1,0,0,0,0,71,75,138,130,74,170.69,133,65.00,37.00,-1301.00
2024-05-17 17:06:30.869913,0,-1,1,0,0,0,71,75,139,130,74,170.61,133,20.00,92.00,-1584.00
2024-05-17 17:06:30.879378,0,-1,4,0,0,-6,71,75,144,130,74,170.92,133,59.00,109.00,-1169.00
2024-05-17 17:06:30.980099,4,-28,9,0,0,-11,71,75,188,140,74,171.13,134,122.00,618.00,-990.00
2024-05-17 17:06:31.181190,9,-138,-8,0,-8,-7,71,75,205,150,74,171.12,134,206.00,788.00,-1089.00
2024-05-17 17:06:31.188369,-16,94,0,0,-8,8,72,75,348,150,74,171.14,134,72.00,470.00,-1426.00
2024-05-17 17:06:31.285895,0,0,20,0,-2,13,72,75,148,140,74,171.13,134,40.00,-123.00,-1544.00
2024-05-17 17:06:31.482767,0,-1,23,0,-3,11,72,75,137,130,74,170.87,134,126.00,-51.00,-1541.00
2024-05-17 17:06:31.495673,-1,3,29,0,-2,6,72,75,130,120,74,170.77,134,-3.00,83.00,-1386.00
2024-05-17 17:06:31.594514,0,2,36,0,-1,2,72,75,127,120,74,170.61,134,5.00,44.00,-1235.00
2024-05-17 17:06:31.693925,0,0,39,0,0,0,72,75,127,120,74,170.74,134,-4.00,62.00,-1138.00
2024-05-17 17:06:31.797148,0,0,38,0,0,-1,72,75,127,120,74,170.65,134,108.00,-70.00,-1184.00
2024-05-17 17:06:31.898355,0,-1,32,0,0,-2,72,75,130,120,74,170.77,134,52.00,26.00,-1030.00
2024-05-17 17:06:32.003031,0,0,21,0,0,-2,72,75,133,120,74,170.63,135,38.00,92.00,-948.00
2024-05-17 17:06:32.103702,1,0,9,0,0,-2,72,75,136,120,74,170.74,135,171.00,-40.00,-931.00
2024-05-17 17:06:32.216834,2,0,0,1,0,-1,72,76,140,130,74,170.73,135,53.00,18.00,-1077.00
2024-05-17 17:06:32.305893,3,-1,0,0,0,-1,72,76,142,130,74,170.70,135,8.00,31.00,-989.00
2024-05-17 17:06:32.506689,3,-1,0,0,0,-1,72,76,144,130,74,170.68,135,40.00,19.00,-994.00
2024-05-17 17:06:32.509862,2,-1,0,0,0,-1,72,76,146,130,74,170.71,135,-37.00,35.00,-887.00
2024-05-17 17:06:32.612381,2,-1,0,0,0,0,72,76,146,130,74,170.80,135,13.00,24.00,-996.00
2024-05-17 17:06:32.713833,2,0,0,0,0,0,72,76,147,140,74,170.89,135,32.00,58.00,-942.00
2024-05-17 17:06:32.816744,2,0,0,0,0,0,72,76,147,140,74,170.86,135,54.00,42.00,-1022.00
2024-05-17 17:06:32.917804,1,0,0,0,0,0,72,76,146,140,74,170.87,135,85.00,36.00,-1066.00
2024-05-17 17:06:33.019957,1,-1,0,0,0,0,72,76,146,140,74,170.70,136,-2.00,37.00,-957.00
2024-05-17 17:06:33.123708,1,-1,0,0,0,0,72,76,145,140,74,170.89,136,68.00,25.00,-1022.00
2024-05-17 17:06:33.226631,1,-1,0,0,0,0,73,76,144,140,73,170.77,136,12.00,26.00,-1026.00
2024-05-17 17:06:33.325791,1,0,0,0,0,0,73,76,143,140,73,171.07,136,23.00,14.00,-1018.00
2024-05-17 17:06:33.428242,1,0,0,0,0,0,73,76,142,130,73,170.99,136,55.00,11.00,-1080.00
2024-05-17 17:06:33.530646,1,0,0,0,0,0,73,76,141,130,73,170.73,136,57.00,9.00,-902.00
2024-05-17 17:06:33.632979,1,0,0,0,0,0,73,76,140,130,73,170.98,136,55.00,33.00,-845.00
2024-05-17 17:06:33.736311,1,0,0,0,0,0,73,76,140,130,73,170.66,136,21.00,48.00,-972.00
2024-05-17 17:06:33.785805,2,0,0,0,0,0,73,76,139,130,73,170.85,136,27.00,24.00,-1005.00
2024-05-17 17:06:33.940255,2,0,0,0,0,0,73,76,138,130,73,170.80,136,45.00,31.00,-967.00
2024-05-17 17:06:33.989755,2,0,0,0,0,0,73,76,138,130,73,171.00,137,37.00,44.00,-972.00
2024-05-17 17:06:34.145046,2,0,0,0,0,0,73,76,137,130,73,171.00,137,68.00,7.00,-1008.00
2024-05-17 17:06:34.193856,2,0,0,0,0,0,73,75,136,130,73,170.75,137,65.00,43.00,-1030.00
2024-05-17 17:06:34.350842,3,0,0,0,0,0,73,75,136,130,73,170.88,137,44.00,47.00,-1031.00
2024-05-17 17:06:34.397779,3,0,0,0,0,0,73,75,134,130,73,170.45,137,42.00,32.00,-1046.00
2024-05-17 17:06:34.554843,2,0,0,0,0,0,73,75,134,130,73,170.83,137,52.00,30.00,-1037.00
2024-05-17 17:06:34.601836,2,0,0,0,0,0,73,75,133,130,73,170.73,137,99.00,25.00,-1198.00
2024-05-17 17:06:34.759594,2,-1,0,0,0,0,73,75,133,130,73,170.88,137,17.00,26.00,-993.00
2024-05-17 17:06:34.808392,1,-1,0,0,0,0,73,75,132,130,73,170.49,137,62.00,8.00,-913.00
2024-05-17 17:06:34.908162,2,0,0,0,0,0,73,75,131,130,73,170.59,137,65.00,28.00,-1111.00
2024-05-17 17:06:35.067124,1,0,0,0,0,0,73,75,130,130,73,170.56,138,48.00,5.00,-881.00
2024-05-17 17:06:35.111835,1,0,0,0,0,0,73,75,130,130,73,170.56,138,89.00,-11.00,-1184.00
2024-05-17 17:06:35.272278,1,0,0,0,0,0,73,75,130,130,73,170.82,138,76.00,-2.00,-998.00
2024-05-17 17:06:35.315966,1,0,0,0,0,0,73,75,131,130,73,170.65,138,23.00,45.00,-1050.00
2024-05-17 17:06:35.476388,1,-1,0,0,0,0,73,75,131,130,73,170.65,138,4.00,46.00,-1034.00
2024-05-17 17:06:35.519823,1,-1,0,0,0,0,73,75,132,130,73,170.75,138,36.00,25.00,-933.00
2024-05-17 17:06:35.681461,2,0,0,0,0,0,73,75,132,130,73,170.76,138,14.00,71.00,-1020.00
2024-05-17 17:06:35.724781,2,-1,0,0,0,0,73,75,133,130,73,170.89,138,32.00,59.00,-920.00
2024-05-17 17:06:35.885978,1,-1,0,0,0,0,73,75,134,130,73,170.65,138,51.00,35.00,-1011.00
2024-05-17 17:06:35.928851,1,-1,0,0,0,0,73,75,135,130,73,170.51,138,59.00,14.00,-1081.00
2024-05-17 17:06:36.090777,2,-1,0,0,0,0,73,75,134,130,73,170.67,139,33.00,48.00,-1072.00
2024-05-17 17:06:36.133255,2,-1,0,0,0,0,73,75,135,130,73,170.75,139,84.00,10.00,-1011.00
2024-05-17 17:06:36.295622,1,-1,0,0,0,0,72,75,135,130,72,170.93,139,17.00,30.00,-1025.00
2024-05-17 17:06:36.336902,1,-1,0,0,0,0,72,75,135,130,72,170.69,139,66.00,14.00,-949.00
2024-05-17 17:06:36.500697,1,-1,0,0,0,0,72,75,135,130,72,170.76,139,64.00,25.00,-1077.00
2024-05-17 17:06:36.540891,1,-1,0,0,0,0,72,75,135,130,72,170.73,139,78.00,16.00,-1053.00
2024-05-17 17:06:36.707132,2,-1,0,0,0,0,72,75,135,130,72,170.72,139,22.00,35.00,-1017.00
2024-05-17 17:06:36.744714,1,-1,0,0,0,0,72,75,135,130,72,170.72,139,50.00,37.00,-1042.00
2024-05-17 17:06:36.910372,1,-1,0,0,0,0,72,75,135,130,72,170.83,139,0.00,73.00,-946.00
2024-05-17 17:06:36.948694,1,-1,0,0,0,0,72,75,136,130,72,170.72,140,-24.00,71.00,-921.00
2024-05-17 17:06:37.114860,1,-2,0,0,0,0,72,75,137,130,72,170.93,140,117.00,5.00,-1082.00
2024-05-17 17:06:37.152770,2,-2,0,0,0,0,72,75,137,130,72,170.68,140,82.00,42.00,-1087.00
2024-05-17 17:06:37.319436,2,-1,0,0,0,0,72,76,139,130,72,171.01,140,-25.00,27.00,-989.00
2024-05-17 17:06:37.356572,0,1,3,0,1,-3,72,76,139,130,72,170.98,140,98.00,-40.00,-1454.00
2024-05-17 17:06:37.411337,0,6,8,0,2,-9,72,76,146,140,72,170.75,140,82.00,-75.00,-1674.00
2024-05-17 17:06:37.511671,-15,73,6,0,7,-11,72,76,184,150,72,171.04,140,217.00,420.00,-1533.00
2024-05-17 17:06:37.612036,5,-161,-20,0,13,1,72,76,210,160,72,171.11,140,433.00,997.00,-1023.00
2024-05-17 17:06:37.730055,18,-37,24,0,7,12,72,76,381,150,72,171.11,140,409.00,853.00,-1047.00
2024-05-17 17:06:37.817631,-8,13,33,0,7,12,72,76,145,140,72,170.77,140,129.00,180.00,-832.00
2024-05-17 17:06:37.917639,0,0,37,0,10,8,72,76,133,120,72,170.65,141,34.00,-4.00,-1584.00
2024-05-17 17:06:38.036216,5,-5,44,0,9,4,72,76,122,120,72,170.63,141,85.00,-77.00,-1398.00
2024-05-17 17:06:38.121541,5,-6,47,0,7,1,72,76,117,110,72,170.77,141,-80.00,56.00,-1260.00
2024-05-17 17:06:38.241164,3,-5,43,0,5,0,73,76,115,110,72,170.52,141,-37.00,64.00,-1133.00
2024-05-17 17:06:38.325556,0,-5,30,0,4,-1,73,76,116,110,72,170.88,141,1.00,51.00,-1226.00
2024-05-17 17:06:38.453561,0,-4,16,0,3,-2,73,76,117,120,72,170.51,141,44.00,12.00,-1140.00
2024-05-17 17:06:38.529486,0,-3,3,0,3,-3,73,76,119,120,72,170.36,141,10.00,14.00,-949.00
2024-05-17 17:06:38.654113,0,-3,0,0,2,-3,73,76,123,120,72,170.46,141,-2.00,-15.00,-921.00
2024-05-17 17:06:38.733516,1,-2,-1,1,1,-2,73,76,125,120,72,170.59,141,14.00,14.00,-948.00
2024-05-17 17:06:38.855417,1,-1,0,1,1,-1,73,76,127,130,72,170.54,141,-9.00,16.00,-945.00
2024-05-17 17:06:38.937505,2,0,0,1,1,-1,73,76,128,130,72,170.63,142,17.00,13.00,-1018.00
2024-05-17 17:06:39.060197,1,0,0,0,1,-1,73,76,130,130,72,170.77,142,4.00,-14.00,-1004.00
2024-05-17 17:06:39.141535,1,-1,0,0,1,0,73,76,132,130,72,170.59,142,84.00,12.00,-974.00
2024-05-17 17:06:39.243509,1,-4,0,0,0,0,73,75,133,130,72,170.74,142,18.00,8.00,-1007.00
2024-05-17 17:06:39.367430,1,-3,0,0,0,0,73,75,134,130,72,170.62,142,-10.00,40.00,-964.00
2024-05-17 17:06:39.447497,1,-2,0,0,0,0,73,75,135,130,72,170.88,142,57.00,-12.00,-944.00
2024-05-17 17:06:39.573212,1,-2,0,0,0,0,73,75,135,140,72,170.67,142,78.00,30.00,-1160.00
2024-05-17 17:06:39.651579,1,-2,0,0,0,0,73,75,136,140,72,170.65,142,10.00,22.00,-1035.00
2024-05-17 17:06:39.777001,0,-2,0,0,0,0,73,75,136,140,72,170.57,142,-84.00,28.00,-852.00
2024-05-17 17:06:39.855439,0,-2,0,0,0,0,73,75,137,140,72,170.80,142,50.00,-3.00,-976.00
2024-05-17 17:06:39.981820,0,-2,0,0,0,0,73,75,137,140,72,170.90,143,-26.00,59.00,-924.00
2024-05-17 17:06:40.059403,0,-2,0,0,0,0,73,75,138,140,72,170.79,143,17.00,35.00,-990.00
2024-05-17 17:06:40.186616,0,-2,0,0,0,0,73,75,138,140,72,170.62,143,17.00,5.00,-965.00
2024-05-17 17:06:40.263433,0,-2,0,0,0,0,73,76,139,140,71,170.71,143,58.00,15.00,-1012.00
2024-05-17 17:06:40.365489,0,-2,0,0,0,0,73,76,139,140,71,170.94,143,-4.00,14.00,-941.00
2024-05-17 17:06:40.467435,0,-2,0,0,0,0,73,76,140,140,71,170.88,143,37.00,15.00,-978.00
2024-05-17 17:06:40.569769,0,-2,0,0,0,0,73,76,140,140,71,170.96,143,54.00,-3.00,-918.00
2024-05-17 17:06:40.699856,0,-2,0,0,0,0,73,76,140,140,71,170.72,143,39.00,24.00,-947.00
2024-05-17 17:06:40.776873,1,-1,0,0,0,0,73,76,141,140,71,170.70,143,50.00,40.00,-1031.00
2024-05-17 17:06:40.875642,1,-1,0,0,0,0,73,76,141,140,71,170.94,143,-1.00,43.00,-923.00
2024-05-17 17:06:41.007391,1,-1,0,0,0,0,73,76,141,140,71,170.63,144,-28.00,97.00,-959.00
2024-05-17 17:06:41.029183,1,-2,0,0,0,0,73,76,141,140,71,170.98,144,0.00,50.00,-969.00
2024-05-17 17:06:41.211166,1,-2,0,0,0,0,73,76,142,140,71,170.65,144,38.00,35.00,-1089.00
2024-05-17 17:06:41.234685,1,-2,0,0,0,0,73,76,142,140,71,170.62,144,26.00,1.00,-953.00
2024-05-17 17:06:41.335454,1,-2,0,0,0,0,73,76,142,140,71,170.81,144,36.00,34.00,-983.00
2024-05-17 17:06:41.436741,1,-2,0,0,0,0,73,76,142,140,71,170.97,144,52.00,9.00,-992.00
2024-05-17 17:06:41.539376,0,-2,0,0,0,0,73,76,141,140,71,170.67,144,37.00,13.00,-972.00
2024-05-17 17:06:41.722842,0,-2,0,0,0,0,73,76,142,140,71,170.85,144,-31.00,37.00,-953.00
2024-05-17 17:06:41.745546,0,-2,0,0,0,0,73,76,142,140,71,170.48,144,-15.00,85.00,-1036.00
2024-05-17 17:06:41.845484,0,-2,0,0,0,0,73,76,142,140,71,171.02,144,37.00,14.00,-1050.00
2024-05-17 17:06:42.030494,0,-2,0,0,0,0,73,76,142,140,71,170.66,145,17.00,38.00,-1025.00
2024-05-17 17:06:42.049372,0,-2,0,0,0,0,73,76,142,140,71,170.93,145,0.00,36.00,-978.00
2024-05-17 17:06:42.234953,0,-2,0,0,0,0,73,76,143,140,71,170.82,145,-24.00,66.00,-965.00
2024-05-17 17:06:42.253362,1,-2,0,0,0,0,73,76,144,140,70,171.07,145,-12.00,38.00,-985.00
2024-05-17 17:06:42.439636,0,-2,0,0,0,0,73,76,145,140,70,170.79,145,5.00,35.00,-997.00
2024-05-17 17:06:42.457689,0,-2,0,0,0,0,73,76,146,140,70,171.06,145,-28.00,41.00,-890.00
2024-05-17 17:06:42.644583,0,-2,0,0,0,0,73,76,147,140,70,170.95,145,36.00,47.00,-1063.00
2024-05-17 17:06:42.661429,0,-2,0,0,0,0,73,76,148,140,70,171.08,145,40.00,50.00,-1045.00
2024-05-17 17:06:42.850025,1,-3,0,0,0,0,73,76,149,140,70,170.53,145,34.00,53.00,-892.00
