TS,pitch,roll,yaw,vgx,vgy,vgz,templ,temph,tof,h,bat,baro,time,agx,agy,agz
2024-06-07 15:25:35.885601,0,0,35,0,0,0,91,93,10,0,54,135.70,272,0.00,2.00,-997.00
2024-06-07 15:25:35.885795,0,0,35,0,0,0,91,93,10,0,54,135.85,272,0.00,1.00,-997.00
2024-06-07 15:25:35.977184,0,0,35,0,0,0,91,93,10,0,54,136.10,272,0.00,2.00,-1001.00
2024-06-07 15:25:36.089266,0,0,35,0,0,0,91,93,10,0,54,135.93,272,0.00,3.00,-998.00
2024-06-07 15:25:36.181841,0,0,35,0,0,0,91,93,10,0,54,135.99,272,1.00,1.00,-996.00
2024-06-07 15:25:36.282880,0,0,35,0,0,0,91,93,10,0,54,136.00,272,2.00,3.00,-997.00
2024-06-07 15:25:36.387517,0,0,35,0,0,0,91,93,10,0,54,135.78,272,0.00,2.00,-1001.00
2024-06-07 15:25:36.488127,0,0,35,0,0,0,91,93,10,0,54,135.90,272,1.00,2.00,-1000.00
2024-06-07 15:25:36.589174,0,0,35,0,0,0,91,92,10,0,54,135.83,272,0.00,2.00,-997.00
2024-06-07 15:25:36.691044,0,0,35,0,0,0,91,92,10,0,54,135.35,272,0.00,3.00,-1000.00
2024-06-07 15:25:36.808382,0,0,35,0,0,0,91,92,10,0,54,135.84,272,0.00,1.00,-996.00
2024-06-07 15:25:36.895154,0,0,35,0,0,0,91,92,10,0,54,135.94,272,0.00,2.00,-1002.00
2024-06-07 15:25:36.997149,0,0,35,0,0,0,91,92,10,0,54,135.79,272,0.00,2.00,-998.00
2024-06-07 15:25:37.099169,0,0,35,0,0,0,91,92,10,0,54,135.91,272,1.00,2.00,-1000.00
2024-06-07 15:25:37.201169,0,0,35,0,0,0,91,92,10,0,54,136.10,272,0.00,1.00,-1000.00
2024-06-07 15:25:37.303200,0,0,35,0,0,0,91,92,10,0,54,135.88,272,1.00,0.00,-998.00
2024-06-07 15:25:37.406291,0,0,35,0,0,0,91,92,10,0,54,135.91,272,1.00,2.00,-998.00
2024-06-07 15:25:37.508140,0,0,35,0,0,0,91,92,10,0,54,135.92,272,0.00,2.00,-1000.00
2024-06-07 15:25:37.625350,0,0,35,0,0,0,90,93,10,0,54,135.85,272,0.00,2.00,-1000.00
2024-06-07 15:25:37.712130,0,0,35,0,0,0,90,93,10,0,54,135.99,272,1.00,2.00,-1001.00
2024-06-07 15:25:37.830124,0,0,35,0,0,0,90,93,10,0,54,136.30,272,0.00,2.00,-1000.00
2024-06-07 15:25:37.916178,0,0,35,0,0,0,90,93,10,0,54,136.04,272,1.00,2.00,-997.00
2024-06-07 15:25:38.034915,0,0,35,0,0,0,90,93,10,0,54,135.97,272,1.00,2.00,-1002.00
2024-06-07 15:25:38.120572,0,0,35,0,0,0,90,93,10,0,54,135.80,272,0.00,2.00,-998.00
2024-06-07 15:25:38.239692,0,0,35,0,0,0,90,93,10,0,54,135.94,272,1.00,1.00,-1002.00
2024-06-07 15:25:38.325320,0,0,35,0,0,0,90,93,10,0,54,135.91,272,0.00,2.00,-1001.00
2024-06-07 15:25:38.427523,0,0,35,0,0,0,90,93,10,0,54,136.12,272,1.00,0.00,-1000.00
2024-06-07 15:25:38.528300,0,0,35,0,0,0,90,93,10,0,54,135.81,272,2.00,3.00,-1000.00
2024-06-07 15:25:38.629978,0,0,35,0,0,0,90,92,10,0,54,135.99,272,-1.00,2.00,-998.00
2024-06-07 15:25:38.752303,0,0,35,0,0,0,90,92,10,0,54,135.88,272,-2.00,6.00,-997.00
2024-06-07 15:25:38.833905,0,0,35,0,0,0,90,92,10,0,54,135.88,272,-1.00,0.00,-996.00
2024-06-07 15:25:38.956414,0,0,35,0,0,0,90,92,10,0,54,135.88,272,71.00,-47.00,-980.00
2024-06-07 15:25:38.986818,0,0,36,0,0,0,90,92,10,0,54,135.88,272,27.00,-32.00,-1018.00
2024-06-07 15:25:39.089589,0,0,33,0,0,0,90,92,10,0,54,135.88,272,58.00,0.00,-993.00
2024-06-07 15:25:39.263557,0,0,32,0,0,0,90,92,10,0,54,135.88,272,30.00,2.00,-1066.00
2024-06-07 15:25:39.294403,0,0,32,0,0,0,90,92,10,0,54,135.88,273,7.00,-15.00,-1193.00
2024-06-07 15:25:39.394794,0,0,32,0,0,-1,90,92,10,0,54,135.88,273,74.00,-32.00,-1290.00
2024-06-07 15:25:39.496837,2,0,32,0,0,-4,90,92,10,0,54,135.88,273,-17.00,-41.00,-1245.00
2024-06-07 15:25:39.673183,1,1,32,0,0,-6,91,93,12,0,54,135.88,273,31.00,-60.00,-1107.00
2024-06-07 15:25:39.700837,0,2,32,0,0,-8,91,93,20,10,54,136.57,273,46.00,-89.00,-1083.00
2024-06-07 15:25:39.980419,1,2,32,1,0,-8,91,93,29,20,54,136.48,273,-36.00,-15.00,-980.00
2024-06-07 15:25:39.980560,2,3,32,1,0,-8,91,93,34,30,54,136.75,273,20.00,-35.00,-860.00
2024-06-07 15:25:40.006810,2,3,32,0,0,-7,91,93,41,30,54,136.55,273,16.00,-56.00,-980.00
2024-06-07 15:25:40.185890,1,3,32,0,0,-6,91,93,47,40,54,136.52,273,-5.00,-5.00,-828.00
2024-06-07 15:25:40.210773,0,2,32,0,0,-5,91,93,52,50,54,136.73,273,48.00,3.00,-847.00
2024-06-07 15:25:40.389941,0,2,32,0,0,-4,91,93,56,50,54,137.06,274,-57.00,-16.00,-894.00
2024-06-07 15:25:40.414838,1,2,32,0,0,-3,91,93,60,50,54,136.81,274,42.00,-61.00,-1010.00
2024-06-07 15:25:40.599343,1,3,32,0,0,-2,91,93,62,50,54,136.96,274,-46.00,-16.00,-929.00
2024-06-07 15:25:40.618651,1,3,32,0,0,-1,90,93,63,50,54,136.72,274,52.00,-60.00,-990.00
2024-06-07 15:25:40.799873,1,4,32,0,0,-1,90,93,64,60,54,137.26,274,0.00,-47.00,-1033.00
2024-06-07 15:25:40.823403,2,4,32,0,0,0,90,93,65,60,54,136.80,274,11.00,-67.00,-967.00
2024-06-07 15:25:41.011422,2,4,32,0,0,0,90,93,65,60,54,136.85,274,51.00,-84.00,-1193.00
2024-06-07 15:25:41.027053,1,4,32,0,0,-1,90,93,66,60,54,136.83,274,54.00,-62.00,-1160.00
2024-06-07 15:25:41.213869,0,4,32,0,0,-1,90,93,67,60,54,136.92,274,-1.00,-62.00,-1069.00
2024-06-07 15:25:41.233854,0,4,32,0,0,-1,90,93,67,60,54,136.90,274,-23.00,-49.00,-1021.00
2024-06-07 15:25:41.332767,0,4,32,0,0,-1,90,93,67,60,54,136.77,275,58.00,-75.00,-1062.00
2024-06-07 15:25:41.516385,0,3,32,0,0,-1,90,93,68,60,54,136.67,275,23.00,-78.00,-1010.00
2024-06-07 15:25:41.536789,-1,2,32,-1,0,-1,90,93,67,60,54,136.67,275,-15.00,-14.00,-982.00
2024-06-07 15:25:41.639299,-1,2,32,0,0,-1,91,94,66,60,54,136.88,275,-29.00,-72.00,-1014.00
2024-06-07 15:25:41.823518,0,2,32,0,0,-1,91,94,65,60,54,137.04,275,-72.00,-16.00,-1008.00
2024-06-07 15:25:41.844114,0,3,32,0,0,-1,91,94,64,60,54,136.99,275,-24.00,-31.00,-1031.00
2024-06-07 15:25:42.028318,0,3,32,0,0,-1,91,94,63,60,54,136.55,275,24.00,-36.00,-977.00
2024-06-07 15:25:42.046749,0,2,32,0,0,-2,91,94,62,60,54,137.08,275,2.00,-54.00,-971.00
2024-06-07 15:25:42.233108,0,2,32,0,0,-2,91,94,60,70,54,136.42,275,-4.00,-52.00,-983.00
2024-06-07 15:25:42.250636,0,2,32,0,0,-1,91,94,57,70,54,136.45,275,-60.00,8.00,-943.00
2024-06-07 15:25:42.384045,0,2,32,0,0,-1,91,94,54,70,54,136.82,276,-111.00,13.00,-1028.00
2024-06-07 15:25:42.454669,0,2,32,0,0,-1,91,94,50,70,54,136.57,276,39.00,-59.00,-981.00
2024-06-07 15:25:42.510413,0,2,32,0,0,-1,91,94,46,70,54,136.88,276,58.00,-41.00,-1047.00
2024-06-07 15:25:42.658631,0,2,32,0,0,-2,91,94,42,70,54,136.45,276,-6.00,-62.00,-1019.00
2024-06-07 15:25:42.847445,0,3,32,0,0,-2,91,94,39,80,54,136.62,276,51.00,-45.00,-984.00
2024-06-07 15:25:42.862757,0,3,32,0,0,-2,91,94,35,80,54,136.20,276,21.00,-53.00,-1044.00
2024-06-07 15:25:43.053668,0,3,32,0,0,-3,91,94,32,80,54,136.31,276,-37.00,-9.00,-954.00
2024-06-07 15:25:43.053732,0,3,32,0,0,-2,91,94,28,80,54,136.48,276,-20.00,-53.00,-1042.00
2024-06-07 15:25:43.117595,0,3,32,0,0,-3,91,94,24,80,54,136.39,276,3.00,-73.00,-1055.00
2024-06-07 15:25:43.259638,0,1,32,0,0,-3,91,94,19,80,54,136.50,276,4.00,-23.00,-1002.00
2024-06-07 15:25:43.321578,0,2,32,0,0,-3,91,94,18,80,54,136.26,277,16.00,-26.00,-1097.00
2024-06-07 15:25:43.461875,0,3,32,0,0,-3,91,94,13,90,54,135.63,277,20.00,-36.00,-1034.00
2024-06-07 15:25:43.525602,0,2,32,0,0,-3,91,94,10,80,54,135.31,277,24.00,-59.00,-1118.00
2024-06-07 15:25:43.666870,0,1,32,0,1,-3,91,93,10,80,54,134.58,277,-45.00,-21.00,-1129.00
2024-06-07 15:25:43.729517,0,1,32,0,1,-4,91,93,10,80,54,133.72,277,-48.00,38.00,-1000.00
2024-06-07 15:25:43.871493,0,2,32,0,1,-5,91,93,10,90,54,132.61,277,-24.00,54.00,-1013.00
2024-06-07 15:25:43.933669,1,0,32,0,1,-6,91,93,10,90,54,132.51,277,-3.00,-5.00,-1019.00
2024-06-07 15:25:44.076284,1,0,32,0,1,-6,91,93,10,100,54,132.71,277,44.00,-16.00,-1093.00
2024-06-07 15:25:44.137550,1,-2,32,0,1,-6,91,93,10,100,54,133.29,277,-49.00,24.00,-941.00
2024-06-07 15:25:44.279191,1,-1,32,0,1,-6,91,93,10,110,54,133.61,277,35.00,24.00,-1039.00
2024-06-07 15:25:44.341589,2,-1,32,0,1,-6,91,93,10,110,54,133.83,278,105.00,-36.00,-1015.00
2024-06-07 15:25:44.486688,2,-1,32,0,1,-6,91,93,10,120,54,133.01,278,-54.00,76.00,-1013.00
2024-06-07 15:25:44.547054,3,0,32,0,0,-6,91,93,10,120,54,133.44,278,19.00,2.00,-870.00
2024-06-07 15:25:44.647593,2,0,32,0,0,-5,90,93,10,120,54,133.38,278,121.00,-79.00,-1087.00
2024-06-07 15:25:44.793165,3,0,32,0,0,-5,90,93,10,130,54,133.32,278,19.00,21.00,-1018.00
2024-06-07 15:25:44.851438,3,0,32,0,0,-5,90,93,10,130,54,133.91,278,-19.00,25.00,-966.00
2024-06-07 15:25:44.997864,2,0,32,0,0,-5,90,93,10,130,54,134.19,278,44.00,0.00,-977.00
2024-06-07 15:25:45.055424,2,0,32,0,0,-5,90,93,10,130,54,134.73,278,56.00,0.00,-999.00
2024-06-07 15:25:45.202720,2,0,32,0,0,-5,90,93,10,140,54,134.73,278,4.00,22.00,-910.00
2024-06-07 15:25:45.259457,2,0,32,0,0,-4,90,93,10,140,54,135.37,278,8.00,-3.00,-1019.00
2024-06-07 15:25:45.407461,1,0,32,0,0,-4,90,93,10,140,54,135.50,279,-1.00,-36.00,-1027.00
2024-06-07 15:25:45.463634,1,0,32,0,0,-4,90,93,10,140,54,135.87,279,55.00,-27.00,-994.00
2024-06-07 15:25:45.612317,2,1,32,0,0,-4,90,93,13,140,54,135.93,279,71.00,-26.00,-1014.00
2024-06-07 15:25:45.668501,2,2,32,0,0,-4,90,93,15,140,54,136.17,279,1.00,-47.00,-1123.00
2024-06-07 15:25:45.817370,2,1,32,0,0,-4,90,93,18,140,54,136.07,279,51.00,-17.00,-1107.00
2024-06-07 15:25:45.872468,0,0,32,0,0,-4,90,93,21,140,54,136.09,279,66.00,-26.00,-1052.00
2024-06-07 15:25:46.022299,0,0,31,0,0,-4,90,93,24,150,54,136.55,279,-1.00,-28.00,-1091.00
2024-06-07 15:25:46.076481,0,0,32,0,0,-4,90,93,27,150,54,136.35,279,95.00,-36.00,-980.00
2024-06-07 15:25:46.127333,0,1,32,0,-3,-4,90,93,30,150,54,136.37,279,31.00,7.00,-980.00
2024-06-07 15:25:46.229497,-4,5,31,0,-2,-4,90,93,35,150,54,136.51,279,73.00,-23.00,-1084.00
2024-06-07 15:25:46.432271,-3,5,31,0,-1,-3,90,93,35,150,54,136.72,280,-6.00,-39.00,-1015.00
2024-06-07 15:25:46.434475,-2,3,32,0,0,-3,90,93,40,150,54,136.60,280,75.00,-63.00,-917.00
2024-06-07 15:25:46.536499,0,2,32,0,0,-3,90,93,44,160,54,137.00,280,31.00,-65.00,-940.00
2024-06-07 15:25:46.638442,1,3,32,1,0,-2,90,93,48,160,54,136.56,280,29.00,-34.00,-917.00
2024-06-07 15:25:46.740467,2,4,32,1,0,-1,90,93,52,160,54,136.93,280,-32.00,0.00,-913.00
2024-06-07 15:25:46.944236,2,3,32,0,0,-1,90,93,54,160,54,136.65,280,28.00,-48.00,-990.00
2024-06-07 15:25:46.944284,1,2,32,0,0,0,90,93,56,160,54,137.06,280,7.00,-16.00,-991.00
2024-06-07 15:25:47.046679,1,2,32,0,0,0,90,93,57,160,54,136.79,280,45.00,-28.00,-923.00
2024-06-07 15:25:47.150298,0,2,32,0,0,0,90,93,58,160,54,137.21,280,22.00,5.00,-917.00
2024-06-07 15:25:47.250767,0,2,32,0,0,0,90,93,59,170,54,136.56,281,29.00,-57.00,-938.00
2024-06-07 15:25:47.353097,0,2,32,0,0,0,90,93,59,170,54,136.89,281,36.00,-38.00,-1020.00
2024-06-07 15:25:47.457247,0,2,32,0,0,0,90,93,60,170,54,136.68,281,0.00,-58.00,-1002.00
2024-06-07 15:25:47.558357,0,2,32,0,0,0,90,93,60,170,54,136.88,281,33.00,-30.00,-968.00
2024-06-07 15:25:47.660075,0,2,32,0,0,0,90,93,60,170,54,136.64,281,-5.00,-15.00,-969.00
2024-06-07 15:25:47.762814,0,2,32,0,0,0,90,93,60,170,54,136.62,281,45.00,0.00,-963.00
2024-06-07 15:25:47.865202,0,2,32,0,0,0,90,93,59,170,54,136.68,281,9.00,-25.00,-988.00
2024-06-07 15:25:47.965548,0,1,32,0,0,0,90,93,59,170,54,136.58,281,48.00,-4.00,-977.00
2024-06-07 15:25:48.068122,0,2,32,0,0,0,90,93,59,170,54,136.84,281,21.00,-16.00,-955.00
2024-06-07 15:25:48.169781,0,1,32,0,0,0,90,93,59,170,54,136.84,281,51.00,-66.00,-1021.00
2024-06-07 15:25:48.274890,0,1,32,0,0,0,90,93,59,170,54,136.68,282,16.00,0.00,-1037.00
2024-06-07 15:25:48.373894,0,1,32,0,0,0,90,93,59,170,54,136.67,282,48.00,-38.00,-930.00
2024-06-07 15:25:48.476208,0,1,32,0,0,0,90,93,59,170,54,136.72,282,-7.00,1.00,-1055.00
2024-06-07 15:25:48.577445,0,1,32,0,0,0,90,93,59,170,54,136.45,282,25.00,-8.00,-981.00
2024-06-07 15:25:48.684947,0,1,32,0,0,0,89,92,58,170,54,136.53,282,120.00,-59.00,-993.00
2024-06-07 15:25:48.781612,0,1,32,0,0,0,89,92,58,170,54,136.72,282,-48.00,58.00,-965.00
2024-06-07 15:25:48.889164,0,1,32,0,0,0,89,92,58,170,54,136.73,282,48.00,-51.00,-1021.00
2024-06-07 15:25:48.985406,0,1,32,0,0,0,89,92,58,170,54,136.80,282,29.00,-5.00,-895.00
2024-06-07 15:25:49.087401,0,0,32,0,0,0,89,92,57,170,54,136.66,282,27.00,-8.00,-913.00
2024-06-07 15:25:49.196404,0,0,32,0,0,0,89,92,56,170,54,136.50,282,-49.00,1.00,-1027.00
2024-06-07 15:25:49.291468,0,0,32,0,0,0,89,92,54,170,54,136.79,283,97.00,-33.00,-940.00
2024-06-07 15:25:49.396670,0,0,32,0,0,0,89,92,52,160,54,136.74,283,-19.00,-2.00,-943.00
2024-06-07 15:25:49.495312,0,1,32,0,0,0,89,92,50,160,54,136.83,283,69.00,-15.00,-1045.00
2024-06-07 15:25:49.546227,0,1,32,0,0,0,89,92,49,160,54,136.72,283,-28.00,21.00,-1057.00
2024-06-07 15:25:49.708208,0,1,32,0,0,0,90,93,46,160,54,136.52,283,38.00,-8.00,-1021.00
2024-06-07 15:25:49.801245,0,1,32,0,0,0,90,93,45,160,54,136.38,283,34.00,-33.00,-1096.00
2024-06-07 15:25:49.914766,0,1,32,0,0,-1,90,93,45,160,54,136.85,283,36.00,1.00,-1044.00
2024-06-07 15:25:49.957470,0,1,32,0,0,-2,90,93,46,160,54,136.68,283,42.00,-26.00,-1070.00
2024-06-07 15:25:50.058212,0,1,32,0,0,-3,90,93,48,160,54,136.65,283,36.00,-29.00,-1163.00
2024-06-07 15:25:50.158209,0,0,32,0,0,-4,90,93,50,160,54,136.68,283,64.00,-36.00,-1101.00
2024-06-07 15:25:50.322657,0,0,32,0,0,-4,90,93,54,170,54,136.48,284,10.00,-31.00,-1055.00
2024-06-07 15:25:50.362473,0,0,32,0,0,-5,90,93,57,170,54,136.66,284,76.00,-19.00,-1052.00
2024-06-07 15:25:50.464333,0,0,32,0,0,-5,90,93,61,170,54,137.03,284,80.00,-25.00,-982.00
2024-06-07 15:25:50.629853,0,1,32,0,0,-5,90,93,66,180,54,136.60,284,-4.00,-8.00,-1006.00
2024-06-07 15:25:50.668253,0,1,32,0,0,-5,89,92,70,180,54,136.97,284,14.00,2.00,-991.00
2024-06-07 15:25:50.834619,0,0,32,0,0,-5,89,92,75,190,54,137.27,284,54.00,-30.00,-1149.00
2024-06-07 15:25:50.872174,0,0,32,0,0,-5,89,92,80,190,54,136.93,284,-35.00,24.00,-952.00
2024-06-07 15:25:51.040660,0,0,32,0,0,-5,89,92,84,200,54,137.12,284,64.00,23.00,-914.00
2024-06-07 15:25:51.076205,0,0,32,0,0,-5,89,92,89,200,54,136.83,284,2.00,16.00,-942.00
2024-06-07 15:25:51.244203,0,0,32,0,0,-5,89,92,94,200,54,137.21,284,57.00,-36.00,-1062.00
2024-06-07 15:25:51.280070,0,0,32,1,0,-4,89,92,98,210,54,137.39,285,67.00,-18.00,-1026.00
2024-06-07 15:25:51.449201,0,0,32,0,0,-4,89,92,101,210,54,136.90,285,56.00,-30.00,-972.00
2024-06-07 15:25:51.484132,0,0,32,0,0,-4,89,92,105,220,54,137.00,285,34.00,5.00,-956.00
2024-06-07 15:25:51.655035,0,0,32,0,0,-4,89,92,107,220,54,137.51,285,63.00,-30.00,-1033.00
2024-06-07 15:25:51.688122,0,0,32,0,0,-3,89,92,110,230,54,137.22,285,-13.00,31.00,-979.00
2024-06-07 15:25:51.859818,0,0,32,0,0,-3,89,92,113,230,54,137.38,285,82.00,-9.00,-911.00
2024-06-07 15:25:51.892139,0,0,32,1,0,-3,89,92,115,230,54,137.38,285,4.00,-10.00,-979.00
2024-06-07 15:25:51.994134,0,0,32,1,0,-3,89,92,118,230,54,136.98,285,94.00,-16.00,-949.00
2024-06-07 15:25:52.096161,0,0,32,1,0,-2,89,92,119,240,54,136.82,285,79.00,-2.00,-941.00
2024-06-07 15:25:52.268463,0,0,32,0,0,-2,89,92,123,240,54,137.23,285,70.00,-22.00,-927.00
2024-06-07 15:25:52.300215,0,0,32,1,0,-2,89,92,124,240,54,136.94,286,-5.00,25.00,-942.00
2024-06-07 15:25:52.402254,0,1,32,1,0,-2,89,92,125,240,54,137.15,286,-20.00,-10.00,-1030.00
2024-06-07 15:25:52.575403,0,1,32,1,0,-2,89,92,128,240,54,137.59,286,41.00,-32.00,-1136.00
2024-06-07 15:25:52.606133,0,1,32,1,0,-2,89,92,127,250,54,137.61,286,-6.00,7.00,-896.00
2024-06-07 15:25:52.780249,0,0,32,0,0,-1,88,91,128,250,54,137.24,286,-49.00,37.00,-972.00
2024-06-07 15:25:52.810101,0,0,32,0,0,-1,88,91,128,250,54,137.64,286,-40.00,-7.00,-955.00
2024-06-07 15:25:52.985019,0,0,32,0,0,-1,88,91,128,250,54,137.18,286,-30.00,22.00,-934.00
2024-06-07 15:25:53.014069,0,0,32,0,0,0,88,91,127,250,54,137.41,286,18.00,59.00,-914.00
2024-06-07 15:25:53.189805,0,0,32,0,0,0,88,91,124,250,54,137.36,286,1.00,-17.00,-1055.00
2024-06-07 15:25:53.189840,0,0,32,1,0,0,88,91,124,250,54,137.52,286,-14.00,19.00,-934.00
2024-06-07 15:25:53.269076,0,0,32,1,0,0,88,91,123,250,54,137.33,287,53.00,-19.00,-904.00
2024-06-07 15:25:53.394787,0,0,32,0,0,0,88,91,121,250,54,137.55,287,83.00,4.00,-922.00
2024-06-07 15:25:53.474326,0,0,32,0,0,0,88,91,120,250,54,137.00,287,90.00,-56.00,-1111.00
2024-06-07 15:25:53.599359,0,0,32,0,0,0,88,91,120,250,54,137.46,287,99.00,-14.00,-966.00
2024-06-07 15:25:53.728146,0,0,32,1,0,0,89,92,118,250,54,137.31,287,123.00,-66.00,-1298.00
2024-06-07 15:25:53.906937,0,0,32,0,0,0,89,92,116,250,54,136.99,287,92.00,-35.00,-1170.00
2024-06-07 15:25:53.906972,0,0,32,0,0,-1,89,92,115,250,54,136.90,287,21.00,0.00,-915.00
2024-06-07 15:25:53.983141,0,0,32,0,0,0,89,92,114,250,54,137.20,287,32.00,13.00,-941.00
2024-06-07 15:25:54.111405,0,0,32,0,0,0,89,92,113,250,54,137.16,287,72.00,-5.00,-975.00
2024-06-07 15:25:54.187016,0,0,32,1,0,0,89,92,113,250,54,136.97,287,96.00,-10.00,-1046.00
2024-06-07 15:25:54.289162,1,0,32,1,0,0,89,92,111,250,54,136.90,288,76.00,-24.00,-1034.00
2024-06-07 15:25:54.391579,1,0,32,0,0,0,89,92,110,250,54,137.32,288,87.00,-50.00,-1173.00
2024-06-07 15:25:54.522051,1,0,32,0,0,0,89,92,110,240,54,137.06,288,28.00,-15.00,-1026.00
2024-06-07 15:25:54.595199,0,0,32,0,0,0,89,92,108,240,54,137.18,288,45.00,-19.00,-1058.00
2024-06-07 15:25:54.725948,1,0,32,0,0,0,89,91,108,240,54,137.01,288,9.00,22.00,-967.00
2024-06-07 15:25:54.799188,1,0,32,0,0,0,89,91,106,240,54,137.06,288,29.00,22.00,-922.00
2024-06-07 15:25:54.930940,1,0,32,0,0,0,89,91,106,240,54,137.06,288,-1.00,-25.00,-1046.00
2024-06-07 15:25:55.003265,1,0,32,0,0,0,89,91,105,240,54,136.94,288,114.00,-19.00,-1128.00
2024-06-07 15:25:55.138123,1,0,32,0,0,0,89,91,106,240,54,137.27,288,79.00,-11.00,-1107.00
2024-06-07 15:25:55.208427,1,0,32,0,0,0,89,91,104,240,54,136.92,288,87.00,0.00,-1010.00
2024-06-07 15:25:55.309164,1,0,32,0,0,0,89,91,104,240,54,136.99,289,107.00,-31.00,-1056.00
2024-06-07 15:25:55.413556,1,0,32,0,0,0,89,91,103,240,54,137.15,289,1.00,0.00,-966.00
2024-06-07 15:25:55.515582,1,0,32,0,0,0,89,91,102,240,54,137.22,289,99.00,-46.00,-997.00
2024-06-07 15:25:55.615175,1,0,32,1,0,0,89,91,102,240,54,137.25,289,56.00,-29.00,-1057.00
2024-06-07 15:25:55.749983,1,0,32,1,0,0,89,91,102,240,54,136.82,289,76.00,-29.00,-967.00
2024-06-07 15:25:55.819007,1,0,32,1,0,0,89,91,101,240,54,137.28,289,19.00,22.00,-972.00
2024-06-07 15:25:55.954730,1,0,32,0,0,0,89,91,100,240,54,137.19,289,47.00,29.00,-955.00
2024-06-07 15:25:56.023040,1,1,32,0,0,0,89,91,100,240,54,137.00,289,39.00,-46.00,-1010.00
2024-06-07 15:25:56.160832,1,0,32,0,0,0,89,91,100,240,54,137.23,289,11.00,12.00,-1033.00
2024-06-07 15:25:56.227530,1,0,32,0,0,0,89,91,100,240,54,137.29,289,71.00,-42.00,-1182.00
2024-06-07 15:25:56.365736,1,0,32,0,0,0,89,91,100,240,54,137.56,290,52.00,1.00,-987.00
2024-06-07 15:25:56.430923,1,0,32,0,0,0,89,91,100,240,54,137.04,290,-2.00,-28.00,-1093.00
2024-06-07 15:25:56.568993,1,0,32,0,0,0,89,91,100,240,54,137.21,290,6.00,-8.00,-976.00
2024-06-07 15:25:56.634899,1,0,32,1,0,0,89,91,101,240,54,136.93,290,166.00,-43.00,-913.00
2024-06-07 15:25:56.773806,2,0,32,1,0,0,89,91,102,240,54,136.75,290,6.00,-44.00,-967.00
2024-06-07 15:25:56.838842,3,0,32,1,0,0,89,91,101,240,54,137.11,290,111.00,12.00,-876.00
2024-06-07 15:25:56.979930,2,0,32,1,0,0,89,91,100,240,54,137.25,290,16.00,-24.00,-993.00
2024-06-07 15:25:57.042820,3,0,32,1,0,1,89,91,100,230,54,136.96,290,158.00,-24.00,-948.00
2024-06-07 15:25:57.183301,2,0,32,1,0,1,89,91,97,230,54,137.02,290,67.00,17.00,-841.00
2024-06-07 15:25:57.195837,2,0,32,0,0,2,89,91,96,230,54,136.98,290,22.00,18.00,-1018.00
2024-06-07 15:25:57.388164,3,0,32,0,0,2,89,91,94,230,54,136.90,291,5.00,37.00,-986.00
2024-06-07 15:25:57.400194,2,-1,32,0,0,2,89,91,92,230,54,136.90,291,39.00,78.00,-994.00
2024-06-07 15:25:57.502010,1,-1,32,0,0,3,89,91,90,220,54,137.10,291,60.00,8.00,-1037.00
2024-06-07 15:25:57.695417,2,-1,32,0,0,2,89,91,89,220,54,136.87,291,40.00,45.00,-956.00
2024-06-07 15:25:57.705750,3,-1,32,1,0,2,88,91,88,220,54,137.06,291,59.00,12.00,-1002.00
2024-06-07 15:25:57.901090,3,0,32,1,0,2,88,91,87,220,54,137.06,291,107.00,30.00,-1035.00
2024-06-07 15:25:57.910228,3,-1,32,1,0,2,88,91,86,210,54,136.99,291,104.00,39.00,-975.00
2024-06-07 15:25:58.104976,3,-1,32,1,0,2,88,91,85,210,54,136.85,291,42.00,-4.00,-969.00
2024-06-07 15:25:58.115903,3,-1,32,0,0,2,88,91,84,210,54,136.96,291,63.00,10.00,-996.00
2024-06-07 15:25:58.216173,3,-1,32,0,0,1,88,91,84,210,54,136.85,291,94.00,-15.00,-997.00
2024-06-07 15:25:58.318228,3,0,32,1,0,1,88,91,84,210,54,136.83,292,68.00,25.00,-991.00
2024-06-07 15:25:58.516007,3,0,32,1,0,1,88,91,83,210,54,137.14,292,23.00,29.00,-944.00
2024-06-07 15:25:58.521726,3,-1,32,0,0,1,88,91,83,210,54,136.89,292,62.00,12.00,-986.00
2024-06-07 15:25:58.720723,2,-1,32,0,0,1,88,91,83,210,54,136.95,292,33.00,26.00,-915.00
2024-06-07 15:25:58.725772,3,0,32,1,0,1,88,91,82,210,54,136.73,292,82.00,-32.00,-1065.00
2024-06-07 15:25:58.924080,3,0,32,1,0,1,88,91,82,210,54,137.02,292,70.00,8.00,-1021.00
2024-06-07 15:25:58.929721,3,0,32,0,0,1,88,91,81,210,54,136.91,292,106.00,22.00,-953.00
2024-06-07 15:25:59.130263,2,0,32,0,0,1,88,91,82,210,54,136.72,292,116.00,-12.00,-1090.00
2024-06-07 15:25:59.133784,2,0,32,0,0,1,88,91,81,210,54,137.03,292,109.00,15.00,-955.00
2024-06-07 15:25:59.235765,3,0,32,0,0,1,88,91,81,210,54,136.94,292,79.00,20.00,-878.00
2024-06-07 15:25:59.337719,2,0,32,0,0,1,88,91,82,210,54,136.98,293,155.00,-19.00,-972.00
2024-06-07 15:25:59.439762,2,0,32,0,0,1,88,91,82,210,54,137.00,293,147.00,-16.00,-928.00
2024-06-07 15:25:59.541926,3,0,32,0,0,0,88,91,82,210,54,137.05,293,88.00,16.00,-955.00
2024-06-07 15:25:59.643713,2,0,32,0,0,1,88,91,82,210,54,136.78,293,83.00,18.00,-1044.00
2024-06-07 15:25:59.746521,2,-1,32,0,0,1,89,91,82,210,54,136.87,293,92.00,6.00,-1080.00
2024-06-07 15:25:59.847521,1,-1,32,0,0,1,89,91,82,210,54,136.88,293,46.00,39.00,-960.00
2024-06-07 15:26:00.050560,1,-2,32,0,0,1,89,91,83,210,54,136.51,293,102.00,14.00,-1109.00
2024-06-07 15:26:00.051656,2,-2,32,0,0,0,89,91,84,210,54,136.77,293,29.00,6.00,-1011.00
2024-06-07 15:26:00.153867,2,-2,32,0,0,1,89,91,84,200,54,137.02,293,43.00,38.00,-975.00
2024-06-07 15:26:00.255674,2,-2,32,0,0,1,89,91,84,200,54,136.66,293,16.00,33.00,-983.00
2024-06-07 15:26:00.357693,2,-2,32,0,0,1,89,91,84,200,54,136.89,294,94.00,17.00,-983.00
2024-06-07 15:26:00.465112,2,-1,32,0,0,1,89,91,84,200,54,136.92,294,46.00,10.00,-1060.00
2024-06-07 15:26:00.562948,2,-1,32,0,0,0,89,91,84,200,54,137.08,294,34.00,57.00,-1001.00
2024-06-07 15:26:00.665167,2,-1,32,0,0,0,89,91,84,200,54,136.97,294,75.00,19.00,-904.00
2024-06-07 15:26:00.767571,2,-1,32,0,0,1,88,91,84,200,54,137.01,294,32.00,40.00,-1008.00
2024-06-07 15:26:00.869585,2,-1,32,0,0,1,88,91,83,200,54,136.64,294,47.00,36.00,-1019.00
2024-06-07 15:26:00.972278,2,-1,32,0,0,0,88,91,84,210,54,137.01,294,34.00,28.00,-926.00
2024-06-07 15:26:01.020612,2,0,32,0,0,1,88,91,83,200,54,136.74,294,16.00,49.00,-1026.00
2024-06-07 15:26:01.176925,2,0,32,0,0,0,88,91,82,200,53,136.79,294,7.00,60.00,-1145.00
2024-06-07 15:26:01.224611,2,0,32,0,0,0,88,91,82,200,53,136.81,294,8.00,42.00,-980.00
2024-06-07 15:26:01.381760,2,-1,32,0,0,0,88,91,81,200,53,136.79,295,-11.00,59.00,-988.00
2024-06-07 15:26:01.428518,1,-1,32,0,0,0,88,91,80,200,53,136.73,295,-22.00,48.00,-938.00
2024-06-07 15:26:01.530575,1,-1,32,0,0,1,88,91,78,200,53,136.86,295,59.00,18.00,-1024.00
2024-06-07 15:26:01.690267,1,-1,32,0,0,1,88,91,77,200,53,137.13,295,57.00,40.00,-1034.00
2024-06-07 15:26:01.735423,1,-1,32,0,0,1,88,91,76,200,53,136.98,295,66.00,44.00,-1012.00
2024-06-07 15:26:01.836596,1,-2,32,0,0,0,88,91,74,200,53,136.66,295,13.00,36.00,-1283.00
2024-06-07 15:26:01.997472,1,-2,32,0,0,0,88,91,73,200,53,136.79,295,-28.00,75.00,-962.00
2024-06-07 15:26:02.040586,1,-2,32,0,0,1,88,91,71,200,53,136.85,295,-1.00,18.00,-1008.00
2024-06-07 15:26:02.201947,1,-2,32,0,0,1,88,91,70,190,53,136.75,295,107.00,15.00,-970.00
2024-06-07 15:26:02.244764,2,-2,32,0,0,1,88,91,68,190,53,136.84,295,78.00,34.00,-959.00
2024-06-07 15:26:02.407183,2,-2,32,0,0,1,88,91,67,190,53,136.83,296,37.00,57.00,-969.00
2024-06-07 15:26:02.449151,2,-2,32,0,0,0,88,91,66,190,53,136.73,296,22.00,42.00,-982.00
2024-06-07 15:26:02.612015,2,-2,32,0,0,0,88,91,65,190,53,136.92,296,53.00,69.00,-1063.00
2024-06-07 15:26:02.653515,2,-2,32,0,0,0,88,91,64,190,53,136.77,296,45.00,69.00,-995.00
2024-06-07 15:26:02.817010,2,-2,32,0,0,0,88,92,62,190,53,136.81,296,29.00,52.00,-1035.00
2024-06-07 15:26:02.856951,2,-1,32,0,0,0,88,92,61,190,53,136.66,296,-14.00,64.00,-1051.00
2024-06-07 15:26:02.958904,2,-1,32,0,0,0,88,92,59,190,53,136.79,296,29.00,35.00,-1000.00
2024-06-07 15:26:03.123661,1,-1,32,0,0,0,88,92,57,180,53,136.70,296,92.00,10.00,-1027.00
2024-06-07 15:26:03.162639,2,-1,32,0,0,0,88,92,54,180,52,136.61,296,57.00,51.00,-999.00
2024-06-07 15:26:03.327333,2,0,32,0,0,0,88,92,52,180,52,136.08,297,42.00,23.00,-1044.00
2024-06-07 15:26:03.367022,2,-1,32,0,0,0,88,92,50,180,52,136.46,297,63.00,15.00,-1055.00
2024-06-07 15:26:03.472989,2,-1,32,0,0,0,88,92,48,180,52,136.57,297,3.00,76.00,-1003.00
2024-06-07 15:26:03.570586,2,-1,32,0,0,0,88,92,47,180,52,136.49,297,13.00,32.00,-1029.00
2024-06-07 15:26:03.738064,1,-2,32,0,0,0,88,92,46,180,52,136.49,297,75.00,43.00,-1004.00
2024-06-07 15:26:03.775723,2,-2,32,0,0,0,88,92,44,180,52,136.87,297,72.00,23.00,-1194.00
2024-06-07 15:26:04.045635,2,-2,32,0,0,-1,88,92,44,180,52,136.55,297,95.00,-2.00,-1047.00
2024-06-07 15:26:04.045825,2,-2,32,0,0,-1,88,92,42,180,52,136.71,297,81.00,-6.00,-941.00
2024-06-07 15:26:04.080492,2,-1,32,0,0,0,88,92,41,180,52,136.66,297,16.00,35.00,-1014.00
2024-06-07 15:26:04.248788,2,-1,32,0,0,0,88,92,40,180,52,136.54,297,-13.00,40.00,-944.00
2024-06-07 15:26:04.284530,1,0,32,0,0,0,88,92,38,180,52,136.52,298,70.00,-12.00,-1047.00
2024-06-07 15:26:04.453733,1,0,32,0,0,0,88,92,36,180,52,136.56,298,14.00,13.00,-1017.00
2024-06-07 15:26:04.488412,-2,0,32,0,0,0,88,92,35,180,52,136.36,298,32.00,18.00,-1036.00
2024-06-07 15:26:04.658471,-5,0,32,1,0,0,88,92,34,180,52,136.55,298,37.00,4.00,-955.00
2024-06-07 15:26:04.658687,-5,0,32,2,1,0,88,92,33,170,52,136.64,298,-7.00,19.00,-1039.00
2024-06-07 15:26:04.795331,-5,0,32,2,1,0,89,91,32,170,52,136.71,298,49.00,18.00,-1002.00
2024-06-07 15:26:04.845389,-5,-1,32,3,2,0,89,91,32,170,52,136.45,298,67.00,46.00,-992.00
2024-06-07 15:26:04.965707,-4,-1,32,4,3,0,89,91,31,170,52,136.34,298,-10.00,8.00,-1046.00
2024-06-07 15:26:05.049619,-4,-1,32,5,3,-1,89,91,31,170,52,136.25,298,97.00,-17.00,-1093.00
2024-06-07 15:26:05.171820,-3,-1,32,6,4,-1,89,91,32,170,52,136.50,298,-3.00,26.00,-1009.00
2024-06-07 15:26:05.253258,-1,-1,32,6,4,-1,89,91,33,170,52,136.44,299,-122.00,73.00,-1140.00
2024-06-07 15:26:05.376306,-1,-2,32,6,4,-1,89,91,34,180,52,136.34,299,27.00,-6.00,-952.00
2024-06-07 15:26:05.457688,0,-1,32,6,4,-1,89,91,35,180,52,136.45,299,-72.00,48.00,-1022.00
2024-06-07 15:26:05.580107,3,-1,32,6,4,-1,89,91,36,180,52,136.41,299,81.00,0.00,-1055.00
2024-06-07 15:26:05.661277,5,-2,32,5,3,-1,89,91,38,180,52,136.95,299,79.00,-4.00,-996.00
2024-06-07 15:26:05.784896,6,-1,32,5,3,-1,88,91,40,180,52,136.82,299,102.00,21.00,-976.00
2024-06-07 15:26:05.865413,6,-1,32,4,2,-1,88,91,42,180,52,136.55,299,-4.00,8.00,-995.00
2024-06-07 15:26:05.989666,5,-2,32,4,2,-1,88,91,43,180,52,136.19,299,17.00,44.00,-1017.00
2024-06-07 15:26:06.069366,5,-2,32,3,2,-1,88,91,44,180,52,136.65,299,129.00,27.00,-928.00
2024-06-07 15:26:06.194545,5,-2,32,3,1,-1,88,91,45,180,51,136.39,299,109.00,13.00,-1028.00
2024-06-07 15:26:06.274477,4,-2,32,2,1,0,88,91,47,190,51,136.61,300,152.00,33.00,-905.00
2024-06-07 15:26:06.376963,4,-3,32,2,1,-1,88,91,48,190,51,136.65,300,113.00,34.00,-889.00
2024-06-07 15:26:06.478879,3,-3,32,2,0,0,88,91,49,190,51,136.55,300,38.00,34.00,-934.00
2024-06-07 15:26:06.579238,3,-2,32,2,0,0,88,91,50,190,51,136.42,300,27.00,6.00,-1016.00
2024-06-07 15:26:06.711389,3,-1,32,2,0,0,88,91,51,190,51,136.63,300,131.00,-9.00,-910.00
2024-06-07 15:26:06.783260,7,0,32,1,0,0,88,91,51,190,51,136.63,300,109.00,25.00,-941.00
2024-06-07 15:26:06.911378,5,0,32,0,0,0,88,91,51,190,51,136.37,300,37.00,10.00,-1017.00
2024-06-07 15:26:06.987423,4,-1,32,0,0,0,88,91,51,190,51,136.65,300,43.00,29.00,-958.00
2024-06-07 15:26:07.117374,3,-1,32,0,0,0,88,91,51,190,51,136.42,300,60.00,50.00,-938.00
2024-06-07 15:26:07.191380,3,-1,32,0,0,0,88,91,51,190,51,136.45,300,51.00,52.00,-1019.00
2024-06-07 15:26:07.321022,3,-1,32,0,0,0,88,91,50,190,51,136.47,301,101.00,19.00,-989.00
2024-06-07 15:26:07.395533,3,-1,32,0,0,0,88,91,50,190,51,136.66,301,50.00,45.00,-964.00
2024-06-07 15:26:07.497569,3,-1,32,0,0,0,88,91,49,190,51,136.78,301,84.00,8.00,-960.00
2024-06-07 15:26:07.628549,3,-2,32,0,0,0,88,91,48,190,51,136.84,301,65.00,5.00,-1005.00
2024-06-07 15:26:07.701521,2,-2,32,0,0,0,88,91,48,190,51,136.48,301,-35.00,70.00,-952.00
2024-06-07 15:26:07.803587,2,-2,32,0,0,0,88,90,46,190,51,136.54,301,-2.00,64.00,-1024.00
2024-06-07 15:26:07.905977,2,-2,32,0,0,0,88,90,44,190,51,136.57,301,70.00,46.00,-897.00
2024-06-07 15:26:08.008194,2,-2,32,0,0,0,88,90,42,190,51,136.43,301,70.00,44.00,-944.00
2024-06-07 15:26:08.110862,2,-2,32,0,0,0,88,90,41,190,51,136.31,301,55.00,13.00,-985.00
2024-06-07 15:26:08.213064,2,-2,32,0,0,0,88,90,40,180,50,136.36,301,97.00,30.00,-910.00
2024-06-07 15:26:08.262341,3,-1,32,0,0,0,88,90,39,180,50,136.62,302,78.00,38.00,-971.00
2024-06-07 15:26:08.447766,2,-1,32,0,0,0,88,90,39,180,50,136.46,302,14.00,46.00,-1008.00
2024-06-07 15:26:08.466386,2,-1,32,0,0,0,88,90,39,180,50,136.58,302,50.00,6.00,-1114.00
2024-06-07 15:26:08.652278,2,-1,32,0,0,0,88,90,38,180,50,136.58,302,80.00,22.00,-918.00
2024-06-07 15:26:08.670254,2,-1,32,0,0,0,88,90,39,180,50,136.29,302,80.00,26.00,-979.00
2024-06-07 15:26:08.857062,3,-1,32,0,0,0,87,91,39,180,50,136.58,302,105.00,12.00,-1013.00
2024-06-07 15:26:08.874166,3,-1,32,0,0,0,87,91,40,180,50,136.43,302,2.00,59.00,-1029.00
2024-06-07 15:26:08.976237,3,-1,32,0,0,0,87,91,40,180,50,136.35,302,109.00,27.00,-890.00
2024-06-07 15:26:09.164032,3,-1,32,0,0,0,87,91,40,180,50,136.57,302,89.00,32.00,-916.00
2024-06-07 15:26:09.180111,8,-1,32,0,0,0,87,91,41,180,50,136.52,302,11.00,31.00,-994.00
2024-06-07 15:26:09.368842,8,0,32,0,0,0,87,91,41,180,50,136.28,303,135.00,-19.00,-1138.00
2024-06-07 15:26:09.384091,8,0,32,-1,0,0,87,91,42,180,50,136.45,303,-2.00,67.00,-908.00
2024-06-07 15:26:09.487177,8,0,32,-1,-1,0,87,91,43,180,50,136.56,303,105.00,35.00,-901.00
2024-06-07 15:26:09.593019,8,0,32,-2,-1,0,87,91,44,180,50,136.51,303,122.00,59.00,-1020.00
2024-06-07 15:26:09.691105,8,-1,32,-3,-1,0,87,91,46,180,50,136.51,303,128.00,-4.00,-1119.00
2024-06-07 15:26:09.883080,8,-1,32,-4,-1,0,88,91,48,190,50,136.63,303,129.00,24.00,-1000.00
2024-06-07 15:26:09.895170,8,-1,32,-4,-2,0,88,91,49,190,50,136.32,303,88.00,54.00,-946.00
2024-06-07 15:26:10.087750,8,-2,32,-5,-2,0,88,91,51,190,50,136.34,303,169.00,27.00,-993.00
2024-06-07 15:26:10.099124,8,-3,32,-5,-2,0,88,91,52,190,50,136.50,303,61.00,25.00,-1036.00
2024-06-07 15:26:10.292354,7,-3,32,-5,-2,0,88,91,54,190,50,136.36,303,35.00,44.00,-1013.00
2024-06-07 15:26:10.303262,6,-4,32,-5,-3,0,88,91,55,190,50,136.49,304,224.00,-30.00,-970.00
2024-06-07 15:26:10.498034,3,-3,32,-5,-3,0,88,91,56,190,50,136.34,304,252.00,-66.00,-950.00
2024-06-07 15:26:10.507061,1,-2,32,-4,-3,0,88,91,57,190,50,136.27,304,74.00,8.00,-906.00
2024-06-07 15:26:10.609102,0,-2,32,-4,-2,0,88,91,59,190,50,136.48,304,125.00,20.00,-895.00
2024-06-07 15:26:10.803503,0,-2,32,-3,-2,0,88,91,59,200,50,136.58,304,140.00,15.00,-976.00
2024-06-07 15:26:10.813045,1,-3,32,-3,-2,0,88,91,61,200,50,136.29,304,100.00,9.00,-980.00
2024-06-07 15:26:11.008932,2,-2,32,-2,-2,0,88,91,62,200,50,136.44,304,154.00,-17.00,-967.00
2024-06-07 15:26:11.017038,3,-2,32,-2,-2,0,88,91,63,200,50,136.66,304,150.00,29.00,-1046.00
2024-06-07 15:26:11.212151,3,-1,32,-1,-1,0,88,91,63,200,49,136.16,304,101.00,13.00,-930.00
2024-06-07 15:26:11.221137,4,-2,32,-1,-1,0,88,91,64,200,49,136.89,304,32.00,66.00,-982.00
2024-06-07 15:26:11.419966,2,-5,32,-1,-2,0,88,91,64,200,49,136.25,305,112.00,-17.00,-997.00
2024-06-07 15:26:11.425029,0,-4,32,0,-2,0,88,91,65,200,49,136.68,305,122.00,37.00,-963.00
2024-06-07 15:26:11.527155,0,1,32,0,-1,0,88,91,64,200,49,136.58,305,80.00,27.00,-936.00
2024-06-07 15:26:11.724619,1,0,32,0,-1,0,88,91,65,200,49,136.51,305,88.00,-7.00,-1015.00
2024-06-07 15:26:11.731074,3,0,32,0,0,0,88,91,65,200,49,136.74,305,91.00,-21.00,-1023.00
2024-06-07 15:26:11.935596,3,0,32,0,0,0,88,90,65,200,49,136.25,305,144.00,-11.00,-995.00
2024-06-07 15:26:11.935812,4,0,32,0,0,0,88,90,65,200,49,136.83,305,77.00,-40.00,-1058.00
2024-06-07 15:26:11.987084,4,0,32,0,0,0,88,90,65,200,49,136.62,305,104.00,30.00,-1054.00
2024-06-07 15:26:12.137019,4,0,32,0,0,0,88,90,65,200,49,136.60,305,89.00,4.00,-997.00
2024-06-07 15:26:12.190077,4,0,32,0,0,0,88,90,65,200,49,136.83,305,117.00,-41.00,-1024.00
2024-06-07 15:26:12.340284,4,0,32,0,0,1,88,90,65,200,49,136.47,306,84.00,36.00,-911.00
2024-06-07 15:26:12.394166,4,0,32,0,0,0,88,90,66,200,49,136.61,306,76.00,10.00,-1056.00
2024-06-07 15:26:12.496094,5,0,32,0,0,0,88,90,66,200,49,136.76,306,71.00,22.00,-996.00
2024-06-07 15:26:12.598139,5,0,32,0,0,0,88,90,67,200,49,136.71,306,113.00,-16.00,-940.00
2024-06-07 15:26:12.700098,4,0,32,0,0,0,88,90,67,200,49,136.21,306,96.00,11.00,-975.00
2024-06-07 15:26:12.851536,4,0,32,0,0,0,88,91,68,200,49,136.85,306,118.00,28.00,-990.00
2024-06-07 15:26:12.904148,4,0,32,0,0,0,88,91,69,200,49,136.69,306,32.00,10.00,-991.00
2024-06-07 15:26:13.006962,4,-1,32,0,0,1,88,91,69,200,49,136.40,306,-14.00,34.00,-1098.00
2024-06-07 15:26:13.161797,4,-1,32,0,0,0,88,91,69,200,49,136.83,306,162.00,-60.00,-1024.00
2024-06-07 15:26:13.210068,4,-1,32,0,0,1,88,91,70,200,49,137.04,306,79.00,31.00,-993.00
2024-06-07 15:26:13.363256,4,0,32,0,0,1,88,91,71,200,49,136.84,307,112.00,26.00,-928.00
2024-06-07 15:26:13.414020,4,0,31,0,0,0,88,91,72,200,49,136.66,307,36.00,51.00,-1043.00
2024-06-07 15:26:13.516061,4,0,32,0,0,0,88,91,73,200,49,136.68,307,24.00,13.00,-1003.00
2024-06-07 15:26:13.618220,4,0,32,0,0,0,88,91,75,200,49,136.59,307,26.00,73.00,-887.00
2024-06-07 15:26:13.719946,3,0,32,0,0,0,88,91,75,200,49,136.75,307,43.00,36.00,-962.00
2024-06-07 15:26:13.822153,3,-1,32,0,0,0,88,90,76,200,49,136.60,307,26.00,26.00,-1068.00
2024-06-07 15:26:13.978119,4,-3,32,0,0,0,88,90,78,200,49,136.88,307,50.00,60.00,-1018.00
2024-06-07 15:26:14.026636,3,-8,32,0,0,0,88,90,78,200,49,136.77,307,70.00,18.00,-1011.00
2024-06-07 15:26:14.181527,3,-8,32,0,-1,0,88,90,79,200,49,136.89,307,149.00,8.00,-1014.00
2024-06-07 15:26:14.229885,3,-8,32,1,-1,1,88,90,80,200,49,136.58,307,94.00,31.00,-946.00
2024-06-07 15:26:14.387228,4,-6,32,1,-2,0,88,90,79,200,49,136.64,308,50.00,70.00,-921.00
2024-06-07 15:26:14.433932,4,-2,32,2,-2,0,88,90,79,200,49,136.59,308,76.00,26.00,-1052.00
2024-06-07 15:26:14.591575,4,-1,32,1,-2,1,88,90,80,200,49,136.43,308,54.00,48.00,-1037.00
2024-06-07 15:26:14.637869,3,-1,32,1,-2,0,88,90,81,200,49,136.55,308,94.00,47.00,-912.00
2024-06-07 15:26:14.797321,3,-1,32,1,-2,0,88,90,81,200,49,136.64,308,84.00,29.00,-1041.00
2024-06-07 15:26:14.841856,4,-1,32,1,-2,0,87,91,82,200,49,136.69,308,28.00,39.00,-961.00
2024-06-07 15:26:15.001809,4,0,32,2,-2,0,87,91,83,200,49,136.64,308,120.00,33.00,-920.00
2024-06-07 15:26:15.045797,4,0,32,1,-2,1,87,91,82,200,49,136.35,308,36.00,55.00,-971.00
2024-06-07 15:26:15.206525,4,0,32,1,-2,0,87,91,82,200,48,136.61,308,60.00,35.00,-1040.00
2024-06-07 15:26:15.249822,5,-1,32,1,-2,0,87,91,82,200,48,136.66,308,41.00,29.00,-942.00
2024-06-07 15:26:15.411846,4,-1,32,1,-2,0,87,91,81,200,48,136.64,309,142.00,18.00,-939.00
2024-06-07 15:26:15.453929,4,-2,32,1,-1,0,87,91,81,200,48,136.54,309,130.00,-2.00,-1045.00
2024-06-07 15:26:15.508772,6,-1,32,1,-1,1,87,91,80,200,48,136.33,309,-14.00,96.00,-1034.00
2024-06-07 15:26:15.609196,7,-1,32,1,-1,1,87,91,79,200,48,136.38,309,88.00,4.00,-1099.00
2024-06-07 15:26:15.709934,6,-1,32,0,-2,0,87,91,78,200,48,136.64,309,149.00,36.00,-936.00
2024-06-07 15:26:15.862805,5,0,32,0,-2,0,89,91,76,200,48,136.51,309,89.00,28.00,-942.00
2024-06-07 15:26:16.027147,3,3,32,0,-1,0,89,91,74,200,48,136.82,309,77.00,-6.00,-1064.00
2024-06-07 15:26:16.027184,3,1,32,0,0,0,89,91,73,200,48,136.68,309,81.00,-1.00,-970.00
2024-06-07 15:26:16.118044,4,0,32,0,0,1,89,91,71,200,48,136.71,309,51.00,41.00,-966.00
2024-06-07 15:26:16.232034,3,0,32,0,0,0,89,91,70,200,48,136.47,309,115.00,6.00,-939.00
2024-06-07 15:26:16.321906,3,0,32,0,0,0,89,91,68,200,48,136.71,310,63.00,10.00,-988.00
2024-06-07 15:26:16.423928,3,-1,32,0,0,1,89,91,67,200,48,136.71,310,43.00,53.00,-1057.00
2024-06-07 15:26:16.536896,4,-1,32,0,0,0,89,91,66,190,48,136.41,310,138.00,-23.00,-1032.00
2024-06-07 15:26:16.627869,4,-1,32,0,0,0,89,91,64,190,48,136.58,310,83.00,9.00,-995.00
2024-06-07 15:26:16.729831,4,0,32,0,0,0,89,91,63,190,48,136.47,310,90.00,48.00,-952.00
2024-06-07 15:26:16.832205,4,0,32,0,0,0,88,91,62,190,48,136.28,310,102.00,-1.00,-1026.00
2024-06-07 15:26:16.933956,4,-1,32,0,0,0,88,91,61,190,48,136.78,310,-33.00,41.00,-1150.00
2024-06-07 15:26:17.036219,4,-1,32,0,0,0,88,91,60,190,48,136.32,310,71.00,2.00,-1000.00
2024-06-07 15:26:17.139499,4,-1,32,0,0,0,88,91,59,190,48,136.44,310,122.00,-6.00,-1008.00
2024-06-07 15:26:17.240951,4,-1,32,0,0,0,88,91,58,190,48,136.58,310,64.00,-2.00,-1048.00
2024-06-07 15:26:17.343365,3,-1,32,0,0,0,88,91,57,190,48,136.64,311,26.00,-33.00,-1013.00
2024-06-07 15:26:17.445759,3,-1,32,0,0,0,88,91,56,190,48,136.48,311,72.00,-7.00,-1004.00
2024-06-07 15:26:17.548084,4,0,32,0,0,0,88,91,56,180,48,136.35,311,7.00,74.00,-985.00
2024-06-07 15:26:17.650343,3,-1,32,0,0,0,88,91,56,180,48,136.52,311,136.00,25.00,-939.00
2024-06-07 15:26:17.752982,4,-1,32,0,0,0,88,91,55,180,48,136.37,311,91.00,-5.00,-1043.00
2024-06-07 15:26:17.855406,4,-1,32,0,0,0,87,91,55,180,48,136.41,311,107.00,38.00,-923.00
2024-06-07 15:26:17.958254,4,0,32,0,0,0,87,91,55,180,48,136.40,311,6.00,41.00,-1100.00
2024-06-07 15:26:18.060219,4,0,32,0,0,0,87,91,55,180,48,136.42,311,179.00,-21.00,-1058.00
2024-06-07 15:26:18.157647,3,-1,32,0,0,0,87,91,55,180,48,136.26,311,139.00,-6.00,-1041.00
2024-06-07 15:26:18.278962,3,2,32,0,0,0,87,91,55,180,48,136.40,312,3.00,4.00,-1037.00
2024-06-07 15:26:18.361770,3,6,32,0,0,0,87,91,54,180,48,136.63,312,73.00,-11.00,-1001.00
2024-06-07 15:26:18.464477,3,4,32,-1,2,0,87,91,53,180,48,136.39,312,50.00,-1.00,-971.00
2024-06-07 15:26:18.567828,3,2,32,-1,2,0,87,91,52,180,48,136.29,312,98.00,-2.00,-1074.00
2024-06-07 15:26:18.667666,3,0,32,-1,2,0,87,91,51,180,48,136.47,312,117.00,-37.00,-1019.00
2024-06-07 15:26:18.789573,4,0,32,-1,3,0,87,91,50,180,48,136.30,312,96.00,5.00,-974.00
2024-06-07 15:26:18.871728,4,-1,32,-1,2,0,88,91,50,180,48,136.41,312,141.00,-43.00,-1183.00
2024-06-07 15:26:18.994352,4,0,32,-1,2,0,88,91,49,180,48,136.59,312,6.00,33.00,-924.00
2024-06-07 15:26:19.075622,4,0,32,-1,2,0,88,91,48,180,48,135.97,312,84.00,-11.00,-1078.00
2024-06-07 15:26:19.199178,4,-1,32,-1,2,0,88,91,48,180,47,136.60,312,92.00,12.00,-933.00
2024-06-07 15:26:19.279492,5,-1,32,-1,2,0,88,91,47,180,47,136.57,313,22.00,26.00,-1006.00
2024-06-07 15:26:19.403994,4,-1,32,-1,2,0,88,91,47,180,47,136.39,313,68.00,0.00,-957.00
2024-06-07 15:26:19.485585,2,-1,32,-1,2,0,88,91,46,180,47,136.19,313,-48.00,56.00,-1010.00
2024-06-07 15:26:19.588310,1,-2,32,-1,2,0,88,91,46,180,47,136.39,313,54.00,24.00,-946.00
2024-06-07 15:26:19.687591,2,-2,32,0,2,0,88,91,45,180,47,136.66,313,88.00,5.00,-1083.00
2024-06-07 15:26:19.738580,5,-4,32,0,2,0,88,91,45,180,47,136.28,313,65.00,-17.00,-992.00
2024-06-07 15:26:19.915967,6,-5,32,0,1,0,88,91,45,180,47,136.18,313,92.00,-18.00,-1134.00
2024-06-07 15:26:19.993602,4,-3,32,0,0,-1,88,91,44,180,47,136.49,313,13.00,31.00,-979.00
2024-06-07 15:26:20.047490,3,-2,32,0,0,0,88,91,44,180,47,136.34,313,130.00,22.00,-1005.00
2024-06-07 15:26:20.148161,3,-1,32,0,0,-1,88,91,44,180,47,136.46,313,95.00,9.00,-910.00
2024-06-07 15:26:20.248902,3,-1,32,0,0,0,88,91,44,180,47,136.20,314,-10.00,32.00,-995.00
2024-06-07 15:26:20.428102,3,-2,32,0,0,-1,88,91,44,180,47,136.61,314,32.00,32.00,-1059.00
2024-06-07 15:26:20.453521,3,-2,32,0,0,-1,88,91,45,180,47,136.25,314,11.00,49.00,-960.00
2024-06-07 15:26:20.632919,3,-2,32,0,0,-1,88,91,45,180,47,136.35,314,107.00,6.00,-925.00
2024-06-07 15:26:20.657666,3,-1,32,0,0,0,88,91,45,180,47,136.38,314,83.00,21.00,-880.00
2024-06-07 15:26:20.837974,3,-1,32,0,0,0,88,91,45,180,47,136.44,314,29.00,17.00,-1059.00
2024-06-07 15:26:20.861766,3,-1,32,0,0,0,88,90,45,180,47,136.35,314,117.00,59.00,-941.00
2024-06-07 15:26:21.042435,3,-1,32,0,0,0,88,90,45,180,47,136.63,314,50.00,32.00,-940.00
2024-06-07 15:26:21.065583,4,-1,32,0,0,-1,88,90,45,180,47,136.21,314,-17.00,23.00,-1071.00
2024-06-07 15:26:21.247471,3,-1,32,0,0,0,88,90,46,180,47,136.47,314,72.00,25.00,-1051.00
2024-06-07 15:26:21.269578,3,-1,32,0,0,0,88,90,46,180,47,136.18,315,79.00,59.00,-892.00
2024-06-07 15:26:21.452127,2,-1,32,0,0,0,88,90,46,180,47,136.49,315,76.00,23.00,-949.00
2024-06-07 15:26:21.474200,2,-1,32,0,0,0,88,90,46,180,47,136.36,315,43.00,13.00,-967.00
2024-06-07 15:26:21.657161,3,-1,32,0,0,0,88,90,47,180,47,136.40,315,111.00,25.00,-892.00
2024-06-07 15:26:21.677511,4,-1,32,0,0,0,88,90,47,180,47,136.37,315,28.00,10.00,-1023.00
2024-06-07 15:26:21.863270,3,0,32,0,0,0,88,90,47,180,47,136.40,315,116.00,1.00,-939.00
2024-06-07 15:26:21.881500,3,-1,32,0,0,0,87,91,48,180,47,136.03,315,29.00,21.00,-993.00
2024-06-07 15:26:22.053628,3,-1,32,0,0,0,87,91,48,180,47,136.38,315,18.00,23.00,-1007.00
2024-06-07 15:26:22.085449,3,-1,32,0,0,0,87,91,48,190,47,136.61,315,124.00,-10.00,-939.00
2024-06-07 15:26:22.272261,3,-1,32,0,0,0,87,91,48,190,47,136.24,315,159.00,-60.00,-911.00
2024-06-07 15:26:22.289426,3,-2,38,0,0,0,87,91,47,180,47,136.59,316,107.00,8.00,-995.00
2024-06-07 15:26:22.477124,4,-1,44,0,0,0,87,91,47,180,47,136.54,316,40.00,-1.00,-1024.00
2024-06-07 15:26:22.493456,3,0,50,0,0,0,87,91,48,180,47,136.70,316,52.00,1.00,-1026.00
2024-06-07 15:26:22.595403,3,0,56,0,0,0,87,91,48,180,47,136.54,316,180.00,-37.00,-1027.00
2024-06-07 15:26:22.699248,3,0,62,0,0,0,87,91,49,180,47,136.48,316,113.00,-17.00,-1025.00
2024-06-07 15:26:22.799382,3,0,68,0,0,0,87,91,49,180,47,136.42,316,78.00,-13.00,-956.00
2024-06-07 15:26:22.988960,4,0,74,0,0,0,88,91,50,190,47,136.63,316,15.00,9.00,-960.00
2024-06-07 15:26:23.003319,4,0,80,0,0,0,88,91,51,190,47,136.54,316,66.00,-9.00,-1053.00
2024-06-07 15:26:23.192733,3,0,86,0,0,0,88,91,51,190,47,136.48,316,12.00,-17.00,-1120.00
2024-06-07 15:26:23.207234,2,0,93,0,0,0,88,91,51,190,46,136.50,316,37.00,-34.00,-1064.00
2024-06-07 15:26:23.397558,3,0,99,0,0,0,88,91,52,190,46,136.39,317,36.00,8.00,-901.00
2024-06-07 15:26:23.411464,3,1,105,0,0,0,88,91,53,190,46,136.50,317,70.00,13.00,-974.00
2024-06-07 15:26:23.463281,2,1,112,0,0,0,88,91,53,190,46,136.60,317,46.00,-53.00,-1034.00
2024-06-07 15:26:23.602268,2,1,118,0,0,0,88,91,54,190,46,136.51,317,30.00,-7.00,-1003.00
2024-06-07 15:26:23.667374,2,2,124,0,0,0,88,91,54,190,46,136.35,317,26.00,-80.00,-1013.00
2024-06-07 15:26:23.807049,1,1,131,0,0,0,88,91,55,190,46,136.75,317,-35.00,39.00,-1005.00
2024-06-07 15:26:23.871508,1,2,137,0,0,0,88,90,55,190,46,136.53,317,-30.00,-7.00,-1104.00
2024-06-07 15:26:24.011933,1,2,143,0,0,0,88,90,55,190,46,136.70,317,0.00,1.00,-905.00
2024-06-07 15:26:24.075389,0,2,149,0,0,0,88,90,54,190,46,136.76,317,-27.00,-44.00,-1026.00
2024-06-07 15:26:24.216724,0,2,155,0,0,0,88,90,54,190,46,136.74,317,8.00,-113.00,-1244.00
2024-06-07 15:26:24.279266,0,3,161,0,0,0,88,90,54,190,46,136.76,318,65.00,-23.00,-895.00
2024-06-07 15:26:24.421532,0,3,167,0,0,0,88,90,53,190,46,136.50,318,-62.00,6.00,-1052.00
2024-06-07 15:26:24.483491,0,2,174,0,0,0,88,90,53,190,46,136.74,318,-111.00,57.00,-947.00
2024-06-07 15:26:24.627848,0,2,-179,0,0,0,88,90,53,190,46,136.69,318,53.00,-43.00,-932.00
2024-06-07 15:26:24.687295,0,2,-173,0,0,0,88,90,52,190,46,136.85,318,-43.00,-1.00,-988.00
2024-06-07 15:26:24.831047,0,2,-167,0,0,0,88,90,52,190,46,136.55,318,43.00,-12.00,-971.00
2024-06-07 15:26:24.891592,0,1,-161,0,0,0,88,91,51,190,46,136.66,318,-71.00,-11.00,-1117.00
2024-06-07 15:26:25.036642,0,1,-154,0,0,0,88,91,52,190,46,136.59,318,57.00,-4.00,-953.00
2024-06-07 15:26:25.095444,0,1,-148,0,0,0,88,91,52,190,46,136.49,318,-69.00,41.00,-1008.00
2024-06-07 15:26:25.242630,0,1,-142,0,0,0,88,91,51,190,46,136.51,318,-32.00,39.00,-972.00
2024-06-07 15:26:25.299248,0,0,-136,0,-1,0,88,91,52,190,46,136.31,319,83.00,-35.00,-938.00
2024-06-07 15:26:25.445483,0,0,-131,0,-1,0,88,91,52,190,46,136.36,319,-42.00,0.00,-945.00
2024-06-07 15:26:25.503279,0,0,-125,0,0,0,88,91,53,190,46,136.58,319,18.00,26.00,-1002.00
2024-06-07 15:26:25.605314,-1,0,-119,0,0,0,88,91,53,190,46,136.83,319,-62.00,-1.00,-1076.00
2024-06-07 15:26:25.707292,-1,0,-114,0,0,0,88,91,53,190,46,136.49,319,-71.00,62.00,-935.00
2024-06-07 15:26:25.855086,-2,0,-108,0,0,0,88,91,53,190,46,136.50,319,44.00,52.00,-970.00
2024-06-07 15:26:25.911330,-1,0,-102,0,0,0,88,91,53,190,46,136.60,319,26.00,31.00,-1054.00
2024-06-07 15:26:26.059887,-1,0,-96,0,0,0,88,91,53,190,46,136.58,319,-36.00,22.00,-1079.00
2024-06-07 15:26:26.115262,0,0,-91,0,0,0,88,91,53,190,46,136.66,319,-114.00,103.00,-1027.00
2024-06-07 15:26:26.264678,0,0,-85,0,0,0,88,91,53,190,46,136.49,319,-5.00,24.00,-959.00
2024-06-07 15:26:26.319187,-1,0,-79,0,0,0,88,91,53,190,46,136.52,320,63.00,39.00,-1065.00
2024-06-07 15:26:26.469521,0,-1,-74,0,0,0,88,91,54,190,46,136.68,320,0.00,47.00,-1132.00
2024-06-07 15:26:26.523037,0,-1,-68,0,0,0,88,91,54,190,46,136.73,320,-18.00,64.00,-949.00
2024-06-07 15:26:26.674336,0,-1,-62,1,0,0,88,91,55,190,46,136.89,320,62.00,12.00,-1083.00
2024-06-07 15:26:26.727192,0,-1,-56,1,0,0,88,91,56,190,46,136.53,320,-66.00,140.00,-912.00
2024-06-07 15:26:26.879079,1,-2,-50,1,0,0,88,91,57,190,46,136.66,320,-16.00,111.00,-946.00
2024-06-07 15:26:26.931332,2,-1,-44,1,0,0,88,91,57,190,46,136.78,320,76.00,81.00,-873.00
2024-06-07 15:26:27.083866,2,-1,-37,1,0,0,88,91,57,190,46,136.70,320,42.00,7.00,-1189.00
2024-06-07 15:26:27.135196,2,-1,-31,1,0,0,88,91,58,190,45,136.56,320,40.00,91.00,-883.00
2024-06-07 15:26:27.237201,2,-1,-25,1,0,0,88,91,58,190,45,136.73,320,48.00,54.00,-946.00
2024-06-07 15:26:27.391083,2,-1,-19,0,0,0,88,91,58,190,45,136.85,321,-9.00,84.00,-924.00
2024-06-07 15:26:27.441224,2,-1,-13,0,0,0,88,91,58,190,45,136.49,321,27.00,51.00,-896.00
2024-06-07 15:26:27.493840,2,-1,-7,0,0,0,88,91,58,190,45,136.88,321,12.00,81.00,-950.00
2024-06-07 15:26:27.596579,2,-1,-1,0,0,0,88,91,58,190,45,136.40,321,23.00,47.00,-955.00
2024-06-07 15:26:27.697978,2,-1,3,0,0,0,88,91,57,190,45,136.82,321,-7.00,51.00,-930.00
2024-06-07 15:26:27.800708,2,-1,9,0,0,0,88,91,57,190,45,136.42,321,60.00,9.00,-988.00
2024-06-07 15:26:27.903059,3,0,14,0,0,0,88,91,56,190,45,136.63,321,72.00,-27.00,-1076.00
2024-06-07 15:26:28.003324,3,0,18,1,0,0,88,91,56,190,45,136.62,321,55.00,9.00,-984.00
2024-06-07 15:26:28.109493,4,0,21,1,0,0,88,91,56,190,45,136.85,321,170.00,-37.00,-1092.00
2024-06-07 15:26:28.208261,4,0,23,1,0,0,88,91,56,190,45,137.02,321,150.00,-10.00,-944.00
2024-06-07 15:26:28.314308,4,0,25,1,0,0,88,91,56,190,45,136.65,322,80.00,59.00,-913.00
2024-06-07 15:26:28.411616,5,0,27,0,0,0,88,91,56,190,45,136.71,322,120.00,-10.00,-957.00
2024-06-07 15:26:28.515175,4,0,28,0,0,0,88,91,56,190,45,136.93,322,68.00,30.00,-924.00
2024-06-07 15:26:28.615086,5,0,29,0,0,0,88,91,57,190,45,136.89,322,106.00,18.00,-1024.00
2024-06-07 15:26:28.717248,4,0,30,0,0,0,88,91,57,190,45,136.56,322,64.00,16.00,-972.00
2024-06-07 15:26:28.824984,4,0,30,0,0,0,88,91,57,190,45,136.55,322,88.00,17.00,-1005.00
2024-06-07 15:26:28.925173,4,0,30,0,0,0,88,91,57,190,45,136.77,322,184.00,5.00,-967.00
2024-06-07 15:26:29.023546,4,-1,30,0,0,0,88,91,57,190,45,136.77,322,4.00,39.00,-961.00
2024-06-07 15:26:29.157989,4,-2,30,0,0,0,88,91,57,190,45,136.67,322,130.00,-19.00,-1039.00
2024-06-07 15:26:29.227220,4,-2,30,0,0,0,88,91,57,190,45,136.91,322,131.00,35.00,-939.00
2024-06-07 15:26:29.329754,4,-2,30,0,0,0,88,91,57,190,45,136.72,323,150.00,-1.00,-1101.00
2024-06-07 15:26:29.431748,4,-1,30,0,0,0,88,91,57,190,45,136.61,323,60.00,24.00,-1006.00
2024-06-07 15:26:29.533087,4,-1,30,0,0,0,88,91,57,190,45,136.75,323,105.00,17.00,-952.00
2024-06-07 15:26:29.644121,4,-1,30,0,0,0,88,91,58,190,45,136.79,323,71.00,46.00,-937.00
2024-06-07 15:26:29.737407,4,-1,30,0,0,0,88,91,58,190,45,136.57,323,133.00,8.00,-951.00
2024-06-07 15:26:29.850357,4,-1,30,0,0,0,88,91,58,190,45,136.54,323,52.00,64.00,-932.00
2024-06-07 15:26:29.942114,4,-1,30,0,0,0,88,91,59,190,45,136.66,323,92.00,-1.00,-1000.00
2024-06-07 15:26:30.053613,3,-1,30,0,0,0,88,91,60,190,45,136.66,323,77.00,58.00,-951.00
2024-06-07 15:26:30.145119,3,-1,30,0,0,0,88,91,61,190,45,136.55,323,138.00,-9.00,-933.00
2024-06-07 15:26:30.258827,3,-2,30,0,0,0,88,91,61,190,45,136.68,323,74.00,40.00,-916.00
2024-06-07 15:26:30.349351,4,-1,30,0,0,0,88,91,61,190,45,136.84,324,84.00,19.00,-943.00
2024-06-07 15:26:30.463314,4,0,30,0,0,0,88,91,61,190,45,136.83,324,74.00,10.00,-979.00
2024-06-07 15:26:30.556658,4,0,30,0,0,0,88,91,61,190,45,136.74,324,-6.00,28.00,-992.00
2024-06-07 15:26:30.604035,4,-1,30,0,0,0,88,91,61,190,45,136.77,324,115.00,-9.00,-1015.00
2024-06-07 15:26:30.706172,4,0,30,0,0,0,88,91,60,200,45,136.85,324,183.00,-16.00,-954.00
2024-06-07 15:26:30.809984,4,0,30,0,0,0,88,91,59,200,45,136.64,324,85.00,67.00,-959.00
2024-06-07 15:26:30.962753,5,0,24,0,0,0,87,91,58,190,45,136.42,324,78.00,31.00,-968.00
2024-06-07 15:26:31.068196,5,-1,18,0,0,0,87,91,57,190,45,136.71,324,157.00,13.00,-990.00
2024-06-07 15:26:31.114018,5,-2,12,0,0,0,87,91,55,190,45,136.56,324,55.00,54.00,-975.00
2024-06-07 15:26:31.283494,5,-2,6,0,0,0,87,91,53,190,45,136.70,324,89.00,52.00,-1039.00
2024-06-07 15:26:31.317954,4,-3,1,0,0,0,87,91,52,190,45,136.70,325,107.00,20.00,-1087.00
2024-06-07 15:26:31.487054,4,-2,-4,0,0,0,87,91,51,190,45,136.12,325,73.00,54.00,-942.00
2024-06-07 15:26:31.521949,3,-3,-10,0,0,0,87,91,50,190,45,136.51,325,111.00,48.00,-998.00
2024-06-07 15:26:31.623897,3,-3,-16,0,0,0,87,91,49,190,45,136.58,325,52.00,70.00,-988.00
2024-06-07 15:26:31.794256,3,-3,-22,0,0,0,87,91,49,190,45,136.30,325,35.00,79.00,-1028.00
2024-06-07 15:26:31.827897,2,-3,-28,0,0,0,87,91,49,190,45,136.46,325,-16.00,95.00,-1030.00
2024-06-07 15:26:31.929904,1,-3,-34,0,0,0,88,91,48,190,45,136.76,325,9.00,70.00,-957.00
2024-06-07 15:26:32.101453,0,-2,-40,0,0,0,88,91,48,190,45,136.68,325,-26.00,30.00,-1082.00
2024-06-07 15:26:32.133882,1,-2,-47,0,0,0,88,91,49,180,44,136.59,325,35.00,77.00,-995.00
2024-06-07 15:26:32.235859,1,-2,-53,0,0,0,88,91,49,180,44,136.41,325,-43.00,116.00,-949.00
2024-06-07 15:26:32.337889,1,-3,-59,0,0,0,88,91,49,180,44,136.58,326,-28.00,87.00,-1027.00
2024-06-07 15:26:32.439861,1,-3,-65,0,0,0,88,91,50,180,44,136.51,326,53.00,76.00,-958.00
2024-06-07 15:26:32.541892,1,-2,-72,0,0,0,88,91,51,190,44,136.63,326,-17.00,66.00,-994.00
2024-06-07 15:26:32.715910,0,-3,-78,0,0,0,88,91,52,190,44,136.39,326,51.00,55.00,-956.00
2024-06-07 15:26:32.745831,0,-2,-84,0,0,0,88,91,54,190,44,136.59,326,19.00,76.00,-933.00
2024-06-07 15:26:32.920617,0,-2,-90,0,0,0,88,91,55,190,44,136.63,326,-43.00,109.00,-929.00
2024-06-07 15:26:32.949829,0,-2,-96,0,0,0,87,91,57,190,44,136.60,326,31.00,84.00,-926.00
2024-06-07 15:26:33.125417,0,-1,-102,0,0,0,87,91,58,190,44,136.73,326,-11.00,42.00,-987.00
2024-06-07 15:26:33.153802,0,0,-108,0,0,0,87,91,61,190,44,136.38,326,-40.00,50.00,-981.00
2024-06-07 15:26:33.334326,0,0,-114,0,0,0,87,91,62,190,44,136.80,326,-34.00,47.00,-947.00
2024-06-07 15:26:33.357990,0,0,-120,0,0,0,87,91,64,190,44,136.79,327,19.00,49.00,-908.00
2024-06-07 15:26:33.459909,0,0,-126,0,0,0,87,91,66,190,44,136.78,327,88.00,-35.00,-1017.00
2024-06-07 15:26:33.562896,0,0,-131,0,0,0,87,91,68,200,44,136.65,327,23.00,-20.00,-1058.00
2024-06-07 15:26:33.743014,0,0,-137,0,0,0,87,91,69,200,44,136.74,327,13.00,7.00,-1004.00
2024-06-07 15:26:33.766947,0,1,-143,0,0,0,87,91,70,200,44,136.66,327,25.00,30.00,-815.00
2024-06-07 15:26:33.946552,0,1,-149,0,0,0,87,91,72,200,44,136.72,327,47.00,20.00,-894.00
2024-06-07 15:26:33.970843,1,1,-161,0,0,0,88,91,73,200,44,136.83,327,4.00,-12.00,-988.00
2024-06-07 15:26:34.075851,1,1,-167,0,0,0,88,91,74,200,44,136.77,327,-56.00,-1.00,-972.00
2024-06-07 15:26:34.174745,1,1,-173,0,0,0,88,91,74,200,44,136.73,327,107.00,-27.00,-905.00
2024-06-07 15:26:34.354213,1,1,-179,0,0,0,88,91,75,200,44,136.46,328,-78.00,27.00,-987.00
2024-06-07 15:26:34.381264,0,1,174,0,0,0,88,91,75,200,44,136.99,328,37.00,-38.00,-981.00
2024-06-07 15:26:34.480765,1,2,169,0,0,0,88,91,75,200,44,136.82,328,-13.00,-25.00,-970.00
2024-06-07 15:26:34.583531,1,2,163,0,0,0,88,91,74,200,44,136.89,328,9.00,-24.00,-1045.00
2024-06-07 15:26:34.763818,0,2,157,0,0,0,88,91,75,200,44,137.00,328,6.00,-35.00,-998.00
2024-06-07 15:26:34.763865,0,2,151,0,0,1,88,91,75,200,44,137.08,328,-42.00,17.00,-885.00
2024-06-07 15:26:34.837728,0,2,145,0,0,1,88,91,73,200,44,136.83,328,30.00,2.00,-926.00
2024-06-07 15:26:34.991023,1,2,139,0,0,1,88,91,72,200,44,136.67,328,51.00,-55.00,-1123.00
2024-06-07 15:26:35.041690,2,2,133,0,0,1,88,91,72,200,44,136.87,328,2.00,0.00,-1047.00
2024-06-07 15:26:35.143775,3,2,127,0,0,0,88,91,72,200,43,136.85,328,57.00,-29.00,-977.00
2024-06-07 15:26:35.246078,3,3,121,0,0,0,88,91,72,200,43,136.93,329,-25.00,8.00,-953.00
2024-06-07 15:26:35.348777,4,3,116,0,0,0,88,91,72,200,43,136.93,329,144.00,-91.00,-969.00
2024-06-07 15:26:35.451214,4,2,109,0,0,0,88,91,72,200,43,136.73,329,90.00,-15.00,-968.00
2024-06-07 15:26:35.553689,5,2,103,0,0,0,88,91,72,200,43,137.15,329,126.00,-65.00,-1114.00
2024-06-07 15:26:35.655944,5,1,97,0,0,0,88,91,73,200,43,136.73,329,15.00,-11.00,-1001.00
2024-06-07 15:26:35.755682,6,1,91,0,0,0,88,91,72,200,43,136.81,329,128.00,-54.00,-960.00
2024-06-07 15:26:35.858215,6,1,85,0,0,0,88,91,73,200,43,136.88,329,119.00,-39.00,-974.00
2024-06-07 15:26:35.959787,6,1,79,0,0,0,88,91,74,200,43,136.73,329,36.00,-36.00,-954.00
2024-06-07 15:26:36.096482,6,1,73,0,0,0,88,91,74,200,43,136.88,329,175.00,-70.00,-1043.00
2024-06-07 15:26:36.163653,5,1,67,0,0,0,88,91,73,200,43,136.76,329,60.00,-3.00,-990.00
2024-06-07 15:26:36.299788,6,0,62,0,0,0,88,91,72,200,43,136.81,330,87.00,3.00,-947.00
2024-06-07 15:26:36.367696,5,0,56,0,0,0,88,91,72,200,43,136.71,330,87.00,24.00,-948.00
2024-06-07 15:26:36.504631,5,0,50,0,0,1,88,91,71,200,43,136.55,330,-1.00,2.00,-1170.00
2024-06-07 15:26:36.571619,4,0,45,0,0,0,88,91,70,200,43,136.85,330,124.00,24.00,-947.00
2024-06-07 15:26:36.711009,4,0,41,0,0,0,88,91,70,190,43,136.83,330,106.00,52.00,-992.00
2024-06-07 15:26:36.777848,5,0,39,0,0,0,88,91,69,190,43,136.56,330,52.00,1.00,-1143.00
2024-06-07 15:26:36.877677,5,0,37,0,0,0,88,91,68,190,43,136.58,330,59.00,19.00,-995.00
2024-06-07 15:26:37.017889,5,0,35,0,0,0,88,91,68,190,43,136.64,330,95.00,-17.00,-1045.00
2024-06-07 15:26:37.081614,4,0,34,0,0,0,88,91,68,190,43,136.96,330,83.00,42.00,-950.00
2024-06-07 15:26:37.222671,4,0,33,0,0,0,88,91,67,190,43,136.51,330,77.00,58.00,-1025.00
2024-06-07 15:26:37.285753,5,0,32,0,0,0,88,91,67,190,43,136.80,331,65.00,12.00,-1008.00
2024-06-07 15:26:37.426333,5,0,31,0,0,0,88,91,66,190,43,136.80,331,138.00,-12.00,-959.00
2024-06-07 15:26:37.489651,4,0,31,0,0,0,88,91,66,190,43,136.79,331,141.00,-12.00,-1011.00
2024-06-07 15:26:37.591796,4,0,31,0,0,0,88,91,66,190,43,136.60,331,175.00,-29.00,-972.00
2024-06-07 15:26:37.733763,4,0,31,0,0,0,88,91,66,190,43,136.89,331,82.00,4.00,-984.00
2024-06-07 15:26:37.795697,4,0,31,0,0,0,88,91,66,190,43,136.93,331,111.00,37.00,-928.00
2024-06-07 15:26:37.938316,3,0,32,0,0,0,88,91,66,190,43,136.57,331,154.00,11.00,-981.00
2024-06-07 15:26:37.999633,3,0,31,0,0,0,87,92,66,190,43,136.77,331,52.00,11.00,-981.00
2024-06-07 15:26:38.143147,3,0,31,0,0,0,87,92,66,190,43,136.59,331,119.00,-19.00,-1144.00
2024-06-07 15:26:38.203668,4,0,31,0,0,0,87,92,67,190,42,136.77,331,100.00,-15.00,-1016.00
2024-06-07 15:26:38.349964,4,0,31,0,0,0,87,92,67,190,42,136.74,332,63.00,0.00,-994.00
2024-06-07 15:26:38.407788,4,0,31,0,0,0,87,92,67,190,42,136.49,332,38.00,15.00,-973.00
2024-06-07 15:26:38.552788,3,0,31,0,0,0,87,92,68,190,42,136.53,332,102.00,3.00,-941.00
2024-06-07 15:26:38.560663,3,0,31,0,0,0,87,92,68,190,42,136.75,332,108.00,5.00,-1047.00
2024-06-07 15:26:38.759151,4,0,31,0,0,0,87,92,67,190,42,136.59,332,138.00,27.00,-1010.00
2024-06-07 15:26:38.764606,4,0,31,0,0,0,87,92,67,190,42,136.98,332,64.00,16.00,-882.00
2024-06-07 15:26:38.962317,4,0,31,0,0,0,87,92,68,190,42,136.92,332,144.00,21.00,-912.00
2024-06-07 15:26:38.968582,3,0,31,0,0,0,87,91,67,190,42,136.93,332,39.00,12.00,-1031.00
2024-06-07 15:26:39.167104,3,0,31,0,0,0,87,91,68,190,42,136.78,332,63.00,38.00,-1018.00
2024-06-07 15:26:39.172703,3,0,31,0,0,0,87,91,68,190,42,136.88,332,66.00,12.00,-1029.00
2024-06-07 15:26:39.288432,3,0,31,0,0,0,87,91,69,190,42,136.60,333,132.00,58.00,-957.00
2024-06-07 15:26:39.376628,3,0,31,0,0,0,87,91,70,190,42,136.79,333,-7.00,86.00,-942.00
2024-06-07 15:26:39.478997,4,0,31,0,0,0,87,91,70,190,42,136.66,333,113.00,-18.00,-934.00
2024-06-07 15:26:39.580580,4,0,31,0,0,0,87,91,71,190,42,136.62,333,113.00,54.00,-939.00
2024-06-07 15:26:39.781437,4,0,31,0,0,0,87,91,72,190,42,136.50,333,139.00,37.00,-946.00
2024-06-07 15:26:39.784776,5,0,31,0,0,0,87,91,73,190,42,136.64,333,147.00,8.00,-915.00
2024-06-07 15:26:39.886467,5,0,31,0,0,0,87,91,73,190,42,136.77,333,152.00,28.00,-991.00
2024-06-07 15:26:39.988473,4,0,31,0,0,0,87,91,74,200,42,136.86,333,90.00,21.00,-949.00
2024-06-07 15:26:40.191018,4,-1,31,0,0,0,87,91,74,200,42,136.60,333,179.00,25.00,-1073.00
2024-06-07 15:26:40.192451,4,-1,31,0,0,0,87,91,74,200,42,136.61,333,82.00,-29.00,-1040.00
2024-06-07 15:26:40.396031,5,-1,31,0,0,0,87,91,74,200,42,136.83,334,25.00,89.00,-874.00
2024-06-07 15:26:40.396732,4,-1,31,0,0,0,87,91,74,200,42,136.63,334,102.00,2.00,-1100.00
2024-06-07 15:26:40.498507,4,-1,31,0,0,0,87,91,74,200,42,136.48,334,38.00,-11.00,-978.00
2024-06-07 15:26:40.600505,5,-1,31,0,0,0,87,91,73,200,42,136.87,334,42.00,56.00,-922.00
2024-06-07 15:26:40.702954,5,0,31,0,0,0,87,91,73,200,42,136.75,334,155.00,22.00,-948.00
2024-06-07 15:26:40.805139,5,-1,31,0,0,0,87,91,73,200,42,136.39,334,68.00,44.00,-960.00
2024-06-07 15:26:40.908070,5,-1,31,0,0,0,87,91,73,200,42,136.80,334,97.00,14.00,-990.00
2024-06-07 15:26:41.010429,5,0,31,0,0,0,88,91,73,200,42,137.10,334,86.00,26.00,-976.00
2024-06-07 15:26:41.110552,4,0,31,0,0,0,88,91,73,200,42,136.61,334,21.00,46.00,-972.00
2024-06-07 15:26:41.212415,4,-1,31,0,0,0,88,91,73,200,42,136.69,334,22.00,45.00,-980.00
2024-06-07 15:26:41.317438,4,-1,31,0,0,0,88,91,73,200,42,136.52,335,59.00,39.00,-1005.00
2024-06-07 15:26:41.416454,4,-1,31,0,0,0,88,91,74,200,42,136.50,335,172.00,19.00,-1048.00
2024-06-07 15:26:41.518574,4,-1,31,0,0,0,88,91,74,200,42,136.81,335,176.00,-53.00,-1019.00
2024-06-07 15:26:41.620520,4,-1,31,0,0,0,88,91,75,200,42,136.61,335,117.00,-20.00,-1081.00
2024-06-07 15:26:41.726979,4,-1,31,0,0,0,88,91,76,200,42,136.83,335,90.00,67.00,-874.00
2024-06-07 15:26:41.824849,4,-1,31,0,0,0,88,91,76,200,42,136.59,335,52.00,22.00,-991.00
2024-06-07 15:26:41.931904,4,-1,31,0,0,0,88,91,76,200,42,136.67,335,131.00,8.00,-980.00
2024-06-07 15:26:42.028461,4,-1,31,0,0,0,88,90,76,200,42,136.51,335,127.00,7.00,-954.00
2024-06-07 15:26:42.138318,4,0,31,0,0,0,88,90,75,200,42,136.97,335,39.00,51.00,-881.00
2024-06-07 15:26:42.232797,5,0,31,0,0,0,88,90,74,200,42,136.50,335,90.00,14.00,-997.00
2024-06-07 15:26:42.283303,4,0,31,0,0,0,88,90,73,200,42,136.70,336,61.00,23.00,-1025.00
2024-06-07 15:26:42.385356,4,0,31,0,0,0,88,90,72,200,42,136.50,336,18.00,75.00,-958.00
2024-06-07 15:26:42.547951,4,-1,31,0,0,0,88,90,70,200,42,136.50,336,107.00,42.00,-959.00
2024-06-07 15:26:42.590348,4,-1,31,0,0,0,88,90,69,200,42,136.64,336,66.00,-3.00,-991.00
2024-06-07 15:26:42.750991,4,-2,31,0,0,1,88,90,68,190,42,136.45,336,129.00,-6.00,-1093.00
2024-06-07 15:26:42.793366,4,-1,31,0,0,0,88,90,67,190,42,136.68,336,74.00,-57.00,-1013.00
2024-06-07 15:26:42.895522,5,0,31,0,0,0,88,90,66,190,42,136.96,336,160.00,-243.00,-1076.00
