TS,pitch,roll,yaw,vgx,vgy,vgz,templ,temph,tof,h,bat,baro,time,agx,agy,agz
2024-06-07 15:46:16.441808,2,0,0,0,0,0,73,75,10,0,79,137.83,0,34.00,-17.00,-998.00
2024-06-07 15:46:16.441945,2,1,0,0,0,0,73,75,10,0,79,137.82,0,34.00,-18.00,-998.00
2024-06-07 15:46:16.637234,2,0,0,0,0,0,73,75,10,0,79,137.81,0,35.00,-19.00,-997.00
2024-06-07 15:46:16.646708,2,0,0,0,0,0,73,76,10,0,79,137.79,0,36.00,-17.00,-1001.00
2024-06-07 15:46:16.838651,2,1,0,0,0,0,73,76,10,0,79,137.94,0,33.00,-17.00,-997.00
2024-06-07 15:46:16.850611,2,1,0,0,0,0,73,76,10,0,79,137.82,0,36.00,-17.00,-1000.00
2024-06-07 15:46:17.042815,2,0,0,0,0,0,73,76,10,0,79,137.77,0,35.00,-17.00,-1000.00
2024-06-07 15:46:17.054639,2,1,0,0,0,0,73,76,10,0,79,138.09,0,35.00,-17.00,-999.00
2024-06-07 15:46:17.156674,2,1,0,0,0,0,73,76,10,0,79,138.10,0,34.00,-16.00,-998.00
2024-06-07 15:46:17.351260,2,1,0,0,0,0,73,76,10,0,79,137.64,0,34.00,-19.00,-998.00
2024-06-07 15:46:17.360585,2,1,0,0,0,0,73,76,10,0,79,138.05,0,35.00,-17.00,-1001.00
2024-06-07 15:46:17.556055,2,1,0,0,0,0,73,76,10,0,79,137.92,0,34.00,-18.00,-998.00
2024-06-07 15:46:17.564684,2,1,0,0,0,0,73,76,10,0,79,137.73,0,34.00,-18.00,-997.00
2024-06-07 15:46:17.764576,2,1,0,0,0,0,73,76,10,0,79,137.74,0,35.00,-18.00,-999.00
2024-06-07 15:46:17.769700,2,1,0,0,0,0,73,76,10,0,79,138.06,0,34.00,-17.00,-999.00
2024-06-07 15:46:17.965134,2,1,0,0,0,0,73,76,10,0,79,138.01,0,35.00,-17.00,-996.00
2024-06-07 15:46:17.972614,2,1,0,0,0,0,73,76,10,0,79,137.79,0,34.00,-18.00,-997.00
2024-06-07 15:46:18.074664,2,1,0,0,0,0,73,76,10,0,79,137.68,0,35.00,-17.00,-999.00
2024-06-07 15:46:18.176727,2,1,0,0,0,0,73,76,10,0,79,137.81,0,35.00,-18.00,-998.00
2024-06-07 15:46:18.232150,2,1,0,0,0,0,73,76,10,0,79,137.95,0,34.00,-17.00,-999.00
2024-06-07 15:46:18.329897,2,1,0,0,0,0,73,76,10,0,79,138.21,0,34.00,-16.00,-999.00
2024-06-07 15:46:18.441869,2,1,0,0,0,0,73,76,10,0,79,137.89,0,34.00,-18.00,-996.00
2024-06-07 15:46:18.533649,2,1,0,0,0,0,73,76,10,0,79,137.91,0,34.00,-16.00,-999.00
2024-06-07 15:46:18.635461,2,1,0,0,0,0,73,76,10,0,79,138.02,0,35.00,-17.00,-1001.00
2024-06-07 15:46:18.787155,2,1,0,0,0,0,73,76,10,0,79,137.84,0,35.00,-17.00,-998.00
2024-06-07 15:46:18.846436,2,1,0,0,0,0,73,76,10,0,79,138.01,0,35.00,-18.00,-999.00
2024-06-07 15:46:18.941622,2,1,0,0,0,0,73,76,10,0,79,137.84,0,34.00,-17.00,-1001.00
2024-06-07 15:46:19.057386,2,1,0,0,0,0,73,76,10,0,79,137.68,0,34.00,-16.00,-998.00
2024-06-07 15:46:19.145719,2,1,0,0,0,0,73,76,10,0,79,137.84,0,35.00,-17.00,-999.00
2024-06-07 15:46:19.247534,2,1,0,0,0,0,73,76,10,0,79,137.83,0,35.00,-17.00,-999.00
2024-06-07 15:46:19.403624,2,1,0,0,0,0,73,76,10,0,79,137.74,0,36.00,-16.00,-998.00
2024-06-07 15:46:19.451476,2,1,0,0,0,0,73,76,10,0,79,137.70,0,34.00,-17.00,-998.00
2024-06-07 15:46:19.603724,2,1,0,0,0,0,73,76,10,0,79,137.84,0,34.00,-16.00,-997.00
2024-06-07 15:46:19.655500,2,1,0,0,0,0,74,75,10,0,79,137.77,0,35.00,-19.00,-999.00
2024-06-07 15:46:19.807474,2,1,0,0,0,0,74,75,10,0,79,137.87,0,33.00,-18.00,-997.00
2024-06-07 15:46:19.861383,2,1,0,0,0,0,74,75,10,0,79,137.90,0,34.00,-18.00,-998.00
2024-06-07 15:46:19.961765,2,1,0,0,0,0,74,75,10,0,79,137.86,0,34.00,-19.00,-1000.00
2024-06-07 15:46:20.068132,2,1,0,0,0,0,74,75,10,0,79,137.52,0,34.00,-17.00,-999.00
2024-06-07 15:46:20.165564,2,1,0,0,0,0,74,75,10,0,79,137.97,0,34.00,-17.00,-998.00
2024-06-07 15:46:20.328029,2,1,0,0,0,0,74,75,10,0,79,137.78,0,33.00,-16.00,-1000.00
2024-06-07 15:46:20.426512,2,1,0,0,0,0,74,75,10,0,79,137.94,0,35.00,-17.00,-997.00
2024-06-07 15:46:20.471728,2,1,0,0,0,0,74,75,10,0,79,137.92,0,34.00,-17.00,-1000.00
2024-06-07 15:46:20.643218,2,1,0,0,0,0,74,75,10,0,79,137.72,0,35.00,-17.00,-998.00
2024-06-07 15:46:20.675316,2,1,0,0,0,0,74,75,10,0,79,137.98,0,35.00,-16.00,-1001.00
2024-06-07 15:46:20.831414,2,1,0,0,0,0,74,75,10,0,79,137.82,0,35.00,-19.00,-998.00
2024-06-07 15:46:20.879544,2,1,0,0,0,0,74,75,10,0,79,137.74,0,34.00,-15.00,-1000.00
2024-06-07 15:46:21.042138,2,1,0,0,0,0,74,75,10,0,79,137.89,0,36.00,-17.00,-1002.00
2024-06-07 15:46:21.083377,2,1,0,0,0,0,74,75,10,0,79,137.83,0,34.00,-17.00,-1000.00
2024-06-07 15:46:21.185398,2,1,0,0,0,0,74,75,10,0,79,137.79,0,35.00,-17.00,-1002.00
2024-06-07 15:46:21.348578,2,1,0,0,0,0,74,75,10,0,79,138.02,0,34.00,-15.00,-1000.00
2024-06-07 15:46:21.398526,2,1,0,0,0,0,74,75,10,0,79,137.91,0,37.00,-20.00,-1000.00
2024-06-07 15:46:21.491221,1,0,0,0,0,0,74,75,10,0,79,137.91,0,21.00,-7.00,-995.00
2024-06-07 15:46:21.658390,1,0,0,0,0,0,74,75,10,0,79,137.91,0,58.00,-23.00,-1002.00
2024-06-07 15:46:21.695364,1,0,0,0,0,0,75,76,10,0,79,137.91,0,-5.00,6.00,-1010.00
2024-06-07 15:46:21.864814,1,0,-1,0,0,0,75,76,10,0,79,137.91,0,4.00,17.00,-1010.00
2024-06-07 15:46:21.864983,1,0,-1,0,0,0,75,76,10,0,79,137.91,0,40.00,-1.00,-1182.00
2024-06-07 15:46:21.951955,0,0,-1,0,0,-1,75,76,10,0,79,137.91,0,11.00,36.00,-1319.00
2024-06-07 15:46:22.064568,0,0,-1,0,0,-3,75,76,10,0,79,137.91,0,-8.00,37.00,-1233.00
2024-06-07 15:46:22.154168,0,-1,-1,0,0,-5,75,76,15,0,79,138.20,0,2.00,31.00,-1145.00
2024-06-07 15:46:22.257508,0,-2,-1,0,0,-7,75,76,23,0,79,138.58,0,-21.00,28.00,-1091.00
2024-06-07 15:46:22.361204,0,-2,-1,0,0,-7,75,76,32,10,79,138.21,1,-7.00,16.00,-1002.00
2024-06-07 15:46:22.462601,0,-1,-1,0,0,-7,75,76,38,20,79,138.39,1,-9.00,28.00,-928.00
2024-06-07 15:46:22.562194,0,-1,-1,0,0,-6,75,76,46,20,79,138.59,1,-10.00,10.00,-938.00
2024-06-07 15:46:22.664240,0,-1,-1,0,0,-6,75,77,53,30,79,138.58,1,-23.00,31.00,-901.00
2024-06-07 15:46:22.776873,0,-1,-1,0,0,-5,75,77,60,30,79,138.68,1,-40.00,53.00,-859.00
2024-06-07 15:46:22.879379,0,-1,-1,0,0,-4,75,77,65,40,79,138.65,1,-40.00,48.00,-862.00
2024-06-07 15:46:22.971453,-1,-2,-1,0,0,-2,75,77,70,40,79,138.82,1,-16.00,45.00,-956.00
2024-06-07 15:46:23.086226,-1,-3,-1,0,0,-2,75,77,74,40,79,138.92,1,0.00,21.00,-963.00
2024-06-07 15:46:23.175686,0,-2,-1,0,0,-1,75,77,77,40,79,138.86,1,44.00,4.00,-906.00
2024-06-07 15:46:23.276719,0,-1,-1,0,0,-1,75,77,79,50,79,138.75,1,1.00,36.00,-913.00
2024-06-07 15:46:23.391919,0,-1,-1,0,0,0,75,77,81,50,79,139.02,2,-12.00,45.00,-950.00
2024-06-07 15:46:23.480196,0,-1,-1,0,0,0,75,77,83,50,79,139.04,2,-24.00,24.00,-976.00
2024-06-07 15:46:23.598021,0,-1,-1,0,0,0,75,77,85,50,79,138.89,2,-38.00,36.00,-937.00
2024-06-07 15:46:23.684077,0,0,-1,0,0,0,75,77,86,50,79,139.09,2,-6.00,25.00,-1008.00
2024-06-07 15:46:23.803251,0,0,-1,0,0,0,75,77,87,50,78,138.78,2,-16.00,28.00,-992.00
2024-06-07 15:46:23.889383,0,0,-1,0,0,0,75,77,89,60,78,138.76,2,44.00,-7.00,-977.00
2024-06-07 15:46:24.005675,0,0,-1,0,0,0,75,77,90,60,78,138.84,2,4.00,17.00,-948.00
2024-06-07 15:46:24.092139,0,0,-1,0,0,0,75,77,91,60,78,138.87,2,27.00,-2.00,-951.00
2024-06-07 15:46:24.313721,0,0,-1,0,0,0,75,77,91,60,78,139.03,2,-4.00,18.00,-1019.00
2024-06-07 15:46:24.313786,0,0,-1,0,0,0,75,77,92,60,78,139.04,2,-12.00,28.00,-959.00
2024-06-07 15:46:24.412634,0,-1,-1,0,0,0,75,77,93,60,78,139.10,3,-26.00,1.00,-999.00
2024-06-07 15:46:24.500740,0,0,-1,0,0,0,75,77,93,60,78,138.75,3,-50.00,74.00,-899.00
2024-06-07 15:46:24.623767,0,0,-1,0,0,0,75,77,92,60,78,139.06,3,12.00,13.00,-951.00
2024-06-07 15:46:24.705776,0,0,-1,0,0,0,75,77,92,60,78,139.04,3,12.00,29.00,-917.00
2024-06-07 15:46:24.806200,0,0,-1,0,0,0,75,77,92,60,78,139.13,3,-1.00,-2.00,-959.00
2024-06-07 15:46:24.908117,0,0,-1,0,0,1,75,77,91,60,78,139.04,3,43.00,-17.00,-1051.00
2024-06-07 15:46:25.030282,0,-1,-1,0,0,0,75,77,91,60,78,138.88,3,4.00,36.00,-1025.00
2024-06-07 15:46:25.112691,0,-1,-1,0,0,1,75,77,90,60,78,138.84,3,4.00,-3.00,-1007.00
2024-06-07 15:46:25.163211,0,-1,-1,0,0,0,75,77,89,60,78,139.02,3,-49.00,17.00,-1026.00
2024-06-07 15:46:25.336788,0,0,-1,0,0,0,75,77,88,60,78,139.29,3,-44.00,38.00,-975.00
2024-06-07 15:46:25.367050,0,0,-1,0,0,0,75,77,88,60,78,139.06,4,-34.00,20.00,-999.00
2024-06-07 15:46:25.469502,0,0,-1,0,0,0,75,77,87,60,78,138.82,4,4.00,-9.00,-1039.00
2024-06-07 15:46:25.571741,0,0,-1,0,0,0,75,77,86,60,78,139.01,4,-11.00,21.00,-1000.00
2024-06-07 15:46:25.765056,0,0,-1,0,0,0,74,77,85,60,78,138.88,4,-32.00,12.00,-1007.00
2024-06-07 15:46:25.835845,0,0,-1,0,0,0,74,77,85,60,77,139.33,4,-17.00,25.00,-950.00
2024-06-07 15:46:25.927974,0,0,-1,0,0,0,74,77,84,60,77,138.85,4,23.00,7.00,-1024.00
2024-06-07 15:46:25.978908,0,0,-1,0,0,0,74,77,84,60,77,138.84,4,-35.00,21.00,-952.00
2024-06-07 15:46:26.158608,0,0,-1,0,0,0,74,77,83,60,77,138.98,4,-24.00,42.00,-1065.00
2024-06-07 15:46:26.182956,0,0,-1,0,0,0,74,77,83,60,77,139.09,4,-48.00,36.00,-1051.00
2024-06-07 15:46:26.360879,0,0,-1,0,0,0,74,77,82,60,77,139.12,5,7.00,12.00,-979.00
2024-06-07 15:46:26.386960,0,0,-1,0,0,0,74,77,81,50,77,138.98,5,-60.00,37.00,-990.00
2024-06-07 15:46:26.567786,0,0,-1,0,0,0,74,77,79,50,77,139.30,5,-34.00,-5.00,-987.00
2024-06-07 15:46:26.592219,0,0,-1,0,0,0,74,77,78,50,77,138.70,5,-40.00,31.00,-975.00
2024-06-07 15:46:26.772046,0,0,-1,0,0,0,75,77,78,50,77,138.79,5,-15.00,19.00,-990.00
2024-06-07 15:46:26.794863,0,0,-1,0,0,0,75,77,77,50,77,138.90,5,43.00,13.00,-971.00
2024-06-07 15:46:26.897092,0,0,-1,0,0,0,75,77,76,50,77,138.81,5,-16.00,35.00,-1060.00
2024-06-07 15:46:27.014586,0,-1,-1,0,0,0,75,77,75,50,77,139.09,5,8.00,11.00,-988.00
2024-06-07 15:46:27.105497,0,-1,-1,0,0,0,75,77,75,50,77,138.59,5,-30.00,33.00,-1047.00
2024-06-07 15:46:27.206180,0,-1,-1,0,0,0,75,77,74,50,77,139.13,5,-42.00,42.00,-1028.00
2024-06-07 15:46:27.322254,0,-2,-1,0,0,0,75,77,74,50,77,138.77,6,-30.00,64.00,-968.00
2024-06-07 15:46:27.411582,0,-2,-1,0,0,0,75,77,74,50,77,138.72,6,-29.00,44.00,-1033.00
2024-06-07 15:46:27.509724,0,-2,-1,0,0,0,75,77,75,50,77,138.90,6,-40.00,36.00,-977.00
2024-06-07 15:46:27.693161,0,-2,-1,0,0,0,75,77,75,50,77,138.94,6,-23.00,60.00,-981.00
2024-06-07 15:46:27.713342,0,-2,-1,0,0,0,75,77,75,50,77,138.85,6,-2.00,30.00,-997.00
2024-06-07 15:46:27.896876,0,-1,-1,0,0,0,75,77,76,50,76,138.79,6,37.00,11.00,-1081.00
2024-06-07 15:46:27.917668,0,-1,-1,0,0,0,75,77,76,50,76,138.90,6,45.00,-25.00,-1041.00
2024-06-07 15:46:28.101981,0,-1,-1,0,0,0,75,77,76,50,76,138.67,6,-35.00,52.00,-999.00
2024-06-07 15:46:28.120987,0,-1,-1,0,0,0,75,77,76,50,76,138.68,6,2.00,36.00,-1058.00
2024-06-07 15:46:28.307540,0,-1,-1,0,0,0,75,77,77,50,76,138.75,6,-88.00,63.00,-966.00
2024-06-07 15:46:28.325103,0,-1,-1,0,0,0,75,77,77,50,76,138.88,7,-20.00,6.00,-1014.00
2024-06-07 15:46:28.427105,0,-1,-1,0,0,0,75,77,78,50,76,138.84,7,-46.00,42.00,-955.00
2024-06-07 15:46:28.529124,0,-1,-1,0,0,0,75,77,77,50,76,138.77,7,-64.00,44.00,-974.00
2024-06-07 15:46:28.631424,0,-1,-1,0,0,0,75,77,78,50,76,139.18,7,-41.00,44.00,-928.00
2024-06-07 15:46:28.733972,-1,0,-1,0,0,0,76,77,78,50,76,138.79,7,-91.00,48.00,-1027.00
2024-06-07 15:46:28.835473,-1,0,-1,0,0,0,76,77,78,50,76,138.76,7,-13.00,25.00,-958.00
2024-06-07 15:46:28.948267,-1,0,-1,0,0,0,76,77,78,50,76,139.04,7,15.00,11.00,-1017.00
2024-06-07 15:46:28.988163,0,-1,-1,0,0,0,76,77,79,50,76,138.89,7,-22.00,57.00,-1009.00
2024-06-07 15:46:29.131560,0,-1,-1,0,0,0,76,77,78,50,76,138.62,7,-61.00,11.00,-985.00
2024-06-07 15:46:29.191947,-1,-1,-1,0,0,0,76,77,79,50,76,138.72,7,57.00,-14.00,-1057.00
2024-06-07 15:46:29.294084,-1,-1,-1,0,0,0,76,77,79,50,76,138.78,8,8.00,3.00,-1021.00
2024-06-07 15:46:29.433160,-1,0,-1,0,0,0,76,77,78,50,76,138.84,8,-42.00,31.00,-985.00
2024-06-07 15:46:29.498126,-1,0,-1,0,0,0,76,77,78,50,76,139.05,8,-53.00,42.00,-1009.00
2024-06-07 15:46:29.602494,-1,0,-1,0,0,0,76,77,79,50,76,139.11,8,-40.00,16.00,-1005.00
2024-06-07 15:46:29.702057,-1,0,-1,0,0,0,75,78,78,50,76,138.90,8,-85.00,70.00,-971.00
2024-06-07 15:46:29.845914,-1,0,-1,0,0,0,75,78,78,50,75,138.76,8,-32.00,17.00,-995.00
2024-06-07 15:46:29.905891,0,0,-1,0,0,0,75,78,78,50,75,139.32,8,46.00,-16.00,-992.00
2024-06-07 15:46:30.007951,0,0,-1,0,0,0,75,78,78,50,75,138.88,8,-42.00,24.00,-1024.00
2024-06-07 15:46:30.153100,0,0,-1,0,0,0,75,78,78,50,75,138.83,8,51.00,-11.00,-1022.00
2024-06-07 15:46:30.211875,0,0,-1,0,0,-1,75,78,79,50,75,138.61,8,-36.00,37.00,-1118.00
2024-06-07 15:46:30.354651,0,0,-1,0,0,-2,75,78,82,50,75,138.81,9,37.00,-18.00,-1157.00
2024-06-07 15:46:30.415986,0,0,-1,0,0,-3,75,78,86,60,75,138.91,9,14.00,0.00,-1095.00
2024-06-07 15:46:30.559966,0,-1,-1,0,0,-4,75,78,90,60,75,139.16,9,9.00,-32.00,-1087.00
2024-06-07 15:46:30.620419,0,-1,-1,0,0,-4,75,78,95,60,75,139.03,9,8.00,16.00,-1051.00
2024-06-07 15:46:30.764020,0,-1,-1,0,0,-5,75,79,101,70,75,139.05,9,-5.00,28.00,-1030.00
2024-06-07 15:46:30.824603,0,0,-1,0,0,-5,75,79,106,80,75,139.53,9,-10.00,20.00,-1012.00
2024-06-07 15:46:30.969703,0,0,-1,0,0,-6,75,79,113,80,75,139.34,9,-17.00,17.00,-951.00
2024-06-07 15:46:31.027864,0,0,-1,0,0,-5,75,79,119,90,75,139.27,9,-40.00,26.00,-1021.00
2024-06-07 15:46:31.129796,0,0,-1,0,0,-5,75,79,125,90,75,139.14,9,6.00,31.00,-951.00
2024-06-07 15:46:31.276836,0,0,-1,0,0,-5,75,79,130,100,75,139.38,9,50.00,-32.00,-958.00
2024-06-07 15:46:31.339459,1,0,-1,0,0,-5,75,79,136,110,75,139.42,10,26.00,0.00,-1045.00
2024-06-07 15:46:31.436085,1,0,-1,0,0,-5,75,79,141,110,75,139.80,10,17.00,-17.00,-935.00
2024-06-07 15:46:31.583137,1,0,-1,0,0,-4,75,79,144,120,75,139.59,10,31.00,-6.00,-960.00
2024-06-07 15:46:31.639712,0,0,-1,0,0,-4,75,79,149,120,75,139.59,10,23.00,1.00,-953.00
2024-06-07 15:46:31.793623,0,0,-1,0,0,-3,76,79,152,120,75,139.79,10,12.00,0.00,-956.00
2024-06-07 15:46:31.843772,0,0,-1,0,0,-3,76,79,154,130,74,139.72,10,-34.00,9.00,-957.00
2024-06-07 15:46:31.946160,0,0,-1,0,0,-2,76,79,158,130,74,139.65,10,17.00,-34.00,-1047.00
2024-06-07 15:46:32.096010,-1,0,-1,0,0,-2,76,79,159,130,74,139.40,10,-40.00,31.00,-1023.00
2024-06-07 15:46:32.149900,-1,0,-1,0,0,-2,76,79,162,130,74,139.62,10,7.00,15.00,-983.00
2024-06-07 15:46:32.251738,-1,0,-1,0,0,-1,76,79,163,140,74,139.55,10,-41.00,-6.00,-993.00
2024-06-07 15:46:32.402630,-1,0,-1,0,0,-1,76,79,167,140,74,139.64,11,-69.00,39.00,-980.00
2024-06-07 15:46:32.455639,-1,0,-1,0,0,-1,76,79,167,140,74,139.68,11,1.00,8.00,-935.00
2024-06-07 15:46:32.607588,-1,0,-1,0,0,-1,76,79,171,140,74,139.69,11,-47.00,30.00,-996.00
2024-06-07 15:46:32.609021,-1,0,-1,0,0,-1,76,79,170,140,74,139.64,11,25.00,-24.00,-1031.00
2024-06-07 15:46:32.812464,0,0,-1,0,0,-1,76,78,171,140,74,139.37,11,-15.00,1.00,-1048.00
2024-06-07 15:46:32.864645,0,0,-1,0,0,-1,76,78,172,140,74,139.64,11,-40.00,21.00,-1002.00
2024-06-07 15:46:33.019737,0,0,-1,0,0,-1,76,78,175,150,74,139.64,11,-114.00,34.00,-939.00
2024-06-07 15:46:33.067831,0,0,-1,0,0,0,76,78,173,150,74,139.70,11,-18.00,33.00,-959.00
2024-06-07 15:46:33.119480,0,0,-1,0,0,0,76,78,175,150,74,139.55,11,-80.00,35.00,-916.00
2024-06-07 15:46:33.221657,0,0,-1,0,0,0,76,78,175,150,74,139.80,11,20.00,3.00,-1051.00
2024-06-07 15:46:33.335065,0,0,-1,0,0,0,76,78,176,150,74,139.56,12,-15.00,23.00,-921.00
2024-06-07 15:46:33.426330,1,0,-1,0,0,0,76,78,174,150,74,139.74,12,-78.00,19.00,-962.00
2024-06-07 15:46:33.527054,0,0,-1,0,0,0,76,78,176,150,74,139.83,12,-37.00,13.00,-999.00
2024-06-07 15:46:33.632153,0,0,-1,0,0,0,76,78,175,150,74,139.70,12,5.00,0.00,-1025.00
2024-06-07 15:46:33.730912,0,0,-1,0,0,0,76,77,175,150,73,139.77,12,-13.00,22.00,-983.00
2024-06-07 15:46:33.836144,0,0,-1,0,0,0,76,77,174,150,73,139.72,12,3.00,-13.00,-958.00
2024-06-07 15:46:33.939804,0,0,-1,0,0,0,76,77,175,150,73,139.31,12,-37.00,8.00,-1025.00
2024-06-07 15:46:34.036865,0,0,-1,0,0,0,76,77,173,150,73,139.48,12,-48.00,19.00,-978.00
2024-06-07 15:46:34.138988,-1,0,-1,0,0,0,76,77,174,150,73,139.88,12,-17.00,-18.00,-1033.00
2024-06-07 15:46:34.248275,-2,-1,-1,0,0,0,76,77,177,150,73,139.81,12,-11.00,-10.00,-998.00
2024-06-07 15:46:34.342761,-2,-1,-1,0,0,0,76,77,175,150,73,139.46,13,-31.00,-27.00,-1031.00
2024-06-07 15:46:34.451503,-2,-1,-1,0,0,0,76,77,175,150,73,139.80,13,-74.00,-30.00,-983.00
2024-06-07 15:46:34.547168,-2,0,-1,0,0,0,76,77,177,150,73,139.88,13,-46.00,-19.00,-970.00
2024-06-07 15:46:34.649369,-2,0,-1,0,0,0,76,77,178,150,73,139.37,13,-98.00,12.00,-975.00
2024-06-07 15:46:34.758168,-2,0,-1,-1,0,0,76,79,179,150,73,139.63,13,-11.00,-9.00,-964.00
2024-06-07 15:46:34.852765,-3,2,-1,0,0,0,76,79,179,150,73,139.48,13,-29.00,12.00,-1013.00
2024-06-07 15:46:34.962787,-2,1,-1,0,0,0,76,79,181,150,73,139.66,13,-82.00,57.00,-943.00
2024-06-07 15:46:35.059528,-2,0,-1,0,0,0,76,79,180,150,73,140.03,13,-55.00,42.00,-950.00
2024-06-07 15:46:35.158547,-2,-1,-1,0,0,0,76,79,182,150,73,139.46,13,-33.00,8.00,-1000.00
2024-06-07 15:46:35.269578,-2,-1,-1,0,0,0,76,79,183,150,73,139.62,13,-41.00,10.00,-988.00
2024-06-07 15:46:35.362504,-2,-1,-1,0,0,0,76,79,182,150,73,139.48,14,-43.00,4.00,-979.00
2024-06-07 15:46:35.474300,-3,0,-1,0,0,0,76,79,183,150,73,139.75,14,1.00,7.00,-924.00
2024-06-07 15:46:35.566605,-3,0,-1,0,0,0,76,79,183,150,73,139.38,14,19.00,-14.00,-982.00
2024-06-07 15:46:35.668478,-2,0,-1,0,0,1,76,79,181,150,73,139.81,14,-46.00,-29.00,-944.00
2024-06-07 15:46:35.782154,-2,0,-1,0,0,1,76,79,179,150,72,139.50,14,-44.00,-5.00,-912.00
2024-06-07 15:46:35.872511,-1,0,-1,0,0,2,76,79,177,150,72,139.51,14,0.00,-22.00,-983.00
2024-06-07 15:46:35.974747,-2,0,-1,0,0,2,76,79,172,150,72,139.71,14,-56.00,50.00,-992.00
2024-06-07 15:46:36.088692,-2,0,-1,0,0,2,76,79,168,140,72,139.64,14,-19.00,48.00,-961.00
2024-06-07 15:46:36.181883,-1,-1,-1,0,0,3,76,79,167,140,72,139.56,14,-75.00,37.00,-1002.00
2024-06-07 15:46:36.332503,-1,-2,-1,0,0,3,76,79,161,140,72,139.44,14,-106.00,31.00,-932.00
2024-06-07 15:46:36.382451,-1,-1,-1,0,0,3,76,79,157,130,72,139.51,15,-81.00,21.00,-933.00
2024-06-07 15:46:36.515908,-2,0,-1,0,0,3,76,79,153,130,72,139.45,15,-31.00,9.00,-1052.00
2024-06-07 15:46:36.654983,-3,0,-1,0,0,3,76,79,150,130,72,139.34,15,-74.00,13.00,-995.00
2024-06-07 15:46:36.655948,-4,0,-1,0,0,3,76,79,145,120,72,139.29,15,-93.00,13.00,-1036.00
2024-06-07 15:46:36.823175,-4,-1,-1,0,0,3,77,79,141,120,72,139.49,15,-115.00,13.00,-965.00
2024-06-07 15:46:36.973833,-4,-1,-1,0,0,2,77,79,138,110,72,139.23,15,-60.00,-11.00,-1085.00
2024-06-07 15:46:36.994333,-4,0,-1,0,0,2,77,79,137,110,72,138.93,15,-70.00,16.00,-1006.00
2024-06-07 15:46:37.113764,-4,0,-1,0,0,2,77,79,134,110,72,139.21,15,-40.00,-6.00,-1008.00
2024-06-07 15:46:37.257437,-3,0,-1,0,0,1,77,79,133,110,72,139.09,15,-56.00,-23.00,-1084.00
2024-06-07 15:46:37.257648,-3,0,-1,0,0,1,77,79,131,110,72,139.19,15,-76.00,-3.00,-998.00
2024-06-07 15:46:37.434915,-3,0,-1,0,0,1,77,79,130,100,72,139.19,16,-78.00,27.00,-994.00
2024-06-07 15:46:37.453399,-3,0,-1,0,0,0,77,79,131,100,72,139.35,16,-52.00,25.00,-1060.00
2024-06-07 15:46:37.568999,-3,0,-1,0,0,0,77,79,132,100,72,139.16,16,7.00,-9.00,-1009.00
2024-06-07 15:46:37.741593,-2,0,-1,0,0,0,77,79,133,100,72,139.11,16,-3.00,1.00,-998.00
2024-06-07 15:46:37.760714,-2,0,-1,0,0,0,77,79,133,100,71,139.08,16,-83.00,2.00,-1046.00
2024-06-07 15:46:37.882190,-2,0,-1,0,0,0,77,79,132,100,71,139.12,16,-99.00,19.00,-1014.00
2024-06-07 15:46:38.055074,-2,0,-1,0,0,0,77,79,133,110,71,139.47,16,-26.00,-6.00,-994.00
2024-06-07 15:46:38.066251,-2,0,-1,0,0,0,77,79,134,110,71,139.09,16,-13.00,-25.00,-966.00
2024-06-07 15:46:38.198652,-2,0,-1,0,0,0,77,79,134,110,71,139.01,16,-37.00,-7.00,-1012.00
2024-06-07 15:46:38.365788,-2,0,-1,0,0,0,77,79,133,110,71,139.00,16,-44.00,-30.00,-941.00
2024-06-07 15:46:38.371381,-1,0,-1,0,0,0,77,79,132,110,71,139.58,17,-48.00,-13.00,-981.00
2024-06-07 15:46:38.495861,-1,1,-1,0,0,0,77,79,133,110,71,139.04,17,-78.00,25.00,-980.00
2024-06-07 15:46:38.659730,-1,0,-1,0,0,0,77,79,132,110,71,139.02,17,-47.00,2.00,-975.00
2024-06-07 15:46:38.677324,-1,0,-1,0,0,0,77,79,131,110,71,139.44,17,-74.00,-10.00,-1024.00
2024-06-07 15:46:38.818866,-1,0,-1,0,0,0,75,80,131,110,71,139.47,17,-60.00,-12.00,-994.00
2024-06-07 15:46:38.891074,-1,0,-1,0,0,0,75,80,132,110,71,139.11,17,-44.00,6.00,-1016.00
2024-06-07 15:46:38.984736,-2,0,-1,0,0,0,75,80,131,100,71,139.37,17,-4.00,0.00,-1041.00
2024-06-07 15:46:39.160851,-1,0,-1,0,0,0,75,80,131,100,71,139.12,17,-9.00,-14.00,-1063.00
2024-06-07 15:46:39.189808,-1,0,-1,0,0,0,75,80,132,100,71,139.16,17,4.00,-10.00,-1026.00
2024-06-07 15:46:39.289258,-1,0,-1,0,0,0,75,80,132,100,71,139.20,17,-33.00,3.00,-1023.00
2024-06-07 15:46:39.467969,-1,0,-1,0,0,0,75,80,131,100,71,139.15,18,-59.00,6.00,-1044.00
2024-06-07 15:46:39.493256,-2,0,-1,0,0,0,75,80,133,100,71,139.17,18,47.00,-14.00,-966.00
2024-06-07 15:46:39.673072,-7,0,-1,0,0,0,75,80,134,100,71,139.19,18,-87.00,31.00,-980.00
2024-06-07 15:46:39.697320,-8,0,-1,1,0,0,75,80,133,100,71,139.00,18,-19.00,-12.00,-1060.00
2024-06-07 15:46:39.799278,-8,0,-1,3,0,0,76,79,132,100,70,139.16,18,-39.00,0.00,-984.00
2024-06-07 15:46:39.979971,-8,0,-1,4,0,0,76,79,131,100,70,139.04,18,0.00,-27.00,-1081.00
2024-06-07 15:46:40.003293,-8,0,-1,4,0,0,76,79,132,100,70,139.22,18,-54.00,-18.00,-995.00
2024-06-07 15:46:40.185424,-8,0,-1,5,0,0,76,79,131,100,70,139.15,18,-36.00,-22.00,-1005.00
2024-06-07 15:46:40.208616,-8,0,-1,6,0,0,76,79,130,100,70,138.99,18,-123.00,-3.00,-993.00
2024-06-07 15:46:40.390815,-8,0,-1,7,0,0,76,79,129,100,70,138.97,18,-113.00,19.00,-972.00
2024-06-07 15:46:40.411226,-5,0,-1,7,0,0,76,79,127,100,70,139.12,19,-79.00,2.00,-986.00
2024-06-07 15:46:40.462274,-1,0,-1,7,0,0,76,79,127,100,70,139.15,19,-147.00,40.00,-954.00
2024-06-07 15:46:40.594251,1,0,-1,6,0,0,76,79,128,100,70,139.12,19,-60.00,1.00,-962.00
2024-06-07 15:46:40.666297,2,-1,-1,5,0,0,76,79,126,100,70,139.11,19,-64.00,10.00,-1057.00
2024-06-07 15:46:40.819217,0,0,-1,4,0,0,77,79,126,100,70,139.21,19,-23.00,11.00,-917.00
2024-06-07 15:46:41.004112,0,-1,-1,4,0,0,77,79,125,100,70,138.92,19,-108.00,43.00,-951.00
2024-06-07 15:46:41.023064,0,0,-1,3,0,0,77,79,124,100,70,139.28,19,-118.00,62.00,-1003.00
2024-06-07 15:46:41.125272,-1,-1,-1,2,0,0,77,79,123,100,70,139.21,19,-72.00,52.00,-1022.00
2024-06-07 15:46:41.311431,-1,-3,-1,2,0,0,77,79,122,100,70,139.08,19,7.00,7.00,-1021.00
2024-06-07 15:46:41.311485,-1,-5,-1,2,0,0,77,79,122,100,70,138.73,20,6.00,16.00,-1046.00
2024-06-07 15:46:41.384601,-1,-5,-1,2,0,0,77,79,122,100,70,138.84,20,4.00,22.00,-1078.00
2024-06-07 15:46:41.482242,-1,-4,-1,1,0,0,77,79,122,100,70,139.05,20,-30.00,44.00,-1033.00
2024-06-07 15:46:41.618238,-1,-3,-1,1,0,0,77,79,122,100,70,138.98,20,-71.00,51.00,-1005.00
2024-06-07 15:46:41.686213,-1,-3,-1,1,0,0,77,79,123,100,70,139.03,20,-47.00,48.00,-967.00
2024-06-07 15:46:41.788138,1,0,-1,1,0,0,76,79,122,100,69,139.52,20,-39.00,7.00,-1001.00
2024-06-07 15:46:41.890241,0,0,-1,0,0,0,76,79,123,100,69,138.88,20,-10.00,-39.00,-1009.00
2024-06-07 15:46:41.992352,-1,0,-1,0,0,0,76,79,122,100,69,139.07,20,33.00,-65.00,-997.00
2024-06-07 15:46:42.094695,-1,1,-1,0,0,0,76,79,122,100,69,139.18,20,16.00,-21.00,-1022.00
2024-06-07 15:46:42.236348,-1,0,-1,0,0,0,76,79,124,100,69,139.33,20,3.00,-1.00,-954.00
2024-06-07 15:46:42.298376,0,0,-2,0,0,0,76,79,124,100,69,139.36,21,-66.00,-9.00,-978.00
2024-06-07 15:46:42.400255,-1,0,-1,0,0,0,76,79,123,100,69,139.24,21,-44.00,-50.00,-994.00
2024-06-07 15:46:42.505569,-1,1,-1,0,-1,0,76,79,124,100,69,139.60,21,-4.00,-60.00,-971.00
2024-06-07 15:46:42.604661,-1,2,-1,0,-1,0,76,79,125,100,69,139.16,21,-14.00,-10.00,-1007.00
2024-06-07 15:46:42.706913,0,2,-1,0,0,0,76,79,126,100,69,139.37,21,0.00,-40.00,-1015.00
2024-06-07 15:46:42.808228,0,2,-1,0,0,0,77,79,125,100,69,139.38,21,-51.00,-8.00,-969.00
2024-06-07 15:46:42.910218,0,1,-1,0,0,0,77,79,126,100,69,139.40,21,-76.00,57.00,-990.00
2024-06-07 15:46:43.051943,-1,0,-1,0,0,0,77,79,126,100,69,139.33,21,21.00,-55.00,-992.00
2024-06-07 15:46:43.114318,-1,0,-1,0,0,0,77,79,127,100,69,139.09,21,46.00,-39.00,-1014.00
2024-06-07 15:46:43.359172,-1,1,-1,0,0,0,77,79,126,100,69,139.09,21,35.00,-38.00,-1001.00
2024-06-07 15:46:43.359831,-1,0,-1,0,0,0,77,79,127,100,69,139.38,22,-29.00,-24.00,-1021.00
2024-06-07 15:46:43.421418,-2,0,-1,0,0,0,77,79,127,100,69,139.07,22,-69.00,7.00,-1004.00
2024-06-07 15:46:43.566979,-2,0,-1,0,0,0,77,79,129,100,69,139.30,22,-86.00,-13.00,-986.00
2024-06-07 15:46:43.624284,-3,0,-1,0,0,0,77,79,127,100,69,139.13,22,-71.00,22.00,-953.00
2024-06-07 15:46:43.770815,-3,0,-1,0,0,0,77,79,128,100,69,139.38,22,38.00,-23.00,-1042.00
2024-06-07 15:46:43.828296,-2,0,-1,0,0,0,77,79,129,100,68,139.22,22,-13.00,-23.00,-1019.00
2024-06-07 15:46:43.945211,-1,0,-1,0,0,0,77,79,128,100,68,138.94,22,-43.00,1.00,-1041.00
2024-06-07 15:46:44.032227,-1,0,-1,0,0,0,77,79,127,100,68,139.16,22,-84.00,22.00,-1006.00
2024-06-07 15:46:44.179240,0,0,-1,0,0,0,77,79,129,100,68,139.20,22,-32.00,22.00,-976.00
2024-06-07 15:46:44.236188,5,-1,-1,0,0,0,77,79,128,100,68,139.12,22,6.00,-19.00,-1015.00
2024-06-07 15:46:44.486764,7,-1,-1,-1,0,0,77,79,130,100,68,139.12,23,-42.00,15.00,-1030.00
2024-06-07 15:46:44.486946,7,0,-1,-3,0,0,77,79,132,100,68,139.27,23,-10.00,-14.00,-1087.00
2024-06-07 15:46:44.491061,7,0,-1,-4,0,0,77,79,131,100,68,139.47,23,3.00,11.00,-1075.00
2024-06-07 15:46:44.690440,7,0,-1,-5,0,0,77,79,132,100,68,139.28,23,-54.00,54.00,-1014.00
2024-06-07 15:46:44.695061,6,0,-1,-6,0,0,77,79,132,100,68,139.51,23,16.00,6.00,-972.00
2024-06-07 15:46:44.895106,5,-1,-1,-7,0,0,77,80,131,100,68,139.41,23,5.00,22.00,-966.00
2024-06-07 15:46:44.950724,3,0,-1,-7,0,0,77,80,133,100,68,139.46,23,43.00,8.00,-1029.00
2024-06-07 15:46:45.001684,1,0,-1,-8,0,0,77,80,132,100,68,139.71,23,12.00,5.00,-1048.00
2024-06-07 15:46:45.104159,-1,0,-1,-8,0,0,77,80,133,100,68,139.48,23,-16.00,46.00,-960.00
2024-06-07 15:46:45.205089,-4,0,-1,-8,0,0,77,80,133,100,68,139.51,23,-9.00,39.00,-991.00
2024-06-07 15:46:45.307268,-6,0,-1,-7,0,0,77,80,133,100,68,139.32,24,-29.00,-17.00,-960.00
2024-06-07 15:46:45.409298,-7,0,-1,-5,0,0,77,80,135,110,68,139.49,24,-5.00,-21.00,-1018.00
2024-06-07 15:46:45.511030,-5,0,-1,-4,0,0,77,80,136,110,68,139.48,24,25.00,-4.00,-1025.00
2024-06-07 15:46:45.613776,-4,0,-1,-4,0,0,77,80,135,110,68,139.35,24,-19.00,-3.00,-1009.00
2024-06-07 15:46:45.715113,-4,0,-1,-4,0,0,77,80,135,110,68,139.55,24,-57.00,6.00,-922.00
2024-06-07 15:46:45.816941,-4,0,-1,-3,0,0,77,80,138,110,67,139.34,24,-103.00,23.00,-965.00
2024-06-07 15:46:45.919011,-8,0,-1,-3,0,0,77,80,139,110,67,139.50,24,51.00,-28.00,-1001.00
2024-06-07 15:46:46.021198,-8,0,-1,-1,0,0,77,80,138,110,67,139.19,24,-31.00,13.00,-1003.00
2024-06-07 15:46:46.124210,-5,-1,-1,0,0,0,77,80,138,110,67,139.39,24,-53.00,39.00,-1007.00
2024-06-07 15:46:46.331256,-3,0,-1,0,0,0,77,80,136,110,67,139.30,24,-58.00,25.00,-957.00
2024-06-07 15:46:46.331291,-2,0,-1,0,0,0,77,80,135,110,67,139.35,25,-5.00,-26.00,-974.00
2024-06-07 15:46:46.429127,-2,0,-1,0,0,0,77,80,133,110,67,139.29,25,-46.00,22.00,-1007.00
2024-06-07 15:46:46.536265,-1,0,-1,0,0,0,77,80,133,110,67,139.35,25,-23.00,51.00,-1005.00
2024-06-07 15:46:46.639945,-1,0,-1,0,0,0,77,80,133,110,67,139.54,25,-58.00,16.00,-967.00
2024-06-07 15:46:46.736111,-2,-1,-1,0,0,0,77,80,133,110,67,139.50,25,-31.00,14.00,-982.00
2024-06-07 15:46:46.841600,-2,-1,-1,0,0,0,78,81,133,110,67,139.28,25,-33.00,36.00,-1020.00
2024-06-07 15:46:46.940500,-2,-1,-1,0,0,0,78,81,132,110,67,139.03,25,-19.00,45.00,-1010.00
2024-06-07 15:46:47.048991,-1,-1,-1,0,0,0,78,81,132,100,67,139.21,25,-64.00,31.00,-985.00
2024-06-07 15:46:47.144420,-1,-1,-1,0,0,0,78,81,133,100,67,139.19,25,-59.00,13.00,-1003.00
2024-06-07 15:46:47.246042,-1,-1,-1,0,0,0,78,81,132,110,67,139.16,25,-41.00,32.00,-994.00
2024-06-07 15:46:47.349730,-1,0,-1,0,0,0,78,81,133,110,67,139.36,26,-47.00,-6.00,-1017.00
2024-06-07 15:46:47.450191,-1,0,-1,0,0,0,78,81,132,110,67,139.36,26,-44.00,11.00,-981.00
2024-06-07 15:46:47.557811,-2,0,-1,0,0,0,78,81,131,110,67,139.17,26,-72.00,34.00,-978.00
2024-06-07 15:46:47.654095,-3,-1,-1,-1,0,0,78,81,130,110,67,139.18,26,-42.00,6.00,-1010.00
2024-06-07 15:46:47.756439,-4,-2,-1,0,0,0,78,81,130,100,66,139.26,26,-41.00,-2.00,-1000.00
2024-06-07 15:46:47.865558,-4,-2,-1,-1,0,0,78,80,129,100,66,139.55,26,-35.00,39.00,-990.00
2024-06-07 15:46:47.967206,-5,-2,-1,0,0,0,78,80,128,100,66,139.13,26,-21.00,42.00,-977.00
2024-06-07 15:46:48.275024,-4,-2,-1,0,0,0,78,80,129,100,66,139.58,26,-98.00,74.00,-1047.00
2024-06-07 15:46:48.275214,-4,-3,-1,0,0,0,78,80,129,100,66,139.47,26,-76.00,56.00,-1034.00
2024-06-07 15:46:48.275272,-4,-3,-1,0,0,0,78,80,127,100,66,139.30,26,-87.00,85.00,-973.00
2024-06-07 15:46:48.368038,-3,-3,-1,0,0,0,78,80,127,100,66,139.41,27,-90.00,72.00,-1008.00
2024-06-07 15:46:48.420364,-3,-4,-1,0,0,0,78,80,127,100,66,139.41,27,-91.00,123.00,-903.00
2024-06-07 15:46:48.522775,-2,-7,-1,0,0,0,78,80,127,100,66,139.35,27,-95.00,63.00,-1009.00
2024-06-07 15:46:48.622835,-2,-8,0,0,0,0,78,80,127,100,66,139.50,27,-38.00,80.00,-1106.00
2024-06-07 15:46:48.724874,-2,-8,-1,0,0,0,78,80,128,100,66,139.18,27,-32.00,70.00,-1026.00
2024-06-07 15:46:48.826860,-2,-8,-1,0,-1,0,77,80,128,100,66,139.13,27,-70.00,70.00,-1057.00
2024-06-07 15:46:48.928858,-1,-7,-1,0,-2,0,77,80,130,100,66,138.85,27,-33.00,6.00,-987.00
2024-06-07 15:46:49.030817,-2,-4,-1,0,-3,0,77,80,128,100,66,139.11,27,-43.00,13.00,-1013.00
2024-06-07 15:46:49.132957,-2,-1,-1,0,-3,0,77,80,129,100,66,139.57,27,-21.00,16.00,-992.00
2024-06-07 15:46:49.300950,-2,-1,-1,0,-3,0,77,80,131,100,66,139.34,27,-65.00,50.00,-959.00
2024-06-07 15:46:49.337925,-3,-1,-1,0,-2,0,77,80,130,100,66,139.33,28,0.00,41.00,-944.00
2024-06-07 15:46:49.503087,-2,-1,-1,0,-2,0,77,80,130,100,66,139.23,28,-27.00,61.00,-1010.00
2024-06-07 15:46:49.540826,-1,-1,-1,0,-2,0,77,80,131,100,66,139.46,28,-84.00,93.00,-923.00
2024-06-07 15:46:49.707853,-1,-1,-1,0,-2,0,77,80,130,100,66,139.33,28,-62.00,70.00,-1003.00
2024-06-07 15:46:49.744785,-1,-2,-1,0,-2,0,77,80,130,100,65,139.16,28,-39.00,74.00,-932.00
2024-06-07 15:46:49.915332,-1,-2,-1,0,-1,0,77,81,130,100,65,139.26,28,23.00,32.00,-1047.00
2024-06-07 15:46:49.948766,-1,-3,-1,0,-1,0,77,81,129,100,65,139.08,28,5.00,0.00,-979.00
2024-06-07 15:46:50.121179,0,-4,-1,0,-2,0,77,81,128,100,65,139.52,28,-18.00,34.00,-1036.00
2024-06-07 15:46:50.152812,1,-2,-1,0,-2,0,77,81,127,100,65,139.08,28,-34.00,46.00,-997.00
2024-06-07 15:46:50.255007,0,-1,-1,0,-2,0,77,81,129,100,65,139.31,28,-25.00,6.00,-1039.00
2024-06-07 15:46:50.358592,-2,-3,-1,-1,-1,0,77,81,129,100,65,138.92,29,-53.00,46.00,-1006.00
2024-06-07 15:46:50.458784,-5,-3,-1,-1,-1,0,77,81,131,100,65,139.21,29,-64.00,64.00,-1017.00
2024-06-07 15:46:50.629940,-4,-3,-1,0,-1,0,77,81,129,100,65,139.57,29,-75.00,86.00,-963.00
2024-06-07 15:46:50.662789,-3,-3,-1,0,-1,0,77,81,128,100,65,139.26,29,-60.00,39.00,-1011.00
2024-06-07 15:46:50.764727,-3,-2,-1,0,-2,0,77,81,131,100,65,139.19,29,-12.00,48.00,-993.00
2024-06-07 15:46:50.936942,-2,3,-1,0,-1,0,77,81,131,100,65,139.35,29,-65.00,54.00,-1015.00
2024-06-07 15:46:50.973018,-2,1,-1,0,0,0,77,81,132,100,65,139.05,29,-82.00,52.00,-965.00
2024-06-07 15:46:51.074930,-2,0,-1,0,0,0,77,81,131,100,65,139.13,29,-62.00,56.00,-992.00
2024-06-07 15:46:51.172828,-2,0,-1,0,0,0,77,81,132,100,65,139.23,29,-64.00,58.00,-934.00
2024-06-07 15:46:51.274851,-2,0,-1,0,0,0,77,81,132,100,65,139.07,29,-36.00,30.00,-1028.00
2024-06-07 15:46:51.377100,-2,-1,-1,0,0,0,77,81,133,100,65,139.25,30,-37.00,28.00,-988.00
2024-06-07 15:46:51.478846,-1,-2,-1,0,0,0,77,81,132,100,65,139.28,30,-90.00,14.00,-957.00
2024-06-07 15:46:51.653594,-2,-2,-1,0,0,0,77,81,134,110,65,139.39,30,-14.00,-15.00,-1006.00
2024-06-07 15:46:51.682751,-4,-2,-1,0,0,0,77,81,135,110,65,139.13,30,-86.00,16.00,-941.00
2024-06-07 15:46:51.784758,-4,-1,-1,0,0,0,77,81,136,110,64,139.50,30,-41.00,0.00,-1016.00
2024-06-07 15:46:51.888089,-4,-1,-1,0,0,0,77,81,135,110,64,139.20,30,-68.00,39.00,-938.00
2024-06-07 15:46:51.988724,-2,0,-1,0,0,0,77,81,136,110,64,139.23,30,-63.00,13.00,-954.00
2024-06-07 15:46:52.167980,-3,0,-1,0,0,0,77,81,135,110,64,139.52,30,-63.00,36.00,-970.00
2024-06-07 15:46:52.192546,-3,0,-1,0,0,0,77,81,135,110,64,139.43,30,-30.00,10.00,-972.00
2024-06-07 15:46:52.243733,-2,-1,-1,0,0,0,77,81,136,110,64,138.96,30,-81.00,35.00,-997.00
2024-06-07 15:46:52.370983,-2,-1,-1,0,0,0,77,81,135,110,64,139.09,31,-65.00,8.00,-1012.00
2024-06-07 15:46:52.447819,-3,-1,-1,0,0,0,77,81,134,110,64,139.11,31,-88.00,42.00,-985.00
2024-06-07 15:46:52.578615,-4,-1,-1,0,0,0,77,81,135,110,64,139.17,31,-33.00,42.00,-1027.00
2024-06-07 15:46:52.651757,-3,-2,-1,0,0,0,77,81,135,110,64,139.30,31,-85.00,40.00,-1094.00
2024-06-07 15:46:52.782027,-2,-1,-1,0,0,0,77,81,136,110,64,139.59,31,-116.00,78.00,-942.00
2024-06-07 15:46:52.855698,-3,-1,-1,0,0,0,78,80,135,110,64,139.28,31,-61.00,46.00,-963.00
2024-06-07 15:46:52.957668,-3,-1,-1,0,0,0,78,80,134,110,64,139.34,31,-15.00,19.00,-954.00
2024-06-07 15:46:53.089681,-2,-2,-1,0,0,0,78,80,133,110,64,139.29,31,-103.00,45.00,-987.00
2024-06-07 15:46:53.161624,-1,1,-1,0,0,0,78,80,132,110,64,139.35,31,-80.00,93.00,-962.00
2024-06-07 15:46:53.264354,-1,5,-1,0,1,0,78,80,131,110,64,139.47,31,-80.00,74.00,-1002.00
2024-06-07 15:46:53.403198,-2,2,-1,0,3,0,78,80,130,100,64,139.13,32,-8.00,27.00,-1023.00
2024-06-07 15:46:53.470571,-2,0,-1,0,3,0,78,80,131,100,64,139.12,32,-5.00,29.00,-983.00
2024-06-07 15:46:53.569664,-2,-1,-1,0,3,0,78,80,130,100,64,139.70,32,1.00,7.00,-1026.00
2024-06-07 15:46:53.703072,-2,-3,-1,0,3,0,78,80,130,100,64,139.17,32,-17.00,5.00,-1035.00
2024-06-07 15:46:53.774342,-2,-3,-1,0,3,0,78,80,131,100,63,139.09,32,-4.00,13.00,-979.00
2024-06-07 15:46:53.906291,-2,-2,-1,0,3,0,78,80,130,100,63,139.36,32,-108.00,47.00,-1009.00
2024-06-07 15:46:53.977505,-2,-2,-1,0,3,0,78,80,129,100,63,139.19,32,-15.00,31.00,-1007.00
2024-06-07 15:46:54.111468,-1,-2,-1,0,3,0,78,80,131,100,63,139.59,32,-34.00,45.00,-1003.00
2024-06-07 15:46:54.181651,-2,-2,-1,0,3,0,78,80,131,100,63,139.19,32,-23.00,26.00,-1056.00
2024-06-07 15:46:54.316641,-2,-3,-1,0,3,0,78,80,132,100,63,139.38,32,-2.00,22.00,-993.00
2024-06-07 15:46:54.385556,-2,-2,-1,0,3,0,78,80,132,100,63,139.29,33,-47.00,35.00,-961.00
2024-06-07 15:46:54.521277,-1,-4,-1,0,2,0,78,80,133,100,63,139.32,33,-2.00,17.00,-981.00
2024-06-07 15:46:54.589530,-1,-7,-1,0,2,0,78,80,133,100,63,139.25,33,-47.00,20.00,-981.00
2024-06-07 15:46:54.693494,-1,-5,-1,0,1,0,78,80,133,110,63,139.48,33,-56.00,83.00,-943.00
2024-06-07 15:46:54.793705,-1,-4,-1,0,0,0,78,80,133,110,63,139.04,33,-48.00,69.00,-956.00
2024-06-07 15:46:54.895702,-1,-3,-1,0,1,0,77,81,133,110,63,139.55,33,2.00,48.00,-999.00
2024-06-07 15:46:55.033018,-1,-4,-1,0,0,0,77,81,133,110,63,139.49,33,-10.00,62.00,-921.00
2024-06-07 15:46:55.099609,-1,-4,-1,0,0,0,77,81,134,110,63,139.36,33,1.00,67.00,-1005.00
2024-06-07 15:46:55.238099,-1,-3,-1,0,0,0,77,81,133,110,63,139.32,33,13.00,44.00,-991.00
2024-06-07 15:46:55.316404,0,-3,-1,0,0,0,77,81,132,110,63,139.16,33,-11.00,50.00,-1029.00
2024-06-07 15:46:55.405627,0,-3,-1,0,0,0,77,81,133,110,63,139.24,34,-56.00,62.00,-1026.00
2024-06-07 15:46:55.547178,0,-2,-1,0,0,0,77,81,134,110,63,139.57,34,-22.00,55.00,-997.00
2024-06-07 15:46:55.558485,0,-2,-1,0,0,0,77,81,134,110,63,139.58,34,-12.00,48.00,-996.00
2024-06-07 15:46:55.749992,0,-2,-1,0,0,0,77,81,134,110,63,139.65,34,-18.00,74.00,-974.00
2024-06-07 15:46:55.762530,0,-2,-1,0,0,0,77,81,134,110,62,139.51,34,-24.00,53.00,-985.00
2024-06-07 15:46:55.954614,0,-3,-1,0,0,0,78,82,134,110,62,139.50,34,-21.00,39.00,-998.00
2024-06-07 15:46:55.966452,0,-3,-1,0,0,0,78,82,133,110,62,139.45,34,-3.00,44.00,-990.00
2024-06-07 15:46:56.160267,0,-2,-1,0,0,0,78,82,134,110,62,139.31,34,-7.00,32.00,-1042.00
2024-06-07 15:46:56.170582,0,-2,-1,0,0,0,78,82,133,110,62,139.43,34,3.00,17.00,-1009.00
2024-06-07 15:46:56.272472,0,-2,-1,0,0,0,78,82,133,110,62,139.21,34,3.00,58.00,-1039.00
2024-06-07 15:46:56.374874,0,-2,-1,0,0,0,78,82,132,110,62,139.64,35,0.00,8.00,-966.00
2024-06-07 15:46:56.476443,0,-2,-1,0,0,0,78,82,133,110,62,139.36,35,-4.00,8.00,-1013.00
2024-06-07 15:46:56.578557,0,-1,-1,0,0,0,78,82,133,110,62,139.42,35,29.00,5.00,-1058.00
2024-06-07 15:46:56.698920,0,-1,-1,0,0,0,78,82,132,100,62,139.10,35,-15.00,19.00,-1022.00
2024-06-07 15:46:56.782487,0,0,-1,0,0,0,78,82,132,100,62,139.47,35,-21.00,30.00,-997.00
2024-06-07 15:46:56.982806,-1,-2,5,0,0,0,79,81,133,100,62,139.67,35,-22.00,23.00,-974.00
2024-06-07 15:46:56.986380,0,-1,11,0,0,0,79,81,133,110,62,139.16,35,-9.00,39.00,-975.00
2024-06-07 15:46:57.088712,-1,-1,17,0,0,0,79,81,133,110,62,139.59,35,-7.00,20.00,-1024.00
2024-06-07 15:46:57.285472,-1,-2,22,0,0,0,79,81,134,110,62,139.39,35,5.00,80.00,-934.00
2024-06-07 15:46:57.293947,-2,-3,28,-1,0,0,79,81,133,110,62,139.65,36,-6.00,77.00,-954.00
2024-06-07 15:46:57.394424,-2,-4,34,0,0,0,79,81,133,110,62,139.39,36,12.00,41.00,-1012.00
2024-06-07 15:46:57.500958,0,-4,39,0,0,0,79,81,132,100,62,139.38,36,-11.00,70.00,-1020.00
2024-06-07 15:46:57.598850,0,-3,45,0,0,0,79,81,133,100,62,139.49,36,-61.00,77.00,-1042.00
2024-06-07 15:46:57.702037,0,-3,52,0,0,0,79,81,131,100,62,139.65,36,-11.00,64.00,-1033.00
2024-06-07 15:46:57.802436,0,-3,58,0,0,0,79,81,133,100,61,139.42,36,33.00,64.00,-1002.00
2024-06-07 15:46:58.009090,1,-3,64,0,0,0,79,81,132,100,61,139.54,36,65.00,72.00,-931.00
2024-06-07 15:46:58.009426,2,-3,71,0,0,0,79,81,133,100,61,139.52,36,109.00,22.00,-963.00
2024-06-07 15:46:58.108375,4,-2,77,0,0,0,79,81,132,100,61,139.81,36,86.00,47.00,-1001.00
2024-06-07 15:46:58.210319,4,-2,83,0,0,0,79,81,133,110,61,139.40,36,71.00,42.00,-1061.00
2024-06-07 15:46:58.312357,4,-1,89,0,0,0,79,81,133,110,61,139.47,37,92.00,17.00,-974.00
2024-06-07 15:46:58.414443,4,0,95,0,0,0,79,81,133,110,61,139.52,37,135.00,18.00,-1046.00
2024-06-07 15:46:58.516320,5,0,101,0,0,0,79,81,133,110,61,139.31,37,81.00,48.00,-954.00
2024-06-07 15:46:58.618685,5,0,108,0,0,0,79,81,134,110,61,139.27,37,120.00,-10.00,-1018.00
2024-06-07 15:46:58.720314,5,0,113,0,0,0,79,81,133,110,61,139.46,37,2.00,41.00,-1011.00
2024-06-07 15:46:58.822484,5,0,119,0,0,0,79,81,132,110,61,139.12,37,139.00,51.00,-1032.00
2024-06-07 15:46:58.924259,5,0,125,0,0,0,79,81,132,100,61,139.41,37,39.00,33.00,-965.00
2024-06-07 15:46:59.026442,5,1,131,0,0,0,79,81,132,100,61,139.56,37,161.00,-20.00,-977.00
2024-06-07 15:46:59.128336,6,1,137,0,0,0,79,81,131,100,61,139.41,37,72.00,37.00,-997.00
2024-06-07 15:46:59.230693,6,1,143,0,0,0,79,81,131,100,61,139.33,37,105.00,11.00,-1043.00
2024-06-07 15:46:59.333067,6,2,150,-1,0,0,79,81,132,100,61,139.50,38,73.00,-11.00,-1018.00
2024-06-07 15:46:59.435540,5,2,156,0,0,0,79,81,131,100,61,139.58,38,145.00,-7.00,-1005.00
2024-06-07 15:46:59.538507,5,2,162,-1,0,0,79,81,131,100,61,139.46,38,61.00,14.00,-976.00
2024-06-07 15:46:59.587258,5,3,168,0,0,0,79,81,130,100,61,139.47,38,82.00,-47.00,-1012.00
2024-06-07 15:46:59.746118,5,3,175,0,0,0,79,81,129,100,61,139.36,38,120.00,-34.00,-1073.00
2024-06-07 15:46:59.791342,5,2,-178,0,-1,0,79,81,129,100,60,139.15,38,70.00,-25.00,-1002.00
2024-06-07 15:46:59.948124,4,2,-172,0,-1,0,79,82,131,100,60,139.40,38,83.00,-54.00,-1004.00
2024-06-07 15:47:00.046471,4,3,-166,0,-1,0,79,82,131,100,60,139.32,38,63.00,-31.00,-1035.00
2024-06-07 15:47:00.097393,3,3,-160,0,-1,0,79,82,132,100,60,139.38,38,100.00,-19.00,-1048.00
2024-06-07 15:47:00.255071,3,3,-154,0,-1,0,79,82,129,100,60,139.25,38,115.00,-65.00,-1046.00
2024-06-07 15:47:00.301226,3,3,-148,0,-1,0,79,82,131,100,60,139.40,39,12.00,-11.00,-1026.00
2024-06-07 15:47:00.463829,2,2,-141,0,-1,0,79,82,130,100,60,139.40,39,42.00,-9.00,-954.00
2024-06-07 15:47:00.507172,2,2,-135,0,-1,0,79,82,132,100,60,139.29,39,55.00,-19.00,-938.00
2024-06-07 15:47:00.607244,2,2,-128,0,-1,0,79,82,132,100,60,139.33,39,35.00,-47.00,-1001.00
2024-06-07 15:47:00.709502,2,2,-122,0,-1,0,79,82,132,100,60,139.11,39,74.00,-37.00,-998.00
2024-06-07 15:47:00.811266,1,2,-116,0,-1,0,79,82,133,100,60,139.55,39,38.00,-25.00,-1045.00
2024-06-07 15:47:00.971920,1,2,-110,0,-1,0,78,82,132,100,60,139.65,39,-12.00,-16.00,-1056.00
2024-06-07 15:47:01.015202,1,2,-104,0,-1,0,78,82,134,110,60,139.64,39,46.00,-35.00,-1004.00
2024-06-07 15:47:01.117589,0,2,-98,0,0,0,78,82,135,110,60,139.47,39,90.00,-43.00,-967.00
2024-06-07 15:47:01.219944,0,2,-92,0,-1,0,78,82,134,110,60,139.75,39,8.00,-14.00,-979.00
2024-06-07 15:47:01.382555,0,2,-86,0,0,0,78,82,136,110,60,139.57,40,-2.00,-37.00,-966.00
2024-06-07 15:47:01.423321,0,2,-80,0,0,0,78,82,137,110,60,139.84,40,3.00,-27.00,-1028.00
2024-06-07 15:47:01.586463,0,2,-74,0,0,0,78,82,137,110,60,139.42,40,6.00,-14.00,-990.00
2024-06-07 15:47:01.627202,0,2,-68,0,0,0,78,82,136,110,60,139.33,40,-12.00,-22.00,-981.00
2024-06-07 15:47:01.729095,-1,1,-62,0,0,0,78,82,135,110,60,139.41,40,18.00,-19.00,-956.00
2024-06-07 15:47:01.893461,-1,1,-56,0,0,0,78,82,136,110,60,139.55,40,-50.00,-17.00,-1027.00
2024-06-07 15:47:01.933199,-1,1,-50,0,0,0,79,82,136,110,60,139.69,40,-32.00,-18.00,-959.00
2024-06-07 15:47:02.098870,-2,1,-45,0,0,0,79,82,135,110,60,139.33,40,-24.00,-34.00,-977.00
2024-06-07 15:47:02.136995,-1,1,-39,0,0,0,79,82,136,110,60,139.22,40,-25.00,-29.00,-1007.00
2024-06-07 15:47:02.304068,-1,1,-33,0,0,0,79,82,136,110,60,139.37,40,-16.00,6.00,-1001.00
2024-06-07 15:47:02.341001,-1,0,-26,0,0,0,79,82,136,110,60,139.43,41,-5.00,-4.00,-1029.00
2024-06-07 15:47:02.443247,-1,0,-20,0,0,0,79,82,137,110,60,139.41,41,3.00,11.00,-983.00
2024-06-07 15:47:02.545121,-1,0,-15,0,0,0,79,82,135,110,60,139.48,41,-50.00,44.00,-949.00
2024-06-07 15:47:02.712664,-1,0,-12,0,0,0,79,82,135,110,60,139.15,41,-55.00,61.00,-998.00
2024-06-07 15:47:02.749197,-1,-1,-9,0,0,0,79,82,135,110,60,139.27,41,-40.00,58.00,-1011.00
2024-06-07 15:47:02.851092,-1,-2,-8,0,0,0,79,82,134,110,59,139.13,41,-10.00,2.00,-1092.00
2024-06-07 15:47:03.019709,0,-1,-7,0,0,0,79,82,134,110,59,139.08,41,-59.00,36.00,-967.00
2024-06-07 15:47:03.054910,-1,-1,-6,0,0,0,79,82,133,110,59,139.26,41,-107.00,56.00,-961.00
2024-06-07 15:47:03.157107,-1,-1,-5,0,0,0,79,82,132,110,59,139.23,41,-27.00,0.00,-991.00
2024-06-07 15:47:03.259180,-2,-1,-5,0,0,0,79,82,132,110,59,139.37,41,-35.00,26.00,-1030.00
2024-06-07 15:47:03.531827,-1,0,-4,0,0,0,79,82,131,110,59,139.41,42,9.00,-19.00,-995.00
2024-06-07 15:47:03.532264,-1,0,-4,0,0,0,79,82,130,110,59,139.42,42,27.00,-11.00,-1024.00
2024-06-07 15:47:03.565759,0,0,-3,0,0,0,79,82,128,100,59,139.51,42,-30.00,-8.00,-1055.00
2024-06-07 15:47:03.667336,0,0,-3,0,0,0,79,82,127,100,59,139.49,42,-55.00,32.00,-996.00
2024-06-07 15:47:03.770872,0,0,-3,0,0,0,79,82,126,100,59,139.53,42,-35.00,28.00,-1007.00
2024-06-07 15:47:03.820737,-1,0,-3,0,0,0,79,82,124,100,59,139.18,42,-21.00,78.00,-1010.00
2024-06-07 15:47:03.943086,-1,0,-3,0,0,0,78,83,124,100,59,139.37,42,-73.00,48.00,-1023.00
2024-06-07 15:47:04.024115,-1,-1,-3,0,0,0,78,83,125,100,59,139.23,42,-24.00,-9.00,-1046.00
2024-06-07 15:47:04.146445,-2,-1,-3,0,0,0,78,83,125,100,59,139.77,42,34.00,-22.00,-979.00
2024-06-07 15:47:04.228045,-1,-1,-3,0,0,0,78,83,125,100,59,139.33,42,1.00,-7.00,-1037.00
2024-06-07 15:47:04.332097,-1,-1,-3,0,0,0,78,83,126,100,59,139.61,43,-50.00,40.00,-980.00
2024-06-07 15:47:04.432573,0,-1,-3,0,0,0,78,83,125,100,59,139.74,43,-53.00,24.00,-1066.00
2024-06-07 15:47:04.558975,0,0,-3,0,0,0,78,83,125,100,59,139.37,43,-43.00,35.00,-1018.00
2024-06-07 15:47:04.636612,0,0,-3,0,0,0,78,83,125,100,59,139.54,43,24.00,12.00,-1002.00
2024-06-07 15:47:04.738648,0,0,-3,0,0,0,78,83,126,100,59,139.26,43,10.00,12.00,-986.00
2024-06-07 15:47:04.863462,0,0,-3,0,0,0,78,83,125,100,59,139.32,43,10.00,-21.00,-1027.00
2024-06-07 15:47:04.942147,0,0,-3,0,0,0,79,82,127,100,59,139.67,43,-25.00,-6.00,-1013.00
2024-06-07 15:47:05.068087,0,0,-3,0,0,0,79,82,124,100,59,139.45,43,6.00,-55.00,-1016.00
2024-06-07 15:47:05.146050,0,0,-3,0,0,0,79,82,123,100,59,139.42,43,2.00,-34.00,-1004.00
2024-06-07 15:47:05.272983,0,0,-3,0,0,0,79,82,124,100,59,139.58,43,-23.00,28.00,-1017.00
2024-06-07 15:47:05.350062,0,0,-3,0,0,0,79,82,122,100,59,139.30,44,-68.00,29.00,-1020.00
2024-06-07 15:47:05.477653,-1,-1,-3,0,0,0,79,82,123,100,59,139.21,44,-36.00,0.00,-1020.00
2024-06-07 15:47:05.554044,-2,-1,-3,0,0,0,79,82,123,100,59,139.61,44,-42.00,12.00,-986.00
2024-06-07 15:47:05.655947,-2,-1,-3,0,0,0,79,82,124,100,59,139.36,44,-63.00,45.00,-1003.00
2024-06-07 15:47:05.758091,-2,-1,-3,0,0,0,79,82,124,100,58,139.32,44,19.00,35.00,-1026.00
2024-06-07 15:47:05.888077,-2,-1,-8,0,0,0,79,82,125,100,58,139.31,44,-40.00,50.00,-1042.00
2024-06-07 15:47:05.961927,-1,-2,-14,0,0,0,79,82,123,100,58,139.31,44,19.00,25.00,-973.00
2024-06-07 15:47:06.298171,-1,-2,-20,0,0,0,79,82,127,100,58,139.64,44,8.00,3.00,-1063.00
2024-06-07 15:47:06.298221,-1,-2,-26,0,0,0,79,82,126,100,58,139.52,44,-12.00,0.00,-1008.00
2024-06-07 15:47:06.298758,0,-2,-32,0,0,0,79,82,127,100,58,139.59,44,-52.00,26.00,-929.00
2024-06-07 15:47:06.370437,-1,-2,-38,0,0,0,79,82,127,100,58,139.44,45,-33.00,-12.00,-1007.00
2024-06-07 15:47:06.808710,-1,-1,-44,0,0,0,79,82,127,100,58,139.55,45,-33.00,-30.00,-967.00
2024-06-07 15:47:06.808768,0,0,-49,0,0,0,79,82,127,100,58,139.54,45,-63.00,10.00,-956.00
2024-06-07 15:47:06.808943,0,1,-55,0,0,0,79,82,126,100,58,139.38,45,-64.00,14.00,-954.00
2024-06-07 15:47:06.809422,0,1,-61,0,0,0,79,82,127,100,58,139.49,45,10.00,-35.00,-1028.00
2024-06-07 15:47:06.879859,0,1,-67,0,0,0,79,82,126,100,58,139.50,45,-7.00,-23.00,-927.00
2024-06-07 15:47:06.982291,0,1,-72,0,0,0,80,83,127,100,58,139.57,45,-2.00,-50.00,-935.00
2024-06-07 15:47:07.115828,0,2,-77,0,0,0,80,83,128,100,58,139.41,45,-13.00,-29.00,-1011.00
2024-06-07 15:47:07.186989,1,2,-82,0,0,0,80,83,128,100,58,139.50,45,-7.00,-35.00,-977.00
2024-06-07 15:47:07.321038,0,2,-87,0,0,0,80,83,127,100,58,139.43,45,-37.00,-4.00,-1035.00
2024-06-07 15:47:07.390908,1,2,-93,0,0,0,80,83,128,100,58,139.50,46,-3.00,-18.00,-1040.00
2024-06-07 15:47:07.492880,0,2,-98,0,0,0,80,83,129,100,58,139.49,46,41.00,-30.00,-982.00
2024-06-07 15:47:07.631417,0,2,-104,0,0,0,80,83,128,100,58,139.67,46,-24.00,-19.00,-971.00
2024-06-07 15:47:07.645756,0,2,-110,0,0,0,80,83,128,100,58,139.60,46,33.00,-45.00,-1044.00
2024-06-07 15:47:07.747829,0,2,-115,0,0,0,80,83,127,100,58,139.61,46,11.00,-47.00,-988.00
2024-06-07 15:47:07.936659,1,3,-121,0,0,0,80,83,130,100,58,139.95,46,-21.00,-25.00,-992.00
2024-06-07 15:47:07.951794,2,3,-126,0,0,0,79,82,130,100,58,139.58,46,10.00,-17.00,-992.00
2024-06-07 15:47:08.053828,2,3,-131,0,0,0,79,82,130,100,58,139.87,46,15.00,-16.00,-974.00
2024-06-07 15:47:08.244805,2,3,-137,0,0,0,79,82,130,100,58,139.46,46,98.00,-46.00,-976.00
2024-06-07 15:47:08.259248,3,3,-143,0,0,0,79,82,131,100,58,139.65,46,59.00,-41.00,-1033.00
2024-06-07 15:47:08.447111,3,2,-149,0,0,0,79,82,131,100,58,139.56,47,49.00,-26.00,-1055.00
2024-06-07 15:47:08.461793,3,2,-155,0,0,0,79,82,132,100,58,139.32,47,114.00,-54.00,-993.00
2024-06-07 15:47:08.654792,4,2,-161,0,0,0,79,82,131,100,58,139.96,47,60.00,-2.00,-1008.00
2024-06-07 15:47:08.665786,4,1,-167,0,0,0,79,82,131,100,58,139.61,47,87.00,-21.00,-977.00
2024-06-07 15:47:08.767912,4,1,-173,0,0,0,79,82,131,100,57,139.33,47,53.00,14.00,-1002.00
2024-06-07 15:47:08.869802,5,1,-179,0,0,0,79,82,131,100,57,139.53,47,90.00,9.00,-963.00
2024-06-07 15:47:09.064130,5,0,174,0,0,0,80,82,132,100,57,139.70,47,157.00,-38.00,-1001.00
2024-06-07 15:47:09.073796,6,0,167,0,0,0,80,82,130,100,57,139.37,47,140.00,17.00,-992.00
2024-06-07 15:47:09.268889,6,0,161,0,0,0,80,82,132,100,57,139.39,47,103.00,37.00,-994.00
2024-06-07 15:47:09.277761,6,0,155,0,0,0,80,82,131,100,57,139.15,47,88.00,51.00,-934.00
2024-06-07 15:47:09.379773,6,0,149,0,0,0,80,82,133,100,57,139.36,48,168.00,27.00,-939.00
2024-06-07 15:47:09.574537,6,-1,143,0,0,0,80,82,133,100,57,139.67,48,136.00,16.00,-1013.00
2024-06-07 15:47:09.584505,7,-1,137,0,0,0,80,82,130,100,57,139.34,48,97.00,32.00,-974.00
2024-06-07 15:47:09.778311,6,-1,131,0,0,0,80,82,131,100,57,139.38,48,82.00,18.00,-1081.00
2024-06-07 15:47:09.791787,5,-1,124,0,0,0,80,82,131,100,57,139.49,48,98.00,41.00,-975.00
2024-06-07 15:47:09.889707,5,-1,118,0,0,0,80,82,131,100,57,139.82,48,124.00,42.00,-1014.00
2024-06-07 15:47:10.088769,5,-1,112,0,0,0,79,82,130,100,57,139.30,48,134.00,8.00,-1020.00
2024-06-07 15:47:10.093740,4,-1,106,0,0,0,79,82,132,100,57,139.25,48,92.00,59.00,-954.00
2024-06-07 15:47:10.495249,4,-2,100,0,0,0,79,82,130,100,57,139.44,48,57.00,62.00,-954.00
2024-06-07 15:47:10.497252,4,-2,94,0,0,0,79,82,130,100,57,139.41,48,137.00,9.00,-1036.00
2024-06-07 15:47:10.501115,4,-2,88,0,0,0,79,82,130,100,57,139.28,49,84.00,56.00,-1053.00
2024-06-07 15:47:10.504602,4,-2,82,0,0,0,79,82,130,100,57,139.46,49,115.00,25.00,-1022.00
2024-06-07 15:47:10.603806,3,-2,76,0,0,0,79,82,130,100,57,139.68,49,69.00,75.00,-959.00
2024-06-07 15:47:11.212168,3,-2,70,0,0,0,79,82,128,100,57,139.71,49,50.00,70.00,-995.00
2024-06-07 15:47:11.212404,2,-3,64,0,0,0,79,82,128,100,57,139.45,49,36.00,54.00,-979.00
2024-06-07 15:47:11.212873,2,-3,58,0,0,0,79,82,128,100,57,139.49,49,18.00,71.00,-987.00
2024-06-07 15:47:11.212898,2,-3,45,0,0,0,79,83,128,100,57,139.56,49,27.00,73.00,-1037.00
2024-06-07 15:47:11.213477,2,-3,39,0,0,0,79,83,127,100,57,139.22,49,-7.00,78.00,-996.00
2024-06-07 15:47:11.215785,1,-3,33,0,0,0,79,83,127,100,57,139.67,49,-15.00,66.00,-1012.00
2024-06-07 15:47:11.317625,1,-2,27,0,0,0,79,83,126,100,57,139.57,50,10.00,53.00,-945.00
2024-06-07 15:47:11.419705,1,-1,21,0,0,0,79,83,127,100,57,139.34,50,41.00,24.00,-986.00
2024-06-07 15:47:11.724487,0,-1,15,0,0,0,79,83,128,100,57,139.35,50,-8.00,29.00,-1010.00
2024-06-07 15:47:11.724543,0,-1,10,0,0,0,79,83,129,100,57,139.65,50,12.00,33.00,-1011.00
2024-06-07 15:47:11.726411,0,-1,7,0,-1,0,79,83,129,100,57,139.42,50,18.00,16.00,-1054.00
2024-06-07 15:47:11.776623,0,0,4,0,-1,0,79,83,128,100,57,139.42,50,4.00,39.00,-1003.00
2024-06-07 15:47:12.031336,0,0,2,0,-1,0,79,83,128,100,57,139.60,50,-74.00,56.00,-967.00
2024-06-07 15:47:12.031450,0,0,1,0,0,0,81,83,129,100,57,139.59,50,8.00,24.00,-1039.00
2024-06-07 15:47:12.082783,0,0,0,0,0,0,81,83,129,100,57,139.46,50,-14.00,29.00,-993.00
2024-06-07 15:47:12.340874,0,0,0,0,0,0,81,83,128,100,57,139.68,50,22.00,68.00,-1004.00
2024-06-07 15:47:12.340914,0,-1,-1,0,0,0,81,83,130,100,57,139.79,51,-46.00,51.00,-999.00
2024-06-07 15:47:12.389736,0,-1,-1,0,0,0,81,83,130,100,57,139.41,51,-28.00,33.00,-984.00
2024-06-07 15:47:12.491716,0,-1,-1,0,0,0,81,83,130,100,57,139.27,51,-41.00,22.00,-996.00
2024-06-07 15:47:12.647293,0,-1,-1,0,0,0,81,83,129,100,57,139.32,51,-4.00,7.00,-964.00
2024-06-07 15:47:12.695572,0,0,-1,0,0,0,81,83,130,100,57,139.54,51,-35.00,23.00,-1008.00
2024-06-07 15:47:12.797711,0,0,-1,0,0,0,81,83,130,100,57,139.53,51,-19.00,37.00,-995.00
2024-06-07 15:47:12.955460,0,0,-1,0,0,0,81,83,129,100,57,139.68,51,23.00,-22.00,-1016.00
2024-06-07 15:47:13.001700,-1,0,-1,0,0,0,80,83,131,100,57,139.60,51,-5.00,29.00,-994.00
2024-06-07 15:47:13.263856,0,0,-1,0,0,0,80,83,130,100,57,139.60,51,14.00,16.00,-993.00
2024-06-07 15:47:13.263983,-1,0,-1,0,0,0,80,83,131,100,57,139.62,51,-25.00,34.00,-992.00
2024-06-07 15:47:13.308655,0,0,-1,0,0,0,80,83,131,100,57,139.45,52,70.00,-19.00,-1083.00
2024-06-07 15:47:13.670134,0,0,-1,0,0,0,80,83,131,100,57,139.22,52,-13.00,30.00,-950.00
2024-06-07 15:47:13.670350,0,0,-1,0,0,0,80,83,130,100,57,139.62,52,-10.00,29.00,-959.00
2024-06-07 15:47:13.670443,0,0,-1,0,0,0,80,83,130,100,57,139.60,52,-15.00,25.00,-1000.00
2024-06-07 15:47:13.717026,0,0,-1,0,0,0,80,83,130,100,57,139.61,52,-17.00,20.00,-1012.00
2024-06-07 15:47:13.818605,0,0,-1,0,0,0,80,83,131,100,57,139.67,52,56.00,15.00,-962.00
2024-06-07 15:47:13.920726,0,0,-1,0,0,0,80,83,131,100,57,139.48,52,42.00,-12.00,-1022.00
2024-06-07 15:47:14.022811,0,0,-1,0,0,0,80,83,131,100,57,139.56,52,-56.00,-3.00,-970.00
2024-06-07 15:47:14.284952,0,0,-1,0,0,0,80,83,132,100,57,139.22,52,-59.00,-16.00,-1027.00
2024-06-07 15:47:14.285128,0,0,-1,0,0,0,80,83,131,100,57,139.71,52,-4.00,-26.00,-1032.00
2024-06-07 15:47:14.328579,-1,0,-1,0,0,0,80,83,131,100,57,139.71,53,-32.00,-12.00,-1037.00
2024-06-07 15:47:14.430506,-1,0,-1,0,0,0,80,83,133,100,57,139.57,53,-27.00,-5.00,-1056.00
2024-06-07 15:47:14.693447,0,0,-1,0,0,-2,80,83,135,100,57,139.97,53,-137.00,31.00,-1438.00
2024-06-07 15:47:14.693647,0,0,-1,0,0,-7,80,83,143,110,57,139.50,53,-25.00,16.00,-1589.00
2024-06-07 15:47:14.736906,0,-32,-1,0,-2,-11,80,83,200,120,57,139.55,53,-9.00,306.00,-1051.00
2024-06-07 15:47:14.838981,0,-145,-3,0,-9,-6,80,83,6553,130,57,139.76,53,-4.00,681.00,-1046.00
2024-06-07 15:47:14.941695,-2,88,-1,-1,-9,8,80,83,454,130,57,139.62,53,36.00,571.00,-904.00
2024-06-07 15:47:15.042518,1,-2,5,-1,-3,12,80,83,148,120,57,139.71,53,15.00,-36.00,-1555.00
2024-06-07 15:47:15.146228,1,-2,17,-1,-5,10,80,83,136,110,57,139.92,53,70.00,-11.00,-1373.00
2024-06-07 15:47:15.248965,-3,4,38,-1,-4,6,80,83,128,100,57,139.70,53,92.00,115.00,-1420.00
2024-06-07 15:47:15.298019,-3,1,61,-1,-2,2,80,83,125,90,57,139.88,54,83.00,113.00,-1391.00
2024-06-07 15:47:15.399385,0,-1,80,-1,-1,0,80,83,125,90,57,139.58,54,38.00,108.00,-1208.00
2024-06-07 15:47:15.514705,1,-2,92,-1,-1,-1,80,83,127,90,57,139.12,54,82.00,13.00,-1034.00
2024-06-07 15:47:15.603720,1,-2,97,-1,-1,-2,80,83,129,100,57,139.60,54,86.00,29.00,-1044.00
2024-06-07 15:47:16.026806,2,-2,96,0,0,-1,80,83,130,100,57,139.40,54,61.00,49.00,-950.00
2024-06-07 15:47:16.028056,2,-1,86,0,0,-1,80,83,133,100,57,139.44,54,75.00,41.00,-993.00
2024-06-07 15:47:16.028652,0,-1,72,0,0,-1,80,83,133,100,57,139.43,54,35.00,54.00,-986.00
2024-06-07 15:47:16.029344,0,-2,58,0,0,0,80,84,134,100,57,139.60,54,40.00,53.00,-960.00
2024-06-07 15:47:16.113388,1,-2,44,0,1,0,80,84,133,100,57,139.66,54,83.00,27.00,-1075.00
2024-06-07 15:47:16.231469,1,-3,30,0,1,0,80,84,133,100,57,139.53,54,29.00,-17.00,-1019.00
2024-06-07 15:47:16.317384,1,-3,17,0,0,0,80,84,133,100,57,139.50,55,-24.00,81.00,-922.00
2024-06-07 15:47:16.436318,0,-3,4,0,0,0,80,84,133,100,57,139.57,55,-46.00,56.00,-1006.00
2024-06-07 15:47:16.521385,0,-2,-3,0,0,0,80,84,132,100,57,139.33,55,28.00,-1.00,-1023.00
2024-06-07 15:47:16.641211,0,-1,-3,0,0,0,80,84,131,100,57,139.64,55,-30.00,6.00,-966.00
2024-06-07 15:47:16.725384,0,0,-2,0,0,0,80,84,130,100,57,139.47,55,-21.00,-18.00,-1003.00
2024-06-07 15:47:16.827369,0,0,-2,0,-1,0,80,84,128,100,56,139.56,55,-75.00,39.00,-995.00
2024-06-07 15:47:17.053046,0,1,-2,0,-1,0,80,84,127,100,56,139.57,55,0.00,0.00,-1056.00
2024-06-07 15:47:17.053082,-1,1,-2,0,-1,0,81,83,127,100,56,139.59,55,1.00,-9.00,-1057.00
2024-06-07 15:47:17.133349,-1,2,-2,0,0,0,81,83,125,100,56,139.61,55,-43.00,26.00,-999.00
2024-06-07 15:47:17.255432,-1,2,-2,0,0,0,81,83,126,100,56,139.45,55,28.00,24.00,-1123.00
2024-06-07 15:47:17.337301,-2,1,-2,0,0,0,81,83,125,90,56,139.57,56,21.00,20.00,-1008.00
2024-06-07 15:47:17.563868,-1,1,-2,0,0,0,81,83,125,90,56,139.43,56,-31.00,30.00,-1016.00
2024-06-07 15:47:17.564031,-1,1,-2,0,0,0,81,83,127,90,56,139.64,56,-68.00,40.00,-1014.00
2024-06-07 15:47:17.643385,-1,0,-2,0,0,0,81,83,126,90,56,139.52,56,-61.00,45.00,-1032.00
2024-06-07 15:47:17.746169,-1,0,-2,0,0,0,81,83,127,90,56,139.69,56,-23.00,14.00,-998.00
2024-06-07 15:47:17.847358,-1,0,-2,0,0,0,81,83,129,90,56,139.54,56,-22.00,41.00,-1017.00
2024-06-07 15:47:17.950330,0,0,-2,0,0,0,81,83,130,100,56,139.23,56,-5.00,39.00,-968.00
2024-06-07 15:47:18.075078,0,0,-2,0,0,0,80,83,130,100,56,139.73,56,-28.00,56.00,-1004.00
2024-06-07 15:47:18.153331,0,0,-1,0,1,0,80,83,133,100,56,139.60,56,-43.00,35.00,-1000.00
2024-06-07 15:47:18.285747,0,0,-1,0,1,-1,80,83,133,100,56,139.73,56,39.00,24.00,-948.00
2024-06-07 15:47:18.357428,0,0,-1,0,1,0,80,83,134,100,56,139.74,57,-48.00,47.00,-981.00
2024-06-07 15:47:18.459474,0,-1,-1,0,1,0,80,83,135,100,56,139.70,57,-17.00,30.00,-1006.00
2024-06-07 15:47:18.689921,0,-1,-1,0,1,0,80,83,136,100,56,139.46,57,29.00,38.00,-981.00
2024-06-07 15:47:18.690073,0,-1,-1,0,1,0,80,83,138,100,56,139.43,57,11.00,45.00,-1025.00
2024-06-07 15:47:18.765406,0,-2,-1,0,1,0,80,83,138,100,55,139.60,57,1.00,49.00,-991.00
2024-06-07 15:47:18.894975,0,-2,-1,0,1,0,80,83,136,100,55,139.71,57,-24.00,54.00,-1001.00
2024-06-07 15:47:18.918306,0,-2,-1,0,1,0,80,83,136,100,55,139.64,57,30.00,32.00,-991.00
2024-06-07 15:47:19.099188,0,-2,-1,0,1,0,81,82,136,100,55,139.64,57,-15.00,46.00,-978.00
2024-06-07 15:47:19.122401,0,-2,-1,0,0,0,81,82,134,100,55,139.89,57,-7.00,48.00,-976.00
2024-06-07 15:47:19.301591,0,-1,-1,0,0,1,81,82,134,100,55,139.76,57,-58.00,45.00,-1019.00
2024-06-07 15:47:19.326288,0,-2,-1,0,0,0,81,82,132,100,55,139.49,58,-11.00,62.00,-1031.00
2024-06-07 15:47:19.508578,-1,-1,-1,0,0,0,81,82,132,100,55,139.54,58,-50.00,48.00,-1042.00
2024-06-07 15:47:19.530290,0,-1,-1,0,0,0,81,82,131,100,55,139.76,58,-22.00,37.00,-965.00
2024-06-07 15:47:19.713162,0,0,-1,0,0,0,81,82,131,100,55,139.76,58,-58.00,54.00,-1091.00
2024-06-07 15:47:19.735337,0,0,-1,0,0,0,81,82,130,100,55,139.81,58,-11.00,15.00,-991.00
2024-06-07 15:47:19.836708,0,0,-1,0,0,0,81,82,129,100,55,139.35,58,-17.00,15.00,-1034.00
2024-06-07 15:47:20.019006,-1,0,-1,0,0,0,81,82,130,100,55,139.52,58,-2.00,13.00,-955.00
2024-06-07 15:47:20.040205,-1,0,-1,0,0,0,79,84,130,100,55,139.72,58,0.00,20.00,-995.00
2024-06-07 15:47:20.142370,-1,0,-1,0,0,0,79,84,129,100,55,139.50,58,-66.00,31.00,-1014.00
2024-06-07 15:47:20.325367,-1,0,-1,0,0,0,79,84,129,100,55,139.60,58,-51.00,37.00,-1026.00
2024-06-07 15:47:20.346119,-1,-1,-1,0,0,0,79,84,129,100,55,139.53,59,-72.00,44.00,-988.00
2024-06-07 15:47:20.448225,-1,-1,-1,0,0,0,79,84,130,100,55,139.87,59,-56.00,19.00,-1000.00
2024-06-07 15:47:20.550913,-1,0,-1,0,0,0,79,84,129,100,55,139.34,59,-15.00,27.00,-967.00
2024-06-07 15:47:20.739032,-2,0,-1,0,0,0,79,84,129,100,55,139.56,59,-37.00,18.00,-1031.00
2024-06-07 15:47:20.754545,-2,0,-1,0,0,0,79,84,129,100,54,139.45,59,-34.00,35.00,-1009.00
2024-06-07 15:47:20.903536,-1,0,-1,0,0,0,79,84,128,100,54,139.55,59,-36.00,30.00,-1007.00
2024-06-07 15:47:20.958102,-1,0,-1,0,0,0,79,84,128,100,54,139.24,59,13.00,6.00,-931.00
2024-06-07 15:47:21.146142,0,0,-1,0,0,0,81,84,129,100,54,139.47,59,-14.00,-13.00,-1442.00
2024-06-07 15:47:21.162217,0,1,0,0,0,-3,81,84,131,100,54,139.83,59,-21.00,0.00,-1692.00
2024-06-07 15:47:21.351578,0,2,2,0,1,-8,81,84,138,100,54,139.97,59,16.00,-88.00,-1670.00
2024-06-07 15:47:21.366095,-5,52,4,0,3,-12,81,84,300,120,54,139.94,60,62.00,674.00,-1296.00
2024-06-07 15:47:21.556447,-3,174,-11,-1,11,-3,81,84,6553,130,54,139.78,60,198.00,982.00,-926.00
2024-06-07 15:47:21.570169,11,-57,5,-1,7,9,81,84,244,120,54,139.50,60,113.00,636.00,-992.00
2024-06-07 15:47:21.672097,0,13,9,-1,4,10,81,84,140,110,54,139.67,60,-9.00,78.00,-1118.00
2024-06-07 15:47:21.864087,1,1,3,-1,7,8,81,84,124,100,54,139.69,60,12.00,-45.00,-1459.00
2024-06-07 15:47:21.875960,-1,-8,-2,-2,6,4,81,84,120,90,54,139.48,60,-6.00,-66.00,-1312.00
2024-06-07 15:47:22.066892,-2,-5,-2,-1,3,1,81,84,116,90,54,139.60,60,-8.00,-4.00,-1194.00
2024-06-07 15:47:22.080066,-2,-1,-1,-1,2,0,82,83,115,90,54,139.60,60,-76.00,-14.00,-1126.00
2024-06-07 15:47:22.182130,-2,0,-1,-1,2,-2,82,83,115,90,54,139.78,60,-34.00,-15.00,-1041.00
2024-06-07 15:47:22.578564,-2,0,-1,-1,1,-2,82,83,117,90,54,139.49,60,-55.00,7.00,-1045.00
2024-06-07 15:47:22.579077,-2,0,-1,-1,1,-2,82,83,118,90,54,139.48,61,-22.00,6.00,-955.00
2024-06-07 15:47:22.579225,-1,0,-1,-1,1,-2,82,83,120,90,54,139.75,61,-9.00,22.00,-990.00
2024-06-07 15:47:22.591074,-1,0,-1,0,1,-1,82,83,121,90,54,139.47,61,-14.00,23.00,-964.00
2024-06-07 15:47:22.783309,-1,-2,-1,0,1,0,82,83,120,100,54,139.39,61,-11.00,3.00,-986.00
2024-06-07 15:47:22.783690,-2,-4,-1,0,1,0,82,83,121,90,54,139.48,61,-88.00,2.00,-975.00
2024-06-07 15:47:22.845005,-2,-3,-1,0,0,0,82,83,121,90,54,139.58,61,-63.00,34.00,-967.00
2024-06-07 15:47:23.091601,-2,-2,-1,0,0,0,82,83,120,90,54,139.48,61,41.00,53.00,-1003.00
2024-06-07 15:47:23.091640,-2,-1,-1,0,0,0,80,83,121,90,54,139.35,61,8.00,2.00,-1044.00
2024-06-07 15:47:23.151081,-2,-1,-1,0,0,0,80,83,121,90,54,139.39,61,17.00,0.00,-1029.00
2024-06-07 15:47:23.252973,-2,-2,-1,0,0,0,80,83,122,90,54,139.19,61,-36.00,25.00,-1013.00
2024-06-07 15:47:23.399843,-2,-2,-1,0,0,0,80,83,122,90,54,139.52,62,0.00,-18.00,-1060.00
2024-06-07 15:47:23.456976,-2,-2,-1,0,0,0,80,83,123,90,54,139.48,62,31.00,-16.00,-998.00
2024-06-07 15:47:23.602829,-1,-1,-1,0,0,0,80,83,122,90,54,139.27,62,-74.00,40.00,-996.00
