TS,pitch,roll,yaw,vgx,vgy,vgz,templ,temph,tof,h,bat,baro,time,agx,agy,agz
2024-06-07 15:47:52.994154,2,2,0,0,0,0,83,85,10,0,50,138.48,79,41.00,-52.00,-997.00
2024-06-07 15:47:52.994362,2,2,0,0,0,0,83,85,10,0,50,138.41,79,40.00,-52.00,-999.00
2024-06-07 15:47:52.994568,2,2,0,0,0,0,83,85,10,0,50,138.48,79,41.00,-51.00,-995.00
2024-06-07 15:47:53.038516,2,2,0,0,0,0,83,85,10,0,50,138.49,79,40.00,-52.00,-998.00
2024-06-07 15:47:53.140539,2,2,0,0,0,0,83,85,10,0,50,138.46,79,40.00,-53.00,-996.00
2024-06-07 15:47:53.300332,2,2,0,0,0,0,83,85,10,0,50,138.47,79,40.00,-52.00,-997.00
2024-06-07 15:47:53.344130,2,2,0,0,0,0,83,85,10,0,50,138.15,79,40.00,-52.00,-997.00
2024-06-07 15:47:53.502992,2,2,0,0,0,0,83,85,10,0,50,138.39,79,42.00,-51.00,-997.00
2024-06-07 15:47:53.548368,2,2,0,0,0,0,83,85,10,0,50,138.19,79,42.00,-51.00,-999.00
2024-06-07 15:47:54.014646,2,2,0,0,0,0,83,85,10,0,50,138.29,79,41.00,-53.00,-997.00
2024-06-07 15:47:54.015073,2,2,0,0,0,0,83,85,10,0,50,138.50,79,41.00,-52.00,-996.00
2024-06-07 15:47:54.015528,2,2,0,0,0,0,83,85,10,0,50,138.37,79,40.00,-50.00,-997.00
2024-06-07 15:47:54.016045,2,2,0,0,0,0,83,85,10,0,50,138.31,79,40.00,-50.00,-1000.00
2024-06-07 15:47:54.058246,2,2,0,0,0,0,83,85,10,0,50,138.39,79,40.00,-52.00,-998.00
2024-06-07 15:47:54.163972,2,2,0,0,0,0,83,85,10,0,50,138.50,79,41.00,-51.00,-997.00
2024-06-07 15:47:54.262955,2,2,0,0,0,0,82,86,10,0,50,138.26,79,41.00,-51.00,-998.00
2024-06-07 15:47:54.363214,2,2,0,0,0,0,82,86,10,0,50,138.26,79,40.00,-53.00,-999.00
2024-06-07 15:47:54.465405,2,2,0,0,0,0,82,86,10,0,50,138.39,79,41.00,-52.00,-996.00
2024-06-07 15:47:54.632252,2,2,0,0,0,0,82,86,10,0,50,138.57,79,41.00,-51.00,-999.00
2024-06-07 15:47:54.669371,2,2,0,0,0,0,82,86,10,0,50,138.26,79,40.00,-52.00,-997.00
2024-06-07 15:47:54.940706,2,2,0,0,0,0,82,86,10,0,50,138.22,79,40.00,-52.00,-996.00
2024-06-07 15:47:54.940894,2,2,0,0,0,0,82,86,10,0,50,138.40,79,40.00,-52.00,-999.00
2024-06-07 15:47:54.941057,2,2,0,0,0,0,82,86,10,0,50,138.25,79,40.00,-51.00,-998.00
2024-06-07 15:47:55.026398,2,2,0,0,0,0,82,86,10,0,50,138.39,79,41.00,-52.00,-997.00
2024-06-07 15:47:55.131506,2,2,0,0,0,0,82,86,10,0,50,138.21,79,41.00,-50.00,-997.00
2024-06-07 15:47:55.282116,2,2,0,0,0,0,83,86,10,0,50,138.33,79,40.00,-52.00,-998.00
2024-06-07 15:47:55.383410,2,2,0,0,0,0,83,86,10,0,50,138.63,79,41.00,-51.00,-1001.00
2024-06-07 15:47:55.458255,2,2,0,0,0,0,83,86,10,0,50,138.16,79,41.00,-51.00,-1000.00
2024-06-07 15:47:55.537708,2,2,0,0,0,0,83,86,10,0,50,138.58,79,40.00,-51.00,-998.00
2024-06-07 15:47:55.639183,2,2,0,0,0,0,83,86,10,0,50,138.42,79,40.00,-51.00,-1001.00
2024-06-07 15:47:55.857910,2,2,0,0,0,0,83,86,10,0,50,138.36,79,41.00,-50.00,-998.00
2024-06-07 15:47:55.858410,2,2,0,0,0,0,83,86,10,0,50,138.29,79,39.00,-52.00,-997.00
2024-06-07 15:47:55.944355,2,2,0,0,0,0,83,86,10,0,50,138.21,79,40.00,-53.00,-997.00
2024-06-07 15:47:56.396659,2,2,0,0,0,0,83,86,10,0,50,138.33,79,41.00,-51.00,-998.00
2024-06-07 15:47:56.397032,2,2,0,0,0,0,83,86,10,0,50,138.26,79,40.00,-54.00,-998.00
2024-06-07 15:47:56.397268,2,2,0,0,0,0,83,86,10,0,50,138.10,79,40.00,-52.00,-996.00
2024-06-07 15:47:56.402826,2,2,0,0,0,0,83,86,10,0,50,138.19,79,39.00,-52.00,-999.00
2024-06-07 15:47:56.454150,2,2,0,0,0,0,83,86,10,0,50,138.43,79,41.00,-51.00,-1001.00
2024-06-07 15:47:56.556086,2,2,0,0,0,0,83,86,10,0,50,138.43,79,44.00,-40.00,-994.00
2024-06-07 15:47:56.658091,2,2,0,0,0,0,83,86,10,0,50,138.43,80,37.00,-51.00,-1009.00
2024-06-07 15:47:56.882595,2,2,0,0,0,0,83,86,10,0,50,138.43,80,55.00,-53.00,-984.00
2024-06-07 15:47:56.882917,2,2,0,0,0,0,83,86,10,0,50,138.43,80,-41.00,-22.00,-1008.00
2024-06-07 15:47:56.968647,2,2,0,0,0,0,83,86,10,0,50,138.43,80,-18.00,46.00,-903.00
2024-06-07 15:47:57.066206,2,1,0,0,0,0,83,86,10,0,50,138.43,80,27.00,14.00,-1070.00
2024-06-07 15:47:57.169113,2,0,0,0,0,0,83,86,10,0,50,138.43,80,45.00,-13.00,-1188.00
2024-06-07 15:47:57.271285,1,1,1,0,1,-1,84,86,10,0,50,138.43,80,-26.00,60.00,-1289.00
2024-06-07 15:47:57.396173,0,-1,0,0,1,-4,84,86,10,0,50,138.43,80,8.00,15.00,-1226.00
2024-06-07 15:47:57.475047,-2,-4,1,0,1,-6,84,86,19,0,50,138.87,80,38.00,7.00,-1121.00
2024-06-07 15:47:57.598366,0,-3,0,0,0,-7,84,86,28,0,50,138.74,80,-1.00,19.00,-1059.00
2024-06-07 15:47:57.679055,0,-2,0,0,0,-7,84,86,34,10,50,138.92,81,-36.00,31.00,-1010.00
2024-06-07 15:47:57.805918,0,-2,0,0,0,-7,84,86,44,20,50,138.82,81,-53.00,27.00,-942.00
2024-06-07 15:47:57.883401,0,-2,0,0,0,-7,84,86,53,20,50,138.99,81,-95.00,33.00,-899.00
2024-06-07 15:47:57.985133,-1,-1,0,0,0,-6,84,86,62,30,50,139.00,81,26.00,-1.00,-980.00
2024-06-07 15:47:58.087299,0,0,0,0,0,-5,84,86,69,40,50,139.04,81,19.00,12.00,-871.00
2024-06-07 15:47:58.188974,0,0,0,0,0,-4,84,86,75,40,50,139.47,81,4.00,42.00,-936.00
2024-06-07 15:47:58.417874,0,0,0,0,0,-3,84,86,81,50,50,139.39,81,-31.00,32.00,-849.00
2024-06-07 15:47:58.418326,0,-1,0,0,0,-2,84,86,86,50,50,139.23,81,23.00,8.00,-942.00
2024-06-07 15:47:58.495995,0,-2,0,0,0,-1,84,86,88,50,50,139.19,81,-30.00,21.00,-908.00
2024-06-07 15:47:58.630739,0,-1,0,0,0,-1,84,86,90,60,50,139.61,81,-4.00,-11.00,-904.00
2024-06-07 15:47:58.699033,0,-1,0,0,0,0,84,86,92,60,50,139.23,82,-63.00,42.00,-915.00
2024-06-07 15:47:58.750093,0,0,0,0,0,0,84,86,92,60,50,139.42,82,3.00,10.00,-946.00
2024-06-07 15:47:58.933235,-1,-1,0,0,0,0,84,86,93,60,50,139.32,82,-22.00,14.00,-995.00
2024-06-07 15:47:58.953932,-1,0,0,0,0,0,84,86,94,60,50,139.50,82,-9.00,10.00,-988.00
2024-06-07 15:47:59.137453,0,0,0,0,0,0,84,86,93,60,50,139.67,82,-8.00,14.00,-1016.00
2024-06-07 15:47:59.157935,0,0,0,0,0,1,84,86,94,60,50,139.49,82,-29.00,39.00,-990.00
2024-06-07 15:47:59.260055,0,0,0,0,0,0,83,86,93,60,50,139.48,82,32.00,1.00,-971.00
2024-06-07 15:47:59.441920,0,0,0,0,0,0,83,86,93,60,50,139.32,82,-9.00,16.00,-1040.00
2024-06-07 15:47:59.464444,0,0,0,0,0,0,83,86,93,60,50,139.67,82,-9.00,34.00,-971.00
2024-06-07 15:47:59.646862,0,0,0,0,0,0,83,86,93,60,50,139.33,82,34.00,9.00,-992.00
2024-06-07 15:47:59.669723,0,-1,0,0,0,0,83,86,92,60,50,139.37,83,-41.00,47.00,-959.00
2024-06-07 15:47:59.770580,0,-1,0,0,0,1,83,86,92,60,50,139.03,83,-38.00,10.00,-999.00
2024-06-07 15:47:59.954542,0,-1,0,0,0,1,83,86,91,60,50,139.37,83,10.00,-21.00,-979.00
2024-06-07 15:47:59.973867,0,-1,0,0,0,1,83,86,90,60,50,139.60,83,-20.00,1.00,-988.00
2024-06-07 15:48:00.161157,0,0,0,0,0,1,83,86,89,60,50,139.47,83,11.00,-25.00,-1004.00
2024-06-07 15:48:00.178077,-1,0,0,0,0,0,83,86,87,60,50,139.39,83,-3.00,2.00,-1010.00
2024-06-07 15:48:00.367940,-1,0,0,0,0,1,83,86,86,60,50,139.35,83,-32.00,3.00,-1023.00
2024-06-07 15:48:00.381859,-1,0,0,0,0,1,83,86,84,60,50,139.32,83,12.00,-19.00,-998.00
2024-06-07 15:48:00.483966,-1,0,0,0,0,1,83,86,83,60,50,139.11,83,-43.00,-15.00,-1007.00
2024-06-07 15:48:00.670493,0,0,0,0,0,1,83,86,82,60,50,139.65,83,-6.00,-6.00,-1048.00
2024-06-07 15:48:00.687936,0,0,0,0,0,0,83,86,80,60,50,139.59,84,0.00,-15.00,-1038.00
2024-06-07 15:48:00.877190,0,0,0,0,0,0,83,86,79,60,50,139.33,84,-15.00,0.00,-960.00
2024-06-07 15:48:00.892144,0,0,0,0,0,0,83,86,78,50,50,139.36,84,10.00,-21.00,-949.00
2024-06-07 15:48:01.083820,0,0,0,0,0,0,83,86,77,50,50,139.22,84,-11.00,0.00,-972.00
2024-06-07 15:48:01.095923,0,0,0,0,0,0,83,86,76,50,50,138.89,84,-32.00,-2.00,-998.00
2024-06-07 15:48:01.197971,0,0,0,0,0,0,83,86,75,50,50,139.49,84,-22.00,2.00,-1025.00
2024-06-07 15:48:01.300678,0,0,0,0,0,0,83,87,75,50,50,139.26,84,-61.00,-13.00,-951.00
2024-06-07 15:48:01.401911,0,0,0,0,0,0,83,87,74,50,50,139.37,84,16.00,-14.00,-1019.00
2024-06-07 15:48:01.592893,0,0,0,0,0,0,83,87,74,50,50,139.42,84,3.00,-1.00,-991.00
2024-06-07 15:48:01.607983,0,0,0,0,0,0,83,87,74,50,50,139.29,84,-80.00,52.00,-984.00
2024-06-07 15:48:01.708951,0,0,0,0,0,0,83,87,74,50,50,139.24,85,-8.00,-21.00,-1063.00
2024-06-07 15:48:01.762047,0,0,0,0,0,0,83,87,74,50,50,139.05,85,-5.00,-12.00,-1016.00
2024-06-07 15:48:01.861148,0,0,0,0,0,0,83,87,74,50,50,139.08,85,-25.00,-7.00,-989.00
2024-06-07 15:48:01.962842,0,0,0,0,0,0,83,87,74,50,50,139.35,85,-8.00,-16.00,-1005.00
2024-06-07 15:48:02.106550,0,0,0,0,0,0,83,87,74,50,50,139.45,85,0.00,-28.00,-1024.00
2024-06-07 15:48:02.166905,0,1,0,0,0,0,83,87,74,50,50,139.15,85,0.00,-13.00,-1007.00
2024-06-07 15:48:02.319900,0,1,0,0,0,0,82,86,75,50,50,139.25,85,32.00,-28.00,-979.00
2024-06-07 15:48:02.516091,0,0,0,0,0,0,82,86,75,50,50,139.11,85,-24.00,-3.00,-1014.00
2024-06-07 15:48:02.516165,0,0,0,0,0,0,82,86,75,50,50,139.15,85,-41.00,0.00,-981.00
2024-06-07 15:48:02.574751,-1,0,0,0,0,0,82,86,75,50,50,139.52,86,-38.00,7.00,-1059.00
2024-06-07 15:48:02.820789,0,0,0,0,0,0,82,86,76,50,50,139.28,86,25.00,-19.00,-1037.00
2024-06-07 15:48:02.820984,0,0,0,0,0,0,82,86,76,50,50,139.29,86,24.00,-16.00,-1006.00
2024-06-07 15:48:02.880971,0,0,0,0,0,0,82,86,76,50,50,139.35,86,24.00,-48.00,-993.00
2024-06-07 15:48:02.984408,0,0,0,0,0,0,82,86,76,50,50,139.51,86,6.00,-16.00,-995.00
2024-06-07 15:48:03.086938,0,0,0,0,0,0,82,86,76,50,50,139.14,86,42.00,6.00,-985.00
2024-06-07 15:48:03.233429,0,0,0,0,0,0,82,86,76,50,50,139.31,86,73.00,-63.00,-969.00
2024-06-07 15:48:03.289950,0,0,0,0,0,0,84,85,76,50,50,139.48,86,23.00,-37.00,-1010.00
2024-06-07 15:48:03.435318,0,0,0,0,0,0,84,85,75,50,50,138.99,86,-72.00,9.00,-944.00
2024-06-07 15:48:03.494666,0,2,0,0,0,0,84,85,73,50,50,139.28,86,-3.00,-21.00,-1015.00
2024-06-07 15:48:03.647125,-1,2,0,0,0,0,84,85,74,50,50,139.16,87,38.00,-40.00,-1005.00
2024-06-07 15:48:03.697902,-1,1,0,0,0,0,84,85,73,50,50,139.17,87,-7.00,-13.00,-1001.00
2024-06-07 15:48:03.845471,-1,0,0,0,0,0,84,85,72,50,50,138.96,87,20.00,-25.00,-1027.00
2024-06-07 15:48:03.902483,-1,0,1,0,0,0,84,85,72,50,50,139.17,87,-47.00,-5.00,-1069.00
2024-06-07 15:48:04.050134,-1,1,1,0,0,0,84,85,73,50,50,139.27,87,-25.00,-7.00,-985.00
2024-06-07 15:48:04.105700,-1,0,1,0,0,0,84,85,73,50,50,139.14,87,1.00,-24.00,-971.00
2024-06-07 15:48:04.257497,0,1,1,0,0,0,84,85,73,50,50,139.37,87,25.00,-25.00,-1036.00
2024-06-07 15:48:04.309680,-1,0,1,0,0,0,83,86,73,50,50,139.50,87,18.00,-21.00,-1047.00
2024-06-07 15:48:04.414448,-1,0,1,0,0,0,83,86,74,50,50,139.02,87,-2.00,-23.00,-992.00
2024-06-07 15:48:04.513974,0,0,1,0,0,0,83,86,74,50,50,139.28,87,-14.00,-5.00,-994.00
2024-06-07 15:48:04.615634,-1,0,0,0,0,0,83,86,74,50,50,139.43,88,8.00,-17.00,-982.00
2024-06-07 15:48:04.871634,-1,0,0,0,0,0,83,86,74,50,50,139.18,88,-27.00,-18.00,-1021.00
2024-06-07 15:48:04.871700,0,0,0,0,0,0,83,86,74,50,50,139.17,88,-2.00,-48.00,-1014.00
2024-06-07 15:48:04.921729,-1,1,0,0,0,0,83,86,73,50,50,139.49,88,-21.00,-12.00,-1032.00
2024-06-07 15:48:05.023681,-1,0,0,0,0,0,83,86,73,50,50,139.15,88,-21.00,-34.00,-1029.00
2024-06-07 15:48:05.125736,0,0,0,0,0,0,83,86,72,50,50,139.26,88,-5.00,-36.00,-1039.00
2024-06-07 15:48:05.227795,0,1,0,0,0,0,83,86,72,50,50,139.47,88,-11.00,-28.00,-1022.00
2024-06-07 15:48:05.383779,-1,1,0,0,0,0,83,86,71,50,50,139.41,88,-8.00,-19.00,-1037.00
2024-06-07 15:48:05.431957,-1,1,0,0,0,0,83,86,72,50,50,139.14,88,21.00,-43.00,-1001.00
2024-06-07 15:48:05.589557,-1,1,0,0,0,0,83,86,72,50,50,139.30,88,-26.00,-15.00,-949.00
2024-06-07 15:48:05.635723,0,0,0,0,0,0,83,86,71,50,50,139.30,89,-17.00,-33.00,-996.00
2024-06-07 15:48:05.792432,-1,1,0,0,0,0,83,86,71,50,50,139.44,89,4.00,-17.00,-1029.00
2024-06-07 15:48:05.839730,-1,1,0,0,0,0,83,86,70,50,50,139.33,89,7.00,-30.00,-1027.00
2024-06-07 15:48:05.895922,0,1,0,0,0,0,83,86,70,50,50,139.66,89,-14.00,5.00,-961.00
2024-06-07 15:48:05.997924,0,0,0,0,0,0,83,86,70,50,50,139.09,89,-34.00,-31.00,-977.00
2024-06-07 15:48:06.097785,0,0,0,0,0,0,83,86,70,40,50,139.35,89,-17.00,-1.00,-1023.00
2024-06-07 15:48:06.202979,0,0,0,0,0,0,83,86,70,40,50,138.91,89,-111.00,24.00,-963.00
2024-06-07 15:48:06.299447,-1,0,0,0,0,0,83,86,70,40,50,139.15,89,14.00,16.00,-1004.00
2024-06-07 15:48:06.405194,0,0,0,0,0,0,83,86,70,50,50,139.35,89,22.00,-28.00,-1019.00
2024-06-07 15:48:06.502900,0,0,0,0,0,0,83,86,70,50,50,139.16,89,49.00,-20.00,-979.00
2024-06-07 15:48:06.612664,0,0,0,0,0,0,83,86,70,50,50,138.99,90,-61.00,26.00,-988.00
2024-06-07 15:48:06.707031,0,0,0,0,0,0,83,86,70,50,50,139.07,90,-53.00,29.00,-1018.00
2024-06-07 15:48:06.808738,-1,-1,0,0,0,0,83,86,70,50,50,139.12,90,-35.00,1.00,-974.00
2024-06-07 15:48:06.911012,0,0,0,0,0,0,83,86,71,50,50,139.09,90,41.00,-18.00,-1027.00
2024-06-07 15:48:07.124698,0,0,0,0,0,0,83,86,71,50,50,139.12,90,-23.00,6.00,-1009.00
2024-06-07 15:48:07.124881,0,0,0,0,0,0,83,86,72,50,50,139.30,90,34.00,-13.00,-1000.00
2024-06-07 15:48:07.216728,0,0,0,0,0,0,83,86,72,50,50,139.19,90,-6.00,-5.00,-1025.00
2024-06-07 15:48:07.320303,0,0,0,0,0,0,84,86,73,50,50,139.29,90,24.00,-18.00,-1064.00
2024-06-07 15:48:07.420732,0,0,0,0,0,0,84,86,75,50,50,139.05,90,16.00,9.00,-1004.00
2024-06-07 15:48:07.522488,0,0,0,0,0,-1,84,86,76,50,50,139.36,90,33.00,-18.00,-1064.00
2024-06-07 15:48:07.739076,0,0,0,0,0,-2,84,86,79,50,50,139.21,91,6.00,5.00,-1108.00
2024-06-07 15:48:07.739252,0,0,0,0,0,-3,84,86,82,50,50,139.34,91,-26.00,0.00,-1094.00
2024-06-07 15:48:07.828517,0,0,0,0,0,-4,84,86,86,60,50,139.54,91,-6.00,29.00,-1070.00
2024-06-07 15:48:07.930485,0,0,0,0,0,-4,84,86,92,60,50,139.26,91,-11.00,11.00,-1044.00
2024-06-07 15:48:08.048953,-1,-1,0,0,0,-5,84,86,98,70,50,139.35,91,-12.00,16.00,-946.00
2024-06-07 15:48:08.136043,-1,0,0,0,0,-5,84,86,104,70,50,139.70,91,-12.00,14.00,-1015.00
2024-06-07 15:48:08.236599,0,0,0,0,0,-5,84,86,110,80,50,139.28,91,-1.00,18.00,-1057.00
2024-06-07 15:48:08.351743,0,0,0,0,0,-5,84,86,116,80,50,139.61,91,58.00,-19.00,-1029.00
2024-06-07 15:48:08.440466,0,-1,0,0,0,-5,84,86,122,90,50,139.82,91,-65.00,16.00,-1009.00
2024-06-07 15:48:08.557485,0,-1,0,0,0,-5,84,86,127,100,50,139.67,91,-18.00,0.00,-1014.00
2024-06-07 15:48:08.644458,0,0,0,0,0,-5,84,86,133,100,50,139.73,92,68.00,-62.00,-1051.00
2024-06-07 15:48:08.769802,-1,0,0,0,0,-5,84,86,138,110,50,139.59,92,45.00,3.00,-1019.00
2024-06-07 15:48:08.848421,-1,0,0,0,0,-4,84,86,143,110,50,139.61,92,5.00,12.00,-955.00
2024-06-07 15:48:08.950495,-1,0,0,0,0,-4,84,86,149,120,50,139.90,92,-40.00,13.00,-954.00
2024-06-07 15:48:09.067412,-1,-1,0,0,0,-3,84,86,151,120,50,139.95,92,-13.00,-2.00,-976.00
2024-06-07 15:48:09.157494,-1,0,0,0,0,-3,84,86,154,120,50,140.15,92,24.00,-1.00,-989.00
2024-06-07 15:48:09.256635,-1,0,0,0,0,-3,84,86,158,130,50,140.16,92,-5.00,-9.00,-952.00
2024-06-07 15:48:09.374665,-1,0,0,0,0,-2,84,86,162,130,50,139.82,92,16.00,15.00,-1009.00
2024-06-07 15:48:09.460424,0,0,0,0,0,-2,84,86,164,130,50,139.70,92,-5.00,31.00,-953.00
2024-06-07 15:48:09.562434,0,0,0,0,0,-1,84,86,167,140,50,139.94,92,-29.00,5.00,-958.00
2024-06-07 15:48:09.684207,0,-1,0,0,0,-1,84,86,167,140,50,140.21,93,-54.00,31.00,-945.00
2024-06-07 15:48:09.766392,-1,0,0,0,0,-1,84,86,170,140,50,140.04,93,-116.00,71.00,-965.00
2024-06-07 15:48:09.818079,-1,-1,0,0,0,-1,84,86,172,140,50,139.88,93,4.00,-21.00,-1042.00
2024-06-07 15:48:09.969047,-1,-1,0,0,0,-1,84,86,171,140,50,139.93,93,-40.00,5.00,-928.00
2024-06-07 15:48:10.021556,-1,0,0,0,0,0,84,86,173,140,50,140.08,93,-22.00,-11.00,-969.00
2024-06-07 15:48:10.198263,-1,0,0,0,0,0,84,86,177,150,50,140.05,93,-7.00,-9.00,-973.00
2024-06-07 15:48:10.225397,-1,0,0,0,0,0,84,86,177,150,50,139.95,93,-36.00,5.00,-938.00
2024-06-07 15:48:10.399246,-1,0,0,0,0,0,83,86,178,150,50,140.05,93,20.00,-34.00,-961.00
2024-06-07 15:48:10.430578,-1,0,0,0,0,0,83,86,178,150,50,139.86,93,-47.00,0.00,-1021.00
2024-06-07 15:48:10.604880,-1,0,0,0,0,0,83,86,178,150,50,140.02,93,-58.00,14.00,-1031.00
2024-06-07 15:48:10.633378,-1,0,0,0,0,0,83,86,178,150,50,140.17,94,-61.00,27.00,-978.00
2024-06-07 15:48:10.811007,-1,0,0,0,0,0,83,86,179,150,50,140.13,94,-6.00,9.00,-959.00
2024-06-07 15:48:10.837337,-1,0,0,0,0,0,83,86,178,150,50,139.89,94,26.00,-3.00,-978.00
2024-06-07 15:48:10.942381,-1,0,0,0,0,0,83,86,178,150,50,140.18,94,-37.00,10.00,-1063.00
2024-06-07 15:48:11.041486,-1,0,0,0,0,0,83,86,180,150,50,140.38,94,-81.00,34.00,-996.00
2024-06-07 15:48:11.143411,-1,-1,0,0,0,0,83,86,178,150,50,140.11,94,7.00,2.00,-1029.00
2024-06-07 15:48:11.320037,-1,-1,0,0,0,0,83,86,176,150,50,140.15,94,-35.00,-5.00,-965.00
2024-06-07 15:48:11.347476,-1,-1,0,0,0,0,83,86,178,150,50,139.77,94,-39.00,-9.00,-981.00
2024-06-07 15:48:11.525606,-1,0,0,0,0,0,83,86,177,150,50,140.17,94,-19.00,-8.00,-954.00
2024-06-07 15:48:11.554200,-1,0,1,0,0,0,83,86,173,150,50,139.86,94,-38.00,31.00,-1032.00
2024-06-07 15:48:11.653427,-1,0,1,0,0,0,83,86,172,150,50,139.94,95,-6.00,36.00,-946.00
2024-06-07 15:48:11.820303,-1,0,1,0,0,0,83,86,173,150,50,139.80,95,-78.00,46.00,-981.00
2024-06-07 15:48:11.857252,-1,-1,0,0,0,0,83,86,172,150,50,140.18,95,-49.00,33.00,-1015.00
2024-06-07 15:48:11.959426,-1,-2,0,0,0,0,83,86,170,140,50,139.89,95,-64.00,30.00,-1009.00
2024-06-07 15:48:12.142329,-1,-1,0,0,0,0,83,86,170,140,50,139.80,95,-63.00,13.00,-968.00
2024-06-07 15:48:12.163297,-1,-1,0,0,0,1,83,86,169,140,50,139.74,95,30.00,-29.00,-935.00
2024-06-07 15:48:12.344266,-1,0,0,0,0,1,83,86,165,140,50,139.83,95,10.00,-6.00,-954.00
2024-06-07 15:48:12.371770,-1,-1,0,0,0,1,84,86,163,140,50,140.09,95,-93.00,25.00,-969.00
2024-06-07 15:48:12.469391,0,-1,0,0,0,2,84,86,161,140,50,139.97,95,-67.00,11.00,-987.00
2024-06-07 15:48:12.651186,0,-1,0,0,0,2,84,86,159,130,50,139.61,95,23.00,-33.00,-997.00
2024-06-07 15:48:12.675361,0,0,0,0,0,2,84,86,157,130,50,139.85,96,-25.00,-8.00,-989.00
2024-06-07 15:48:12.775203,0,0,0,0,0,2,84,86,154,130,50,139.71,96,-5.00,-21.00,-1057.00
2024-06-07 15:48:12.958761,0,0,0,0,0,2,84,86,151,130,50,139.92,96,-40.00,-17.00,-1023.00
2024-06-07 15:48:12.981239,0,0,0,0,0,2,84,86,147,120,50,140.22,96,-71.00,9.00,-984.00
2024-06-07 15:48:13.081440,-1,0,0,0,0,2,84,86,148,120,50,139.93,96,-50.00,-17.00,-1052.00
2024-06-07 15:48:13.265851,-1,0,0,0,0,2,84,86,143,120,50,139.93,96,8.00,-3.00,-1003.00
2024-06-07 15:48:13.285484,-1,1,0,0,0,2,84,86,140,120,50,139.84,96,-57.00,1.00,-1045.00
2024-06-07 15:48:13.477834,-1,1,0,0,0,2,84,86,140,110,50,139.71,96,-64.00,4.00,-947.00
2024-06-07 15:48:13.489158,-1,1,0,0,0,2,84,86,137,110,50,139.41,96,-60.00,8.00,-998.00
2024-06-07 15:48:13.676834,-1,0,0,0,0,1,84,86,136,110,50,139.53,96,-21.00,11.00,-1025.00
2024-06-07 15:48:13.676921,-1,0,0,0,0,1,84,86,134,110,50,139.65,97,-39.00,15.00,-1025.00
2024-06-07 15:48:13.744233,-1,0,0,0,0,1,84,86,133,110,50,139.43,97,-1.00,-4.00,-1016.00
2024-06-07 15:48:13.879992,-1,0,0,0,0,1,84,86,132,110,50,139.67,97,11.00,-15.00,-963.00
2024-06-07 15:48:13.948226,-1,0,0,0,0,0,84,86,131,110,50,139.69,97,-41.00,11.00,-935.00
2024-06-07 15:48:14.087466,-1,0,0,0,0,1,84,86,132,100,50,139.38,97,-59.00,31.00,-1078.00
2024-06-07 15:48:14.152262,-1,0,0,0,0,0,84,86,130,100,50,139.81,97,-9.00,-4.00,-1037.00
2024-06-07 15:48:14.296719,-1,0,0,0,0,0,84,86,130,100,50,139.69,97,-52.00,8.00,-997.00
2024-06-07 15:48:14.356423,-2,0,0,0,0,0,83,86,129,100,50,139.69,97,18.00,-12.00,-1004.00
2024-06-07 15:48:14.458332,-2,-1,0,0,0,0,83,86,128,100,50,139.51,97,-30.00,28.00,-996.00
2024-06-07 15:48:14.560275,-2,-1,0,0,0,0,83,86,127,100,50,139.58,97,-38.00,40.00,-971.00
2024-06-07 15:48:14.702781,-1,-1,0,0,0,0,83,86,124,100,50,139.52,98,-61.00,37.00,-994.00
2024-06-07 15:48:14.764898,-1,-1,0,0,0,0,83,86,124,100,50,139.55,98,19.00,16.00,-1022.00
2024-06-07 15:48:14.904375,-1,-1,0,0,0,0,83,86,124,100,50,139.60,98,0.00,36.00,-1052.00
2024-06-07 15:48:14.968706,-1,-2,0,0,0,0,83,86,122,100,50,140.12,98,-13.00,36.00,-976.00
2024-06-07 15:48:15.111950,-1,-2,0,0,0,0,83,86,123,100,50,139.59,98,-26.00,47.00,-1009.00
2024-06-07 15:48:15.172204,0,-2,0,0,0,0,83,86,121,100,50,139.82,98,58.00,1.00,-1051.00
2024-06-07 15:48:15.313687,0,-2,0,0,0,0,83,86,121,100,50,139.83,98,0.00,40.00,-1055.00
2024-06-07 15:48:15.376525,0,-2,0,0,0,0,84,86,121,90,50,139.92,98,-23.00,52.00,-1026.00
2024-06-07 15:48:15.478163,0,-2,0,0,0,0,84,86,121,90,50,139.55,98,-1.00,53.00,-1047.00
2024-06-07 15:48:15.626990,0,-3,0,0,0,0,84,86,122,90,50,139.99,98,-17.00,30.00,-999.00
2024-06-07 15:48:15.682205,0,-2,0,0,0,0,84,86,125,100,50,139.68,99,-19.00,39.00,-1037.00
2024-06-07 15:48:15.829895,0,-2,0,0,0,0,84,86,125,100,50,139.60,99,-20.00,38.00,-1064.00
2024-06-07 15:48:15.886105,0,-2,0,0,0,0,84,86,124,100,50,139.58,99,32.00,-8.00,-965.00
2024-06-07 15:48:15.988123,0,-2,0,0,0,0,84,86,126,100,50,139.72,99,11.00,17.00,-967.00
2024-06-07 15:48:16.135691,0,-1,0,0,0,0,84,86,126,100,50,139.82,99,4.00,-2.00,-946.00
2024-06-07 15:48:16.192775,0,0,0,0,0,0,84,86,126,100,50,139.92,99,-6.00,31.00,-970.00
2024-06-07 15:48:16.294216,0,0,0,0,0,0,84,86,126,100,50,139.77,99,22.00,-12.00,-1012.00
2024-06-07 15:48:16.396193,0,0,0,0,0,0,83,86,127,100,50,139.55,99,85.00,-10.00,-912.00
2024-06-07 15:48:16.498694,0,0,0,0,0,0,83,86,126,100,50,139.62,99,-6.00,21.00,-1064.00
2024-06-07 15:48:16.600250,0,0,0,0,0,0,83,86,127,100,50,139.68,99,6.00,10.00,-1020.00
2024-06-07 15:48:16.705518,0,0,0,0,0,0,83,86,127,100,50,139.47,100,3.00,-5.00,-969.00
2024-06-07 15:48:16.804978,0,0,0,0,0,0,83,86,127,100,50,139.63,100,-63.00,52.00,-996.00
2024-06-07 15:48:16.952293,0,0,0,0,0,0,83,86,126,100,50,139.69,100,3.00,2.00,-977.00
2024-06-07 15:48:17.008335,-4,1,0,0,0,0,83,86,126,100,50,139.54,100,-46.00,17.00,-1000.00
2024-06-07 15:48:17.059493,-8,0,0,1,0,0,83,86,127,100,50,139.60,100,19.00,-7.00,-1024.00
2024-06-07 15:48:17.160987,-8,0,0,2,0,0,83,86,127,100,50,139.81,100,-5.00,13.00,-1011.00
2024-06-07 15:48:17.263103,-8,0,0,3,0,0,83,86,126,100,50,139.70,100,14.00,2.00,-982.00
2024-06-07 15:48:17.566743,-8,0,0,5,0,0,83,87,126,100,50,139.68,100,-56.00,26.00,-1052.00
2024-06-07 15:48:17.566917,-6,-1,0,7,0,0,83,87,124,100,50,139.52,100,7.00,26.00,-996.00
2024-06-07 15:48:17.623013,-5,-1,0,7,0,0,83,87,124,100,50,139.45,101,-4.00,25.00,-1007.00
2024-06-07 15:48:17.722035,-4,-1,0,8,0,0,83,87,124,100,50,139.76,101,-110.00,78.00,-957.00
2024-06-07 15:48:17.775869,0,-2,0,8,0,0,83,87,124,100,50,139.62,101,-14.00,21.00,-998.00
2024-06-07 15:48:17.874949,2,-2,0,7,0,0,83,87,123,100,50,139.40,101,13.00,0.00,-1067.00
2024-06-07 15:48:17.977770,4,-2,0,6,0,0,83,87,123,100,50,139.64,101,-72.00,44.00,-1015.00
2024-06-07 15:48:18.082237,4,-2,0,5,0,0,83,87,123,100,50,139.62,101,-102.00,59.00,-1030.00
2024-06-07 15:48:18.181066,3,-2,0,4,0,0,83,87,123,100,50,139.73,101,-102.00,46.00,-989.00
2024-06-07 15:48:18.285561,1,-2,0,4,0,0,83,87,122,100,50,139.65,101,49.00,8.00,-1062.00
2024-06-07 15:48:18.386434,1,-1,0,3,0,0,84,86,124,100,50,139.98,101,46.00,-3.00,-995.00
2024-06-07 15:48:18.487427,1,-2,0,3,0,0,84,86,123,100,50,139.60,101,-86.00,54.00,-975.00
2024-06-07 15:48:18.590342,2,-1,0,2,0,0,84,86,124,100,50,140.03,102,18.00,35.00,-962.00
2024-06-07 15:48:18.692937,1,-2,0,2,0,0,84,86,124,100,50,139.92,102,-42.00,41.00,-1012.00
2024-06-07 15:48:18.796599,1,-4,0,1,0,0,84,86,124,100,50,139.74,102,19.00,0.00,-1012.00
2024-06-07 15:48:18.900511,0,-4,0,1,-1,0,84,86,125,100,50,139.85,102,-36.00,26.00,-977.00
2024-06-07 15:48:19.000284,2,1,0,1,-1,0,84,86,125,100,50,139.97,102,-5.00,32.00,-1006.00
2024-06-07 15:48:19.103708,2,1,0,0,0,0,84,86,125,100,50,139.78,102,86.00,-2.00,-1028.00
2024-06-07 15:48:19.207611,1,0,0,0,0,0,84,86,125,100,50,139.76,102,-22.00,20.00,-984.00
2024-06-07 15:48:19.307541,0,0,0,0,0,0,84,86,125,100,50,139.86,102,-6.00,32.00,-995.00
2024-06-07 15:48:19.405963,0,0,0,0,0,0,84,86,125,100,50,139.80,102,17.00,17.00,-982.00
2024-06-07 15:48:19.512263,-1,-1,0,0,0,0,84,86,124,100,50,139.77,102,-28.00,55.00,-1032.00
2024-06-07 15:48:19.609842,-1,-1,0,0,0,0,84,86,122,100,50,139.76,103,-44.00,27.00,-1013.00
2024-06-07 15:48:19.718005,-1,-2,0,0,0,0,84,86,123,100,50,139.70,103,46.00,-2.00,-1040.00
2024-06-07 15:48:19.813950,-1,-2,0,0,0,0,84,86,122,100,50,139.61,103,-7.00,-12.00,-983.00
2024-06-07 15:48:19.923819,-1,-2,0,0,0,0,84,86,123,100,50,139.71,103,7.00,-21.00,-946.00
2024-06-07 15:48:20.019051,-2,-1,0,0,0,0,84,86,123,100,50,139.37,103,-27.00,2.00,-996.00
2024-06-07 15:48:20.129394,-1,0,0,0,0,0,84,86,122,100,50,139.73,103,44.00,-37.00,-1010.00
2024-06-07 15:48:20.222921,-1,0,0,0,0,0,84,86,122,100,50,139.62,103,-51.00,13.00,-962.00
2024-06-07 15:48:20.325911,-1,0,0,0,0,0,84,86,123,100,50,139.54,103,-22.00,7.00,-987.00
2024-06-07 15:48:20.427654,0,0,0,0,0,0,83,86,123,100,50,139.72,103,22.00,-23.00,-998.00
2024-06-07 15:48:20.531014,-1,0,0,0,0,0,83,86,123,100,50,139.84,103,-29.00,1.00,-1045.00
2024-06-07 15:48:20.631362,-1,0,0,0,0,0,83,86,123,100,50,139.45,104,-33.00,-8.00,-1002.00
2024-06-07 15:48:20.743647,-2,0,0,0,0,0,83,86,123,100,50,139.38,104,-101.00,61.00,-900.00
2024-06-07 15:48:20.784152,-2,0,0,0,0,0,83,86,123,100,50,139.63,104,-46.00,15.00,-1031.00
2024-06-07 15:48:20.886816,-3,0,0,0,0,0,83,86,122,100,50,139.51,104,-50.00,-7.00,-1030.00
2024-06-07 15:48:20.988022,-3,0,1,0,0,0,83,86,122,100,50,139.43,104,-47.00,19.00,-986.00
2024-06-07 15:48:21.092435,-3,0,0,0,0,0,83,86,122,100,50,139.54,104,-28.00,13.00,-966.00
2024-06-07 15:48:21.191844,-3,-1,0,0,0,0,83,86,123,100,50,139.54,104,-57.00,36.00,-990.00
2024-06-07 15:48:21.357379,-1,-1,0,0,0,0,83,86,121,100,50,139.75,104,-60.00,67.00,-963.00
2024-06-07 15:48:21.395868,5,-1,0,0,0,0,83,86,123,100,50,139.52,104,-7.00,5.00,-1072.00
2024-06-07 15:48:21.497893,7,-2,0,-2,0,0,83,86,122,100,50,139.82,104,18.00,10.00,-998.00
2024-06-07 15:48:21.766782,6,-2,0,-4,0,0,83,86,122,100,50,140.04,105,-14.00,43.00,-1050.00
2024-06-07 15:48:21.766844,5,-2,0,-5,0,0,83,86,122,100,50,139.71,105,-2.00,27.00,-1024.00
2024-06-07 15:48:21.803811,4,-1,0,-6,0,0,83,86,122,100,50,139.96,105,41.00,-4.00,-1018.00
2024-06-07 15:48:22.177773,4,0,0,-6,0,0,83,86,121,100,50,140.03,105,-2.00,19.00,-1011.00
2024-06-07 15:48:22.178018,3,-1,0,-7,0,0,83,86,122,100,50,139.67,105,18.00,56.00,-941.00
2024-06-07 15:48:22.178169,2,-3,0,-8,0,0,83,86,122,100,50,139.78,105,10.00,24.00,-1049.00
2024-06-07 15:48:22.211787,0,-4,0,-8,0,0,83,86,122,100,50,139.54,105,-9.00,38.00,-1021.00
2024-06-07 15:48:22.379546,-4,-4,0,-7,0,0,83,86,123,100,50,140.00,105,18.00,30.00,-965.00
2024-06-07 15:48:22.415724,-6,-3,0,-7,0,0,83,86,124,100,50,139.78,105,8.00,41.00,-980.00
2024-06-07 15:48:22.584376,-7,-2,1,-6,0,0,83,86,123,100,50,139.90,105,18.00,46.00,-972.00
2024-06-07 15:48:22.621146,-6,-3,1,-5,0,0,83,86,123,100,50,139.98,106,4.00,43.00,-922.00
2024-06-07 15:48:22.722890,-5,-4,1,-4,0,0,83,86,122,100,50,139.62,106,-2.00,31.00,-993.00
2024-06-07 15:48:22.823946,-5,-4,0,-3,0,0,83,86,122,100,50,139.49,106,-53.00,69.00,-984.00
2024-06-07 15:48:22.925714,-6,-5,0,-3,0,0,83,86,121,100,50,139.78,106,-31.00,83.00,-972.00
2024-06-07 15:48:23.028168,-7,-3,0,-2,-1,0,83,86,121,100,50,139.68,106,-72.00,77.00,-1032.00
2024-06-07 15:48:23.130859,-5,1,0,-1,0,0,83,86,121,100,50,139.73,106,20.00,63.00,-1033.00
2024-06-07 15:48:23.404682,-3,-1,0,0,0,0,83,86,120,100,50,139.79,106,-71.00,87.00,-1003.00
2024-06-07 15:48:23.404875,-2,-2,0,0,0,0,83,86,121,100,50,139.69,106,-52.00,68.00,-983.00
2024-06-07 15:48:23.437093,-2,-2,0,0,0,0,84,87,120,90,50,139.69,106,-4.00,73.00,-975.00
2024-06-07 15:48:23.538992,-2,-2,0,0,0,0,84,87,121,90,50,139.79,106,-38.00,62.00,-975.00
2024-06-07 15:48:23.713352,-1,-3,0,0,0,0,84,87,120,90,50,139.61,107,-1.00,25.00,-1026.00
2024-06-07 15:48:23.742612,-1,-3,0,0,0,0,84,87,119,90,50,139.94,107,-27.00,42.00,-1013.00
2024-06-07 15:48:23.916861,-1,-2,0,0,0,0,84,87,120,90,49,139.89,107,-24.00,43.00,-1001.00
2024-06-07 15:48:23.946783,-1,-2,1,0,0,0,84,87,121,90,49,139.74,107,5.00,30.00,-1033.00
2024-06-07 15:48:24.050859,-1,-3,0,0,0,0,84,87,121,90,49,139.67,107,-62.00,62.00,-938.00
2024-06-07 15:48:24.151338,-1,-3,0,0,0,0,84,87,122,100,49,139.77,107,5.00,44.00,-1008.00
2024-06-07 15:48:24.201952,0,-3,0,0,0,0,84,87,121,100,49,139.77,107,-29.00,38.00,-1015.00
2024-06-07 15:48:24.327815,0,-3,0,0,0,0,84,87,123,100,49,139.62,107,-48.00,70.00,-1022.00
2024-06-07 15:48:24.530133,0,-2,0,0,0,0,84,87,123,100,49,139.48,107,12.00,33.00,-1015.00
2024-06-07 15:48:24.559065,0,-2,0,0,0,0,84,87,123,100,49,139.45,107,13.00,55.00,-988.00
2024-06-07 15:48:24.735434,0,-3,0,0,0,0,84,87,123,100,49,139.53,108,-39.00,43.00,-967.00
2024-06-07 15:48:24.762656,0,-3,0,0,0,0,84,87,124,100,49,139.58,108,-16.00,-18.00,-983.00
2024-06-07 15:48:24.813684,-1,-3,0,0,0,0,84,87,124,100,49,139.65,108,-57.00,52.00,-974.00
2024-06-07 15:48:24.939365,-1,-2,0,0,0,0,84,87,123,100,49,139.79,108,-44.00,50.00,-958.00
2024-06-07 15:48:25.017890,-1,-2,0,0,0,0,84,87,124,100,49,139.52,108,-65.00,39.00,-981.00
2024-06-07 15:48:25.119622,-1,-2,0,0,0,0,84,87,123,100,49,139.56,108,-8.00,0.00,-1007.00
2024-06-07 15:48:25.249789,-1,-2,0,0,0,0,84,87,121,100,49,139.53,108,29.00,33.00,-1029.00
2024-06-07 15:48:25.324563,-1,-2,0,0,0,0,84,87,121,100,49,139.92,108,-36.00,41.00,-1001.00
2024-06-07 15:48:25.425609,-1,-2,0,0,0,0,83,85,120,100,49,139.73,108,-18.00,33.00,-1001.00
2024-06-07 15:48:25.527781,-1,-1,0,0,0,0,83,85,120,90,49,139.68,108,-23.00,74.00,-976.00
2024-06-07 15:48:25.758308,0,-7,0,0,0,0,83,85,122,90,49,139.72,109,-26.00,40.00,-1028.00
2024-06-07 15:48:25.758525,0,-8,0,0,-1,0,83,85,123,90,48,139.60,109,-1.00,23.00,-1054.00
2024-06-07 15:48:25.848244,0,-8,0,0,-2,0,83,85,121,90,48,139.81,109,-8.00,47.00,-1028.00
2024-06-07 15:48:25.935873,0,-6,0,0,-3,0,83,85,120,90,48,140.00,109,-25.00,66.00,-952.00
2024-06-07 15:48:26.067834,-1,-3,0,0,-3,0,83,85,120,90,48,139.77,109,-25.00,84.00,-915.00
2024-06-07 15:48:26.140535,-1,-1,0,0,-3,0,83,85,120,90,48,139.83,109,-27.00,64.00,-965.00
2024-06-07 15:48:26.273274,0,-2,0,0,-2,0,83,85,122,100,48,139.86,109,-65.00,56.00,-973.00
2024-06-07 15:48:26.344569,0,-2,0,0,-2,0,83,85,123,100,48,139.41,109,-13.00,47.00,-1066.00
2024-06-07 15:48:26.446706,0,-2,0,0,-2,0,83,86,124,100,48,139.35,109,-40.00,19.00,-1098.00
2024-06-07 15:48:26.578817,0,-2,0,0,-3,0,83,86,123,100,48,139.36,109,-13.00,49.00,-945.00
2024-06-07 15:48:26.650666,-1,-1,0,0,-2,0,83,86,125,100,48,139.57,110,-46.00,62.00,-948.00
2024-06-07 15:48:26.752555,-1,-2,0,0,-2,0,83,86,125,100,48,139.66,110,-44.00,50.00,-992.00
2024-06-07 15:48:26.854611,-2,-2,0,0,-2,0,83,86,126,100,48,139.45,110,-37.00,39.00,-945.00
2024-06-07 15:48:26.990136,-2,-2,0,0,-2,0,83,86,126,100,48,139.56,110,-54.00,57.00,-989.00
2024-06-07 15:48:27.058694,-2,-2,0,0,-2,0,83,86,126,100,48,139.69,110,-37.00,75.00,-940.00
2024-06-07 15:48:27.160374,-2,-1,0,0,-2,0,83,86,127,100,48,139.92,110,3.00,48.00,-1012.00
2024-06-07 15:48:27.262627,-3,-1,0,0,-1,0,83,86,128,100,48,139.67,110,-54.00,64.00,-1014.00
2024-06-07 15:48:27.397178,-3,-1,0,0,-1,0,83,86,128,100,48,139.62,110,-30.00,29.00,-1000.00
2024-06-07 15:48:27.470351,-5,0,0,0,-1,0,83,86,128,100,48,139.89,110,-65.00,53.00,-970.00
2024-06-07 15:48:27.568485,-6,0,0,0,0,0,83,86,129,100,48,139.96,110,-20.00,54.00,-1045.00
2024-06-07 15:48:27.670572,-3,0,0,1,0,0,83,86,129,100,48,139.60,111,-65.00,71.00,-998.00
2024-06-07 15:48:27.772449,2,-1,0,0,0,0,83,86,128,100,48,139.50,111,3.00,34.00,-1004.00
2024-06-07 15:48:27.874597,0,-1,0,0,0,0,83,86,128,100,48,139.59,111,-23.00,34.00,-940.00
2024-06-07 15:48:28.012348,-1,-1,0,0,0,0,83,86,128,100,48,139.65,111,-16.00,78.00,-927.00
2024-06-07 15:48:28.079009,-2,-2,0,0,0,0,83,86,131,100,48,139.54,111,-8.00,50.00,-952.00
2024-06-07 15:48:28.219840,-1,-3,0,0,0,0,83,86,131,100,48,139.36,111,8.00,25.00,-1037.00
2024-06-07 15:48:28.282980,0,-3,0,0,0,0,83,86,130,100,48,139.60,111,-67.00,44.00,-959.00
2024-06-07 15:48:28.333440,-1,-4,0,0,0,0,83,86,130,100,48,140.03,111,0.00,2.00,-984.00
2024-06-07 15:48:28.526754,-2,-3,0,0,0,0,83,87,131,100,48,139.36,111,-40.00,21.00,-1012.00
2024-06-07 15:48:28.537313,-2,-2,0,0,0,0,83,87,130,100,48,139.52,111,21.00,14.00,-904.00
2024-06-07 15:48:28.730234,-1,-1,0,0,0,0,83,87,131,100,48,139.53,112,-76.00,26.00,-941.00
2024-06-07 15:48:28.741560,-1,-1,0,0,0,0,83,87,130,100,47,139.86,112,-33.00,-9.00,-1021.00
2024-06-07 15:48:28.933008,-1,0,0,0,0,0,83,87,129,100,47,139.41,112,-65.00,27.00,-981.00
2024-06-07 15:48:28.945703,-2,0,0,0,0,0,83,87,129,100,47,139.49,112,-6.00,-12.00,-998.00
2024-06-07 15:48:29.139447,-3,0,0,0,0,0,83,87,129,100,47,139.65,112,-33.00,38.00,-994.00
2024-06-07 15:48:29.149345,-3,0,0,0,0,0,83,87,128,100,47,139.85,112,-39.00,58.00,-1078.00
2024-06-07 15:48:29.342836,-3,0,0,0,0,0,83,87,128,100,47,139.63,112,-1.00,44.00,-1023.00
2024-06-07 15:48:29.355047,-2,-1,0,0,0,0,83,87,129,100,47,139.52,112,27.00,14.00,-986.00
2024-06-07 15:48:29.455509,-2,-1,0,0,0,0,83,86,128,100,47,139.42,112,-11.00,25.00,-1036.00
2024-06-07 15:48:29.558079,-2,-1,0,0,0,0,83,86,131,100,47,139.77,112,11.00,29.00,-1016.00
2024-06-07 15:48:29.752981,-1,-1,0,0,0,0,83,86,130,100,47,139.52,113,-24.00,33.00,-998.00
2024-06-07 15:48:29.762708,-1,-1,0,0,0,0,83,86,130,100,47,139.81,113,-40.00,54.00,-966.00
2024-06-07 15:48:29.865071,-1,-2,0,0,0,0,83,86,130,100,47,139.91,113,-15.00,45.00,-1029.00
2024-06-07 15:48:29.965828,-1,-2,0,0,0,0,83,86,130,100,47,139.64,113,-17.00,7.00,-1034.00
2024-06-07 15:48:30.067249,0,2,0,0,0,0,83,86,131,100,47,139.51,113,-24.00,34.00,-965.00
2024-06-07 15:48:30.265057,0,6,0,0,1,0,83,86,131,100,47,139.71,113,-49.00,21.00,-1037.00
2024-06-07 15:48:30.272345,-1,4,0,0,2,0,83,86,129,100,47,139.93,113,-45.00,28.00,-1003.00
2024-06-07 15:48:30.373310,-2,0,0,0,3,0,83,86,130,100,47,139.50,113,-22.00,20.00,-1043.00
2024-06-07 15:48:30.571458,-2,-1,0,0,3,0,83,86,129,100,47,139.61,113,-18.00,-17.00,-999.00
2024-06-07 15:48:30.579252,-2,-2,0,0,3,0,83,86,128,100,47,139.73,113,-73.00,44.00,-1027.00
2024-06-07 15:48:30.679880,-1,-2,0,0,3,0,83,86,127,100,47,139.67,114,-18.00,23.00,-1025.00
2024-06-07 15:48:30.878449,-1,-1,0,0,2,0,83,86,127,100,47,139.76,114,6.00,-6.00,-1033.00
2024-06-07 15:48:30.883369,-2,-1,0,0,2,0,83,86,127,100,47,139.75,114,-21.00,-11.00,-987.00
2024-06-07 15:48:30.985527,-1,-1,0,0,2,0,83,86,127,100,47,139.45,114,-31.00,41.00,-953.00
2024-06-07 15:48:31.185925,-1,-1,0,0,2,0,83,86,127,100,47,139.80,114,-85.00,35.00,-1066.00
2024-06-07 15:48:31.190331,-1,-1,0,0,2,0,83,86,128,100,47,139.56,114,-71.00,19.00,-994.00
2024-06-07 15:48:31.292267,-1,-1,0,0,2,0,83,86,127,100,47,139.61,114,-55.00,21.00,-958.00
2024-06-07 15:48:31.496465,-2,0,0,0,2,0,83,86,127,100,47,139.39,114,12.00,-10.00,-974.00
2024-06-07 15:48:31.496505,-2,-1,0,0,2,0,83,86,126,100,47,139.71,114,-21.00,15.00,-1024.00
2024-06-07 15:48:31.598519,-2,-3,0,0,2,0,83,86,129,100,47,139.50,114,-26.00,43.00,-902.00
2024-06-07 15:48:31.700671,-1,-7,0,0,2,0,83,86,128,100,47,139.69,115,-19.00,-2.00,-1028.00
2024-06-07 15:48:31.802311,-1,-6,0,0,1,0,83,86,129,100,47,139.68,115,-67.00,49.00,-1025.00
2024-06-07 15:48:31.853462,-1,-3,0,0,0,0,83,86,128,100,47,139.73,115,39.00,16.00,-1024.00
2024-06-07 15:48:32.009835,-1,-3,0,0,0,0,83,86,128,100,47,139.61,115,-41.00,63.00,-1002.00
2024-06-07 15:48:32.057298,0,-2,0,0,0,0,83,86,128,100,47,139.71,115,-36.00,30.00,-1011.00
2024-06-07 15:48:32.217033,0,-2,0,0,0,0,83,86,128,100,47,139.36,115,-6.00,45.00,-1017.00
2024-06-07 15:48:32.261518,0,-2,0,0,0,0,83,86,128,100,47,139.77,115,3.00,30.00,-972.00
2024-06-07 15:48:32.415532,0,-2,0,0,0,0,83,86,128,100,47,139.97,115,-26.00,52.00,-936.00
2024-06-07 15:48:32.465697,-1,-3,0,0,0,0,83,86,127,100,47,139.78,115,2.00,37.00,-1003.00
2024-06-07 15:48:32.723459,-2,-2,0,0,0,0,83,86,126,100,47,139.30,115,-82.00,57.00,-979.00
2024-06-07 15:48:32.723617,-2,-2,0,0,0,0,83,86,123,100,47,139.69,116,-10.00,-6.00,-965.00
2024-06-07 15:48:32.771376,-2,-1,0,0,0,0,83,86,123,100,46,139.81,116,-22.00,-10.00,-1005.00
2024-06-07 15:48:32.926889,-2,-1,0,0,0,0,83,86,121,100,46,139.67,116,-44.00,21.00,-1056.00
2024-06-07 15:48:32.975489,-2,-1,0,0,0,0,83,86,120,100,46,139.79,116,-7.00,32.00,-1000.00
2024-06-07 15:48:33.131777,-2,-1,0,0,0,0,83,86,120,90,46,139.74,116,-40.00,27.00,-987.00
2024-06-07 15:48:33.179394,-2,-1,0,0,0,0,83,86,120,90,46,139.62,116,-28.00,33.00,-996.00
2024-06-07 15:48:33.336783,-1,0,0,0,0,0,83,86,119,90,46,139.46,116,-73.00,30.00,-1058.00
2024-06-07 15:48:33.383699,-1,-1,0,0,0,0,83,86,120,90,46,139.68,116,0.00,48.00,-999.00
2024-06-07 15:48:33.545874,0,-2,0,0,0,0,83,86,120,90,46,139.59,116,-2.00,62.00,-988.00
2024-06-07 15:48:33.587335,-1,-3,0,0,0,0,83,86,122,90,46,139.46,117,-45.00,44.00,-1009.00
2024-06-07 15:48:33.746241,-1,-3,0,0,0,0,83,86,121,90,46,139.74,117,-33.00,62.00,-1022.00
2024-06-07 15:48:33.791449,-1,-3,0,0,0,0,83,86,122,90,46,139.83,117,-48.00,45.00,-1009.00
2024-06-07 15:48:33.893188,-1,-3,1,0,0,0,83,86,123,100,46,139.66,117,-13.00,16.00,-992.00
2024-06-07 15:48:34.056016,-1,-3,6,0,0,0,83,86,124,100,46,139.76,117,-46.00,54.00,-1013.00
2024-06-07 15:48:34.097160,0,-2,12,0,0,0,83,86,125,100,46,139.67,117,-44.00,61.00,-953.00
2024-06-07 15:48:34.265655,0,-2,18,0,0,0,83,86,124,100,46,140.01,117,37.00,24.00,-1012.00
2024-06-07 15:48:34.301143,0,-2,24,0,0,0,83,86,125,100,46,139.82,117,-22.00,55.00,-948.00
2024-06-07 15:48:34.403208,0,-2,30,0,0,0,83,86,125,100,46,139.93,117,-7.00,60.00,-981.00
2024-06-07 15:48:34.505602,0,-3,36,0,0,0,83,87,125,100,46,140.08,117,-27.00,73.00,-939.00
2024-06-07 15:48:34.773392,0,-3,42,0,0,0,83,87,125,100,46,139.69,118,41.00,37.00,-1000.00
2024-06-07 15:48:34.773458,0,-3,48,0,0,0,83,87,125,100,46,139.94,118,101.00,16.00,-1001.00
2024-06-07 15:48:34.816575,0,-3,54,0,0,0,83,87,125,100,46,139.64,118,72.00,53.00,-1039.00
2024-06-07 15:48:34.915224,0,-3,60,0,0,0,83,87,124,100,46,139.69,118,81.00,64.00,-1003.00
2024-06-07 15:48:35.015087,1,-3,66,0,0,0,83,87,124,100,46,140.01,118,71.00,76.00,-984.00
2024-06-07 15:48:35.117022,2,-3,73,0,0,0,83,87,125,100,46,139.89,118,71.00,65.00,-949.00
2024-06-07 15:48:35.281310,3,-2,79,0,0,0,83,87,125,100,46,139.82,118,55.00,91.00,-1048.00
2024-06-07 15:48:35.321110,3,-2,85,0,0,0,83,87,124,100,46,139.52,118,42.00,34.00,-1012.00
2024-06-07 15:48:35.486092,4,-1,91,0,0,0,83,87,125,100,46,139.57,118,94.00,56.00,-1026.00
2024-06-07 15:48:35.525047,4,-1,97,0,0,0,83,86,125,100,46,139.41,118,51.00,48.00,-975.00
2024-06-07 15:48:35.691369,5,-1,103,0,0,0,83,86,125,100,46,139.64,119,86.00,52.00,-990.00
2024-06-07 15:48:35.729039,5,-1,109,0,0,0,83,86,125,100,46,139.91,119,91.00,45.00,-950.00
2024-06-07 15:48:36.001445,5,0,115,0,0,0,83,86,125,100,45,139.35,119,88.00,52.00,-1004.00
2024-06-07 15:48:36.001492,5,0,121,0,0,0,83,86,124,100,45,139.60,119,119.00,29.00,-1012.00
2024-06-07 15:48:36.001942,5,0,128,0,0,0,83,86,125,100,45,139.33,119,79.00,12.00,-963.00
2024-06-07 15:48:36.086872,5,0,134,0,0,0,83,86,125,100,45,139.82,119,56.00,24.00,-978.00
2024-06-07 15:48:36.209445,5,0,140,0,0,0,83,86,125,100,45,139.84,119,114.00,7.00,-1012.00
2024-06-07 15:48:36.289993,6,0,146,0,0,0,83,86,125,100,45,139.54,119,111.00,-6.00,-991.00
2024-06-07 15:48:36.411253,5,0,152,0,0,0,83,86,126,100,45,139.36,119,119.00,3.00,-990.00
2024-06-07 15:48:36.493968,5,0,159,0,0,0,83,87,125,100,45,139.14,119,108.00,-30.00,-977.00
2024-06-07 15:48:36.615332,5,1,165,0,0,0,83,87,125,100,45,139.48,120,154.00,-56.00,-949.00
2024-06-07 15:48:36.698202,5,1,171,0,0,0,83,87,125,100,45,139.73,120,63.00,-21.00,-1016.00
2024-06-07 15:48:36.819340,5,2,177,0,0,0,83,87,124,100,45,139.57,120,86.00,-20.00,-1060.00
2024-06-07 15:48:36.901977,5,3,-176,0,0,0,83,87,124,100,45,139.93,120,87.00,-50.00,-940.00
2024-06-07 15:48:37.124708,5,3,-170,0,0,0,83,87,123,100,45,139.94,120,35.00,-24.00,-964.00
2024-06-07 15:48:37.125201,4,3,-164,0,0,0,83,87,122,100,45,139.63,120,43.00,-26.00,-1010.00
2024-06-07 15:48:37.210060,4,4,-158,0,0,0,83,87,122,100,45,139.63,120,55.00,-33.00,-1033.00
2024-06-07 15:48:37.432161,3,5,-152,0,0,0,83,87,122,100,45,139.69,120,87.00,-65.00,-946.00
2024-06-07 15:48:37.432208,3,5,-146,0,0,0,83,87,122,100,45,139.91,120,43.00,-68.00,-1013.00
2024-06-07 15:48:37.514904,3,6,-140,0,0,0,83,87,122,90,45,139.79,120,65.00,-56.00,-981.00
2024-06-07 15:48:37.637080,2,6,-134,0,0,0,83,87,120,90,45,139.86,121,109.00,-106.00,-1008.00
2024-06-07 15:48:37.718932,2,6,-128,0,0,0,83,87,120,90,45,139.66,121,12.00,-90.00,-1013.00
2024-06-07 15:48:37.820920,2,6,-122,0,-1,0,83,87,120,90,45,139.38,121,21.00,-55.00,-1015.00
2024-06-07 15:48:37.922976,2,6,-116,0,-1,0,83,87,119,90,45,139.79,121,-15.00,-72.00,-1006.00
2024-06-07 15:48:38.024934,1,6,-109,0,-1,0,83,87,119,90,45,139.51,121,5.00,-65.00,-1038.00
2024-06-07 15:48:38.149909,1,6,-103,0,-1,0,83,87,119,90,45,139.79,121,-60.00,-84.00,-1080.00
2024-06-07 15:48:38.228925,0,6,-97,0,0,0,83,87,120,90,45,139.69,121,-40.00,-96.00,-982.00
2024-06-07 15:48:38.331371,0,6,-91,0,0,0,83,87,119,90,45,139.67,121,-24.00,-66.00,-1001.00
2024-06-07 15:48:38.432909,-2,4,-85,0,0,0,83,87,120,90,45,139.55,121,-6.00,-62.00,-1032.00
2024-06-07 15:48:38.534883,-2,4,-78,0,0,0,85,88,120,90,45,139.67,121,13.00,-74.00,-978.00
2024-06-07 15:48:38.661187,-2,4,-72,1,0,0,85,88,119,100,45,139.67,122,-12.00,-62.00,-969.00
2024-06-07 15:48:38.738969,-1,3,-65,1,0,0,85,88,120,100,45,139.75,122,-113.00,-9.00,-1015.00
2024-06-07 15:48:38.840955,-2,1,-59,1,0,0,85,88,120,100,45,139.70,122,-47.00,-22.00,-1009.00
2024-06-07 15:48:38.968491,-2,1,-53,1,0,0,85,88,120,100,45,139.22,122,-34.00,-30.00,-976.00
2024-06-07 15:48:39.045012,-2,1,-46,1,0,0,85,88,120,100,45,139.44,122,-59.00,3.00,-958.00
2024-06-07 15:48:39.146722,-3,0,-40,1,0,0,85,88,120,100,45,139.44,122,-72.00,-12.00,-936.00
2024-06-07 15:48:39.278710,-3,0,-34,1,0,0,85,88,119,90,45,139.47,122,-58.00,1.00,-1013.00
2024-06-07 15:48:39.350801,-3,0,-27,1,0,0,85,88,120,90,45,139.37,122,-86.00,35.00,-988.00
2024-06-07 15:48:39.407191,-3,0,-22,0,0,0,85,88,119,90,45,139.15,122,-90.00,46.00,-961.00
2024-06-07 15:48:39.583130,-3,-1,-17,0,0,0,84,86,118,90,45,139.41,122,-63.00,48.00,-1037.00
2024-06-07 15:48:39.656905,-2,-1,-12,0,0,0,84,86,119,90,45,139.50,123,-53.00,53.00,-1014.00
2024-06-07 15:48:39.786849,-2,-1,-9,1,0,0,84,86,119,90,45,139.68,123,-39.00,52.00,-1024.00
2024-06-07 15:48:39.860744,-1,-1,-7,1,0,0,84,86,120,90,45,139.41,123,42.00,-12.00,-982.00
2024-06-07 15:48:39.991953,-1,-1,-5,1,0,0,84,86,120,90,45,139.58,123,10.00,26.00,-1045.00
2024-06-07 15:48:40.014039,0,-1,-3,1,0,0,84,86,121,90,45,139.71,123,-6.00,17.00,-1044.00
2024-06-07 15:48:40.298924,0,-1,-3,1,0,0,84,86,122,90,45,139.57,123,-38.00,35.00,-1003.00
2024-06-07 15:48:40.298965,0,-1,-2,0,0,0,84,86,122,100,45,139.71,123,-53.00,28.00,-957.00
2024-06-07 15:48:40.320107,0,-1,-1,0,0,0,84,86,124,100,45,139.78,123,8.00,21.00,-1005.00
2024-06-07 15:48:40.464022,0,0,-1,0,0,0,84,86,123,100,45,139.50,123,-23.00,39.00,-956.00
2024-06-07 15:48:40.525074,0,-1,-1,0,0,0,84,87,123,100,45,139.68,123,-50.00,68.00,-927.00
2024-06-07 15:48:40.625799,0,-1,-1,0,0,0,84,87,123,100,45,139.48,124,-15.00,40.00,-1010.00
2024-06-07 15:48:40.727909,-1,-3,-1,0,0,0,84,87,121,100,44,139.39,124,-47.00,50.00,-974.00
2024-06-07 15:48:40.913767,-1,-3,-1,0,0,0,84,87,121,100,44,139.32,124,-88.00,42.00,-974.00
2024-06-07 15:48:40.931792,-1,-2,-1,0,0,0,84,87,120,100,44,139.47,124,-96.00,40.00,-1003.00
2024-06-07 15:48:41.033844,-2,-2,-1,0,0,0,84,87,120,100,44,139.66,124,-21.00,28.00,-997.00
2024-06-07 15:48:41.135778,-2,-2,-1,0,0,0,84,87,121,90,44,139.68,124,-47.00,35.00,-1035.00
2024-06-07 15:48:41.327488,-2,-2,-1,0,0,0,84,87,119,90,44,139.81,124,-55.00,71.00,-991.00
2024-06-07 15:48:41.340198,-1,-2,-1,0,0,0,84,87,120,90,44,139.40,124,-52.00,48.00,-993.00
2024-06-07 15:48:41.441880,-1,-3,-1,0,0,0,84,87,120,90,44,139.63,124,-71.00,88.00,-1038.00
2024-06-07 15:48:41.543889,-1,-2,-1,0,0,0,84,87,120,90,44,139.73,124,-98.00,69.00,-928.00
2024-06-07 15:48:41.734946,-2,-2,-1,0,0,0,84,87,120,90,44,139.57,125,-91.00,82.00,-1023.00
2024-06-07 15:48:41.747712,-2,-2,0,0,0,0,84,87,121,90,44,139.36,125,-54.00,59.00,-934.00
2024-06-07 15:48:42.142263,-2,-2,0,0,0,0,84,87,121,90,44,139.72,125,-1.00,53.00,-988.00
2024-06-07 15:48:42.142427,-2,-2,0,0,0,0,84,87,121,100,44,139.47,125,-39.00,48.00,-1007.00
2024-06-07 15:48:42.142740,-2,-2,0,0,0,0,84,87,122,100,44,139.69,125,3.00,57.00,-978.00
2024-06-07 15:48:42.155878,-1,-3,0,0,0,0,84,87,123,100,44,139.52,125,9.00,43.00,-970.00
2024-06-07 15:48:42.476385,-1,-3,0,0,0,0,84,87,122,100,44,139.87,125,-9.00,48.00,-952.00
2024-06-07 15:48:42.476551,-1,-3,0,0,0,0,84,87,125,100,44,139.75,125,-84.00,76.00,-959.00
2024-06-07 15:48:42.476867,-1,-3,-1,0,0,0,84,87,124,100,44,139.54,125,-35.00,55.00,-958.00
2024-06-07 15:48:42.563694,-1,-3,0,0,0,0,83,87,125,100,44,139.63,125,28.00,28.00,-1067.00
2024-06-07 15:48:42.760401,-1,-3,-1,0,0,0,83,87,126,100,44,139.50,126,-20.00,52.00,-927.00
2024-06-07 15:48:42.767653,-1,-2,-7,0,0,0,83,87,126,100,44,139.64,126,7.00,36.00,-971.00
2024-06-07 15:48:42.869648,-2,-2,-13,0,0,0,83,87,125,100,44,139.44,126,-26.00,51.00,-1002.00
2024-06-07 15:48:43.071957,-2,-3,-19,0,0,0,83,87,127,100,44,139.69,126,-15.00,14.00,-992.00
2024-06-07 15:48:43.073707,-2,-2,-25,0,0,0,83,87,126,100,44,139.43,126,-38.00,20.00,-985.00
2024-06-07 15:48:43.473292,-2,-1,-31,0,0,0,83,87,124,100,44,139.34,126,-87.00,39.00,-1016.00
2024-06-07 15:48:43.473421,-2,0,-37,0,0,0,83,87,125,100,44,139.52,126,-61.00,1.00,-976.00
2024-06-07 15:48:43.473578,-2,0,-43,0,0,0,83,87,124,100,44,139.45,126,-113.00,16.00,-1022.00
2024-06-07 15:48:43.473754,-2,0,-49,0,0,0,83,87,125,100,44,139.54,126,-61.00,-4.00,-1058.00
2024-06-07 15:48:43.584593,-2,0,-55,0,0,0,84,87,125,100,44,139.65,126,-44.00,-18.00,-993.00
2024-06-07 15:48:43.781162,-2,1,-60,0,0,0,84,87,124,100,44,139.55,127,-7.00,-56.00,-946.00
2024-06-07 15:48:43.781715,-2,2,-66,0,0,0,84,87,125,100,43,139.70,127,-21.00,-54.00,-1013.00
2024-06-07 15:48:43.839461,-1,3,-72,0,0,0,84,87,125,100,43,139.46,127,-42.00,-49.00,-980.00
2024-06-07 15:48:43.941684,-1,4,-78,0,0,0,84,87,126,100,43,139.54,127,-35.00,-35.00,-1007.00
2024-06-07 15:48:44.043592,0,4,-84,0,0,0,84,87,125,100,43,139.43,127,-18.00,-77.00,-979.00
2024-06-07 15:48:44.145578,0,4,-89,0,0,0,84,87,126,100,43,139.90,127,-48.00,-50.00,-978.00
2024-06-07 15:48:44.397390,0,4,-94,0,0,0,84,87,126,100,43,139.82,127,14.00,-95.00,-994.00
2024-06-07 15:48:44.397534,0,4,-100,0,0,0,84,87,125,100,43,139.65,127,11.00,-63.00,-999.00
2024-06-07 15:48:44.451561,1,4,-106,0,0,0,84,87,126,100,43,139.57,127,-12.00,-70.00,-964.00
2024-06-07 15:48:44.553529,1,4,-112,0,0,0,84,86,126,100,43,139.94,127,35.00,-71.00,-974.00
2024-06-07 15:48:44.655950,1,4,-118,0,0,0,84,86,127,100,43,139.87,128,20.00,-94.00,-954.00
2024-06-07 15:48:44.760261,2,4,-123,0,0,0,84,86,129,100,43,140.09,128,6.00,-69.00,-1017.00
2024-06-07 15:48:44.862810,2,4,-129,0,0,0,84,86,127,100,43,140.08,128,60.00,-77.00,-957.00
2024-06-07 15:48:44.962797,2,4,-135,0,0,0,84,86,128,100,43,139.77,128,55.00,-81.00,-943.00
2024-06-07 15:48:45.063605,2,4,-141,0,0,0,84,86,128,100,43,140.03,128,57.00,-56.00,-993.00
2024-06-07 15:48:45.317143,2,4,-147,0,0,0,84,86,127,100,43,139.96,128,66.00,-61.00,-961.00
2024-06-07 15:48:45.317291,2,2,-154,0,0,0,84,86,128,100,43,140.12,128,68.00,-14.00,-1018.00
2024-06-07 15:48:45.369816,3,2,-161,0,0,0,84,86,129,100,43,139.76,128,50.00,-59.00,-991.00
2024-06-07 15:48:45.522047,4,2,-168,0,0,0,84,86,129,100,43,139.70,128,22.00,-37.00,-1010.00
2024-06-07 15:48:45.573454,4,3,-175,0,0,0,84,87,130,100,43,139.80,128,130.00,-53.00,-974.00
2024-06-07 15:48:45.675781,5,2,178,0,0,0,84,87,130,100,43,139.73,129,45.00,5.00,-996.00
2024-06-07 15:48:45.777720,5,1,171,0,0,0,84,87,130,100,43,140.00,129,105.00,-48.00,-1045.00
2024-06-07 15:48:45.931381,6,1,164,0,0,0,84,87,131,100,43,139.93,129,60.00,8.00,-917.00
2024-06-07 15:48:45.981453,6,1,157,0,0,0,84,87,129,100,43,139.87,129,75.00,48.00,-1034.00
2024-06-07 15:48:46.083950,5,1,149,0,0,0,84,87,128,100,43,139.77,129,73.00,29.00,-1023.00
2024-06-07 15:48:46.185618,5,0,142,0,0,0,84,87,130,100,43,139.74,129,82.00,88.00,-945.00
2024-06-07 15:48:46.289297,5,-2,135,0,0,0,84,87,128,100,43,139.75,129,76.00,71.00,-1027.00
2024-06-07 15:48:46.389498,5,-4,130,0,0,0,84,87,128,100,43,139.67,129,131.00,11.00,-999.00
2024-06-07 15:48:46.545979,5,-4,124,0,0,0,84,87,126,100,43,139.47,129,70.00,56.00,-1049.00
2024-06-07 15:48:46.593548,4,-4,119,0,0,0,84,87,126,100,43,139.26,129,151.00,17.00,-968.00
2024-06-07 15:48:46.750658,4,-3,113,0,0,0,84,87,127,100,43,139.36,130,99.00,45.00,-934.00
2024-06-07 15:48:46.797610,5,-2,107,0,0,0,84,87,126,100,42,139.51,130,118.00,41.00,-990.00
2024-06-07 15:48:46.899432,5,-2,102,0,0,0,84,87,125,100,42,139.45,130,135.00,24.00,-949.00
2024-06-07 15:48:47.001427,5,-2,96,0,0,0,84,87,124,100,42,139.62,130,52.00,52.00,-1062.00
2024-06-07 15:48:47.104804,5,-3,90,0,0,0,84,87,124,100,42,139.33,130,89.00,81.00,-954.00
2024-06-07 15:48:47.207446,5,-3,84,0,0,0,84,87,124,100,42,139.59,130,105.00,49.00,-1033.00
2024-06-07 15:48:47.257790,4,-4,78,0,0,0,84,87,122,100,42,139.52,130,69.00,70.00,-1006.00
2024-06-07 15:48:47.365031,4,-3,72,0,0,0,84,87,123,100,42,139.62,130,39.00,78.00,-982.00
2024-06-07 15:48:47.461663,3,-4,66,0,0,0,84,87,123,100,42,139.89,130,24.00,68.00,-965.00
2024-06-07 15:48:47.613713,3,-3,60,0,0,0,84,87,122,100,42,139.77,130,25.00,85.00,-1046.00
2024-06-07 15:48:47.716001,1,-3,48,0,0,0,84,87,122,100,42,139.82,131,-12.00,70.00,-1012.00
2024-06-07 15:48:47.818039,1,-2,42,0,0,0,84,87,123,100,42,139.84,131,0.00,68.00,-973.00
2024-06-07 15:48:47.919386,0,-2,37,0,0,0,84,87,122,100,42,139.87,131,33.00,46.00,-962.00
2024-06-07 15:48:47.973775,0,-2,31,0,0,0,84,87,123,100,42,139.60,131,21.00,40.00,-1000.00
2024-06-07 15:48:48.073369,0,-2,25,0,0,0,84,87,123,100,42,139.52,131,13.00,45.00,-986.00
2024-06-07 15:48:48.187654,0,-2,19,0,0,0,84,87,124,100,42,139.40,131,-20.00,36.00,-998.00
2024-06-07 15:48:48.276462,-1,-2,14,0,0,0,84,87,123,100,42,139.66,131,-72.00,74.00,-1012.00
2024-06-07 15:48:48.389234,0,-2,10,0,0,0,84,87,123,100,42,139.87,131,0.00,17.00,-973.00
2024-06-07 15:48:48.480298,0,-2,7,0,0,0,84,87,123,100,42,139.70,131,-10.00,42.00,-1001.00
2024-06-07 15:48:48.583665,0,-2,5,0,0,0,84,87,124,100,42,139.45,132,-76.00,69.00,-998.00
2024-06-07 15:48:48.684999,-1,-2,4,0,0,0,84,87,123,100,42,139.53,132,-43.00,40.00,-1019.00
2024-06-07 15:48:48.786294,-1,-1,3,0,0,0,84,87,124,100,42,140.05,132,-46.00,33.00,-999.00
2024-06-07 15:48:48.901178,-1,-1,2,0,0,0,84,87,124,100,42,139.20,132,-42.00,31.00,-977.00
2024-06-07 15:48:48.990493,-2,-1,1,0,0,0,84,87,123,100,42,139.74,132,-4.00,-2.00,-964.00
2024-06-07 15:48:49.094936,-2,0,1,0,0,0,84,87,124,100,42,139.86,132,-75.00,33.00,-966.00
2024-06-07 15:48:49.195368,-1,0,0,0,0,0,84,87,124,100,42,139.42,132,-12.00,23.00,-940.00
2024-06-07 15:48:49.311022,-1,0,1,0,0,0,84,87,125,100,42,139.51,132,2.00,8.00,-1061.00
2024-06-07 15:48:49.399385,-1,0,1,0,0,0,84,87,125,100,42,139.64,132,-21.00,13.00,-994.00
2024-06-07 15:48:49.502392,-2,0,0,0,0,0,84,87,124,100,42,139.55,132,10.00,24.00,-1009.00
2024-06-07 15:48:49.603495,-2,-1,0,0,0,0,84,87,123,100,42,139.62,133,-30.00,21.00,-1007.00
2024-06-07 15:48:49.720510,-2,-2,0,0,0,0,84,87,123,100,42,139.45,133,-33.00,27.00,-1035.00
2024-06-07 15:48:49.808098,-1,-1,0,0,0,0,84,87,122,100,42,139.78,133,-21.00,5.00,-1016.00
2024-06-07 15:48:49.928662,-2,-1,0,0,0,0,84,87,122,100,42,139.84,133,-20.00,34.00,-978.00
2024-06-07 15:48:50.011384,-2,-1,0,0,0,0,84,87,121,100,42,139.77,133,-51.00,32.00,-992.00
2024-06-07 15:48:50.130222,-2,-2,0,0,0,0,84,87,121,100,42,139.36,133,1.00,13.00,-1027.00
2024-06-07 15:48:50.221427,-2,-1,0,0,0,0,84,87,120,90,42,139.59,133,-2.00,16.00,-1016.00
2024-06-07 15:48:50.318968,-1,-1,0,0,0,0,84,87,121,90,42,139.50,133,-95.00,63.00,-981.00
2024-06-07 15:48:50.419540,-1,-1,0,0,0,0,84,87,121,90,42,139.91,133,-23.00,25.00,-1010.00
2024-06-07 15:48:50.521301,-1,-1,1,0,0,0,84,87,121,100,42,139.72,133,-61.00,16.00,-992.00
2024-06-07 15:48:50.641972,-1,0,1,0,0,0,84,87,121,100,42,140.08,134,5.00,-13.00,-952.00
2024-06-07 15:48:50.725508,-1,0,1,0,0,0,84,87,121,100,42,140.01,134,9.00,23.00,-994.00
2024-06-07 15:48:50.827374,-2,0,1,0,0,0,84,87,120,100,42,139.58,134,-76.00,45.00,-984.00
2024-06-07 15:48:50.950522,-2,-1,1,0,0,0,84,87,122,100,42,139.51,134,37.00,36.00,-1020.00
2024-06-07 15:48:50.980253,-1,-1,1,0,0,0,84,87,121,100,42,139.65,134,-47.00,52.00,-1026.00
2024-06-07 15:48:51.082641,0,-1,0,0,0,0,84,87,123,100,42,140.01,134,-2.00,16.00,-1012.00
2024-06-07 15:48:51.186113,0,-1,0,0,0,0,84,87,123,100,42,139.87,134,-38.00,39.00,-1021.00
2024-06-07 15:48:51.286320,0,-1,0,0,0,0,84,87,123,100,42,139.56,134,-53.00,60.00,-1045.00
2024-06-07 15:48:51.388914,0,-1,0,0,0,0,84,87,123,100,42,139.88,134,17.00,25.00,-988.00
2024-06-07 15:48:51.490192,0,-2,0,0,0,0,84,87,125,100,42,139.67,134,-24.00,41.00,-1033.00
2024-06-07 15:48:51.666066,0,-2,0,0,0,0,84,87,124,100,42,139.62,135,-59.00,44.00,-973.00
2024-06-07 15:48:51.694481,0,-2,1,0,0,0,84,87,126,100,42,139.53,135,-65.00,64.00,-1034.00
2024-06-07 15:48:51.870751,0,-1,1,0,0,0,84,87,125,100,41,140.04,135,-29.00,43.00,-953.00
2024-06-07 15:48:51.902034,0,-1,1,0,0,0,84,87,125,100,41,139.73,135,-15.00,55.00,-987.00
2024-06-07 15:48:52.000296,0,-1,0,0,0,0,84,87,125,100,41,139.59,135,-11.00,29.00,-994.00
2024-06-07 15:48:52.102229,0,-1,0,0,0,0,84,87,126,100,41,139.94,135,-73.00,42.00,-1054.00
2024-06-07 15:48:52.283668,0,-1,1,0,0,0,84,87,126,100,41,139.86,135,-4.00,13.00,-1046.00
2024-06-07 15:48:52.306298,0,-1,1,0,0,0,84,87,127,100,41,140.25,135,-47.00,33.00,-980.00
2024-06-07 15:48:52.485237,0,0,1,0,0,0,84,87,127,100,41,139.98,135,-56.00,58.00,-1002.00
2024-06-07 15:48:52.512875,0,0,1,0,0,0,84,87,127,100,41,139.84,135,-11.00,39.00,-996.00
2024-06-07 15:48:52.612234,0,-1,1,0,0,0,84,87,128,100,41,139.80,136,21.00,9.00,-1020.00
2024-06-07 15:48:52.721089,0,-2,1,0,0,0,84,87,127,100,41,140.14,136,-14.00,36.00,-987.00
2024-06-07 15:48:52.816169,0,-2,1,0,0,0,84,87,127,100,41,140.02,136,-8.00,32.00,-1010.00
2024-06-07 15:48:52.997004,0,-1,1,0,0,0,84,87,129,100,41,139.73,136,9.00,39.00,-1000.00
2024-06-07 15:48:53.024495,0,-1,1,0,0,0,84,87,127,100,41,139.99,136,27.00,33.00,-949.00
2024-06-07 15:48:53.123393,0,-2,0,0,0,0,84,87,128,100,41,139.94,136,-28.00,25.00,-1005.00
2024-06-07 15:48:53.307860,0,-2,0,0,0,0,84,87,127,100,41,139.89,136,-19.00,33.00,-984.00
2024-06-07 15:48:53.330401,0,-2,0,0,0,0,84,87,128,100,41,139.70,136,-46.00,8.00,-1008.00
2024-06-07 15:48:53.431443,-1,-1,0,0,0,0,84,87,127,100,41,139.80,136,-61.00,46.00,-970.00
2024-06-07 15:48:53.530397,-1,-1,0,0,0,0,84,87,128,100,41,139.84,136,3.00,14.00,-998.00
2024-06-07 15:48:53.717599,-1,-1,0,0,0,0,83,87,128,100,41,139.89,137,26.00,-7.00,-1014.00
2024-06-07 15:48:53.736623,-1,-1,0,0,0,0,83,87,127,100,41,139.94,137,-69.00,44.00,-995.00
2024-06-07 15:48:53.837233,-1,-1,0,0,0,0,83,87,128,100,41,139.82,137,-36.00,12.00,-1046.00
2024-06-07 15:48:53.938337,-1,-1,1,0,0,0,83,87,129,100,41,139.35,137,-51.00,25.00,-1023.00
2024-06-07 15:48:54.130816,-2,-1,0,0,0,0,83,87,128,100,41,139.59,137,-71.00,58.00,-957.00
2024-06-07 15:48:54.149721,-1,-1,0,0,0,0,83,87,128,100,41,139.73,137,-64.00,53.00,-979.00
2024-06-07 15:48:54.245650,-2,-1,0,0,0,0,83,87,129,100,41,139.94,137,5.00,-14.00,-1066.00
2024-06-07 15:48:54.532896,-1,0,0,0,0,0,83,87,128,100,41,139.64,137,-68.00,40.00,-956.00
2024-06-07 15:48:54.533116,-1,0,1,0,0,0,83,87,128,100,41,139.92,137,-23.00,-21.00,-966.00
2024-06-07 15:48:54.533615,-2,0,0,0,0,0,83,87,129,100,41,139.76,137,-21.00,24.00,-976.00
2024-06-07 15:48:54.602155,-2,0,0,0,0,0,84,86,127,100,41,139.82,138,10.00,-25.00,-1000.00
2024-06-07 15:48:54.705064,-2,0,0,0,0,0,84,86,127,100,41,139.62,138,-96.00,24.00,-966.00
2024-06-07 15:48:54.806185,-2,0,0,0,0,0,84,86,127,100,41,139.56,138,-30.00,2.00,-1034.00
2024-06-07 15:48:54.909042,-3,0,0,0,0,0,84,86,126,100,41,139.88,138,-39.00,33.00,-944.00
2024-06-07 15:48:55.009990,-3,0,0,0,0,0,84,86,125,100,41,139.97,138,39.00,-44.00,-981.00
2024-06-07 15:48:55.112077,-2,0,1,0,0,0,84,86,125,100,41,139.88,138,11.00,-1.00,-1036.00
2024-06-07 15:48:55.253030,-1,0,1,0,0,0,84,86,124,100,41,139.51,138,-28.00,-4.00,-968.00
2024-06-07 15:48:55.319140,-1,0,0,0,0,0,84,86,123,100,41,139.44,138,-57.00,-1.00,-993.00
2024-06-07 15:48:55.418059,-1,0,1,0,0,0,84,86,122,100,41,139.78,138,-78.00,12.00,-998.00
2024-06-07 15:48:55.520530,-2,1,0,0,0,0,84,86,123,100,41,139.69,138,-2.00,-21.00,-959.00
2024-06-07 15:48:55.659608,-1,1,0,0,0,0,83,86,121,100,41,140.11,139,5.00,-40.00,-953.00
2024-06-07 15:48:55.723932,-1,0,0,0,0,0,83,86,121,100,40,139.89,139,-65.00,28.00,-962.00
2024-06-07 15:48:55.871323,0,0,0,0,0,0,83,86,120,90,40,139.97,139,0.00,-3.00,-1021.00
2024-06-07 15:48:55.928124,-1,0,0,0,0,0,83,86,120,90,40,139.83,139,-16.00,-6.00,-1041.00
2024-06-07 15:48:56.030120,-1,0,0,0,0,0,83,86,119,90,40,139.56,139,-49.00,0.00,-1044.00
2024-06-07 15:48:56.132083,-1,0,0,0,0,0,83,86,119,90,40,139.54,139,46.00,-23.00,-1015.00
2024-06-07 15:48:56.273262,0,0,1,0,0,0,83,86,120,90,40,139.75,139,-83.00,27.00,-1021.00
2024-06-07 15:48:56.343422,0,1,0,0,0,0,83,86,119,90,40,139.90,139,-56.00,16.00,-1009.00
2024-06-07 15:48:56.438035,-1,0,0,0,0,0,83,86,121,90,40,139.81,139,-40.00,-20.00,-1048.00
2024-06-07 15:48:56.541482,-2,0,0,0,0,0,83,86,122,90,40,139.65,139,8.00,-26.00,-1069.00
2024-06-07 15:48:56.682914,-1,0,0,0,0,0,83,86,122,100,40,139.88,140,-9.00,19.00,-1012.00
2024-06-07 15:48:56.746122,-2,0,0,0,0,0,83,86,121,100,40,139.55,140,9.00,6.00,-1003.00
2024-06-07 15:48:56.846031,-1,0,0,0,0,0,83,86,123,100,40,139.56,140,-30.00,19.00,-991.00
2024-06-07 15:48:57.002692,-2,-1,0,0,0,0,83,86,124,100,40,139.81,140,53.00,3.00,-996.00
2024-06-07 15:48:57.050193,-2,-1,0,0,0,0,83,86,124,100,40,140.07,140,-39.00,-23.00,-1044.00
2024-06-07 15:48:57.152953,-1,-1,0,0,0,0,83,86,125,100,40,139.97,140,15.00,5.00,-968.00
2024-06-07 15:48:57.258657,-1,-1,0,0,0,0,83,86,125,100,40,139.89,140,-34.00,-9.00,-1023.00
2024-06-07 15:48:57.356941,0,-1,0,0,0,0,83,86,125,100,40,139.79,140,-4.00,-25.00,-1005.00
2024-06-07 15:48:57.502037,-1,0,1,0,0,0,83,86,126,100,40,140.00,140,-60.00,25.00,-941.00
2024-06-07 15:48:57.560582,-1,0,1,0,0,0,83,86,123,100,40,140.11,140,-24.00,0.00,-981.00
2024-06-07 15:48:57.706857,-1,-1,0,0,0,0,84,86,124,100,40,140.20,141,-19.00,-7.00,-1026.00
2024-06-07 15:48:57.767181,-1,0,0,0,0,0,84,86,122,100,40,140.03,141,21.00,-59.00,-979.00
2024-06-07 15:48:57.866116,-1,0,0,0,0,0,84,86,122,100,40,139.79,141,-56.00,-34.00,-1002.00
2024-06-07 15:48:58.017628,-1,0,0,0,0,0,84,86,119,100,40,139.72,141,-77.00,-10.00,-1013.00
2024-06-07 15:48:58.070962,-1,2,0,0,0,0,84,86,119,100,40,139.68,141,-13.00,-28.00,-1043.00
2024-06-07 15:48:58.121967,-3,2,1,0,0,0,84,86,119,90,40,139.88,141,-42.00,6.00,-943.00
2024-06-07 15:48:58.324749,-2,2,1,0,0,0,84,86,118,90,40,139.94,141,-37.00,0.00,-977.00
2024-06-07 15:48:58.325914,-2,1,0,0,0,0,84,86,115,90,40,139.67,141,25.00,-35.00,-1027.00
2024-06-07 15:48:58.530909,-1,0,0,0,0,0,84,86,115,90,40,139.78,141,-22.00,-41.00,-1057.00
2024-06-07 15:48:58.531083,-1,0,0,0,0,0,84,86,116,90,40,139.63,141,-32.00,-23.00,-1075.00
2024-06-07 15:48:58.639079,-2,0,0,0,0,0,83,87,116,90,40,139.68,142,-11.00,-24.00,-1050.00
2024-06-07 15:48:58.735253,-2,2,0,0,0,0,83,87,116,90,40,139.69,142,4.00,-50.00,-1039.00
2024-06-07 15:48:58.836392,-1,1,0,0,0,0,83,87,117,90,40,139.74,142,45.00,-28.00,-989.00
2024-06-07 15:48:59.039719,-1,1,0,0,0,0,83,87,119,90,40,140.05,142,5.00,-46.00,-1010.00
2024-06-07 15:48:59.040656,0,0,0,0,0,0,83,87,118,90,40,139.73,142,10.00,-20.00,-973.00
2024-06-07 15:48:59.146103,0,0,0,0,0,0,83,87,119,90,40,139.57,142,-34.00,-23.00,-993.00
2024-06-07 15:48:59.248730,0,0,0,0,0,0,83,87,120,90,40,139.68,142,-64.00,-2.00,-1017.00
2024-06-07 15:48:59.350933,-1,0,0,0,0,0,83,87,120,90,40,139.60,142,-17.00,8.00,-985.00
2024-06-07 15:48:59.452776,-2,0,1,0,0,0,83,87,121,90,40,139.78,142,-76.00,0.00,-1012.00
2024-06-07 15:48:59.553022,-2,-1,1,0,0,0,83,87,122,90,40,140.05,142,-110.00,24.00,-998.00
2024-06-07 15:48:59.657554,-2,-1,1,0,0,0,85,87,123,100,40,139.76,143,40.00,-36.00,-974.00
2024-06-07 15:48:59.754865,-1,0,1,0,0,0,85,87,124,100,40,139.56,143,50.00,-24.00,-987.00
2024-06-07 15:48:59.857883,-1,0,1,0,0,0,85,87,125,100,40,139.59,143,-2.00,-2.00,-1045.00
2024-06-07 15:48:59.962965,-1,0,1,0,0,0,85,87,124,100,40,139.84,143,24.00,-6.00,-1004.00
