TS,pitch,roll,yaw,vgx,vgy,vgz,templ,temph,tof,h,bat,baro,time,agx,agy,agz
2025-08-07T12:32:51.661964,5,2,0,0,0,0,70,73,10,0,70,135.89,0,101.00,-37.00,-985.00
2025-08-07T12:32:51.764039,5,2,0,0,0,0,70,73,10,0,70,135.71,0,101.00,-36.00,-994.00
2025-08-07T12:32:51.866042,5,2,0,0,0,0,70,73,10,0,70,136.13,0,101.00,-38.00,-999.00
2025-08-07T12:32:51.967270,5,2,0,0,0,0,70,73,10,0,70,135.85,0,104.00,-38.00,-996.00
2025-08-07T12:32:52.170271,5,2,0,0,0,0,70,73,10,0,70,136.12,0,103.00,-38.00,-983.00
2025-08-07T12:32:52.171105,5,2,0,0,0,0,70,73,10,0,70,135.84,0,101.00,-35.00,-970.00
2025-08-07T12:32:52.375265,5,2,0,0,0,0,70,73,10,0,70,135.94,0,106.00,-38.00,-986.00
2025-08-07T12:32:52.375493,5,2,0,0,0,0,70,73,10,0,70,136.13,0,101.00,-37.00,-993.00
2025-08-07T12:32:52.479398,5,2,0,0,0,0,70,73,10,0,70,135.82,0,102.00,-37.00,-997.00
2025-08-07T12:32:52.579940,5,2,0,0,0,0,70,72,10,0,70,135.90,0,103.00,-36.00,-993.00
2025-08-07T12:32:52.682230,5,2,0,0,0,0,70,72,10,0,70,136.07,0,102.00,-35.00,-989.00
2025-08-07T12:32:52.785105,5,2,0,0,0,0,70,72,10,0,70,135.96,0,103.00,-38.00,-989.00
2025-08-07T12:32:52.886912,5,2,0,0,0,0,70,72,10,0,70,135.96,0,104.00,-37.00,-995.00
2025-08-07T12:32:52.989342,5,2,0,0,0,0,70,72,10,0,70,136.05,0,101.00,-38.00,-997.00
2025-08-07T12:32:53.089345,5,2,0,0,0,0,70,72,10,0,70,135.93,0,101.00,-37.00,-991.00
2025-08-07T12:32:53.194499,5,2,0,0,0,0,70,72,10,0,70,135.91,0,103.00,-36.00,-992.00
2025-08-07T12:32:53.293020,5,2,0,0,0,0,70,72,10,0,70,135.97,0,101.00,-37.00,-992.00
2025-08-07T12:32:53.399722,5,2,0,0,0,0,70,72,10,0,70,135.82,0,103.00,-36.00,-999.00
2025-08-07T12:32:53.497071,5,2,0,0,0,0,70,72,10,0,70,135.89,0,103.00,-37.00,-1003.00
2025-08-07T12:32:53.603811,5,2,0,0,0,0,70,72,10,0,70,136.10,0,103.00,-35.00,-979.00
2025-08-07T12:32:53.701075,5,2,0,0,0,0,70,72,10,0,70,136.10,0,102.00,-37.00,-990.00
2025-08-07T12:32:53.808645,5,2,0,0,0,0,70,72,10,0,70,136.02,0,102.00,-36.00,-997.00
2025-08-07T12:32:53.904996,5,2,0,0,0,0,70,72,10,0,70,135.86,0,103.00,-36.00,-996.00
2025-08-07T12:32:54.013476,5,2,0,0,0,0,70,72,10,0,70,136.13,0,99.00,-36.00,-1013.00
2025-08-07T12:32:54.058623,5,2,0,0,0,0,70,72,10,0,70,136.01,0,104.00,-35.00,-978.00
2025-08-07T12:32:54.162529,5,2,0,0,0,0,70,72,10,0,70,135.91,0,102.00,-38.00,-968.00
2025-08-07T12:32:54.266935,5,2,0,0,0,0,70,72,10,0,70,135.86,0,95.00,-35.00,-1028.00
2025-08-07T12:32:54.364990,5,2,0,0,0,0,70,72,10,0,70,135.94,0,101.00,-36.00,-978.00
2025-08-07T12:32:54.466493,5,2,0,0,0,0,70,72,10,0,70,135.90,0,103.00,-37.00,-987.00
2025-08-07T12:32:54.627889,5,2,0,0,0,0,70,73,10,0,70,135.89,0,102.00,-39.00,-995.00
2025-08-07T12:32:54.670001,5,2,0,0,0,0,70,73,10,0,70,136.02,0,105.00,-39.00,-998.00
2025-08-07T12:32:54.832557,5,2,0,0,0,0,70,73,10,0,70,136.10,0,102.00,-36.00,-990.00
2025-08-07T12:32:54.873629,5,2,0,0,0,0,70,73,10,0,70,136.03,0,104.00,-36.00,-989.00
2025-08-07T12:32:55.037038,5,2,0,0,0,0,70,73,10,0,70,136.12,0,104.00,-38.00,-993.00
2025-08-07T12:32:55.077624,5,2,0,0,0,0,70,73,10,0,70,136.09,0,101.00,-37.00,-996.00
2025-08-07T12:32:55.241768,5,2,0,0,0,0,70,73,10,0,70,136.12,0,101.00,-36.00,-991.00
2025-08-07T12:32:55.281588,5,2,0,0,0,0,70,73,10,0,70,136.16,0,102.00,-38.00,-991.00
2025-08-07T12:32:55.446508,5,2,0,0,0,0,70,73,10,0,70,135.89,0,103.00,-36.00,-992.00
2025-08-07T12:32:55.485663,5,2,0,0,0,0,70,73,10,0,70,135.77,0,102.00,-38.00,-996.00
2025-08-07T12:32:55.652325,5,2,0,0,0,0,71,72,10,0,70,136.06,0,102.00,-39.00,-993.00
2025-08-07T12:32:55.689562,5,2,0,0,0,0,71,72,10,0,70,135.98,0,104.00,-38.00,-992.00
2025-08-07T12:32:55.856299,5,2,0,0,0,0,71,72,10,0,70,135.90,0,103.00,-38.00,-997.00
2025-08-07T12:32:55.893699,5,2,0,0,0,0,71,72,10,0,70,136.07,0,101.00,-36.00,-993.00
2025-08-07T12:32:56.068117,5,2,0,0,0,0,71,72,10,0,70,136.24,0,101.00,-35.00,-993.00
2025-08-07T12:32:56.097591,5,2,0,0,0,0,71,72,10,0,70,135.91,0,103.00,-36.00,-991.00
2025-08-07T12:32:56.266637,5,2,0,0,0,0,71,72,10,0,70,135.97,0,102.00,-38.00,-994.00
2025-08-07T12:32:56.301620,5,2,0,0,0,0,71,72,10,0,70,136.01,0,104.00,-37.00,-996.00
2025-08-07T12:32:56.470745,5,2,0,0,0,0,71,72,10,0,70,136.03,0,103.00,-37.00,-995.00
2025-08-07T12:32:56.505735,5,2,0,0,0,0,71,72,10,0,70,135.78,0,104.00,-38.00,-992.00
2025-08-07T12:32:56.607736,5,2,0,0,0,0,70,72,10,0,70,136.05,0,102.00,-37.00,-994.00
2025-08-07T12:32:56.777753,5,2,0,0,0,0,70,72,10,0,70,136.10,0,102.00,-36.00,-994.00
2025-08-07T12:32:56.811560,5,2,0,0,0,0,70,72,10,0,70,136.06,0,103.00,-37.00,-992.00
2025-08-07T12:32:56.982546,5,2,0,0,0,0,70,72,10,0,70,135.74,0,104.00,-38.00,-995.00
2025-08-07T12:32:57.015506,5,2,0,0,0,0,70,72,10,0,70,135.83,0,102.00,-39.00,-993.00
2025-08-07T12:32:57.187681,5,2,0,0,0,0,70,72,10,0,70,135.90,0,103.00,-36.00,-992.00
2025-08-07T12:32:57.219610,5,2,0,0,0,0,70,72,10,0,70,136.14,0,102.00,-41.00,-993.00
2025-08-07T12:32:57.392697,5,2,0,0,0,0,70,72,10,0,70,135.83,0,104.00,-38.00,-993.00
2025-08-07T12:32:57.423624,5,2,0,0,0,0,70,72,10,0,70,135.99,0,102.00,-37.00,-993.00
2025-08-07T12:32:57.475461,5,2,0,0,0,0,70,72,10,0,70,136.19,0,103.00,-36.00,-994.00
2025-08-07T12:32:57.596889,5,2,0,0,0,0,70,72,10,0,70,136.06,0,104.00,-39.00,-997.00
2025-08-07T12:32:57.679433,5,2,0,0,0,0,70,72,10,0,70,136.13,0,104.00,-36.00,-993.00
2025-08-07T12:32:57.801827,5,2,0,0,0,0,70,72,10,0,70,135.98,0,103.00,-36.00,-993.00
2025-08-07T12:32:57.883700,5,2,0,0,0,0,70,72,10,0,70,135.91,0,103.00,-37.00,-995.00
2025-08-07T12:32:58.006941,5,2,0,0,0,0,70,72,10,0,70,135.84,0,102.00,-38.00,-996.00
2025-08-07T12:32:58.087439,5,2,0,0,0,0,70,72,10,0,70,136.03,0,102.00,-39.00,-994.00
2025-08-07T12:32:58.211548,5,2,0,0,0,0,70,72,10,0,70,136.13,0,103.00,-36.00,-991.00
2025-08-07T12:32:58.291542,5,2,0,0,0,0,70,72,10,0,70,135.93,0,102.00,-37.00,-994.00
2025-08-07T12:32:58.420178,5,2,0,0,0,0,70,72,10,0,70,136.17,0,103.00,-38.00,-993.00
2025-08-07T12:32:58.495405,5,2,0,0,0,0,70,72,10,0,70,135.88,0,103.00,-38.00,-990.00
2025-08-07T12:32:58.620861,5,2,0,0,0,0,70,72,10,0,70,135.77,0,103.00,-36.00,-998.00
2025-08-07T12:32:58.699618,5,2,0,0,0,0,70,72,10,0,70,135.97,0,102.00,-38.00,-993.00
2025-08-07T12:32:58.801409,5,2,0,0,0,0,70,72,10,0,70,136.07,0,103.00,-39.00,-994.00
2025-08-07T12:32:58.928254,5,2,0,0,0,0,70,72,10,0,70,136.18,0,102.00,-37.00,-993.00
2025-08-07T12:32:59.005391,5,2,0,0,0,0,70,72,10,0,70,136.26,0,102.00,-37.00,-994.00
2025-08-07T12:32:59.132947,5,2,0,0,0,0,70,72,10,0,70,135.99,0,103.00,-37.00,-995.00
2025-08-07T12:32:59.209376,5,2,0,0,0,0,70,72,10,0,70,135.76,0,102.00,-39.00,-996.00
2025-08-07T12:32:59.337802,5,2,0,0,0,0,70,72,10,0,70,135.74,0,103.00,-39.00,-995.00
2025-08-07T12:32:59.413451,5,2,0,0,0,0,70,72,10,0,70,135.96,0,101.00,-37.00,-994.00
2025-08-07T12:32:59.515303,5,2,0,0,0,0,70,72,10,0,70,135.97,0,103.00,-38.00,-990.00
2025-08-07T12:32:59.644838,5,2,0,0,0,0,71,72,10,0,70,135.93,0,102.00,-38.00,-994.00
2025-08-07T12:32:59.719469,5,2,0,0,0,0,71,72,10,0,70,135.86,0,103.00,-38.00,-988.00
2025-08-07T12:32:59.849885,5,2,0,0,0,0,71,72,10,0,70,136.02,0,106.00,-38.00,-998.00
2025-08-07T12:32:59.923549,5,2,0,0,0,0,71,72,10,0,70,136.01,0,103.00,-38.00,-990.00
2025-08-07T12:33:00.054600,5,2,0,0,0,0,71,72,10,0,70,136.33,0,102.00,-37.00,-992.00
2025-08-07T12:33:00.127356,5,2,0,0,0,0,71,72,10,0,70,135.97,0,102.00,-36.00,-993.00
2025-08-07T12:33:00.259485,5,2,0,0,0,0,71,72,10,0,70,136.22,0,101.00,-37.00,-991.00
2025-08-07T12:33:00.331270,5,2,0,0,0,0,71,72,10,0,70,135.99,0,102.00,-38.00,-992.00
2025-08-07T12:33:00.464027,5,2,0,0,0,0,71,72,10,0,70,135.88,0,102.00,-37.00,-993.00
2025-08-07T12:33:00.535239,5,2,0,0,0,0,71,72,10,0,70,135.75,0,102.00,-35.00,-992.00
2025-08-07T12:33:00.668749,5,2,0,0,0,0,70,73,10,0,70,135.99,0,102.00,-37.00,-993.00
2025-08-07T12:33:00.739192,5,2,0,0,0,0,70,73,10,0,70,136.01,0,100.00,-35.00,-995.00
2025-08-07T12:33:00.841293,5,2,0,0,0,0,70,73,10,0,70,136.26,0,102.00,-37.00,-993.00
2025-08-07T12:33:00.892410,5,2,0,0,0,0,70,73,10,0,70,136.15,0,102.00,-36.00,-990.00
2025-08-07T12:33:01.078492,5,2,0,0,0,0,70,73,10,0,70,136.07,0,102.00,-39.00,-991.00
2025-08-07T12:33:01.096259,5,2,0,0,0,0,70,73,10,0,70,136.11,0,102.00,-38.00,-992.00
2025-08-07T12:33:01.283508,5,2,0,0,0,0,70,73,10,0,70,135.95,0,102.00,-39.00,-992.00
2025-08-07T12:33:01.300207,5,2,0,0,0,0,70,73,10,0,70,135.93,0,103.00,-37.00,-994.00
2025-08-07T12:33:01.488094,5,2,0,0,0,0,70,73,10,0,70,136.14,0,100.00,-36.00,-998.00
2025-08-07T12:33:01.504295,5,2,0,0,0,0,70,73,10,0,70,135.92,0,100.00,-37.00,-1000.00
2025-08-07T12:33:01.692845,5,2,0,0,0,0,71,72,10,0,70,136.14,0,102.00,-35.00,-994.00
2025-08-07T12:33:01.708180,5,2,0,0,0,0,71,72,10,0,70,135.67,0,105.00,-37.00,-992.00
2025-08-07T12:33:01.897673,5,2,0,0,0,0,71,72,10,0,70,135.80,0,103.00,-38.00,-994.00
2025-08-07T12:33:01.912260,5,2,0,0,0,0,71,72,10,0,70,135.89,0,100.00,-36.00,-996.00
2025-08-07T12:33:02.102430,5,2,0,0,0,0,71,72,10,0,70,135.95,0,103.00,-37.00,-993.00
2025-08-07T12:33:02.116200,5,2,0,0,0,0,71,72,10,0,70,136.13,0,103.00,-39.00,-993.00
2025-08-07T12:33:02.307271,5,2,0,0,0,0,71,72,10,0,70,136.03,0,102.00,-38.00,-994.00
2025-08-07T12:33:02.320218,5,2,0,0,0,0,71,72,10,0,70,135.99,0,103.00,-38.00,-994.00
2025-08-07T12:33:02.512027,5,2,0,0,0,0,71,72,10,0,70,136.01,0,102.00,-41.00,-980.00
2025-08-07T12:33:02.524314,5,2,0,0,0,0,71,72,10,0,70,135.70,0,100.00,-33.00,-982.00
2025-08-07T12:33:02.717764,5,2,0,0,0,0,70,74,10,0,70,135.95,0,101.00,-38.00,-1006.00
2025-08-07T12:33:02.728130,5,2,0,0,0,0,70,74,10,0,70,136.11,0,102.00,-38.00,-999.00
2025-08-07T12:33:02.830048,5,2,0,0,0,0,70,74,10,0,70,136.16,0,103.00,-37.00,-989.00
2025-08-07T12:33:03.024048,5,2,0,0,0,0,70,74,10,0,70,135.92,0,101.00,-37.00,-1000.00
2025-08-07T12:33:03.034090,5,2,0,0,0,0,70,74,10,0,70,136.01,0,101.00,-39.00,-997.00
2025-08-07T12:33:03.229201,5,2,0,0,0,0,70,74,10,0,70,136.03,0,100.00,-38.00,-997.00
2025-08-07T12:33:03.238126,5,2,0,0,0,0,70,74,10,0,70,135.95,0,101.00,-37.00,-990.00
2025-08-07T12:33:03.434138,5,2,0,0,0,0,70,74,10,0,70,136.17,0,101.00,-37.00,-1001.00
2025-08-07T12:33:03.442231,5,2,0,0,0,0,70,74,10,0,70,135.84,0,102.00,-37.00,-1004.00
2025-08-07T12:33:03.638357,5,2,0,0,0,0,70,74,10,0,70,135.98,0,101.00,-37.00,-998.00
2025-08-07T12:33:03.647037,5,2,0,0,0,0,71,73,10,0,70,135.84,0,100.00,-36.00,-997.00
2025-08-07T12:33:03.843270,5,2,0,0,0,0,71,73,10,0,70,136.25,0,101.00,-36.00,-994.00
2025-08-07T12:33:03.851086,5,2,0,0,0,0,71,73,10,0,70,136.04,0,102.00,-36.00,-994.00
2025-08-07T12:33:04.048029,5,2,0,0,0,0,71,73,10,0,70,136.06,0,102.00,-37.00,-998.00
2025-08-07T12:33:04.048231,5,2,0,0,0,0,71,73,10,0,70,135.98,0,101.00,-38.00,-998.00
2025-08-07T12:33:04.106000,5,2,0,0,0,0,71,73,10,0,70,136.04,0,101.00,-36.00,-995.00
2025-08-07T12:33:04.252701,5,2,0,0,0,0,71,73,10,0,70,136.03,0,102.00,-37.00,-997.00
2025-08-07T12:33:04.310122,5,2,0,0,0,0,71,73,10,0,70,135.87,0,102.00,-36.00,-996.00
2025-08-07T12:33:04.457692,5,2,0,0,0,0,71,73,10,0,70,136.09,0,100.00,-36.00,-994.00
2025-08-07T12:33:04.514133,5,2,0,0,0,0,71,73,10,0,70,136.19,0,102.00,-36.00,-996.00
2025-08-07T12:33:04.662541,5,2,0,0,0,0,71,73,10,0,70,135.89,0,101.00,-37.00,-995.00
2025-08-07T12:33:04.718074,5,2,0,0,0,0,71,73,10,0,70,136.13,0,102.00,-39.00,-997.00
2025-08-07T12:33:04.819986,5,2,0,0,0,0,71,73,10,0,70,135.95,0,102.00,-37.00,-994.00
2025-08-07T12:33:04.969490,5,2,0,0,0,0,71,73,10,0,70,135.98,0,102.00,-37.00,-997.00
2025-08-07T12:33:05.023883,5,2,0,0,0,0,71,73,10,0,70,136.22,0,100.00,-36.00,-994.00
2025-08-07T12:33:05.174396,5,2,0,0,0,0,71,73,10,0,70,136.13,0,101.00,-37.00,-988.00
2025-08-07T12:33:05.228379,5,2,0,0,0,0,71,73,10,0,70,136.03,0,103.00,-37.00,-989.00
2025-08-07T12:33:05.379143,5,2,0,0,0,0,71,73,10,0,70,135.99,0,101.00,-38.00,-996.00
2025-08-07T12:33:05.432007,5,2,0,0,0,0,71,73,10,0,70,136.24,0,100.00,-36.00,-994.00
2025-08-07T12:33:05.583914,5,2,0,0,0,0,71,73,10,0,70,135.83,0,100.00,-38.00,-993.00
2025-08-07T12:33:05.635913,5,2,0,0,0,0,70,73,10,0,70,136.30,0,101.00,-38.00,-996.00
2025-08-07T12:33:05.789005,5,2,0,0,0,0,70,73,10,0,70,136.09,0,101.00,-36.00,-994.00
2025-08-07T12:33:05.839991,5,2,0,0,0,0,70,73,10,0,70,136.06,0,101.00,-37.00,-991.00
2025-08-07T12:33:05.993437,5,2,0,0,0,0,70,73,10,0,70,136.32,0,100.00,-38.00,-995.00
2025-08-07T12:33:06.043969,5,2,0,0,0,0,70,73,10,0,70,136.11,0,100.00,-38.00,-993.00
2025-08-07T12:33:06.198363,5,2,0,0,0,0,70,73,10,0,70,135.78,0,100.00,-38.00,-993.00
2025-08-07T12:33:06.247938,5,2,0,0,0,0,70,73,10,0,70,136.24,0,100.00,-39.00,-993.00
2025-08-07T12:33:06.413292,5,2,0,0,0,0,70,73,10,0,70,135.88,0,101.00,-35.00,-994.00
2025-08-07T12:33:06.451938,5,2,0,0,0,0,70,73,10,0,70,136.15,0,101.00,-36.00,-995.00
2025-08-07T12:33:06.608132,5,2,0,0,0,0,70,73,10,0,70,136.01,0,100.00,-37.00,-994.00
2025-08-07T12:33:06.655912,5,2,0,0,0,0,72,75,10,0,70,136.19,0,102.00,-36.00,-993.00
2025-08-07T12:33:06.812781,5,2,0,0,0,0,72,75,10,0,70,136.38,0,101.00,-38.00,-993.00
2025-08-07T12:33:06.859913,5,2,0,0,0,0,72,75,10,0,70,136.21,0,102.00,-37.00,-993.00
2025-08-07T12:33:07.017374,5,2,0,0,0,0,72,75,10,0,70,135.92,0,102.00,-37.00,-991.00
2025-08-07T12:33:07.063741,5,2,0,0,0,0,72,75,10,0,70,136.16,0,100.00,-37.00,-995.00
2025-08-07T12:33:07.222357,5,2,0,0,0,0,72,75,10,0,70,135.94,0,101.00,-38.00,-994.00
2025-08-07T12:33:07.268082,5,2,0,0,0,0,72,75,10,0,70,136.08,0,101.00,-36.00,-992.00
2025-08-07T12:33:07.427125,5,2,0,0,0,0,72,75,10,0,70,136.00,0,99.00,-38.00,-994.00
2025-08-07T12:33:07.472404,5,2,0,0,0,0,72,75,10,0,70,136.20,0,102.00,-36.00,-993.00
2025-08-07T12:33:07.522793,5,2,0,0,0,0,72,75,10,0,70,135.89,0,102.00,-37.00,-994.00
2025-08-07T12:33:07.676497,5,2,0,0,0,0,71,73,10,0,70,135.91,0,102.00,-35.00,-995.00
2025-08-07T12:33:07.726900,5,2,0,0,0,0,71,73,10,0,70,136.22,0,101.00,-37.00,-993.00
2025-08-07T12:33:07.836588,5,2,0,0,0,0,71,73,10,0,70,136.08,0,101.00,-36.00,-997.00
2025-08-07T12:33:07.931538,5,2,0,0,0,0,71,73,10,0,70,135.87,0,102.00,-37.00,-992.00
2025-08-07T12:33:08.041553,5,2,0,0,0,0,71,73,10,0,70,136.03,0,101.00,-38.00,-995.00
2025-08-07T12:33:08.136187,5,2,0,0,0,0,71,73,10,0,70,135.70,0,101.00,-37.00,-994.00
2025-08-07T12:33:08.246479,5,2,0,0,0,0,71,73,10,0,70,135.83,0,100.00,-37.00,-993.00
2025-08-07T12:33:08.340697,5,2,0,0,0,0,71,73,10,0,70,135.99,0,101.00,-38.00,-992.00
2025-08-07T12:33:08.443550,5,2,0,0,0,0,71,73,10,0,70,135.98,0,101.00,-37.00,-995.00
2025-08-07T12:33:08.542749,5,2,0,0,0,0,71,73,10,0,70,136.09,0,102.00,-37.00,-993.00
2025-08-07T12:33:08.655838,5,2,0,0,0,0,71,73,10,0,70,136.27,0,100.00,-38.00,-992.00
2025-08-07T12:33:08.746867,5,2,0,0,0,0,71,73,10,0,70,136.14,0,100.00,-36.00,-992.00
2025-08-07T12:33:08.862277,5,2,0,0,0,0,71,73,10,0,70,136.21,0,100.00,-36.00,-993.00
2025-08-07T12:33:08.951703,5,2,0,0,0,0,71,73,10,0,70,136.13,0,102.00,-36.00,-994.00
2025-08-07T12:33:09.065824,5,2,0,0,0,0,71,73,10,0,70,136.03,0,101.00,-37.00,-994.00
2025-08-07T12:33:09.154683,5,2,0,0,0,0,71,73,10,0,70,135.85,0,101.00,-37.00,-996.00
2025-08-07T12:33:09.270342,5,2,0,0,0,0,71,73,10,0,70,136.13,0,99.00,-36.00,-996.00
2025-08-07T12:33:09.358681,5,2,0,0,0,0,71,73,10,0,70,136.00,0,102.00,-38.00,-996.00
2025-08-07T12:33:09.475208,5,2,0,0,0,0,71,73,10,0,70,136.13,0,101.00,-36.00,-995.00
2025-08-07T12:33:09.562813,5,2,0,0,0,0,71,73,10,0,70,135.77,0,101.00,-37.00,-996.00
2025-08-07T12:33:09.679717,5,2,0,0,0,0,71,73,10,0,70,136.20,0,100.00,-37.00,-994.00
2025-08-07T12:33:09.766555,5,2,0,0,0,0,71,73,10,0,70,136.13,0,100.00,-38.00,-993.00
2025-08-07T12:33:09.884696,5,2,0,0,0,0,71,73,10,0,70,135.96,0,101.00,-37.00,-994.00
2025-08-07T12:33:09.970745,5,2,0,0,0,0,71,73,10,0,70,136.15,0,101.00,-37.00,-994.00
2025-08-07T12:33:10.089430,5,2,0,0,0,0,71,73,10,0,70,136.13,0,101.00,-37.00,-992.00
2025-08-07T12:33:10.174678,5,2,0,0,0,0,71,73,10,0,70,135.88,0,100.00,-39.00,-993.00
2025-08-07T12:33:10.294207,5,2,0,0,0,0,71,73,10,0,70,135.98,0,100.00,-37.00,-994.00
2025-08-07T12:33:10.379303,5,2,0,0,0,0,71,73,10,0,70,136.16,0,102.00,-37.00,-994.00
2025-08-07T12:33:10.480515,5,2,0,0,0,0,71,73,10,0,70,135.77,0,101.00,-37.00,-997.00
2025-08-07T12:33:10.601455,5,2,0,0,0,0,71,73,10,0,70,136.22,0,100.00,-38.00,-991.00
2025-08-07T12:33:10.684602,5,2,0,0,0,0,71,74,10,0,70,136.08,0,101.00,-36.00,-994.00
2025-08-07T12:33:10.806251,5,2,0,0,0,0,71,74,10,0,70,136.07,0,103.00,-36.00,-994.00
2025-08-07T12:33:10.888559,5,2,0,0,0,0,71,74,10,0,70,135.92,0,102.00,-37.00,-991.00
2025-08-07T12:33:11.010977,5,2,0,0,0,0,71,74,10,0,70,136.06,0,103.00,-36.00,-993.00
2025-08-07T12:33:11.041524,5,2,0,0,0,0,71,74,10,0,70,135.93,0,100.00,-35.00,-993.00
2025-08-07T12:33:11.216056,5,2,0,0,0,0,71,74,10,0,70,135.98,0,103.00,-38.00,-996.00
2025-08-07T12:33:11.245936,5,2,0,0,0,0,71,74,10,0,70,136.09,0,101.00,-37.00,-985.00
2025-08-07T12:33:11.420930,5,2,0,0,0,0,71,74,10,0,70,136.00,0,104.00,-38.00,-997.00
2025-08-07T12:33:11.450151,5,2,0,0,0,0,71,74,10,0,70,136.34,0,100.00,-35.00,-987.00
2025-08-07T12:33:11.626438,5,2,0,0,0,0,71,74,10,0,70,136.03,0,100.00,-37.00,-1001.00
2025-08-07T12:33:11.653859,5,2,0,0,0,0,72,75,10,0,70,136.27,0,103.00,-38.00,-991.00
2025-08-07T12:33:11.830517,5,2,0,0,0,0,72,75,10,0,70,136.13,0,102.00,-36.00,-992.00
2025-08-07T12:33:11.857878,5,2,0,0,0,0,72,75,10,0,70,135.94,0,100.00,-38.00,-998.00
2025-08-07T12:33:12.035267,5,2,0,0,0,0,72,75,10,0,70,136.11,0,101.00,-36.00,-993.00
2025-08-07T12:33:12.061853,5,2,0,0,0,0,72,75,10,0,70,136.08,0,102.00,-37.00,-992.00
2025-08-07T12:33:12.240061,5,2,0,0,0,0,72,75,10,0,70,135.87,0,101.00,-37.00,-993.00
