TS,pitch,roll,yaw,vgx,vgy,vgz,templ,temph,tof,h,bat,baro,time,agx,agy,agz
2024-05-17 17:07:28.209131,0,0,0,0,0,0,76,78,10,0,68,169.03,165,-5.00,15.00,-997.00
2024-05-17 17:07:28.307591,0,0,0,0,0,0,76,78,10,0,68,169.17,165,-4.00,14.00,-997.00
2024-05-17 17:07:28.420151,0,0,0,0,0,0,76,78,10,0,68,169.08,165,-4.00,15.00,-1001.00
2024-05-17 17:07:28.516223,0,0,0,0,0,0,76,78,10,0,68,169.09,165,-5.00,15.00,-999.00
2024-05-17 17:07:28.623331,0,0,0,0,0,0,76,78,10,0,68,169.06,165,-5.00,15.00,-999.00
2024-05-17 17:07:28.715516,0,0,0,0,0,0,76,78,10,0,68,169.04,165,-6.00,15.00,-1001.00
2024-05-17 17:07:28.827079,0,0,0,0,0,0,76,78,10,0,68,169.02,165,-6.00,15.00,-1001.00
2024-05-17 17:07:28.918861,0,0,0,0,0,0,76,78,10,0,68,169.04,165,-5.00,17.00,-1001.00
2024-05-17 17:07:29.031112,0,0,0,0,0,0,76,78,10,0,68,169.19,165,-6.00,16.00,-999.00
2024-05-17 17:07:29.122921,0,0,0,0,0,0,76,78,10,0,68,169.00,165,-4.00,15.00,-998.00
2024-05-17 17:07:29.225037,0,0,0,0,0,0,76,78,10,0,68,168.90,165,-5.00,17.00,-997.00
2024-05-17 17:07:29.326924,0,0,0,0,0,0,76,78,10,0,68,168.82,165,-5.00,15.00,-999.00
2024-05-17 17:07:29.445159,0,0,0,0,0,0,76,78,10,0,68,169.40,165,-5.00,14.00,-998.00
2024-05-17 17:07:29.531065,0,0,0,0,0,0,76,78,10,0,68,169.09,165,-5.00,15.00,-1002.00
2024-05-17 17:07:29.645518,0,0,0,0,0,0,76,78,10,0,68,168.88,165,-6.00,14.00,-999.00
2024-05-17 17:07:29.734979,0,0,0,0,0,0,76,78,10,0,68,168.81,165,-5.00,16.00,-999.00
2024-05-17 17:07:29.836967,0,0,0,0,0,0,76,78,10,0,68,169.08,165,-4.00,16.00,-1001.00
2024-05-17 17:07:29.887986,0,0,0,0,0,0,76,78,10,0,68,169.01,165,-6.00,15.00,-1000.00
2024-05-17 17:07:30.055181,0,0,0,0,0,0,76,78,10,0,68,169.14,165,-5.00,16.00,-998.00
2024-05-17 17:07:30.092030,0,0,0,0,0,0,76,78,10,0,68,169.10,165,-6.00,16.00,-1001.00
2024-05-17 17:07:30.260439,0,0,0,0,0,0,76,78,10,0,68,168.95,165,-6.00,16.00,-999.00
2024-05-17 17:07:30.295982,0,0,0,0,0,0,76,78,10,0,68,169.13,165,-5.00,14.00,-1001.00
2024-05-17 17:07:30.464739,0,0,0,0,0,0,76,78,10,0,68,169.19,165,-6.00,15.00,-999.00
2024-05-17 17:07:30.500027,0,0,0,0,0,0,76,78,10,0,68,169.08,165,-4.00,15.00,-1001.00
2024-05-17 17:07:30.669606,0,0,0,0,0,0,76,78,10,0,68,168.99,165,-7.00,15.00,-1000.00
2024-05-17 17:07:30.704453,0,0,0,0,0,0,76,78,10,0,68,169.13,165,-5.00,17.00,-1000.00
2024-05-17 17:07:30.807267,0,0,0,0,0,0,76,78,10,0,68,169.19,165,-6.00,17.00,-998.00
2024-05-17 17:07:30.976623,0,0,0,0,0,0,76,78,10,0,68,169.19,165,0.00,17.00,-1001.00
2024-05-17 17:07:31.009911,0,0,0,0,0,0,76,78,10,0,68,169.19,165,-8.00,16.00,-991.00
2024-05-17 17:07:31.181374,0,0,0,0,0,0,76,78,10,0,68,169.19,165,30.00,-19.00,-1002.00
2024-05-17 17:07:31.213778,0,0,0,0,0,0,76,78,10,0,68,169.19,165,-25.00,5.00,-1005.00
2024-05-17 17:07:31.386321,0,0,1,0,0,0,76,78,10,0,68,169.19,165,-25.00,43.00,-1000.00
2024-05-17 17:07:31.417871,0,0,2,0,0,0,76,78,10,0,68,169.19,165,43.00,46.00,-1150.00
2024-05-17 17:07:31.592059,0,-2,3,0,1,-5,76,79,10,0,68,169.19,166,33.00,16.00,-1291.00
2024-05-17 17:07:31.621799,0,-3,3,0,0,-7,76,79,10,10,68,169.19,166,80.00,-20.00,-1210.00
2024-05-17 17:07:31.795994,0,-1,3,0,0,-8,76,79,20,20,68,169.32,166,10.00,25.00,-943.00
2024-05-17 17:07:31.825791,0,-1,2,0,0,-8,76,79,28,20,68,169.58,166,46.00,40.00,-996.00
2024-05-17 17:07:32.002888,0,-1,2,0,0,-8,76,79,34,30,68,169.46,166,-30.00,22.00,-835.00
2024-05-17 17:07:32.029945,0,-1,2,0,0,-7,76,79,40,40,68,169.73,166,13.00,47.00,-928.00
2024-05-17 17:07:32.131790,0,-2,2,0,0,-6,76,79,46,40,68,169.72,166,24.00,21.00,-869.00
2024-05-17 17:07:32.307740,0,0,2,0,0,-5,76,79,51,50,68,169.58,166,-9.00,46.00,-902.00
2024-05-17 17:07:32.335911,1,0,2,0,0,-3,76,79,54,50,68,170.00,166,53.00,-37.00,-907.00
2024-05-17 17:07:32.513233,0,0,2,0,0,-3,76,79,55,60,68,170.13,167,24.00,17.00,-905.00
2024-05-17 17:07:32.539838,1,0,2,0,0,-2,76,79,57,60,68,169.88,167,14.00,39.00,-979.00
2024-05-17 17:07:32.641859,1,0,2,0,0,-1,76,79,57,60,68,169.78,167,22.00,-2.00,-986.00
2024-05-17 17:07:32.743750,1,0,2,0,0,0,76,79,57,60,68,169.92,167,35.00,0.00,-1064.00
2024-05-17 17:07:32.922128,1,0,2,0,0,0,76,79,57,60,68,169.74,167,19.00,7.00,-911.00
2024-05-17 17:07:32.947659,1,0,2,0,0,0,76,79,57,60,68,169.63,167,37.00,21.00,-1078.00
2024-05-17 17:07:33.126940,2,0,2,0,0,0,76,79,57,60,68,169.79,167,-6.00,40.00,-988.00
2024-05-17 17:07:33.151649,2,0,2,0,0,-1,76,79,56,60,68,169.75,167,62.00,-4.00,-1096.00
2024-05-17 17:07:33.332427,2,0,2,0,0,-1,76,79,57,60,68,170.20,167,86.00,-19.00,-1012.00
2024-05-17 17:07:33.355653,2,0,2,0,0,-1,76,79,58,60,68,169.68,167,106.00,-31.00,-1059.00
2024-05-17 17:07:33.406580,1,0,2,0,0,-1,76,79,59,60,68,169.78,168,45.00,10.00,-1077.00
2024-05-17 17:07:33.559659,1,0,2,0,0,-1,76,78,60,60,68,170.03,168,17.00,1.00,-943.00
2024-05-17 17:07:33.741778,1,0,2,0,0,-1,76,78,61,60,68,170.10,168,-29.00,56.00,-1054.00
2024-05-17 17:07:33.742131,1,0,2,0,0,-1,76,78,63,60,68,169.94,168,10.00,25.00,-930.00
2024-05-17 17:07:33.814568,1,0,2,0,0,-2,76,78,65,60,68,169.73,168,-32.00,23.00,-991.00
2024-05-17 17:07:33.946513,1,0,2,0,0,-2,76,78,66,60,68,169.97,168,7.00,18.00,-1006.00
2024-05-17 17:07:34.019565,1,0,2,0,0,-1,76,78,68,60,68,170.00,168,78.00,16.00,-1018.00
2024-05-17 17:07:34.150944,0,-1,2,0,0,-1,76,78,70,70,68,170.13,168,23.00,7.00,-966.00
2024-05-17 17:07:34.222601,0,0,2,0,0,-1,76,78,71,70,68,169.60,168,36.00,1.00,-965.00
2024-05-17 17:07:34.359291,0,0,2,0,0,-1,76,78,73,70,68,170.30,168,5.00,10.00,-973.00
2024-05-17 17:07:34.426662,0,0,2,0,0,-1,76,78,75,70,68,169.99,169,17.00,29.00,-926.00
2024-05-17 17:07:34.560489,1,0,2,0,0,-1,75,78,77,70,68,170.11,169,-35.00,65.00,-999.00
2024-05-17 17:07:34.631292,1,0,2,0,0,-1,75,78,78,70,68,170.00,169,36.00,32.00,-1036.00
2024-05-17 17:07:34.768972,1,0,2,0,0,0,75,78,78,70,68,170.08,169,65.00,0.00,-987.00
2024-05-17 17:07:34.834685,1,-1,2,0,0,0,75,78,80,70,68,170.33,169,7.00,28.00,-946.00
2024-05-17 17:07:34.970749,1,-1,2,0,0,0,75,78,81,70,68,169.99,169,-5.00,-34.00,-948.00
2024-05-17 17:07:35.038704,1,-1,2,0,0,-1,75,78,82,70,68,170.05,169,27.00,11.00,-1039.00
2024-05-17 17:07:35.175405,1,0,2,0,0,-1,75,78,83,80,68,170.13,169,4.00,15.00,-881.00
2024-05-17 17:07:35.242583,2,0,2,0,0,-1,75,78,83,80,68,170.14,169,38.00,-3.00,-963.00
2024-05-17 17:07:35.379624,2,0,2,0,0,0,75,78,84,80,68,170.19,169,55.00,2.00,-989.00
2024-05-17 17:07:35.446350,2,0,2,0,0,0,75,78,84,80,68,170.21,170,3.00,45.00,-989.00
2024-05-17 17:07:35.548445,2,0,2,0,0,0,75,78,84,80,68,170.09,170,32.00,40.00,-968.00
2024-05-17 17:07:35.650475,1,0,2,0,0,0,75,78,83,80,68,170.37,170,-15.00,28.00,-874.00
2024-05-17 17:07:35.790804,1,0,2,0,0,0,75,78,81,80,68,170.13,170,72.00,4.00,-990.00
2024-05-17 17:07:35.854452,1,-1,2,0,0,0,75,78,80,80,68,170.10,170,57.00,33.00,-1089.00
2024-05-17 17:07:35.995498,2,-1,2,0,0,0,75,78,80,80,68,169.71,170,1.00,14.00,-1000.00
2024-05-17 17:07:36.058548,1,-1,2,0,0,0,75,78,79,80,68,170.23,170,34.00,20.00,-1017.00
2024-05-17 17:07:36.198935,0,-1,2,0,0,0,75,78,77,80,68,169.87,170,-4.00,36.00,-959.00
2024-05-17 17:07:36.262486,0,-1,2,0,0,0,75,78,76,80,68,170.09,170,-3.00,4.00,-966.00
2024-05-17 17:07:36.403739,0,-1,2,0,0,0,75,78,76,80,68,170.32,170,24.00,49.00,-1126.00
2024-05-17 17:07:36.466422,1,-1,2,0,0,-1,75,78,76,80,68,170.25,171,-39.00,43.00,-870.00
2024-05-17 17:07:36.608552,1,-1,2,0,0,0,75,78,75,80,68,170.36,171,26.00,34.00,-1004.00
2024-05-17 17:07:36.670434,1,-1,2,0,0,0,75,78,76,80,68,169.88,171,46.00,16.00,-1079.00
2024-05-17 17:07:36.772311,1,-1,2,0,0,0,75,78,75,80,68,170.15,171,15.00,52.00,-1015.00
2024-05-17 17:07:36.920815,1,-1,2,0,0,-1,75,78,75,80,68,169.91,171,4.00,57.00,-974.00
2024-05-17 17:07:36.981379,1,-1,2,0,0,-1,75,78,75,80,68,170.23,171,52.00,24.00,-1014.00
2024-05-17 17:07:37.028044,1,-1,2,0,0,-1,75,78,75,80,68,169.99,171,-3.00,57.00,-979.00
2024-05-17 17:07:37.222953,1,-1,2,0,0,-1,75,78,75,90,68,170.06,171,39.00,46.00,-1016.00
2024-05-17 17:07:37.231607,1,-1,2,0,0,-1,75,78,75,90,68,170.14,171,47.00,-1.00,-986.00
2024-05-17 17:07:37.427629,1,-1,2,0,0,-1,75,78,75,90,68,170.00,171,-21.00,41.00,-971.00
2024-05-17 17:07:37.435540,1,0,2,0,0,-1,75,78,75,90,68,170.34,172,60.00,17.00,-1062.00
2024-05-17 17:07:37.634266,1,-1,2,0,0,-1,76,78,75,90,68,170.12,172,11.00,15.00,-992.00
2024-05-17 17:07:37.639591,1,-1,2,0,0,-1,76,78,75,90,68,170.19,172,84.00,35.00,-1035.00
2024-05-17 17:07:37.838445,1,-1,2,0,0,-1,76,78,76,90,68,169.85,172,-48.00,59.00,-961.00
2024-05-17 17:07:37.845546,1,-1,2,0,0,-1,76,78,76,90,68,170.00,172,54.00,16.00,-1008.00
2024-05-17 17:07:37.945507,1,-1,2,0,0,-1,76,78,77,90,68,170.15,172,57.00,42.00,-1142.00
2024-05-17 17:07:38.146046,1,-1,2,0,0,-1,76,78,78,90,68,170.22,172,-8.00,38.00,-879.00
2024-05-17 17:07:38.151160,1,-1,2,0,0,-1,76,78,79,90,68,169.68,172,54.00,9.00,-1031.00
2024-05-17 17:07:38.251599,1,-1,2,0,0,-1,76,78,79,90,68,170.04,172,20.00,15.00,-982.00
2024-05-17 17:07:38.356226,1,-1,2,0,0,0,76,78,79,90,68,170.13,172,46.00,32.00,-1079.00
2024-05-17 17:07:38.455360,1,-1,2,0,0,-1,76,78,80,90,68,169.95,173,20.00,26.00,-985.00
2024-05-17 17:07:38.557549,1,-1,2,0,0,0,75,77,81,90,68,170.00,173,-53.00,18.00,-895.00
2024-05-17 17:07:38.660223,1,-1,2,0,0,0,75,77,81,90,68,169.98,173,-23.00,54.00,-908.00
2024-05-17 17:07:38.765923,0,-1,2,0,0,0,75,77,82,90,68,170.06,173,58.00,1.00,-1065.00
2024-05-17 17:07:38.863534,1,-1,2,0,0,0,75,77,83,90,68,170.09,173,-59.00,47.00,-910.00
2024-05-17 17:07:38.965603,1,-1,2,0,0,0,75,77,83,100,68,170.16,173,-12.00,41.00,-878.00
2024-05-17 17:07:39.168562,1,-1,2,0,0,0,75,77,83,100,68,169.94,173,-3.00,17.00,-955.00
2024-05-17 17:07:39.169441,1,-1,2,0,0,0,75,77,83,90,68,170.20,173,18.00,19.00,-985.00
2024-05-17 17:07:39.373690,1,-1,2,0,0,0,75,77,83,90,68,170.11,173,23.00,13.00,-946.00
2024-05-17 17:07:39.373830,1,-1,2,0,0,0,75,77,83,90,68,170.08,173,14.00,29.00,-986.00
2024-05-17 17:07:39.475714,1,-1,2,0,0,0,75,77,83,90,68,170.04,174,80.00,2.00,-1156.00
2024-05-17 17:07:39.578143,1,0,2,0,0,0,75,78,83,100,68,170.35,174,24.00,9.00,-1002.00
2024-05-17 17:07:39.680624,1,-1,2,0,0,0,75,78,84,100,68,170.15,174,-71.00,94.00,-978.00
2024-05-17 17:07:39.782723,1,-1,2,0,0,0,75,78,84,100,68,170.25,174,-7.00,53.00,-909.00
2024-05-17 17:07:39.883601,1,-1,2,0,0,0,75,78,84,100,68,169.75,174,79.00,-44.00,-989.00
2024-05-17 17:07:39.992909,1,-1,2,0,0,0,75,78,84,100,68,170.10,174,41.00,21.00,-1031.00
2024-05-17 17:07:40.087643,1,-1,2,0,0,0,75,78,84,100,68,170.50,174,5.00,52.00,-980.00
2024-05-17 17:07:40.192697,0,-1,2,0,0,0,75,78,84,100,68,169.97,174,56.00,6.00,-977.00
2024-05-17 17:07:40.291599,1,-1,2,0,0,0,75,78,85,100,68,170.23,174,23.00,55.00,-1036.00
2024-05-17 17:07:40.397878,1,-1,2,0,0,0,75,78,85,100,68,170.20,174,65.00,0.00,-1071.00
2024-05-17 17:07:40.495629,1,-1,2,0,0,0,75,78,85,100,68,170.20,175,-18.00,75.00,-976.00
2024-05-17 17:07:40.602437,1,-1,2,0,0,0,76,78,85,100,68,169.95,175,65.00,12.00,-1196.00
2024-05-17 17:07:40.700699,1,-1,2,0,0,0,76,78,85,100,68,170.12,175,15.00,26.00,-930.00
2024-05-17 17:07:40.802475,1,-1,2,0,0,0,76,78,85,100,68,170.28,175,107.00,25.00,-1141.00
2024-05-17 17:07:40.909438,1,0,2,0,0,0,76,78,85,100,68,170.12,175,10.00,22.00,-911.00
2024-05-17 17:07:41.005543,1,-1,2,0,0,0,76,78,85,100,68,170.24,175,-13.00,33.00,-915.00
2024-05-17 17:07:41.114352,1,-1,2,0,0,0,76,78,85,100,68,170.08,175,80.00,29.00,-1064.00
2024-05-17 17:07:41.209602,1,-1,2,0,0,0,76,78,85,100,68,170.09,175,41.00,-2.00,-978.00
2024-05-17 17:07:41.260351,1,-1,2,0,0,0,76,78,86,100,68,170.37,175,14.00,44.00,-1044.00
2024-05-17 17:07:41.362408,1,-1,2,0,0,0,76,78,86,100,68,170.22,175,24.00,25.00,-902.00
2024-05-17 17:07:41.464217,2,0,2,0,0,0,76,78,85,100,68,169.99,176,-53.00,36.00,-858.00
2024-05-17 17:07:41.567252,2,0,2,0,0,0,75,78,86,100,68,170.37,176,0.00,60.00,-1018.00
2024-05-17 17:07:41.731608,2,-1,2,0,0,0,75,78,85,100,68,170.09,176,69.00,-10.00,-1088.00
2024-05-17 17:07:41.770438,1,-1,2,0,0,0,75,78,86,100,68,170.38,176,40.00,29.00,-1240.00
2024-05-17 17:07:41.934191,1,-1,2,0,0,-1,75,78,88,100,68,170.22,176,49.00,30.00,-1159.00
2024-05-17 17:07:41.974278,1,-2,2,0,0,-2,75,78,92,100,68,170.45,176,137.00,-53.00,-1131.00
2024-05-17 17:07:42.138108,0,-2,2,0,0,-3,75,78,97,100,68,170.17,176,-4.00,46.00,-1080.00
2024-05-17 17:07:42.180959,1,-2,2,0,0,-4,75,78,101,110,68,170.14,176,29.00,60.00,-1079.00
2024-05-17 17:07:42.280393,1,-1,2,0,0,-5,75,78,107,110,68,170.24,176,63.00,-24.00,-957.00
2024-05-17 17:07:42.384103,2,-1,2,0,0,-5,75,78,112,120,68,170.79,176,7.00,36.00,-971.00
2024-05-17 17:07:42.485240,1,-1,2,0,0,-5,75,78,117,130,68,170.55,177,-10.00,62.00,-1058.00
2024-05-17 17:07:42.586483,1,-1,2,0,0,-6,76,77,126,130,68,170.26,177,2.00,20.00,-935.00
2024-05-17 17:07:42.753408,1,-1,2,0,0,-5,76,77,131,140,68,170.53,177,23.00,43.00,-972.00
2024-05-17 17:07:42.790076,1,-1,2,0,0,-5,76,77,136,140,68,170.48,177,113.00,5.00,-1011.00
2024-05-17 17:07:42.957294,1,-1,2,0,0,-5,76,77,140,150,68,170.60,177,30.00,37.00,-1003.00
2024-05-17 17:07:42.994080,1,-1,2,0,0,-4,76,77,145,150,68,170.69,177,53.00,6.00,-969.00
2024-05-17 17:07:43.162089,1,-2,2,0,0,-4,76,77,149,160,68,170.37,177,97.00,22.00,-1095.00
2024-05-17 17:07:43.198069,1,-2,2,0,0,-4,76,77,152,160,68,170.92,177,-2.00,42.00,-992.00
2024-05-17 17:07:43.300817,0,-2,2,0,0,-3,76,77,156,170,68,170.96,177,-43.00,53.00,-829.00
2024-05-17 17:07:43.402108,0,-2,2,0,0,-3,76,77,159,170,68,170.74,177,1.00,64.00,-982.00
2024-05-17 17:07:43.504105,0,-2,2,0,0,-3,76,77,161,170,68,170.70,178,-70.00,78.00,-811.00
2024-05-17 17:07:43.605963,1,-1,2,0,0,-2,76,78,163,180,68,170.50,178,-66.00,63.00,-998.00
2024-05-17 17:07:43.776488,1,-1,2,0,0,-2,76,78,165,180,68,170.83,178,8.00,25.00,-950.00
2024-05-17 17:07:43.810046,1,-1,2,0,0,-2,76,78,167,180,68,171.00,178,28.00,10.00,-1003.00
2024-05-17 17:07:43.912403,1,-1,2,0,0,-2,76,78,169,180,68,171.19,178,35.00,9.00,-906.00
2024-05-17 17:07:44.014493,2,0,2,0,0,-1,76,78,171,180,68,170.88,178,84.00,-7.00,-1001.00
2024-05-17 17:07:44.186116,2,-1,2,0,0,-1,76,78,172,180,68,170.80,178,16.00,23.00,-1008.00
2024-05-17 17:07:44.218282,2,-1,2,0,0,-1,76,78,174,190,68,170.92,178,28.00,45.00,-954.00
2024-05-17 17:07:44.393021,2,-1,2,0,0,-1,76,78,175,190,68,170.90,178,42.00,-11.00,-931.00
2024-05-17 17:07:44.423911,2,-1,2,0,0,-1,76,78,176,190,68,171.07,178,6.00,39.00,-1016.00
2024-05-17 17:07:44.524005,2,-1,3,0,0,0,76,78,177,190,68,171.08,179,-13.00,46.00,-933.00
2024-05-17 17:07:44.698045,2,-1,3,0,0,0,75,77,178,190,68,170.94,179,32.00,7.00,-1012.00
2024-05-17 17:07:44.731286,1,-1,3,0,0,0,75,77,178,190,68,170.97,179,26.00,14.00,-987.00
2024-05-17 17:07:44.829993,1,-1,3,0,0,0,75,77,178,190,68,170.95,179,16.00,51.00,-1014.00
2024-05-17 17:07:45.005921,1,-1,2,0,0,0,75,77,179,190,68,171.40,179,0.00,36.00,-992.00
2024-05-17 17:07:45.034014,0,-1,2,0,0,0,75,77,179,190,68,170.94,179,43.00,2.00,-984.00
2024-05-17 17:07:45.085272,0,-1,2,0,0,0,75,77,180,190,68,171.41,179,51.00,57.00,-1007.00
2024-05-17 17:07:45.187233,0,-1,2,0,0,0,75,77,180,190,68,171.09,179,-32.00,51.00,-917.00
2024-05-17 17:07:45.314519,1,-1,2,0,0,0,75,77,181,190,68,171.01,179,48.00,34.00,-1041.00
2024-05-17 17:07:45.392494,1,-1,2,0,0,0,75,77,182,190,68,170.94,179,81.00,9.00,-979.00
2024-05-17 17:07:45.495904,1,-1,2,0,0,0,75,77,182,190,68,171.25,180,49.00,33.00,-955.00
2024-05-17 17:07:45.595384,1,-1,2,0,0,0,75,78,183,190,68,171.04,180,73.00,7.00,-1064.00
2024-05-17 17:07:45.722494,2,-1,2,0,0,0,75,78,184,190,68,170.93,180,35.00,45.00,-942.00
2024-05-17 17:07:45.799473,1,-1,2,0,0,0,75,78,185,190,68,171.09,180,52.00,30.00,-1075.00
2024-05-17 17:07:45.902081,2,-1,2,0,0,0,75,78,185,190,68,171.16,180,76.00,20.00,-958.00
2024-05-17 17:07:46.030605,2,-1,2,0,0,0,75,78,187,190,68,170.74,180,3.00,54.00,-991.00
2024-05-17 17:07:46.106093,2,-2,2,0,0,0,75,78,187,190,68,170.89,180,20.00,47.00,-1041.00
2024-05-17 17:07:46.234355,2,-2,2,0,0,0,75,78,187,200,68,171.13,180,67.00,30.00,-1025.00
2024-05-17 17:07:46.310359,2,-2,2,0,0,0,75,78,188,200,68,171.01,180,23.00,51.00,-964.00
2024-05-17 17:07:46.439088,3,-2,2,0,0,0,75,78,189,200,68,170.95,180,123.00,20.00,-1021.00
2024-05-17 17:07:46.513236,3,-2,2,0,0,0,75,78,189,200,68,171.07,181,34.00,38.00,-990.00
2024-05-17 17:07:46.644073,3,-2,2,0,0,0,75,78,189,200,68,170.90,181,-4.00,39.00,-946.00
2024-05-17 17:07:46.717879,3,-2,2,0,0,0,75,78,189,200,68,171.23,181,-7.00,49.00,-970.00
2024-05-17 17:07:46.825267,2,-2,2,0,0,0,75,78,189,200,68,171.32,181,7.00,49.00,-955.00
2024-05-17 17:07:46.925606,2,-2,2,0,0,0,75,78,190,200,68,171.21,181,96.00,18.00,-988.00
2024-05-17 17:07:47.023757,2,-2,2,0,0,0,75,78,189,200,68,171.00,181,74.00,32.00,-1031.00
2024-05-17 17:07:47.126240,2,-2,2,0,0,0,75,78,189,200,68,171.00,181,58.00,30.00,-1079.00
2024-05-17 17:07:47.227180,2,-2,2,0,0,0,75,78,189,200,68,170.96,181,114.00,-11.00,-1013.00
2024-05-17 17:07:47.363889,2,-2,2,0,0,0,75,78,189,200,68,171.04,181,18.00,48.00,-932.00
2024-05-17 17:07:47.431084,2,-2,2,0,0,0,75,78,188,200,68,170.96,182,35.00,17.00,-946.00
2024-05-17 17:07:47.565902,2,-1,2,0,0,1,75,78,187,200,68,170.93,182,45.00,4.00,-951.00
2024-05-17 17:07:47.635135,1,-1,2,0,0,1,76,77,185,200,68,171.04,182,18.00,45.00,-941.00
2024-05-17 17:07:47.770074,1,-1,2,0,0,2,76,77,184,190,68,170.77,182,26.00,28.00,-920.00
2024-05-17 17:07:47.846480,1,-1,2,0,0,2,76,77,180,190,68,170.90,182,6.00,43.00,-952.00
2024-05-17 17:07:47.942122,1,-1,2,0,0,2,76,77,178,190,68,171.01,182,45.00,51.00,-998.00
2024-05-17 17:07:48.077553,1,-2,2,0,0,2,76,77,174,190,68,171.01,182,20.00,15.00,-911.00
2024-05-17 17:07:48.145100,1,-2,2,0,0,2,76,77,171,180,68,170.87,182,30.00,21.00,-938.00
2024-05-17 17:07:48.282068,1,-2,2,0,0,2,76,77,169,180,68,171.01,182,55.00,33.00,-952.00
2024-05-17 17:07:48.348927,2,-2,2,0,0,2,76,77,165,180,68,170.81,182,30.00,57.00,-1058.00
2024-05-17 17:07:48.486833,1,-2,2,0,0,3,76,77,162,170,68,170.77,183,26.00,2.00,-1046.00
2024-05-17 17:07:48.552930,1,-2,2,0,0,2,76,77,158,170,68,170.71,183,62.00,9.00,-1059.00
2024-05-17 17:07:48.692122,1,-2,2,0,0,2,76,77,154,170,68,170.64,183,-8.00,60.00,-962.00
2024-05-17 17:07:48.757117,1,-2,2,0,0,2,76,77,151,160,68,170.93,183,40.00,50.00,-1037.00
2024-05-17 17:07:48.896397,0,-2,2,0,0,2,76,77,148,160,68,170.66,183,2.00,40.00,-989.00
2024-05-17 17:07:48.961007,1,-2,2,0,0,1,76,77,145,160,68,170.57,183,83.00,2.00,-1055.00
2024-05-17 17:07:49.011678,1,-2,2,0,0,1,76,77,142,160,68,170.35,183,-5.00,42.00,-944.00
2024-05-17 17:07:49.203655,1,-1,2,0,0,1,76,77,139,150,68,170.37,183,48.00,12.00,-961.00
2024-05-17 17:07:49.217002,1,-2,2,0,0,1,76,77,137,150,68,170.47,183,2.00,56.00,-1007.00
2024-05-17 17:07:49.318243,1,-2,2,0,0,0,76,77,134,150,68,170.66,183,38.00,33.00,-1044.00
2024-05-17 17:07:49.510981,1,-2,2,0,0,0,76,77,132,150,68,170.50,184,53.00,50.00,-1017.00
2024-05-17 17:07:49.522048,2,-2,2,0,0,1,76,77,130,150,68,170.38,184,12.00,41.00,-1037.00
2024-05-17 17:07:49.715837,1,-2,2,0,0,0,75,77,126,140,68,170.36,184,33.00,26.00,-1077.00
2024-05-17 17:07:49.726292,1,-2,2,0,0,0,75,77,125,140,68,170.60,184,4.00,57.00,-1012.00
2024-05-17 17:07:49.828617,1,-2,2,0,0,0,75,77,123,140,68,170.30,184,-3.00,46.00,-978.00
2024-05-17 17:07:50.023316,2,-1,2,0,0,0,75,77,122,140,68,170.32,184,-41.00,69.00,-967.00
2024-05-17 17:07:50.031859,2,-1,2,0,0,0,75,77,120,140,68,170.45,184,107.00,14.00,-1034.00
2024-05-17 17:07:50.227817,1,-1,2,0,0,0,75,77,119,140,68,170.46,184,69.00,14.00,-1127.00
2024-05-17 17:07:50.236933,1,-1,2,0,0,0,75,77,118,140,68,170.56,184,-57.00,80.00,-1007.00
2024-05-17 17:07:50.432568,1,-1,2,0,0,0,75,77,117,140,68,170.30,184,-35.00,69.00,-1004.00
2024-05-17 17:07:50.439867,1,-1,2,0,0,0,75,77,116,130,68,170.36,185,-45.00,77.00,-913.00
2024-05-17 17:07:50.637425,1,-2,2,0,0,0,75,77,116,130,68,170.37,185,41.00,26.00,-1062.00
2024-05-17 17:07:50.644653,1,-2,2,0,0,0,75,78,117,130,68,170.09,185,54.00,9.00,-1019.00
2024-05-17 17:07:50.842503,1,-2,2,0,0,0,75,78,118,130,68,170.38,185,29.00,27.00,-1006.00
2024-05-17 17:07:50.847676,1,-2,2,0,0,0,75,78,118,130,68,170.33,185,11.00,59.00,-1043.00
2024-05-17 17:07:50.950024,2,-1,2,0,0,-1,75,78,118,130,68,170.15,185,10.00,48.00,-914.00
2024-05-17 17:07:51.149614,2,-1,2,0,0,-1,75,78,119,130,68,170.44,185,14.00,66.00,-934.00
2024-05-17 17:07:51.157349,2,-2,2,0,0,0,75,78,121,130,68,170.29,185,25.00,45.00,-986.00
2024-05-17 17:07:51.255541,2,-2,2,0,0,0,75,78,122,130,68,170.52,185,10.00,46.00,-967.00
2024-05-17 17:07:51.456393,1,-1,2,0,0,-1,75,78,122,140,68,170.61,185,49.00,46.00,-1143.00
2024-05-17 17:07:51.459562,-4,-2,2,0,0,-1,75,78,124,140,68,170.38,186,86.00,68.00,-914.00
2024-05-17 17:07:51.564059,-7,-2,2,1,0,0,75,78,122,140,68,170.35,186,48.00,13.00,-1010.00
2024-05-17 17:07:51.666523,-7,-2,2,3,0,0,74,77,121,140,68,170.44,186,-25.00,86.00,-940.00
2024-05-17 17:07:51.765560,-6,-3,2,4,0,0,74,77,125,140,68,170.56,186,37.00,22.00,-1070.00
2024-05-17 17:07:51.867553,-6,-3,2,5,0,0,74,77,125,140,68,170.35,186,97.00,0.00,-1083.00
2024-05-17 17:07:52.071028,-5,-2,2,6,0,0,74,77,128,140,68,170.58,186,42.00,-4.00,-1075.00
2024-05-17 17:07:52.071557,-3,-1,2,7,0,-1,74,77,130,140,68,170.42,186,-46.00,55.00,-943.00
2024-05-17 17:07:52.275646,-2,-1,2,8,0,-1,74,77,131,140,68,170.33,186,-49.00,81.00,-995.00
2024-05-17 17:07:52.275822,0,-1,2,8,0,-1,74,77,130,140,68,170.59,186,-34.00,40.00,-917.00
2024-05-17 17:07:52.326941,2,-2,2,8,0,0,74,77,133,140,68,170.50,186,-9.00,28.00,-971.00
2024-05-17 17:07:52.480392,4,-2,2,7,0,0,74,77,133,140,68,170.50,187,-40.00,24.00,-938.00
2024-05-17 17:07:52.536311,6,-2,2,6,0,0,74,77,135,140,68,170.64,187,-51.00,54.00,-949.00
2024-05-17 17:07:52.632881,6,-2,2,5,0,0,75,77,135,140,68,170.68,187,-97.00,108.00,-971.00
2024-05-17 17:07:52.787553,5,-2,2,4,0,0,75,77,134,150,68,170.61,187,-12.00,42.00,-917.00
2024-05-17 17:07:52.836964,3,-2,2,3,0,0,75,77,135,150,68,170.38,187,-52.00,62.00,-936.00
2024-05-17 17:07:52.992396,2,-2,2,3,0,0,75,77,135,150,68,170.67,187,46.00,23.00,-1062.00
2024-05-17 17:07:53.040714,2,-2,2,3,0,0,75,77,136,150,68,170.38,187,-25.00,66.00,-920.00
2024-05-17 17:07:53.197200,3,-2,2,2,0,0,75,77,136,150,68,170.53,187,66.00,-3.00,-1081.00
2024-05-17 17:07:53.244939,4,-2,2,2,0,0,75,77,135,150,68,170.42,187,-50.00,19.00,-910.00
2024-05-17 17:07:53.402028,5,-2,2,1,0,0,75,77,138,150,68,170.50,187,-43.00,54.00,-946.00
2024-05-17 17:07:53.448818,4,-2,2,0,0,0,75,77,137,150,68,170.45,188,20.00,32.00,-1017.00
2024-05-17 17:07:53.554502,3,-1,2,0,0,0,75,77,137,150,68,170.84,188,104.00,-32.00,-1010.00
2024-05-17 17:07:53.652787,3,-1,2,0,0,0,75,78,137,150,68,170.66,188,60.00,20.00,-978.00
2024-05-17 17:07:53.811615,2,-1,2,0,0,0,75,78,138,150,68,170.76,188,-13.00,45.00,-854.00
2024-05-17 17:07:53.856823,2,-1,2,0,0,0,75,78,137,150,68,170.94,188,-54.00,36.00,-896.00
2024-05-17 17:07:54.018666,2,-2,2,0,0,0,75,78,138,150,68,170.76,188,75.00,19.00,-1109.00
2024-05-17 17:07:54.067543,1,-1,2,0,0,0,75,78,138,150,68,170.37,188,99.00,-25.00,-996.00
2024-05-17 17:07:54.162934,1,-2,2,0,0,0,75,78,137,150,68,170.51,188,31.00,43.00,-1074.00
2024-05-17 17:07:54.323658,2,-1,2,0,0,0,75,78,137,150,68,170.46,188,81.00,8.00,-974.00
2024-05-17 17:07:54.367794,2,-2,2,0,0,0,75,78,136,150,68,170.79,188,3.00,55.00,-958.00
2024-05-17 17:07:54.528516,1,-2,2,0,0,0,75,78,136,150,68,170.65,189,58.00,24.00,-963.00
2024-05-17 17:07:54.570719,1,-2,2,0,0,0,75,78,135,150,68,170.77,189,72.00,19.00,-1062.00
2024-05-17 17:07:54.733570,1,-2,2,0,0,0,75,77,134,150,68,170.48,189,36.00,49.00,-1023.00
2024-05-17 17:07:54.775266,1,-2,2,0,0,0,75,77,133,150,68,170.24,189,46.00,13.00,-1028.00
2024-05-17 17:07:54.876890,1,-2,2,0,0,0,75,77,132,150,68,170.62,189,30.00,17.00,-954.00
2024-05-17 17:07:55.040472,1,-2,2,0,0,0,75,77,130,150,68,170.58,189,26.00,31.00,-1002.00
2024-05-17 17:07:55.080686,1,-2,2,0,0,0,75,77,129,140,68,170.52,189,3.00,66.00,-1010.00
2024-05-17 17:07:55.245342,1,-2,2,0,0,0,75,77,128,140,68,170.37,189,74.00,3.00,-1053.00
2024-05-17 17:07:55.284640,1,-2,2,0,0,0,75,77,127,140,68,170.43,189,14.00,50.00,-990.00
2024-05-17 17:07:55.450405,1,-2,2,0,0,0,75,77,126,140,68,170.30,189,78.00,-7.00,-1013.00
2024-05-17 17:07:55.488675,1,-2,2,0,0,0,75,77,125,140,68,170.20,190,44.00,43.00,-1110.00
2024-05-17 17:07:55.590507,2,-2,2,0,0,0,75,77,125,140,68,170.09,190,41.00,25.00,-1045.00
2024-05-17 17:07:55.757156,2,-2,2,0,0,0,75,78,125,140,68,170.30,190,7.00,50.00,-1047.00
2024-05-17 17:07:55.794764,7,-1,2,0,0,0,75,78,127,140,68,170.65,190,-35.00,61.00,-983.00
2024-05-17 17:07:55.962371,8,-1,2,-1,0,0,75,78,127,140,68,170.38,190,13.00,53.00,-1015.00
2024-05-17 17:07:55.999712,8,-1,2,-3,0,0,75,78,128,140,68,170.28,190,37.00,42.00,-998.00
2024-05-17 17:07:56.051163,8,-1,2,-4,0,0,75,78,129,140,68,170.38,190,88.00,11.00,-1026.00
2024-05-17 17:07:56.166921,8,-1,2,-4,0,0,75,78,129,140,68,170.25,190,37.00,30.00,-947.00
2024-05-17 17:07:56.254970,8,-1,2,-5,0,0,75,78,130,140,68,170.55,190,43.00,20.00,-1028.00
2024-05-17 17:07:56.374234,8,-1,2,-6,0,0,75,78,131,140,68,170.55,190,38.00,40.00,-979.00
2024-05-17 17:07:56.458515,8,-1,2,-7,0,0,75,78,132,140,68,170.28,191,41.00,28.00,-949.00
2024-05-17 17:07:56.576397,7,-1,2,-7,0,0,75,78,131,140,68,170.32,191,102.00,4.00,-973.00
2024-05-17 17:07:56.662663,4,-1,2,-8,0,0,74,77,130,140,68,170.37,191,129.00,8.00,-1068.00
2024-05-17 17:07:56.784620,1,-1,2,-7,0,0,74,77,131,140,68,170.38,191,49.00,36.00,-884.00
2024-05-17 17:07:56.867790,0,-1,2,-7,0,0,74,77,131,140,68,170.14,191,104.00,23.00,-988.00
2024-05-17 17:07:56.985786,-2,-2,2,-6,0,0,74,77,132,140,68,170.51,191,82.00,59.00,-927.00
2024-05-17 17:07:57.073572,-2,-2,2,-5,0,0,74,77,132,140,68,170.47,191,66.00,42.00,-1021.00
2024-05-17 17:07:57.172571,-1,-2,2,-4,0,0,74,77,132,140,68,170.38,191,137.00,-9.00,-1007.00
2024-05-17 17:07:57.274566,0,-2,2,-3,0,0,74,77,133,140,68,170.27,191,117.00,-20.00,-1016.00
2024-05-17 17:07:57.395581,0,-3,2,-3,0,0,74,77,133,140,68,170.54,191,140.00,33.00,-1179.00
2024-05-17 17:07:57.479628,1,-4,2,-2,0,0,74,77,133,140,68,170.49,192,73.00,63.00,-1028.00
2024-05-17 17:07:57.583445,1,-3,2,-2,0,0,74,77,133,140,68,170.59,192,40.00,32.00,-1048.00
2024-05-17 17:07:57.682300,1,0,2,-2,0,0,74,77,134,140,68,170.49,192,28.00,71.00,-962.00
2024-05-17 17:07:57.784503,2,0,2,-2,0,0,74,77,134,150,68,170.38,192,50.00,40.00,-973.00
2024-05-17 17:07:57.907950,1,-1,2,-2,0,0,74,77,133,150,68,170.50,192,-25.00,36.00,-878.00
2024-05-17 17:07:57.988420,0,-2,2,-1,0,0,74,77,133,150,68,170.49,192,10.00,68.00,-950.00
2024-05-17 17:07:58.112305,-1,-2,2,-1,0,0,74,77,134,150,68,170.59,192,84.00,0.00,-1041.00
2024-05-17 17:07:58.192598,0,-2,2,0,0,0,74,77,133,150,68,170.54,192,63.00,42.00,-1072.00
2024-05-17 17:07:58.317529,0,-2,2,0,0,0,74,77,134,150,68,170.38,192,-7.00,58.00,-963.00
2024-05-17 17:07:58.396662,1,-2,2,0,0,0,74,77,134,150,68,170.14,192,40.00,26.00,-994.00
2024-05-17 17:07:58.498732,1,-2,2,0,0,0,74,77,134,150,68,170.38,193,7.00,54.00,-982.00
2024-05-17 17:07:58.600963,1,-1,2,0,0,0,74,77,134,150,68,170.38,193,14.00,61.00,-975.00
2024-05-17 17:07:58.727641,1,-1,2,0,0,0,75,78,135,150,68,170.59,193,41.00,19.00,-1027.00
2024-05-17 17:07:58.804633,1,-2,2,0,0,0,75,78,136,150,68,170.27,193,-11.00,90.00,-1037.00
2024-05-17 17:07:58.931698,2,-2,2,0,0,0,75,78,136,150,68,170.43,193,71.00,19.00,-912.00
2024-05-17 17:07:59.008630,3,-2,2,0,0,0,75,78,135,150,68,170.66,193,-47.00,108.00,-920.00
2024-05-17 17:07:59.147213,3,-2,2,0,0,0,75,78,135,150,68,170.67,193,-23.00,44.00,-965.00
2024-05-17 17:07:59.212567,2,-2,2,0,0,0,75,78,135,150,68,170.28,193,-49.00,62.00,-841.00
2024-05-17 17:07:59.341526,2,-2,2,0,0,0,75,78,134,150,68,170.45,193,7.00,49.00,-1028.00
2024-05-17 17:07:59.416589,2,-2,2,0,0,0,75,78,135,150,68,170.50,193,-16.00,74.00,-966.00
2024-05-17 17:07:59.549721,2,-2,2,0,0,0,75,78,134,150,68,170.54,194,30.00,21.00,-942.00
2024-05-17 17:07:59.620453,1,-2,2,0,0,0,75,78,134,150,68,170.85,194,13.00,45.00,-965.00
2024-05-17 17:07:59.722410,1,-2,2,0,0,0,74,77,134,150,68,170.65,194,18.00,26.00,-1081.00
2024-05-17 17:07:59.826088,1,-2,2,0,0,0,74,77,135,150,68,170.66,194,38.00,40.00,-1024.00
2024-05-17 17:07:59.927732,1,-2,2,0,0,0,74,77,135,150,68,170.43,194,118.00,6.00,-973.00
2024-05-17 17:08:00.058024,1,-2,2,0,0,0,74,77,135,150,68,170.53,194,66.00,26.00,-1023.00
2024-05-17 17:08:00.130534,1,-2,2,0,0,0,74,77,134,150,68,170.48,194,21.00,36.00,-928.00
2024-05-17 17:08:00.181093,1,-2,2,0,0,0,74,77,134,150,67,170.31,194,35.00,49.00,-1005.00
2024-05-17 17:08:00.365114,2,-2,2,0,0,0,74,77,133,150,67,170.31,194,-38.00,77.00,-867.00
2024-05-17 17:08:00.385060,1,-7,2,0,0,0,74,77,135,150,67,170.46,194,-15.00,31.00,-1002.00
2024-05-17 17:08:00.570903,1,-8,2,0,-1,0,74,77,135,140,67,170.43,195,23.00,23.00,-1009.00
2024-05-17 17:08:00.589042,1,-8,2,0,-2,0,74,77,136,140,67,170.64,195,19.00,45.00,-1049.00
2024-05-17 17:08:00.783553,1,-7,2,0,-3,0,75,78,136,140,67,170.67,195,1.00,66.00,-991.00
2024-05-17 17:08:00.796928,2,-3,2,0,-3,0,75,78,138,140,67,170.58,195,44.00,76.00,-998.00
2024-05-17 17:08:00.895210,2,-1,2,0,-3,0,75,78,138,150,67,170.69,195,2.00,86.00,-931.00
2024-05-17 17:08:01.082099,2,-1,2,0,-3,0,75,78,140,150,67,170.50,195,24.00,52.00,-1033.00
2024-05-17 17:08:01.099070,2,-1,2,0,-2,0,75,78,143,150,67,170.67,195,80.00,66.00,-1005.00
2024-05-17 17:08:01.287990,2,-2,2,0,-2,0,75,78,144,150,67,170.34,195,83.00,15.00,-994.00
2024-05-17 17:08:01.303087,2,-2,2,0,-2,0,75,78,145,150,67,170.47,195,-32.00,41.00,-843.00
2024-05-17 17:08:01.491515,2,-2,2,0,-2,0,75,78,146,150,67,170.78,195,65.00,53.00,-1095.00
2024-05-17 17:08:01.507072,1,-2,2,0,-2,0,75,78,146,150,67,170.40,196,-42.00,112.00,-972.00
2024-05-17 17:08:01.696257,2,-2,2,0,-2,0,75,78,145,150,67,170.70,196,12.00,42.00,-904.00
2024-05-17 17:08:01.710933,1,-2,2,0,-2,0,74,78,145,150,67,170.69,196,-33.00,45.00,-928.00
2024-05-17 17:08:01.901286,1,-2,2,0,-2,0,74,78,144,150,67,170.49,196,47.00,33.00,-1044.00
2024-05-17 17:08:01.917440,2,-1,2,0,-2,0,74,78,143,150,67,170.88,196,-23.00,91.00,-917.00
2024-05-17 17:08:02.105932,2,0,2,0,-2,0,74,78,143,150,67,170.60,196,34.00,42.00,-982.00
2024-05-17 17:08:02.120145,1,1,2,0,-1,0,74,78,143,150,67,170.70,196,-24.00,74.00,-952.00
2024-05-17 17:08:02.311522,1,1,2,0,-1,0,74,78,140,150,67,170.54,196,-10.00,71.00,-984.00
2024-05-17 17:08:02.325013,1,0,2,0,0,0,74,78,140,150,67,170.49,196,-19.00,46.00,-878.00
2024-05-17 17:08:02.524985,2,0,2,0,0,0,74,78,138,150,67,170.65,196,36.00,32.00,-1007.00
2024-05-17 17:08:02.528490,2,0,2,0,0,0,74,78,136,150,67,170.49,197,59.00,48.00,-1028.00
2024-05-17 17:08:02.722464,2,-1,2,0,0,0,74,78,134,150,67,170.53,197,38.00,28.00,-1003.00
2024-05-17 17:08:02.732440,2,-1,2,0,0,0,74,79,133,150,67,170.48,197,9.00,37.00,-916.00
2024-05-17 17:08:02.925378,2,-1,2,0,0,0,74,79,131,150,67,170.64,197,105.00,2.00,-1083.00
2024-05-17 17:08:02.936461,2,-2,2,0,0,0,74,79,130,140,67,170.37,197,-1.00,61.00,-973.00
2024-05-17 17:08:03.130091,2,-2,2,0,0,0,74,79,129,140,67,170.33,197,56.00,9.00,-1054.00
2024-05-17 17:08:03.140231,1,-2,2,0,0,0,74,79,129,140,67,170.17,197,11.00,88.00,-978.00
2024-05-17 17:08:03.334856,1,-2,2,0,0,0,74,79,129,140,67,170.42,197,57.00,18.00,-1025.00
2024-05-17 17:08:03.347623,1,-2,2,0,0,0,74,79,129,140,67,170.46,197,33.00,70.00,-998.00
2024-05-17 17:08:03.446510,2,-2,2,0,0,0,74,79,129,140,67,170.46,198,22.00,104.00,-1070.00
2024-05-17 17:08:03.549125,2,-3,2,0,0,0,74,79,130,140,67,170.47,198,73.00,32.00,-1057.00
2024-05-17 17:08:03.650958,2,-3,2,0,0,0,74,79,130,140,67,170.70,198,29.00,63.00,-940.00
2024-05-17 17:08:03.847011,2,-2,2,0,0,0,75,79,131,140,67,170.25,198,60.00,30.00,-1005.00
2024-05-17 17:08:03.855411,2,-2,2,0,0,0,75,79,131,140,67,170.34,198,-17.00,54.00,-834.00
2024-05-17 17:08:03.905027,2,-2,2,0,0,0,75,79,131,140,67,170.60,198,130.00,16.00,-1152.00
2024-05-17 17:08:04.051790,2,-2,2,0,0,0,75,79,131,140,67,170.58,198,23.00,57.00,-944.00
2024-05-17 17:08:04.109096,2,-2,2,0,0,0,75,79,131,140,67,170.37,198,-50.00,86.00,-784.00
2024-05-17 17:08:04.257052,2,-2,2,0,0,0,75,79,131,140,66,170.40,198,96.00,14.00,-1066.00
2024-05-17 17:08:04.313579,2,-2,2,0,0,0,75,79,130,140,66,170.47,198,-52.00,108.00,-877.00
2024-05-17 17:08:04.415044,2,-1,2,0,0,0,75,79,129,140,66,170.50,199,22.00,55.00,-1005.00
2024-05-17 17:08:04.563646,1,5,2,0,0,0,75,79,129,140,66,170.27,199,106.00,29.00,-986.00
2024-05-17 17:08:04.620211,1,5,2,0,1,0,75,79,129,140,66,170.56,199,32.00,37.00,-1014.00
2024-05-17 17:08:04.768723,1,3,2,0,3,0,75,77,127,140,66,170.21,199,32.00,16.00,-1008.00
2024-05-17 17:08:04.824039,1,0,2,0,3,0,75,77,127,140,66,170.56,199,35.00,33.00,-975.00
2024-05-17 17:08:04.973111,2,-2,2,0,3,0,75,77,126,140,66,170.43,199,80.00,2.00,-1056.00
2024-05-17 17:08:05.027128,1,-3,2,0,3,0,75,77,126,140,66,170.31,199,27.00,27.00,-1028.00
2024-05-17 17:08:05.177903,1,-3,2,0,3,0,75,77,126,140,66,170.45,199,23.00,30.00,-1071.00
2024-05-17 17:08:05.230997,1,-2,2,0,3,0,75,77,126,140,66,170.27,199,16.00,26.00,-994.00
2024-05-17 17:08:05.382748,1,-2,2,0,3,0,75,77,127,140,66,170.57,199,9.00,26.00,-997.00
2024-05-17 17:08:05.434947,1,-2,2,0,2,0,75,77,128,140,66,170.47,200,47.00,37.00,-978.00
2024-05-17 17:08:05.587922,1,-2,2,0,2,0,75,77,128,140,66,170.67,200,46.00,-11.00,-998.00
2024-05-17 17:08:05.640418,1,-2,2,0,2,0,75,77,128,140,66,170.21,200,22.00,28.00,-1005.00
2024-05-17 17:08:05.741042,1,-2,2,0,2,0,75,77,130,140,66,170.38,200,29.00,37.00,-1054.00
2024-05-17 17:08:05.895331,3,-2,2,0,2,0,75,77,130,140,66,170.66,200,10.00,3.00,-965.00
2024-05-17 17:08:05.944847,3,-2,2,0,2,0,75,77,130,140,66,170.48,200,64.00,0.00,-917.00
2024-05-17 17:08:06.099563,3,-2,2,-1,2,0,75,77,131,140,66,170.67,200,41.00,24.00,-1136.00
2024-05-17 17:08:06.148824,0,-2,2,-1,2,0,75,77,131,140,66,170.66,200,29.00,55.00,-1022.00
2024-05-17 17:08:06.304369,0,-3,2,0,2,0,75,77,131,140,66,170.57,200,109.00,-1.00,-977.00
2024-05-17 17:08:06.356693,0,-7,2,0,1,0,75,77,131,140,66,170.74,200,58.00,15.00,-1120.00
2024-05-17 17:08:06.456483,1,-5,2,0,0,0,75,77,133,140,66,170.53,201,55.00,19.00,-1035.00
2024-05-17 17:08:06.557150,1,-3,2,0,0,0,75,77,134,140,66,170.34,201,55.00,23.00,-1037.00
2024-05-17 17:08:06.714388,2,-2,2,0,0,0,75,77,135,140,66,170.57,201,43.00,38.00,-1011.00
2024-05-17 17:08:06.761387,2,-2,2,0,0,0,74,77,135,150,66,170.60,201,53.00,15.00,-965.00
2024-05-17 17:08:06.863090,2,-1,2,0,0,0,74,77,135,150,66,170.50,201,88.00,20.00,-1127.00
2024-05-17 17:08:07.021488,2,-1,2,0,0,0,74,77,135,150,66,170.55,201,-14.00,64.00,-1037.00
2024-05-17 17:08:07.067483,2,-2,2,0,0,0,74,77,135,150,66,170.84,201,23.00,56.00,-1022.00
2024-05-17 17:08:07.171327,1,-2,2,0,0,0,74,77,135,150,66,170.46,201,64.00,27.00,-989.00
2024-05-17 17:08:07.270789,2,-2,2,0,0,0,74,77,135,150,66,170.57,201,64.00,18.00,-1096.00
2024-05-17 17:08:07.431200,1,-2,2,0,0,0,74,77,135,150,66,170.54,201,114.00,19.00,-1060.00
2024-05-17 17:08:07.431464,2,-2,2,0,0,0,74,77,135,150,66,170.75,202,32.00,61.00,-981.00
2024-05-17 17:08:07.533477,2,-2,2,0,0,0,74,77,135,150,66,170.51,202,-26.00,64.00,-983.00
2024-05-17 17:08:07.628389,2,-2,2,0,0,0,74,77,135,150,66,170.47,202,-39.00,61.00,-860.00
2024-05-17 17:08:07.730571,2,-2,2,0,0,0,74,78,135,150,66,170.55,202,33.00,47.00,-997.00
2024-05-17 17:08:07.842467,1,-2,2,0,0,0,74,78,135,150,66,170.63,202,33.00,48.00,-1056.00
2024-05-17 17:08:07.934134,2,-2,2,0,0,0,74,78,135,150,66,170.61,202,78.00,-5.00,-1028.00
2024-05-17 17:08:08.045680,2,-2,2,0,0,0,74,78,135,150,66,170.48,202,108.00,22.00,-1056.00
2024-05-17 17:08:08.138507,2,-1,2,0,0,0,74,78,135,150,66,170.69,202,74.00,34.00,-1072.00
2024-05-17 17:08:08.250533,2,-2,2,0,0,0,74,78,135,150,66,170.63,202,70.00,4.00,-1052.00
2024-05-17 17:08:08.342145,2,-2,2,0,0,0,74,78,135,150,66,170.37,202,36.00,47.00,-938.00
2024-05-17 17:08:08.454756,2,-2,2,0,0,0,74,78,135,150,66,170.50,203,-43.00,42.00,-918.00
2024-05-17 17:08:08.545953,2,-2,2,0,0,0,74,78,134,150,66,170.44,203,61.00,6.00,-1053.00
2024-05-17 17:08:08.659391,2,-2,6,0,0,0,74,78,134,150,66,170.33,203,-21.00,46.00,-946.00
2024-05-17 17:08:08.752268,2,-2,12,0,0,0,74,77,134,150,66,170.77,203,70.00,32.00,-1043.00
2024-05-17 17:08:08.852218,2,-1,17,0,0,0,74,77,134,150,66,170.55,203,14.00,71.00,-1031.00
2024-05-17 17:08:08.953933,2,-1,23,0,0,0,74,77,134,150,66,170.07,203,15.00,59.00,-937.00
2024-05-17 17:08:09.069331,2,-1,29,0,0,0,74,77,135,150,66,170.38,203,55.00,62.00,-1053.00
2024-05-17 17:08:09.157868,2,-1,35,0,0,0,74,77,135,150,66,170.27,203,25.00,54.00,-960.00
2024-05-17 17:08:09.273849,2,-1,41,0,0,0,74,77,134,150,65,170.46,203,41.00,25.00,-971.00
2024-05-17 17:08:09.361914,2,-1,46,0,0,0,74,77,134,150,65,170.70,203,0.00,20.00,-947.00
2024-05-17 17:08:09.464132,2,-1,52,0,0,0,74,77,134,150,65,170.44,204,67.00,2.00,-999.00
2024-05-17 17:08:09.565922,2,0,58,0,0,0,74,77,133,150,65,170.45,204,92.00,-9.00,-975.00
2024-05-17 17:08:09.670179,2,0,64,0,0,0,74,77,133,150,65,170.47,204,40.00,45.00,-1032.00
2024-05-17 17:08:09.769862,2,0,69,0,0,0,74,78,133,150,65,170.47,204,19.00,24.00,-968.00
2024-05-17 17:08:09.871865,2,0,75,0,0,0,74,78,133,150,65,170.52,204,73.00,-2.00,-964.00
2024-05-17 17:08:09.990639,2,0,81,0,0,0,74,78,131,150,65,170.66,204,-5.00,24.00,-978.00
2024-05-17 17:08:10.076084,2,0,87,0,0,0,74,78,132,140,65,170.36,204,93.00,4.00,-1058.00
2024-05-17 17:08:10.195456,2,0,93,0,0,0,74,78,131,140,65,170.50,204,56.00,-12.00,-985.00
2024-05-17 17:08:10.279966,2,0,99,0,0,0,74,78,131,140,65,170.27,204,59.00,9.00,-979.00
2024-05-17 17:08:10.400296,2,0,105,0,0,0,74,78,131,140,65,170.65,204,-6.00,19.00,-977.00
2024-05-17 17:08:10.483818,2,0,111,0,0,0,74,78,131,140,65,170.32,205,-21.00,25.00,-965.00
2024-05-17 17:08:10.605893,2,0,117,0,0,0,74,78,130,140,65,170.53,205,-30.00,26.00,-1010.00
2024-05-17 17:08:10.689609,2,0,123,0,0,0,74,78,131,140,65,170.45,205,19.00,14.00,-969.00
2024-05-17 17:08:10.789777,2,1,129,0,0,0,75,78,131,140,65,170.53,205,114.00,-25.00,-1057.00
2024-05-17 17:08:10.893117,1,0,135,0,0,0,75,78,133,140,65,170.76,205,-23.00,41.00,-982.00
2024-05-17 17:08:10.994330,1,1,141,0,0,0,75,78,135,140,65,170.52,205,95.00,-46.00,-1106.00
2024-05-17 17:08:11.117029,0,0,147,0,0,0,75,78,136,140,65,170.51,205,72.00,-25.00,-996.00
2024-05-17 17:08:11.197910,1,1,153,0,0,0,75,78,137,150,65,170.56,205,22.00,-3.00,-1061.00
2024-05-17 17:08:11.321836,1,1,159,0,0,0,75,78,137,150,65,170.60,205,58.00,-46.00,-959.00
2024-05-17 17:08:11.350550,1,1,165,0,0,0,75,78,139,150,65,170.38,205,0.00,13.00,-922.00
2024-05-17 17:08:11.526754,0,0,171,0,0,0,75,78,140,150,65,170.64,206,-45.00,16.00,-947.00
2024-05-17 17:08:11.554848,0,0,177,0,0,0,75,78,140,150,65,170.57,206,3.00,40.00,-939.00
2024-05-17 17:08:11.735045,0,0,-176,0,-1,0,75,78,140,150,65,170.64,206,9.00,14.00,-947.00
2024-05-17 17:08:11.758807,0,0,-171,0,0,0,75,78,141,150,65,170.40,206,-15.00,50.00,-970.00
2024-05-17 17:08:11.937744,0,1,-165,0,0,0,75,78,144,150,65,170.51,206,-20.00,82.00,-957.00
2024-05-17 17:08:11.962645,0,1,-159,0,0,0,75,78,144,150,65,170.89,206,-11.00,34.00,-1024.00
2024-05-17 17:08:12.141074,0,1,-153,0,0,0,75,78,144,150,65,170.47,206,76.00,-23.00,-1030.00
2024-05-17 17:08:12.166588,0,0,-147,0,-1,0,75,78,143,150,65,170.84,206,-19.00,13.00,-945.00
2024-05-17 17:08:12.349876,0,0,-141,0,0,0,75,78,144,150,65,170.85,206,42.00,-18.00,-950.00
2024-05-17 17:08:12.370472,0,0,-135,0,0,0,75,78,144,150,65,170.75,206,-39.00,51.00,-969.00
2024-05-17 17:08:12.550633,0,1,-129,0,0,0,75,78,144,150,65,170.74,207,9.00,10.00,-933.00
2024-05-17 17:08:12.574522,0,1,-123,0,0,0,75,78,144,150,65,170.46,207,30.00,13.00,-1022.00
2024-05-17 17:08:12.756637,0,1,-117,0,0,0,75,78,144,150,65,170.45,207,-27.00,74.00,-966.00
2024-05-17 17:08:12.779636,0,0,-110,0,0,0,74,78,143,150,65,170.79,207,92.00,8.00,-1117.00
2024-05-17 17:08:12.880582,0,0,-104,0,0,0,74,78,141,150,65,170.38,207,13.00,27.00,-932.00
2024-05-17 17:08:13.062614,0,0,-98,0,0,0,74,78,141,150,65,170.78,207,-36.00,63.00,-1047.00
2024-05-17 17:08:13.084448,0,0,-92,0,0,0,74,78,140,150,65,170.57,207,35.00,-17.00,-948.00
2024-05-17 17:08:13.267482,0,0,-86,0,0,0,74,78,139,150,65,170.44,207,-25.00,59.00,-1020.00
2024-05-17 17:08:13.288432,0,0,-81,0,0,0,74,78,139,150,65,170.42,207,87.00,9.00,-996.00
2024-05-17 17:08:13.475715,0,0,-75,0,0,0,74,78,138,150,65,170.52,207,-79.00,43.00,-950.00
2024-05-17 17:08:13.492479,0,0,-69,0,0,0,74,78,137,150,65,170.34,208,53.00,36.00,-1080.00
2024-05-17 17:08:13.594461,0,0,-63,0,0,0,74,78,135,150,65,170.78,208,-25.00,30.00,-897.00
2024-05-17 17:08:13.779448,0,0,-57,0,0,0,74,78,134,150,65,170.51,208,10.00,24.00,-1031.00
2024-05-17 17:08:13.798739,0,0,-51,0,0,0,75,78,132,150,65,170.60,208,-13.00,49.00,-985.00
2024-05-17 17:08:13.900771,0,0,-45,0,0,0,75,78,131,150,65,170.46,208,38.00,34.00,-1014.00
2024-05-17 17:08:14.088438,0,0,-39,0,0,0,75,78,130,150,65,170.68,208,71.00,30.00,-1029.00
2024-05-17 17:08:14.104422,0,0,-33,0,0,0,75,78,128,140,65,170.64,208,42.00,1.00,-1022.00
2024-05-17 17:08:14.291392,0,0,-27,0,0,0,75,78,128,140,65,170.44,208,4.00,39.00,-1060.00
2024-05-17 17:08:14.308398,0,0,-21,0,0,0,75,78,127,140,65,170.73,208,24.00,7.00,-1017.00
2024-05-17 17:08:14.497198,0,0,-16,0,0,0,75,78,126,140,65,170.56,208,-63.00,64.00,-944.00
2024-05-17 17:08:14.512307,0,0,-11,0,0,0,75,78,125,140,65,170.53,209,33.00,33.00,-1145.00
2024-05-17 17:08:14.709507,0,0,-8,0,0,0,75,78,125,140,65,170.94,209,-16.00,52.00,-941.00
2024-05-17 17:08:14.716491,0,0,-5,0,0,0,75,78,126,140,65,170.34,209,51.00,27.00,-1051.00
2024-05-17 17:08:14.908544,1,0,-3,1,0,0,75,78,127,140,65,170.46,209,-53.00,47.00,-847.00
2024-05-17 17:08:14.921211,1,0,-2,1,0,0,75,78,127,140,65,170.83,209,20.00,40.00,-1097.00
2024-05-17 17:08:15.110620,1,0,0,0,0,0,75,78,126,140,65,170.40,209,20.00,36.00,-1027.00
2024-05-17 17:08:15.124369,1,0,0,0,0,0,75,78,125,140,65,170.28,209,3.00,36.00,-972.00
2024-05-17 17:08:15.226443,1,0,0,0,0,0,75,78,124,140,64,170.27,209,56.00,-16.00,-1048.00
2024-05-17 17:08:15.277718,1,0,0,0,0,0,75,78,124,140,64,170.46,209,36.00,30.00,-1163.00
2024-05-17 17:08:15.379678,1,0,0,0,0,0,75,78,124,140,64,170.53,209,32.00,16.00,-997.00
2024-05-17 17:08:15.482109,1,0,0,0,0,0,75,78,125,140,64,170.55,210,-26.00,51.00,-1007.00
2024-05-17 17:08:15.583769,1,0,0,0,0,0,75,78,126,140,64,170.66,210,19.00,42.00,-1031.00
2024-05-17 17:08:15.725166,1,0,0,0,0,0,75,78,127,140,64,170.58,210,19.00,-3.00,-906.00
2024-05-17 17:08:15.788516,1,-1,0,0,0,0,75,78,128,140,64,170.33,210,79.00,-31.00,-1068.00
2024-05-17 17:08:15.890343,2,0,0,0,0,0,75,78,128,140,64,170.55,210,-61.00,52.00,-953.00
2024-05-17 17:08:16.041790,2,0,0,0,0,0,75,78,129,140,64,170.83,210,20.00,1.00,-1049.00
2024-05-17 17:08:16.093961,2,0,0,0,0,0,75,78,129,140,64,170.65,210,28.00,21.00,-1038.00
2024-05-17 17:08:16.237141,2,0,0,0,0,0,75,78,130,140,64,170.28,210,-66.00,63.00,-965.00
2024-05-17 17:08:16.297983,2,0,0,0,0,0,75,78,131,140,64,170.42,210,57.00,8.00,-1114.00
2024-05-17 17:08:16.445490,2,0,0,0,0,0,75,78,131,140,64,170.75,210,-41.00,43.00,-947.00
2024-05-17 17:08:16.503275,2,0,0,0,0,0,75,78,131,140,64,170.59,211,23.00,-9.00,-1006.00
2024-05-17 17:08:16.603661,1,0,0,0,0,0,75,78,132,140,64,170.56,211,-64.00,40.00,-981.00
2024-05-17 17:08:16.749109,1,0,0,0,0,0,75,78,133,140,64,170.58,211,-8.00,37.00,-985.00
2024-05-17 17:08:16.807592,1,0,0,0,0,0,74,78,133,140,64,170.65,211,28.00,10.00,-985.00
2024-05-17 17:08:16.909538,1,0,0,0,0,0,74,78,134,140,64,170.42,211,-21.00,87.00,-954.00
2024-05-17 17:08:17.056356,1,0,0,0,0,0,74,78,134,140,64,170.87,211,33.00,13.00,-1144.00
2024-05-17 17:08:17.113654,1,0,0,0,0,0,74,78,135,150,64,170.41,211,-7.00,16.00,-930.00
2024-05-17 17:08:17.215711,1,0,0,0,0,0,74,78,135,150,64,170.55,211,23.00,-1.00,-1068.00
2024-05-17 17:08:17.364315,1,0,0,0,0,0,74,78,136,150,64,170.48,211,-57.00,76.00,-911.00
2024-05-17 17:08:17.419390,1,0,-1,0,0,0,74,78,136,150,64,170.60,211,-23.00,54.00,-927.00
2024-05-17 17:08:17.521931,1,0,-7,0,0,0,74,78,136,150,64,170.74,212,-25.00,43.00,-936.00
2024-05-17 17:08:17.625619,1,-1,-13,0,0,0,74,78,137,150,64,170.51,212,-11.00,46.00,-1027.00
2024-05-17 17:08:17.725451,0,-1,-19,0,0,0,74,78,137,150,64,170.59,212,-14.00,7.00,-890.00
2024-05-17 17:08:17.875444,1,-1,-25,0,0,0,74,79,137,150,64,170.68,212,122.00,2.00,-1152.00
2024-05-17 17:08:17.929462,1,-1,-31,0,0,0,74,79,137,150,64,170.58,212,20.00,30.00,-964.00
2024-05-17 17:08:18.080593,1,-1,-37,0,0,0,74,79,136,150,64,170.52,212,-2.00,46.00,-980.00
2024-05-17 17:08:18.133523,1,-1,-43,0,0,0,74,79,135,150,64,170.45,212,22.00,11.00,-932.00
2024-05-17 17:08:18.284965,1,-1,-49,0,0,0,74,79,134,150,64,170.45,212,-6.00,35.00,-998.00
2024-05-17 17:08:18.337515,1,-1,-55,0,0,0,74,79,134,150,64,170.63,212,69.00,12.00,-1006.00
2024-05-17 17:08:18.491805,0,-1,-61,0,0,0,74,79,132,150,64,170.17,212,106.00,-18.00,-1122.00
2024-05-17 17:08:18.491967,0,-1,-67,0,0,0,74,79,132,150,64,170.65,213,32.00,16.00,-1117.00
2024-05-17 17:08:18.592776,0,-1,-73,0,0,0,74,79,131,140,64,170.65,213,11.00,40.00,-1076.00
2024-05-17 17:08:18.695881,0,-1,-79,0,0,0,74,79,130,140,64,170.29,213,22.00,31.00,-1019.00
2024-05-17 17:08:18.900182,0,0,-91,0,0,0,75,78,129,140,64,170.61,213,4.00,50.00,-941.00
2024-05-17 17:08:18.949419,1,0,-96,0,0,0,75,78,128,140,64,170.55,213,27.00,38.00,-1130.00
2024-05-17 17:08:19.104160,1,0,-102,0,0,0,75,78,127,140,64,170.25,213,-26.00,31.00,-939.00
2024-05-17 17:08:19.104443,1,0,-108,0,0,0,75,78,126,140,64,170.30,213,2.00,53.00,-910.00
2024-05-17 17:08:19.204133,1,0,-114,0,0,0,75,78,125,140,64,170.40,213,-23.00,37.00,-979.00
2024-05-17 17:08:19.308958,0,0,-120,0,0,0,75,78,124,140,64,170.61,213,-51.00,69.00,-990.00
2024-05-17 17:08:19.408102,1,0,-126,0,0,0,75,78,123,140,64,170.60,214,40.00,0.00,-1038.00
2024-05-17 17:08:19.513960,1,0,-132,0,0,0,75,78,123,140,64,170.63,214,15.00,17.00,-979.00
2024-05-17 17:08:19.612154,1,0,-138,0,0,0,75,78,123,140,64,170.37,214,-19.00,41.00,-1046.00
2024-05-17 17:08:19.718551,1,0,-144,0,0,0,75,78,123,140,64,170.31,214,0.00,-7.00,-981.00
2024-05-17 17:08:19.816173,1,0,-150,0,0,0,76,78,123,140,64,170.13,214,0.00,7.00,-892.00
2024-05-17 17:08:19.918109,1,0,-155,0,0,0,76,78,123,140,64,170.22,214,-71.00,61.00,-983.00
2024-05-17 17:08:20.026687,1,0,-161,0,0,0,76,78,122,140,64,170.27,214,6.00,17.00,-1061.00
2024-05-17 17:08:20.122799,1,0,-167,0,0,0,76,78,122,140,64,170.27,214,4.00,-9.00,-994.00
2024-05-17 17:08:20.230551,1,1,-173,0,0,0,76,78,123,140,63,170.20,214,16.00,8.00,-975.00
2024-05-17 17:08:20.326095,1,1,-179,0,0,0,76,78,123,140,63,170.40,214,68.00,-8.00,-1031.00
2024-05-17 17:08:20.435336,1,1,174,0,0,0,76,78,123,140,63,170.46,215,51.00,0.00,-1013.00
2024-05-17 17:08:20.530139,2,1,168,0,0,0,76,78,123,140,63,170.38,215,18.00,-25.00,-931.00
2024-05-17 17:08:20.640152,2,0,162,0,0,0,76,78,124,140,63,170.39,215,69.00,6.00,-1081.00
2024-05-17 17:08:20.734210,2,0,156,0,0,0,76,78,124,140,63,170.66,215,62.00,-10.00,-1024.00
2024-05-17 17:08:20.845667,2,0,150,0,0,0,75,78,124,140,63,170.38,215,-45.00,36.00,-946.00
2024-05-17 17:08:20.937996,2,0,144,0,0,0,75,78,125,140,63,170.39,215,63.00,34.00,-961.00
2024-05-17 17:08:21.040921,2,0,138,0,0,0,75,78,126,140,63,170.72,215,46.00,6.00,-1092.00
2024-05-17 17:08:21.142062,2,0,132,0,0,0,75,78,125,140,63,170.70,215,6.00,22.00,-886.00
2024-05-17 17:08:21.254602,3,0,126,0,0,0,75,78,126,140,63,170.66,215,6.00,34.00,-963.00
2024-05-17 17:08:21.346025,2,0,120,0,0,0,75,78,127,140,63,170.27,215,47.00,5.00,-1109.00
2024-05-17 17:08:21.450505,2,0,114,0,0,0,75,78,129,140,63,170.42,216,19.00,30.00,-1012.00
2024-05-17 17:08:21.550177,1,0,109,0,0,0,75,78,132,140,63,170.59,216,13.00,17.00,-964.00
2024-05-17 17:08:21.651977,1,0,103,0,0,0,75,78,134,140,63,170.42,216,10.00,23.00,-980.00
2024-05-17 17:08:21.753992,2,0,96,0,0,-1,75,78,135,140,63,170.77,216,22.00,18.00,-968.00
2024-05-17 17:08:21.869070,3,0,90,0,0,0,75,78,136,140,63,170.50,216,3.00,29.00,-1075.00
2024-05-17 17:08:21.958000,2,0,84,0,0,0,75,78,139,150,63,170.81,216,20.00,37.00,-887.00
2024-05-17 17:08:22.073722,3,0,78,0,0,0,75,78,141,150,63,170.59,216,25.00,6.00,-885.00
2024-05-17 17:08:22.161987,2,0,72,0,0,0,75,78,143,150,63,170.59,216,71.00,26.00,-1139.00
2024-05-17 17:08:22.279023,2,0,66,0,0,0,75,78,145,150,63,170.66,216,73.00,36.00,-1028.00
2024-05-17 17:08:22.366973,2,0,60,0,0,0,75,78,147,150,63,170.33,216,-55.00,64.00,-848.00
2024-05-17 17:08:22.483322,2,0,54,0,0,0,75,78,148,150,63,170.52,217,-26.00,59.00,-832.00
2024-05-17 17:08:22.524541,2,-1,48,0,0,0,75,78,150,150,63,170.52,217,-41.00,103.00,-972.00
2024-05-17 17:08:22.621165,2,-1,42,0,0,0,75,78,150,160,63,170.49,217,45.00,37.00,-951.00
2024-05-17 17:08:22.790454,3,0,36,0,0,0,75,78,151,160,63,170.86,217,27.00,59.00,-1060.00
2024-05-17 17:08:22.825771,3,-1,31,0,0,0,74,78,151,160,63,170.82,217,28.00,57.00,-868.00
2024-05-17 17:08:22.927283,3,-1,26,0,0,0,74,78,152,160,63,170.82,217,-26.00,82.00,-812.00
2024-05-17 17:08:23.097726,2,-1,21,0,0,0,74,78,150,160,63,170.58,217,99.00,8.00,-964.00
2024-05-17 17:08:23.131240,2,-2,16,0,0,0,74,78,149,160,63,170.53,217,-29.00,74.00,-917.00
2024-05-17 17:08:23.304688,1,-2,13,0,0,1,74,78,148,160,63,170.57,217,73.00,22.00,-1026.00
2024-05-17 17:08:23.335555,1,-2,11,0,0,1,74,78,147,160,63,170.69,217,28.00,51.00,-1000.00
2024-05-17 17:08:23.610595,1,-1,8,0,0,1,74,78,146,160,63,170.68,218,-11.00,86.00,-1002.00
2024-05-17 17:08:23.610924,1,-1,7,0,0,0,74,78,144,160,63,170.68,218,11.00,49.00,-954.00
2024-05-17 17:08:23.649922,1,-1,5,0,0,1,74,78,143,150,63,170.37,218,20.00,34.00,-1031.00
2024-05-17 17:08:23.743157,1,-1,4,0,0,0,74,78,141,150,63,170.61,218,15.00,52.00,-929.00
2024-05-17 17:08:23.917293,1,-1,4,0,0,1,74,78,139,150,63,170.53,218,20.00,44.00,-1012.00
2024-05-17 17:08:23.949715,0,-1,3,0,0,0,74,78,137,150,63,170.42,218,13.00,52.00,-906.00
2024-05-17 17:08:24.050178,0,-1,3,0,0,1,74,78,137,150,63,170.54,218,11.00,76.00,-974.00
2024-05-17 17:08:24.151162,0,-1,2,0,0,1,74,78,135,150,63,170.60,218,-62.00,81.00,-937.00
2024-05-17 17:08:24.327513,0,-1,2,0,0,1,74,78,135,150,62,170.57,218,-4.00,55.00,-979.00
2024-05-17 17:08:24.355257,0,-1,2,0,0,0,74,78,134,150,62,170.40,218,-50.00,91.00,-926.00
2024-05-17 17:08:24.531505,1,-1,2,0,0,0,74,78,134,150,62,170.41,219,-32.00,89.00,-996.00
2024-05-17 17:08:24.559162,1,-1,2,0,0,0,74,78,134,150,62,170.41,219,71.00,23.00,-1060.00
2024-05-17 17:08:24.736361,1,-1,2,0,0,0,74,78,134,150,62,170.50,219,7.00,51.00,-1052.00
2024-05-17 17:08:24.763515,1,-1,2,0,0,0,74,78,135,150,62,170.50,219,-13.00,60.00,-939.00
2024-05-17 17:08:24.866685,1,-1,2,0,0,0,75,79,135,150,62,170.57,219,57.00,43.00,-1034.00
2024-05-17 17:08:24.967573,1,0,2,0,0,0,75,79,136,150,62,170.64,219,48.00,27.00,-1089.00
2024-05-17 17:08:25.146250,1,0,2,0,0,0,75,79,136,150,62,170.64,219,32.00,54.00,-1105.00
2024-05-17 17:08:25.171219,1,0,2,0,0,0,75,79,137,150,62,170.39,219,32.00,26.00,-1030.00
2024-05-17 17:08:25.350749,1,0,2,0,0,0,75,79,137,150,62,170.60,219,30.00,12.00,-922.00
2024-05-17 17:08:25.375602,2,0,2,0,0,0,75,79,137,150,62,170.63,219,32.00,37.00,-943.00
2024-05-17 17:08:25.555544,1,0,2,0,0,0,75,79,137,150,62,170.54,220,-12.00,53.00,-987.00
2024-05-17 17:08:25.579088,1,0,2,0,0,0,75,79,137,150,62,170.50,220,-12.00,56.00,-973.00
2024-05-17 17:08:25.681505,1,0,2,0,0,0,75,79,138,150,62,170.76,220,25.00,47.00,-1006.00
2024-05-17 17:08:25.783712,1,-1,2,0,0,0,75,79,137,150,62,170.31,220,35.00,17.00,-1094.00
2024-05-17 17:08:25.965554,1,0,2,0,0,0,75,78,137,150,62,170.28,220,3.00,17.00,-927.00
2024-05-17 17:08:25.987826,1,0,2,0,0,0,75,78,136,150,62,170.56,220,15.00,37.00,-997.00
2024-05-17 17:08:26.104294,1,0,2,0,0,0,75,78,135,150,62,170.49,220,138.00,-45.00,-1035.00
2024-05-17 17:08:26.191702,1,0,2,0,0,0,75,78,134,150,62,170.49,220,13.00,22.00,-1013.00
2024-05-17 17:08:26.374448,0,0,3,0,0,0,75,78,133,150,62,170.69,220,13.00,107.00,-1507.00
2024-05-17 17:08:26.374515,0,-1,5,0,0,-4,75,78,136,150,62,170.79,220,-9.00,62.00,-1587.00
2024-05-17 17:08:26.446893,0,-8,8,0,0,-10,75,78,149,160,62,170.69,221,22.00,393.00,-1013.00
2024-05-17 17:08:26.579257,8,-88,3,0,-3,-10,75,78,298,170,62,170.70,221,177.00,771.00,-952.00
2024-05-17 17:08:26.650842,-7,144,-5,0,-9,2,75,78,255,170,62,170.61,221,134.00,642.00,-1042.00
2024-05-17 17:08:26.784055,-4,26,14,0,-2,12,75,78,159,160,62,170.81,221,56.00,-38.00,-1680.00
2024-05-17 17:08:26.854967,0,-5,16,0,-2,11,75,78,132,150,62,170.53,221,71.00,20.00,-1356.00
2024-05-17 17:08:26.956889,0,2,19,0,-2,8,75,78,124,140,62,170.49,221,25.00,58.00,-1364.00
2024-05-17 17:08:27.091246,0,2,22,0,-1,4,75,78,118,140,62,170.48,221,-27.00,73.00,-1265.00
2024-05-17 17:08:27.160933,0,0,20,0,0,0,75,78,115,130,62,170.30,221,0.00,33.00,-1149.00
2024-05-17 17:08:27.296047,0,-1,12,0,0,0,75,78,116,130,62,170.20,221,31.00,45.00,-1092.00
2024-05-17 17:08:27.364928,0,0,3,0,0,-1,75,78,117,130,62,170.07,221,60.00,-28.00,-1114.00
2024-05-17 17:08:27.500939,0,0,2,0,0,-2,75,78,118,130,62,170.22,222,9.00,53.00,-1000.00
2024-05-17 17:08:27.568960,1,0,2,0,0,-2,75,78,120,140,62,170.25,222,-6.00,53.00,-923.00
2024-05-17 17:08:27.705650,1,0,2,0,0,-2,75,78,123,140,62,170.44,222,61.00,-7.00,-1018.00
2024-05-17 17:08:27.773610,1,0,2,0,0,-2,75,78,126,140,62,170.28,222,23.00,25.00,-976.00
2024-05-17 17:08:27.912369,1,0,2,0,0,-1,75,77,127,140,62,170.39,222,3.00,52.00,-930.00
2024-05-17 17:08:27.977008,1,0,2,0,0,-1,75,77,128,140,62,170.49,222,20.00,12.00,-956.00
2024-05-17 17:08:28.080313,1,0,2,0,0,-1,75,77,129,140,62,170.75,222,-17.00,31.00,-930.00
2024-05-17 17:08:28.182465,1,0,2,0,0,0,75,77,129,140,62,170.42,222,36.00,17.00,-1027.00
2024-05-17 17:08:28.282816,0,0,2,0,0,0,75,77,130,150,62,170.45,222,60.00,-34.00,-1013.00
2024-05-17 17:08:28.425041,1,0,2,0,0,0,75,77,130,150,62,170.25,222,51.00,33.00,-1128.00
2024-05-17 17:08:28.486901,0,0,2,0,0,0,75,77,130,150,62,170.57,223,6.00,57.00,-1032.00
2024-05-17 17:08:28.627629,1,0,2,0,0,0,75,77,131,150,62,170.35,223,-6.00,51.00,-925.00
2024-05-17 17:08:28.690916,0,0,2,0,0,0,75,77,132,150,62,170.32,223,15.00,5.00,-1007.00
2024-05-17 17:08:28.832061,0,0,2,0,0,0,75,77,134,150,62,170.52,223,69.00,-35.00,-1056.00
2024-05-17 17:08:28.894866,0,0,2,0,0,0,74,78,135,150,62,170.65,223,-25.00,59.00,-951.00
2024-05-17 17:08:29.037080,1,0,2,0,0,0,74,78,137,150,62,170.41,223,-22.00,66.00,-850.00
2024-05-17 17:08:29.099900,1,0,2,0,0,0,74,78,138,150,62,170.73,223,22.00,43.00,-970.00
2024-05-17 17:08:29.201098,1,0,2,0,0,0,74,78,139,150,61,170.51,223,-9.00,37.00,-897.00
2024-05-17 17:08:29.302901,1,0,2,0,0,0,74,78,140,150,61,170.74,223,52.00,2.00,-1043.00
2024-05-17 17:08:29.446414,1,0,2,0,0,0,74,78,140,150,61,170.71,223,85.00,23.00,-1042.00
2024-05-17 17:08:29.506788,1,0,2,0,0,0,74,78,141,150,61,170.64,224,3.00,41.00,-975.00
2024-05-17 17:08:29.651254,1,0,2,0,0,0,74,78,142,150,61,170.56,224,2.00,33.00,-885.00
2024-05-17 17:08:29.659578,1,0,2,0,0,0,74,78,142,150,61,170.74,224,-32.00,83.00,-953.00
2024-05-17 17:08:29.761754,1,0,2,0,0,0,74,78,141,150,61,170.80,224,0.00,34.00,-992.00
2024-05-17 17:08:29.958577,1,0,2,0,0,0,74,77,140,150,61,170.64,224,92.00,-15.00,-1082.00
2024-05-17 17:08:30.016878,1,0,2,0,0,0,74,77,139,150,61,170.50,224,65.00,-7.00,-980.00
2024-05-17 17:08:30.167503,1,0,2,0,0,0,74,77,139,150,61,170.38,224,34.00,35.00,-1064.00
2024-05-17 17:08:30.169690,1,0,2,0,0,0,74,77,138,150,61,170.49,224,35.00,-8.00,-953.00
2024-05-17 17:08:30.368150,1,0,2,0,1,0,74,77,137,150,61,170.41,224,28.00,15.00,-973.00
2024-05-17 17:08:30.373809,1,0,2,0,1,0,74,77,136,150,61,170.54,224,14.00,42.00,-1058.00
2024-05-17 17:08:30.573169,1,0,2,0,0,0,74,77,136,150,61,170.76,225,56.00,-4.00,-944.00
2024-05-17 17:08:30.577764,2,0,2,0,0,0,74,77,134,150,61,170.46,225,17.00,3.00,-959.00
2024-05-17 17:08:30.680400,2,0,2,0,0,0,74,77,133,150,61,170.26,225,32.00,20.00,-1064.00
2024-05-17 17:08:30.781814,1,0,2,0,0,0,74,77,132,150,61,170.57,225,29.00,22.00,-1039.00
2024-05-17 17:08:30.983233,1,0,2,0,0,0,75,78,131,150,61,170.56,225,96.00,37.00,-1075.00
2024-05-17 17:08:30.985690,1,0,2,0,0,0,75,78,131,150,61,170.61,225,101.00,-19.00,-989.00
2024-05-17 17:08:31.087797,1,0,2,0,0,0,75,78,130,150,61,170.43,225,46.00,-10.00,-927.00
2024-05-17 17:08:31.190562,2,0,2,0,0,0,75,78,130,150,60,170.62,225,49.00,16.00,-1001.00
2024-05-17 17:08:31.292406,1,0,2,0,0,0,75,78,129,150,60,170.32,225,5.00,19.00,-952.00
2024-05-17 17:08:31.394915,1,0,2,0,0,0,75,78,129,140,60,170.66,225,11.00,35.00,-918.00
2024-05-17 17:08:31.497447,1,-1,2,0,0,0,75,78,129,140,60,170.64,226,57.00,18.00,-1135.00
2024-05-17 17:08:31.600709,1,-1,2,0,0,0,75,78,129,140,60,170.65,226,62.00,31.00,-1143.00
2024-05-17 17:08:31.703673,1,0,2,0,0,0,75,78,130,140,60,170.46,226,25.00,47.00,-1033.00
2024-05-17 17:08:31.801751,2,0,2,0,0,0,75,78,130,140,60,170.58,226,11.00,29.00,-940.00
2024-05-17 17:08:31.907372,2,0,2,0,0,0,75,77,131,140,60,170.62,226,24.00,8.00,-988.00
2024-05-17 17:08:32.006608,1,0,2,0,0,0,75,77,131,140,60,170.35,226,-33.00,52.00,-908.00
2024-05-17 17:08:32.111495,1,0,2,0,0,0,75,77,131,150,60,170.21,226,44.00,28.00,-1046.00
2024-05-17 17:08:32.211049,1,0,2,0,0,0,75,77,132,150,60,170.45,226,119.00,15.00,-1080.00
2024-05-17 17:08:32.317295,1,0,2,0,0,0,75,77,134,150,60,170.50,226,20.00,37.00,-996.00
2024-05-17 17:08:32.415731,2,0,2,0,0,0,75,77,135,150,60,170.61,226,39.00,-5.00,-961.00
2024-05-17 17:08:32.522375,2,0,2,0,0,0,75,77,135,150,60,170.46,227,60.00,24.00,-1054.00
2024-05-17 17:08:32.618988,3,-1,2,0,0,0,75,77,135,150,60,170.41,227,105.00,-11.00,-1024.00
2024-05-17 17:08:32.725149,2,-1,2,0,0,0,75,77,135,150,60,170.61,227,62.00,35.00,-1035.00
2024-05-17 17:08:32.822638,2,-1,2,0,0,0,75,77,135,150,60,170.66,227,50.00,-3.00,-950.00
2024-05-17 17:08:32.929497,1,0,3,0,0,0,75,78,135,150,60,170.61,227,129.00,-11.00,-1503.00
2024-05-17 17:08:33.026661,0,2,5,0,1,-3,75,78,142,150,60,170.61,227,39.00,71.00,-1628.00
2024-05-17 17:08:33.135705,0,6,10,0,2,-9,75,78,171,160,60,170.62,227,4.00,146.00,-1644.00
2024-05-17 17:08:33.230600,-12,71,8,0,7,-12,75,78,218,170,60,170.83,227,233.00,882.00,-1288.00
2024-05-17 17:08:33.281304,4,-161,-14,0,13,0,75,78,307,170,60,170.93,227,378.00,940.00,-869.00
2024-05-17 17:08:33.441812,15,-39,21,0,7,12,75,78,145,170,60,170.86,227,252.00,556.00,-920.00
2024-05-17 17:08:33.487777,-8,16,31,0,7,12,75,78,131,160,60,170.35,228,57.00,92.00,-1072.00
2024-05-17 17:08:33.587900,0,0,37,0,10,9,75,78,120,150,60,170.49,228,54.00,-102.00,-1390.00
2024-05-17 17:08:33.750085,5,-5,42,0,9,4,75,78,116,140,60,170.67,228,-98.00,96.00,-1244.00
2024-05-17 17:08:33.791276,6,-6,46,0,8,1,75,78,114,130,60,170.01,228,58.00,4.00,-1210.00
2024-05-17 17:08:33.953817,5,-6,46,0,6,0,75,78,112,130,60,170.15,228,-21.00,4.00,-1256.00
2024-05-17 17:08:33.995292,3,-5,40,0,5,-1,75,78,114,130,60,170.10,228,-25.00,29.00,-1119.00
2024-05-17 17:08:34.158422,1,-4,27,0,3,-2,75,78,117,130,60,170.41,228,71.00,0.00,-1031.00
2024-05-17 17:08:34.199296,1,-3,14,0,3,-2,75,78,119,130,60,170.46,228,81.00,23.00,-1012.00
2024-05-17 17:08:34.301471,1,-3,2,1,2,-3,75,78,122,140,60,170.01,228,24.00,22.00,-1104.00
2024-05-17 17:08:34.404302,1,-2,1,1,2,-2,75,78,125,140,60,170.26,228,57.00,-35.00,-1042.00
2024-05-17 17:08:34.570236,2,-1,1,1,1,-2,75,78,126,140,60,170.50,229,-38.00,18.00,-959.00
2024-05-17 17:08:34.607274,1,-1,1,0,1,-1,75,78,128,140,60,170.55,229,-38.00,41.00,-981.00
2024-05-17 17:08:34.775733,1,-1,1,0,1,-1,75,78,129,150,60,170.49,229,18.00,-7.00,-956.00
2024-05-17 17:08:34.812729,1,-1,1,0,1,-1,75,78,131,150,60,170.75,229,10.00,-10.00,-936.00
2024-05-17 17:08:34.978240,0,-3,1,0,0,0,75,79,132,150,60,170.54,229,-35.00,21.00,-847.00
2024-05-17 17:08:35.016282,0,-3,1,0,0,0,75,79,132,150,60,170.45,229,-8.00,66.00,-972.00
2024-05-17 17:08:35.183568,0,-3,1,0,0,0,75,79,133,150,60,170.63,229,-10.00,85.00,-1007.00
2024-05-17 17:08:35.219222,0,-3,1,0,0,0,75,79,132,150,59,170.33,229,31.00,25.00,-997.00
2024-05-17 17:08:35.389246,0,-4,2,0,0,0,75,79,132,150,59,170.58,229,57.00,22.00,-1107.00
2024-05-17 17:08:35.423856,0,-3,2,0,0,0,75,79,131,150,59,170.39,230,10.00,26.00,-970.00
2024-05-17 17:08:35.592752,0,-3,2,0,0,0,75,79,131,150,59,170.22,230,24.00,34.00,-990.00
