TS,pitch,roll,yaw,vgx,vgy,vgz,templ,temph,tof,h,bat,baro,time,agx,agy,agz
2024-05-17 17:09:24.434879,0,0,3,0,0,0,77,80,10,0,55,168.77,250,-6.00,13.00,-999.00
2024-05-17 17:09:24.483765,0,0,3,0,0,0,77,80,10,0,55,168.83,250,-7.00,14.00,-999.00
2024-05-17 17:09:24.639758,0,0,3,0,0,0,77,80,10,0,55,169.05,250,-6.00,13.00,-999.00
2024-05-17 17:09:24.687832,0,0,3,0,0,0,77,80,10,0,55,169.05,250,-6.00,14.00,-998.00
2024-05-17 17:09:24.844581,0,0,3,0,0,0,77,80,10,0,55,169.03,250,-5.00,13.00,-998.00
2024-05-17 17:09:24.891561,0,0,3,0,0,0,77,80,10,0,55,168.75,250,-6.00,13.00,-999.00
2024-05-17 17:09:25.049362,0,0,3,0,0,0,77,80,10,0,55,169.04,250,-6.00,14.00,-999.00
2024-05-17 17:09:25.095631,0,0,3,0,0,0,77,80,10,0,55,168.86,250,-6.00,13.00,-1000.00
2024-05-17 17:09:25.253988,0,0,3,0,0,0,77,80,10,0,55,168.82,250,-6.00,13.00,-998.00
2024-05-17 17:09:25.299626,0,0,3,0,0,0,77,80,10,0,55,168.97,250,-6.00,12.00,-996.00
2024-05-17 17:09:25.458910,0,0,3,0,0,0,77,80,10,0,55,168.84,250,-6.00,14.00,-998.00
2024-05-17 17:09:25.503717,0,0,3,0,0,0,77,80,10,0,55,169.13,250,-7.00,13.00,-1002.00
2024-05-17 17:09:25.663900,0,0,3,0,0,0,77,80,10,0,55,168.93,250,-6.00,13.00,-998.00
2024-05-17 17:09:25.707554,0,0,3,0,0,0,77,80,10,0,55,168.77,250,-6.00,12.00,-1001.00
2024-05-17 17:09:25.868430,0,0,3,0,0,0,77,80,10,0,55,168.80,250,-7.00,13.00,-1001.00
2024-05-17 17:09:25.911703,0,0,3,0,0,0,77,80,10,0,55,168.80,250,-7.00,14.00,-999.00
2024-05-17 17:09:26.073249,0,0,3,0,0,0,77,80,10,0,55,168.81,250,-5.00,13.00,-1000.00
2024-05-17 17:09:26.115435,0,0,3,0,0,0,77,80,10,0,55,168.94,250,-8.00,13.00,-1000.00
2024-05-17 17:09:26.278532,0,0,3,0,0,0,77,80,10,0,55,168.80,250,-7.00,12.00,-998.00
2024-05-17 17:09:26.319502,0,0,3,0,0,0,77,80,10,0,55,168.83,250,-7.00,13.00,-1000.00
2024-05-17 17:09:26.482877,0,0,3,0,0,0,77,80,10,0,55,168.97,250,-7.00,12.00,-1001.00
2024-05-17 17:09:26.483090,0,0,3,0,0,0,77,80,10,0,55,168.69,250,-7.00,14.00,-1000.00
2024-05-17 17:09:26.574636,0,0,3,0,0,0,77,80,10,0,55,168.61,250,-8.00,13.00,-1000.00
2024-05-17 17:09:26.676658,0,0,3,0,0,0,77,80,10,0,55,168.86,250,-4.00,13.00,-1001.00
2024-05-17 17:09:26.779608,0,0,3,0,0,0,77,80,10,0,55,169.27,250,-7.00,13.00,-998.00
2024-05-17 17:09:26.882025,0,0,3,0,0,0,77,80,10,0,55,168.83,250,-6.00,14.00,-1000.00
2024-05-17 17:09:26.982435,0,0,3,0,0,0,77,80,10,0,55,169.01,250,-6.00,13.00,-1000.00
2024-05-17 17:09:27.097322,0,0,3,0,0,0,77,80,10,0,55,168.80,250,-4.00,20.00,-1000.00
2024-05-17 17:09:27.186367,0,0,3,0,0,0,77,80,10,0,55,168.80,250,-11.00,26.00,-998.00
2024-05-17 17:09:27.301987,0,0,3,0,0,0,77,80,10,0,55,168.80,250,11.00,15.00,-992.00
2024-05-17 17:09:27.390837,0,0,4,0,0,0,77,80,10,0,55,168.80,250,11.00,12.00,-896.00
2024-05-17 17:09:27.507185,0,0,5,0,0,0,77,80,10,0,55,168.80,251,42.00,-1.00,-1220.00
2024-05-17 17:09:27.594421,0,0,6,0,0,0,77,80,10,0,55,168.80,251,19.00,39.00,-1133.00
2024-05-17 17:09:27.711523,0,0,7,0,0,0,77,80,10,0,55,168.80,251,67.00,-37.00,-1201.00
2024-05-17 17:09:27.798489,1,1,8,0,0,-2,77,80,10,0,55,168.80,251,29.00,19.00,-1290.00
2024-05-17 17:09:27.917303,1,-1,8,0,0,-5,77,80,15,0,55,168.93,251,4.00,20.00,-1219.00
2024-05-17 17:09:28.003561,0,-1,8,0,0,-7,77,80,24,10,55,169.11,251,15.00,34.00,-1155.00
2024-05-17 17:09:28.104416,0,-1,8,0,0,-8,77,80,31,10,55,169.28,251,84.00,-48.00,-1046.00
2024-05-17 17:09:28.207295,0,-1,7,0,0,-8,78,81,38,20,55,169.46,251,-74.00,54.00,-835.00
2024-05-17 17:09:28.308310,0,-1,7,0,0,-7,78,81,46,30,55,169.31,251,-20.00,11.00,-909.00
2024-05-17 17:09:28.428486,0,-1,7,0,0,-7,78,81,52,40,55,169.49,251,18.00,30.00,-951.00
2024-05-17 17:09:28.512331,0,-1,7,0,0,-6,78,81,58,50,55,169.73,252,40.00,-35.00,-907.00
2024-05-17 17:09:28.614634,0,-1,7,0,0,-5,78,81,61,50,55,169.45,252,71.00,-30.00,-871.00
2024-05-17 17:09:28.716518,0,0,7,0,0,-3,78,81,59,50,55,169.47,252,39.00,-32.00,-829.00
2024-05-17 17:09:28.842191,0,0,7,0,0,-2,78,81,61,60,55,169.71,252,-61.00,60.00,-924.00
2024-05-17 17:09:28.920252,0,0,7,0,0,-1,78,81,62,60,55,169.78,252,130.00,-62.00,-996.00
2024-05-17 17:09:29.042704,0,0,7,0,0,0,78,81,62,60,55,169.90,252,7.00,22.00,-980.00
2024-05-17 17:09:29.124300,0,0,7,0,0,0,78,81,63,60,55,169.85,252,58.00,0.00,-1023.00
2024-05-17 17:09:29.247442,0,0,7,0,0,0,77,80,63,60,55,169.51,252,-8.00,7.00,-884.00
2024-05-17 17:09:29.328278,0,0,7,0,0,0,77,80,64,60,55,169.75,252,-53.00,23.00,-979.00
2024-05-17 17:09:29.452437,0,0,7,0,0,0,77,80,66,60,55,169.90,252,16.00,6.00,-1007.00
2024-05-17 17:09:29.533892,1,0,7,0,0,-1,77,80,67,60,55,169.61,253,-6.00,29.00,-987.00
2024-05-17 17:09:29.634474,1,0,7,0,0,-1,77,80,68,60,55,169.84,253,7.00,30.00,-1050.00
2024-05-17 17:09:29.685256,1,0,7,0,0,-1,77,80,69,60,55,169.84,253,-25.00,35.00,-947.00
2024-05-17 17:09:29.787452,0,0,7,0,0,-1,77,80,71,60,55,169.73,253,23.00,13.00,-1070.00
2024-05-17 17:09:29.967948,0,0,7,0,0,-1,77,80,72,60,55,169.74,253,11.00,22.00,-1022.00
2024-05-17 17:09:29.994527,0,0,7,0,0,-1,77,80,74,60,55,169.81,253,21.00,-26.00,-981.00
2024-05-17 17:09:30.093295,0,0,7,0,0,-1,77,80,74,60,55,169.65,253,-32.00,55.00,-1011.00
2024-05-17 17:09:30.290263,0,0,7,0,0,-1,77,81,76,70,55,170.01,253,-78.00,47.00,-898.00
2024-05-17 17:09:30.297349,0,0,7,0,0,-1,77,81,77,70,55,169.98,253,-22.00,28.00,-890.00
2024-05-17 17:09:30.484278,0,0,7,0,0,0,77,81,78,70,55,169.70,254,1.00,8.00,-917.00
2024-05-17 17:09:30.501256,0,0,7,0,0,0,77,81,77,70,55,169.81,254,25.00,27.00,-1078.00
2024-05-17 17:09:30.603308,0,0,7,0,0,0,77,81,77,70,55,169.86,254,-38.00,13.00,-854.00
2024-05-17 17:09:30.705253,0,0,7,0,0,0,77,81,78,70,55,169.82,254,-11.00,24.00,-959.00
2024-05-17 17:09:30.807185,0,0,7,0,0,0,77,81,80,70,55,169.87,254,-2.00,51.00,-913.00
2024-05-17 17:09:30.989054,0,0,7,0,0,0,77,81,80,70,55,169.65,254,21.00,-6.00,-886.00
2024-05-17 17:09:31.011286,0,0,7,0,0,0,77,81,80,70,55,169.80,254,17.00,24.00,-938.00
2024-05-17 17:09:31.113144,0,0,7,0,0,0,77,81,79,70,55,169.91,254,30.00,10.00,-962.00
2024-05-17 17:09:31.295487,0,-1,7,0,0,0,78,80,78,70,55,169.95,254,54.00,-26.00,-992.00
2024-05-17 17:09:31.317466,0,0,7,0,0,0,78,80,77,70,55,169.64,254,-38.00,62.00,-970.00
2024-05-17 17:09:31.505230,0,0,7,0,0,0,78,80,78,70,55,169.65,255,-74.00,80.00,-885.00
2024-05-17 17:09:31.521623,1,-1,7,0,0,0,78,80,76,70,55,169.92,255,-20.00,75.00,-970.00
2024-05-17 17:09:31.705744,1,-1,7,0,0,0,78,80,76,70,55,169.78,255,94.00,-12.00,-1112.00
2024-05-17 17:09:31.726707,1,-1,7,0,0,0,78,80,76,70,55,169.55,255,-36.00,52.00,-956.00
2024-05-17 17:09:31.910447,0,-2,7,0,0,0,78,80,76,70,55,169.90,255,-11.00,49.00,-907.00
2024-05-17 17:09:31.930248,0,-2,7,0,0,0,78,80,76,70,55,169.79,255,-9.00,26.00,-1006.00
2024-05-17 17:09:32.115158,0,-1,7,0,0,0,78,80,76,70,55,169.95,255,73.00,13.00,-996.00
2024-05-17 17:09:32.134652,0,-1,7,0,0,0,78,80,75,70,55,170.02,255,13.00,28.00,-960.00
2024-05-17 17:09:32.319924,0,-1,7,0,0,0,77,80,74,70,55,169.79,255,0.00,27.00,-1043.00
2024-05-17 17:09:32.339525,0,0,7,0,0,0,77,80,74,70,55,169.75,255,75.00,10.00,-1045.00
2024-05-17 17:09:32.524450,0,0,7,0,0,0,77,80,75,70,55,170.02,256,9.00,53.00,-964.00
2024-05-17 17:09:32.542245,0,0,7,0,0,0,77,80,75,70,55,169.55,256,-14.00,56.00,-1021.00
2024-05-17 17:09:32.729045,0,0,7,0,0,0,77,80,74,70,55,169.63,256,-4.00,32.00,-954.00
2024-05-17 17:09:32.746242,0,-1,7,0,0,0,77,80,74,70,55,169.71,256,-49.00,12.00,-902.00
2024-05-17 17:09:32.848314,0,-1,7,0,0,0,77,80,74,60,55,169.73,256,46.00,12.00,-1069.00
2024-05-17 17:09:32.950431,0,-1,7,0,0,0,77,80,74,60,55,169.76,256,-2.00,55.00,-978.00
2024-05-17 17:09:33.138805,0,-1,7,0,0,0,77,80,75,60,55,169.76,256,-12.00,67.00,-1016.00
2024-05-17 17:09:33.161055,0,-1,7,0,0,0,77,80,76,70,55,169.94,256,-61.00,66.00,-970.00
2024-05-17 17:09:33.256636,0,-1,7,0,0,0,78,81,77,70,55,170.00,256,-20.00,53.00,-973.00
2024-05-17 17:09:33.445933,0,-1,7,0,0,0,78,81,78,70,55,169.94,256,54.00,10.00,-1207.00
2024-05-17 17:09:33.462541,0,-2,7,0,0,-1,78,81,80,70,55,169.73,257,-33.00,66.00,-904.00
2024-05-17 17:09:33.562234,0,-2,7,0,0,0,78,81,81,70,55,169.75,257,29.00,46.00,-943.00
2024-05-17 17:09:33.664309,0,-2,7,0,0,0,78,81,81,70,55,169.82,257,-35.00,47.00,-868.00
2024-05-17 17:09:33.715192,0,-2,7,0,0,0,78,81,81,70,55,169.70,257,60.00,-9.00,-980.00
2024-05-17 17:09:33.855755,0,-1,7,0,0,0,78,81,80,70,55,169.59,257,3.00,69.00,-960.00
2024-05-17 17:09:33.919073,0,-2,7,0,0,0,78,81,79,70,55,169.63,257,-7.00,39.00,-1003.00
2024-05-17 17:09:34.060266,1,-1,7,0,0,0,78,81,77,70,55,169.90,257,5.00,26.00,-998.00
2024-05-17 17:09:34.123802,1,0,7,0,0,0,78,81,78,70,55,169.90,257,3.00,35.00,-1053.00
2024-05-17 17:09:34.265089,1,0,7,0,0,-1,77,80,78,70,55,170.03,257,-44.00,54.00,-1010.00
2024-05-17 17:09:34.329174,0,-1,7,0,0,-1,77,80,78,70,55,169.77,257,-39.00,87.00,-1037.00
2024-05-17 17:09:34.429080,0,-1,7,0,0,-2,77,80,81,70,55,170.00,258,-5.00,58.00,-1114.00
2024-05-17 17:09:34.572264,0,-1,7,0,0,-3,77,80,85,70,55,170.01,258,45.00,7.00,-1094.00
2024-05-17 17:09:34.633090,1,-1,7,0,0,-4,77,80,88,80,55,169.87,258,-14.00,76.00,-1031.00
2024-05-17 17:09:34.778444,1,-1,7,0,0,-4,77,80,92,80,55,170.00,258,33.00,42.00,-1083.00
2024-05-17 17:09:34.837118,1,-1,7,0,0,-5,77,80,98,90,55,170.08,258,19.00,18.00,-1073.00
2024-05-17 17:09:34.986267,1,-1,7,0,0,-5,77,80,103,90,55,169.93,258,3.00,26.00,-999.00
2024-05-17 17:09:35.041010,1,-1,7,0,0,-5,77,80,109,100,55,170.38,258,22.00,22.00,-976.00
2024-05-17 17:09:35.143572,2,-1,7,0,0,-5,77,80,115,100,55,169.93,258,119.00,-60.00,-1052.00
2024-05-17 17:09:35.289066,1,-1,7,0,0,-5,77,80,121,110,55,170.26,258,64.00,40.00,-1081.00
2024-05-17 17:09:35.348800,1,-1,7,0,0,-5,77,80,127,110,55,170.13,258,18.00,20.00,-924.00
2024-05-17 17:09:35.449587,1,-2,7,0,0,-4,77,80,133,120,55,170.45,259,70.00,35.00,-1157.00
2024-05-17 17:09:35.551069,0,-2,7,0,0,-5,77,80,139,120,55,170.16,259,25.00,25.00,-987.00
2024-05-17 17:09:35.698752,0,-2,7,0,0,-5,77,80,145,130,55,170.28,259,-82.00,90.00,-905.00
2024-05-17 17:09:35.754913,0,-2,7,0,0,-4,77,80,150,130,55,170.38,259,57.00,46.00,-1020.00
2024-05-17 17:09:35.903791,0,-2,7,0,0,-4,77,80,155,140,55,170.32,259,39.00,52.00,-985.00
2024-05-17 17:09:35.959796,0,-2,7,0,0,-4,77,80,160,140,55,170.17,259,17.00,51.00,-955.00
2024-05-17 17:09:36.108255,1,-2,7,0,0,-3,77,80,164,150,55,170.59,259,17.00,29.00,-947.00
2024-05-17 17:09:36.166120,1,-1,7,0,0,-4,77,80,167,150,55,170.61,259,-4.00,26.00,-848.00
2024-05-17 17:09:36.267112,2,-1,7,0,0,-3,77,80,170,160,55,170.54,259,58.00,23.00,-992.00
2024-05-17 17:09:36.368348,2,-1,7,0,0,-3,77,80,173,160,55,170.49,259,19.00,61.00,-907.00
2024-05-17 17:09:36.470121,2,0,7,0,0,-2,77,80,174,160,55,170.73,260,21.00,19.00,-938.00
2024-05-17 17:09:36.571929,2,0,7,0,0,-1,77,80,176,170,55,170.84,260,-10.00,63.00,-960.00
2024-05-17 17:09:36.723379,1,-1,7,0,0,-1,77,80,177,170,55,170.64,260,22.00,50.00,-1011.00
2024-05-17 17:09:36.728398,0,-2,7,0,0,0,77,80,178,170,55,170.78,260,46.00,7.00,-964.00
2024-05-17 17:09:36.827154,1,-1,7,0,0,0,77,80,178,170,55,170.85,260,-3.00,47.00,-948.00
2024-05-17 17:09:37.030506,0,-1,7,0,0,0,77,80,178,170,55,170.43,260,39.00,36.00,-1094.00
2024-05-17 17:09:37.030979,0,-2,7,0,0,0,77,80,178,170,55,170.84,260,39.00,31.00,-987.00
2024-05-17 17:09:37.133039,0,-2,7,0,0,0,77,80,178,170,55,170.71,260,1.00,49.00,-1031.00
2024-05-17 17:09:37.337495,1,-2,7,0,0,0,77,79,178,170,55,170.88,260,9.00,43.00,-926.00
2024-05-17 17:09:37.337720,1,-1,7,0,0,0,77,79,178,170,55,170.73,260,14.00,21.00,-1006.00
2024-05-17 17:09:37.439844,1,-1,7,0,0,0,77,79,178,170,55,170.64,261,46.00,24.00,-960.00
2024-05-17 17:09:37.544562,2,-1,7,0,0,0,77,79,179,170,55,170.72,261,35.00,25.00,-1033.00
2024-05-17 17:09:37.644088,2,-1,7,0,0,0,77,79,180,170,55,170.75,261,123.00,12.00,-1088.00
2024-05-17 17:09:37.745051,2,-1,7,0,0,0,77,79,181,170,55,170.99,261,26.00,35.00,-1027.00
2024-05-17 17:09:37.849125,2,-1,7,0,0,0,77,79,182,170,55,170.95,261,69.00,-7.00,-1013.00
2024-05-17 17:09:37.949215,2,-1,7,0,0,0,77,79,183,170,55,170.74,261,50.00,30.00,-1074.00
2024-05-17 17:09:38.054616,1,-2,7,0,0,0,77,79,184,170,55,170.85,261,80.00,-26.00,-974.00
2024-05-17 17:09:38.152971,1,-2,7,0,0,0,77,79,185,170,55,170.99,261,56.00,6.00,-983.00
2024-05-17 17:09:38.258910,1,-2,7,0,0,0,77,79,186,170,55,170.95,261,11.00,45.00,-952.00
2024-05-17 17:09:38.357294,1,-2,7,0,0,0,77,79,187,170,55,170.83,261,40.00,36.00,-942.00
2024-05-17 17:09:38.463689,1,-2,7,0,0,0,77,79,187,170,55,170.86,262,73.00,42.00,-1051.00
2024-05-17 17:09:38.560836,1,-2,7,0,0,0,77,79,186,170,55,170.80,262,58.00,12.00,-1019.00
2024-05-17 17:09:38.668221,2,-2,7,0,0,0,77,79,188,170,55,170.83,262,28.00,40.00,-962.00
2024-05-17 17:09:38.764842,1,-2,7,0,0,0,77,79,188,170,55,170.64,262,43.00,43.00,-1059.00
2024-05-17 17:09:38.873036,1,-2,7,0,0,0,77,79,189,170,55,170.74,262,104.00,-12.00,-973.00
2024-05-17 17:09:38.968907,1,-2,7,0,0,0,77,79,187,170,55,170.51,262,2.00,23.00,-893.00
2024-05-17 17:09:39.077826,2,-1,7,0,0,1,77,79,185,170,55,171.13,262,3.00,60.00,-940.00
2024-05-17 17:09:39.173835,2,-1,7,0,0,1,77,79,183,170,55,170.66,262,30.00,28.00,-938.00
2024-05-17 17:09:39.282647,2,-1,7,0,0,2,76,79,181,170,55,170.95,262,50.00,-5.00,-1008.00
2024-05-17 17:09:39.377774,1,-2,7,0,0,2,76,79,177,170,55,170.61,262,34.00,-1.00,-976.00
2024-05-17 17:09:39.487433,1,-2,7,0,0,2,76,79,173,170,55,170.51,263,43.00,26.00,-1054.00
2024-05-17 17:09:39.581716,1,-2,7,0,0,2,76,79,169,160,55,170.49,263,34.00,14.00,-975.00
2024-05-17 17:09:39.692270,1,-2,7,0,0,3,76,79,165,160,55,170.69,263,82.00,0.00,-1032.00
2024-05-17 17:09:39.785859,1,-2,7,0,0,3,76,79,161,150,55,170.49,263,44.00,57.00,-1046.00
2024-05-17 17:09:39.900943,1,-2,7,0,0,3,76,79,156,150,55,170.24,263,0.00,58.00,-1003.00
2024-05-17 17:09:39.989769,1,-2,7,0,0,2,76,79,151,150,55,170.29,263,29.00,41.00,-916.00
2024-05-17 17:09:40.101840,1,-2,7,0,0,3,76,79,146,140,55,170.42,263,7.00,16.00,-1089.00
2024-05-17 17:09:40.194850,1,-2,7,0,0,3,76,79,141,140,55,170.42,263,116.00,-34.00,-1128.00
2024-05-17 17:09:40.306699,1,-2,7,0,0,2,76,79,137,130,55,170.28,263,-30.00,80.00,-933.00
2024-05-17 17:09:40.404396,1,-2,7,0,0,2,76,79,132,130,55,170.08,263,20.00,40.00,-1102.00
2024-05-17 17:09:40.502385,0,-2,7,0,0,2,76,79,129,130,55,170.33,264,21.00,23.00,-1038.00
2024-05-17 17:09:40.601894,0,-2,7,0,0,2,76,79,125,120,55,170.06,264,-13.00,45.00,-924.00
2024-05-17 17:09:40.653057,0,-2,7,0,0,2,76,79,122,120,55,169.97,264,29.00,45.00,-1139.00
2024-05-17 17:09:40.819029,0,-2,7,0,0,0,76,79,121,120,55,170.02,264,-15.00,58.00,-940.00
2024-05-17 17:09:40.856881,1,-1,7,0,0,0,76,79,120,110,55,169.99,264,57.00,14.00,-1007.00
2024-05-17 17:09:41.023628,1,-1,7,0,0,0,76,79,119,110,55,170.33,264,17.00,23.00,-1003.00
2024-05-17 17:09:41.062628,2,-1,7,0,0,0,76,79,119,110,55,170.18,264,20.00,34.00,-1021.00
2024-05-17 17:09:41.166192,1,-1,7,0,0,0,76,79,118,110,55,170.07,264,-15.00,35.00,-1040.00
2024-05-17 17:09:41.266682,1,-1,7,0,0,0,77,80,119,110,55,170.29,264,21.00,23.00,-1000.00
2024-05-17 17:09:41.366876,1,-1,7,0,0,0,77,80,119,110,55,170.07,264,88.00,-7.00,-1011.00
2024-05-17 17:09:41.535499,1,-1,7,0,0,0,77,80,120,110,55,170.32,265,89.00,-1.00,-1106.00
2024-05-17 17:09:41.570861,1,-1,7,0,0,0,77,80,121,110,55,170.14,265,-2.00,41.00,-896.00
2024-05-17 17:09:41.740313,1,-1,7,0,0,0,77,80,122,110,55,170.03,265,-46.00,55.00,-1018.00
2024-05-17 17:09:41.775622,1,-1,7,0,0,0,77,80,123,110,55,169.93,265,58.00,3.00,-1071.00
2024-05-17 17:09:41.947497,1,-1,7,0,0,0,77,80,125,110,55,170.38,265,-19.00,53.00,-950.00
2024-05-17 17:09:41.978787,2,-1,7,0,0,0,77,80,126,110,55,170.10,265,87.00,0.00,-1029.00
2024-05-17 17:09:42.153662,1,-1,7,0,0,0,77,80,128,110,55,170.40,265,49.00,45.00,-1079.00
2024-05-17 17:09:42.182667,1,-1,7,0,0,0,77,80,129,110,55,170.46,265,48.00,21.00,-1097.00
2024-05-17 17:09:42.354853,1,-1,7,0,0,0,77,80,130,120,55,170.10,265,26.00,30.00,-1071.00
2024-05-17 17:09:42.387438,1,-1,7,0,0,0,77,80,131,120,55,170.37,265,-23.00,35.00,-920.00
2024-05-17 17:09:42.488624,1,-1,7,0,0,0,77,80,131,120,55,170.17,266,63.00,24.00,-1116.00
2024-05-17 17:09:42.663005,0,-1,7,0,0,0,77,80,132,120,55,170.12,266,68.00,-1.00,-985.00
2024-05-17 17:09:42.693498,-5,-1,7,0,0,0,77,80,131,120,55,170.21,266,9.00,53.00,-964.00
2024-05-17 17:09:42.877766,-8,-2,7,1,0,0,77,80,131,120,55,170.14,266,-29.00,58.00,-1004.00
2024-05-17 17:09:42.896572,-7,-1,7,3,0,0,77,80,129,120,55,170.29,266,34.00,23.00,-1039.00
2024-05-17 17:09:43.071425,-6,-1,7,4,0,0,77,80,130,120,55,170.42,266,-55.00,66.00,-884.00
2024-05-17 17:09:43.101094,-5,-1,7,5,0,0,77,80,131,120,55,170.22,266,-62.00,59.00,-987.00
2024-05-17 17:09:43.276191,-5,-2,7,6,1,0,77,80,131,120,55,170.08,266,-3.00,49.00,-1029.00
2024-05-17 17:09:43.309729,-4,-2,7,7,1,0,76,80,131,120,55,170.14,266,-14.00,44.00,-1066.00
2024-05-17 17:09:43.410552,-3,-2,7,7,1,0,76,80,129,120,55,170.01,266,-37.00,89.00,-1053.00
2024-05-17 17:09:43.508586,-1,-2,7,8,1,0,76,80,128,120,55,169.98,267,-33.00,32.00,-1008.00
2024-05-17 17:09:43.685781,1,-2,7,7,1,0,76,80,127,120,55,170.34,267,-59.00,24.00,-865.00
2024-05-17 17:09:43.713927,4,-1,7,7,0,0,76,80,127,120,55,170.24,267,-17.00,36.00,-871.00
2024-05-17 17:09:43.814675,6,-1,7,6,0,0,76,80,127,120,55,170.50,267,-34.00,31.00,-950.00
2024-05-17 17:09:43.993095,6,-2,7,5,0,0,76,80,124,120,55,170.24,267,56.00,50.00,-1087.00
2024-05-17 17:09:44.019583,4,-2,7,3,0,0,76,80,124,120,55,170.26,267,11.00,9.00,-1047.00
2024-05-17 17:09:44.198300,2,-2,7,3,0,0,76,80,124,110,55,170.31,267,25.00,1.00,-1062.00
2024-05-17 17:09:44.223571,1,-2,7,3,0,0,76,80,124,110,55,170.38,267,0.00,43.00,-1080.00
2024-05-17 17:09:44.411760,2,-1,7,3,0,0,76,79,124,110,55,170.13,267,30.00,-12.00,-985.00
2024-05-17 17:09:44.427577,2,-1,7,2,0,0,76,79,123,110,55,170.20,267,51.00,25.00,-956.00
2024-05-17 17:09:44.607367,3,-1,7,2,0,0,76,79,123,110,55,170.31,268,88.00,-43.00,-1039.00
2024-05-17 17:09:44.631525,4,-1,7,1,0,0,76,79,123,110,55,170.25,268,-2.00,57.00,-977.00
2024-05-17 17:09:44.682451,4,-1,7,0,0,0,76,79,124,110,55,170.12,268,-62.00,86.00,-942.00
2024-05-17 17:09:44.784572,2,-1,7,0,0,0,76,79,126,110,55,170.21,268,8.00,38.00,-1127.00
2024-05-17 17:09:44.914717,1,-2,7,0,0,0,76,79,127,110,55,170.46,268,15.00,42.00,-997.00
2024-05-17 17:09:44.988647,1,-1,7,0,0,0,76,79,127,110,55,169.98,268,54.00,20.00,-1053.00
2024-05-17 17:09:45.119696,2,-1,7,0,0,0,76,79,128,110,55,170.33,268,-62.00,100.00,-917.00
2024-05-17 17:09:45.192721,2,-1,7,0,0,0,76,79,129,120,55,170.18,268,17.00,43.00,-1001.00
2024-05-17 17:09:45.324371,2,-1,7,0,0,0,76,79,129,120,55,170.20,268,-33.00,47.00,-957.00
2024-05-17 17:09:45.396633,2,-1,7,0,0,0,76,79,129,120,55,170.13,268,64.00,33.00,-1104.00
2024-05-17 17:09:45.529154,1,-2,7,0,0,0,76,79,130,120,55,170.09,269,45.00,55.00,-982.00
2024-05-17 17:09:45.600599,1,-1,7,0,0,0,76,79,130,120,55,170.30,269,-5.00,36.00,-976.00
2024-05-17 17:09:45.733963,1,-1,7,0,0,0,76,79,130,120,55,169.92,269,-12.00,60.00,-948.00
2024-05-17 17:09:45.806112,1,-1,7,0,0,0,76,79,130,120,55,170.10,269,36.00,39.00,-1034.00
2024-05-17 17:09:45.906531,1,-1,7,0,0,0,76,79,130,120,55,170.11,269,75.00,26.00,-1093.00
2024-05-17 17:09:46.041051,1,-1,7,0,0,0,76,79,130,120,55,170.16,269,-22.00,60.00,-936.00
2024-05-17 17:09:46.110831,1,-1,7,0,0,0,76,79,131,120,55,170.27,269,20.00,15.00,-935.00
2024-05-17 17:09:46.245928,1,-1,7,0,0,0,76,79,130,120,55,170.60,269,122.00,-9.00,-1111.00
2024-05-17 17:09:46.314472,1,-1,7,0,0,0,76,79,130,120,55,170.27,269,-18.00,38.00,-807.00
2024-05-17 17:09:46.451474,1,-1,7,0,0,0,76,79,130,120,55,170.07,270,42.00,58.00,-1068.00
2024-05-17 17:09:46.518584,1,-1,7,0,0,0,76,79,130,120,55,169.90,270,29.00,21.00,-911.00
2024-05-17 17:09:46.655504,1,-1,7,0,0,0,76,79,129,120,55,170.36,270,-66.00,45.00,-877.00
2024-05-17 17:09:46.722541,1,-1,7,0,0,0,76,79,129,120,55,170.22,270,37.00,27.00,-962.00
2024-05-17 17:09:46.824437,1,-1,7,0,0,0,76,79,128,120,55,170.01,270,4.00,18.00,-952.00
2024-05-17 17:09:46.962679,5,-1,7,0,0,0,76,79,127,120,55,170.08,270,14.00,70.00,-1003.00
2024-05-17 17:09:47.028440,8,-1,7,-1,0,0,76,79,128,120,55,170.19,270,41.00,40.00,-1019.00
2024-05-17 17:09:47.168189,8,-1,7,-2,0,0,76,79,127,120,55,170.16,270,-21.00,44.00,-872.00
2024-05-17 17:09:47.232317,8,-1,7,-3,0,0,76,79,126,120,55,169.95,270,76.00,56.00,-1101.00
2024-05-17 17:09:47.372159,8,-1,7,-4,0,0,76,79,125,110,55,170.02,270,1.00,26.00,-912.00
2024-05-17 17:09:47.436264,8,-1,7,-5,0,0,76,79,124,110,55,170.13,271,30.00,24.00,-1001.00
2024-05-17 17:09:47.577383,8,-1,7,-5,0,0,76,79,123,110,55,170.20,271,55.00,10.00,-1002.00
2024-05-17 17:09:47.641341,8,-1,7,-6,-1,0,76,79,122,110,55,170.45,271,89.00,2.00,-1010.00
2024-05-17 17:09:47.781812,7,-1,7,-7,-1,0,76,79,121,110,55,170.08,271,30.00,48.00,-941.00
2024-05-17 17:09:47.845312,5,-1,7,-8,0,0,76,79,118,110,55,170.07,271,73.00,35.00,-959.00
2024-05-17 17:09:47.986552,1,-2,7,-8,0,0,76,79,117,110,55,170.18,271,49.00,17.00,-906.00
2024-05-17 17:09:48.049708,-1,-2,7,-7,0,0,76,79,116,110,55,169.97,271,94.00,22.00,-1013.00
2024-05-17 17:09:48.151301,-3,-2,7,-6,0,0,76,79,116,110,55,170.11,271,50.00,9.00,-1000.00
2024-05-17 17:09:48.293756,-2,-1,7,-5,0,0,76,79,116,110,55,169.81,271,95.00,1.00,-1078.00
2024-05-17 17:09:48.355411,-1,0,7,-4,0,0,76,80,116,110,55,170.06,271,130.00,-2.00,-1114.00
2024-05-17 17:09:48.502052,0,0,7,-3,0,0,76,80,117,110,55,169.99,272,46.00,25.00,-1071.00
2024-05-17 17:09:48.559273,1,0,7,-3,0,0,76,80,118,110,55,170.38,272,-12.00,46.00,-964.00
2024-05-17 17:09:48.703796,1,0,7,-2,0,0,76,80,118,110,55,169.86,272,85.00,-7.00,-1001.00
2024-05-17 17:09:48.763278,1,-1,7,-2,0,0,76,80,119,110,55,169.94,272,76.00,21.00,-1052.00
2024-05-17 17:09:48.815089,2,-1,7,-2,0,-1,76,80,120,110,55,170.10,272,28.00,25.00,-1053.00
2024-05-17 17:09:49.021207,2,-1,7,-2,0,0,76,80,122,110,55,169.92,272,43.00,26.00,-997.00
2024-05-17 17:09:49.024754,2,-1,7,-2,0,-1,76,80,124,110,55,170.02,272,-10.00,41.00,-871.00
2024-05-17 17:09:49.122536,1,-1,7,-2,0,0,76,80,125,110,55,170.34,272,29.00,21.00,-951.00
2024-05-17 17:09:49.222558,0,-1,7,-2,0,0,76,80,126,110,55,170.09,272,38.00,11.00,-1022.00
2024-05-17 17:09:49.420578,-3,-2,7,-1,0,0,76,79,129,110,55,170.07,272,13.00,72.00,-955.00
2024-05-17 17:09:49.427245,-1,-2,7,0,0,0,76,79,129,110,55,170.00,273,10.00,22.00,-934.00
2024-05-17 17:09:49.532526,0,-1,7,0,0,0,76,79,130,120,55,170.07,273,-11.00,56.00,-924.00
2024-05-17 17:09:49.633048,0,-1,7,0,0,0,76,79,131,120,55,169.98,273,39.00,9.00,-994.00
2024-05-17 17:09:49.732877,0,-2,7,0,0,0,76,79,132,120,55,170.31,273,-20.00,7.00,-955.00
2024-05-17 17:09:49.932806,1,-1,7,0,0,0,76,79,133,120,55,170.27,273,66.00,4.00,-1077.00
2024-05-17 17:09:49.936395,2,-1,7,0,0,0,76,79,134,120,55,169.96,273,-33.00,75.00,-938.00
2024-05-17 17:09:50.039381,2,-1,7,0,0,0,76,79,134,120,55,170.08,273,57.00,13.00,-1098.00
2024-05-17 17:09:50.141787,2,-1,7,0,0,0,76,79,135,120,55,170.43,273,17.00,59.00,-952.00
2024-05-17 17:09:50.242339,2,-1,7,0,0,0,76,79,135,120,55,170.23,273,51.00,0.00,-1012.00
2024-05-17 17:09:50.347512,2,-1,7,0,0,0,75,79,134,120,55,170.44,273,-23.00,72.00,-971.00
2024-05-17 17:09:50.447351,1,-1,7,0,0,0,75,79,134,120,55,170.23,274,134.00,-21.00,-1019.00
2024-05-17 17:09:50.548830,1,-1,7,0,0,0,75,79,135,120,55,170.42,274,54.00,-6.00,-1016.00
2024-05-17 17:09:50.651492,2,-1,7,0,0,0,75,79,135,120,55,170.05,274,38.00,16.00,-1055.00
2024-05-17 17:09:50.755500,1,-1,7,0,0,0,75,79,134,120,55,170.22,274,47.00,22.00,-1132.00
2024-05-17 17:09:50.861590,2,-1,7,0,0,0,75,79,134,120,55,170.28,274,23.00,30.00,-940.00
2024-05-17 17:09:50.956967,2,-1,7,0,0,0,75,79,134,120,55,170.15,274,-19.00,30.00,-942.00
2024-05-17 17:09:51.058348,2,-1,7,0,0,0,75,79,133,120,55,170.11,274,24.00,25.00,-922.00
2024-05-17 17:09:51.162086,2,-1,7,0,0,0,75,79,133,120,55,170.09,274,56.00,26.00,-1029.00
2024-05-17 17:09:51.265468,1,-1,7,0,0,0,75,79,132,120,55,170.35,274,59.00,9.00,-974.00
2024-05-17 17:09:51.370117,1,-1,7,0,0,0,75,80,131,120,55,170.11,274,-34.00,48.00,-889.00
2024-05-17 17:09:51.472996,1,-2,7,0,0,0,75,80,130,120,55,170.59,275,-44.00,62.00,-948.00
2024-05-17 17:09:51.568297,2,-2,7,0,0,0,75,80,130,120,55,170.08,275,3.00,48.00,-1027.00
2024-05-17 17:09:51.673444,1,-3,7,0,0,0,75,80,128,120,55,170.12,275,0.00,45.00,-1021.00
2024-05-17 17:09:51.775893,0,-9,7,0,0,0,75,80,130,120,55,170.32,275,131.00,-11.00,-1114.00
2024-05-17 17:09:51.874125,1,-8,7,0,-1,0,75,80,129,120,55,170.19,275,25.00,26.00,-926.00
2024-05-17 17:09:51.983858,1,-7,7,0,-2,0,75,80,128,120,55,169.99,275,67.00,32.00,-1103.00
2024-05-17 17:09:52.078449,2,-4,7,0,-3,0,75,80,128,120,55,170.53,275,22.00,40.00,-1048.00
2024-05-17 17:09:52.181290,2,-1,7,0,-3,0,75,80,127,120,55,170.33,275,7.00,56.00,-1040.00
2024-05-17 17:09:52.291846,1,-1,7,0,-3,0,75,80,128,120,55,170.05,275,-74.00,109.00,-904.00
2024-05-17 17:09:52.384259,1,-1,7,0,-3,0,76,79,128,120,55,170.12,275,56.00,27.00,-987.00
2024-05-17 17:09:52.486332,2,-1,7,0,-2,0,76,79,129,120,55,170.28,276,-19.00,56.00,-864.00
2024-05-17 17:09:52.588108,2,-1,7,0,-2,0,76,79,128,120,55,170.52,276,56.00,35.00,-995.00
2024-05-17 17:09:52.639156,2,-1,7,0,-2,0,76,79,128,120,55,170.43,276,77.00,54.00,-995.00
2024-05-17 17:09:52.803565,1,-2,7,0,-2,0,76,79,128,120,55,170.06,276,-4.00,60.00,-950.00
2024-05-17 17:09:52.843003,1,-2,7,0,-2,0,76,79,128,120,55,170.44,276,36.00,51.00,-1054.00
2024-05-17 17:09:53.005279,1,-2,7,0,-2,0,76,79,128,120,55,170.10,276,38.00,38.00,-1034.00
2024-05-17 17:09:53.047051,1,-2,7,0,-2,0,76,79,128,120,55,169.78,276,44.00,5.00,-1023.00
2024-05-17 17:09:53.209696,1,-2,7,0,-2,0,76,79,128,120,55,170.30,276,1.00,58.00,-970.00
2024-05-17 17:09:53.251069,2,-2,7,0,-2,0,76,79,127,120,55,170.21,276,-31.00,81.00,-906.00
2024-05-17 17:09:53.417153,1,-2,7,0,-2,0,75,79,127,120,55,170.06,276,-31.00,54.00,-1029.00
2024-05-17 17:09:53.456724,1,-2,7,0,-2,0,75,79,127,120,55,170.21,277,44.00,-6.00,-1030.00
2024-05-17 17:09:53.557170,1,-1,7,0,-2,0,75,79,125,120,55,170.27,277,-50.00,93.00,-993.00
2024-05-17 17:09:53.721696,0,3,7,0,-1,0,75,79,127,120,55,170.10,277,11.00,31.00,-920.00
2024-05-17 17:09:53.761315,0,1,7,0,0,0,75,79,126,110,55,169.95,277,40.00,44.00,-1126.00
2024-05-17 17:09:53.927380,1,0,7,0,0,0,75,79,128,120,55,170.45,277,-41.00,77.00,-923.00
2024-05-17 17:09:53.965059,1,-1,7,0,0,0,75,79,126,110,55,170.39,277,61.00,-16.00,-1086.00
2024-05-17 17:09:54.134346,1,-1,7,0,0,0,75,79,127,110,55,170.18,277,30.00,46.00,-1027.00
2024-05-17 17:09:54.169102,2,-1,7,0,0,0,75,79,128,110,55,170.26,277,32.00,42.00,-944.00
2024-05-17 17:09:54.337264,2,-2,7,0,0,0,75,79,130,110,55,170.17,277,0.00,32.00,-960.00
2024-05-17 17:09:54.373081,2,-2,7,0,0,0,75,80,131,120,55,170.31,277,-27.00,92.00,-997.00
2024-05-17 17:09:54.540240,2,-2,7,0,0,0,75,80,133,120,55,170.50,278,98.00,37.00,-1142.00
2024-05-17 17:09:54.577298,2,-2,7,0,0,0,75,80,134,120,55,170.39,278,-24.00,68.00,-1005.00
2024-05-17 17:09:54.746772,2,-2,7,0,0,0,75,80,136,120,55,170.20,278,62.00,-6.00,-956.00
2024-05-17 17:09:54.781019,2,-1,7,0,0,0,75,80,136,120,55,170.29,278,26.00,19.00,-976.00
2024-05-17 17:09:54.951142,2,-1,7,0,0,0,75,80,137,120,55,170.11,278,81.00,41.00,-1044.00
2024-05-17 17:09:54.985547,2,-1,7,0,0,0,75,80,137,120,55,170.49,278,-50.00,35.00,-819.00
2024-05-17 17:09:55.155805,2,-1,7,0,0,0,75,80,138,120,55,170.32,278,-13.00,88.00,-978.00
2024-05-17 17:09:55.189211,2,-2,7,0,0,0,75,80,139,120,55,170.44,278,-38.00,37.00,-895.00
2024-05-17 17:09:55.360608,1,-2,7,0,0,0,75,80,138,120,55,170.49,278,4.00,83.00,-951.00
2024-05-17 17:09:55.393040,1,-2,7,0,0,0,76,78,139,120,55,170.61,278,-60.00,101.00,-857.00
2024-05-17 17:09:55.564832,2,-2,7,0,0,0,76,78,138,120,55,170.18,279,-9.00,35.00,-879.00
2024-05-17 17:09:55.597022,1,-2,7,0,0,0,76,78,138,120,55,170.36,279,-94.00,61.00,-912.00
2024-05-17 17:09:55.764457,2,-2,7,0,0,0,76,78,137,120,55,170.33,279,59.00,1.00,-1010.00
2024-05-17 17:09:55.801319,2,-2,7,0,0,0,76,78,136,120,55,170.27,279,73.00,17.00,-1043.00
2024-05-17 17:09:55.976545,2,-2,7,0,0,0,76,78,135,120,55,170.21,279,-5.00,30.00,-881.00
2024-05-17 17:09:55.979748,1,0,7,0,0,0,76,78,134,120,55,170.44,279,-32.00,69.00,-982.00
2024-05-17 17:09:56.055974,0,7,7,0,0,1,76,78,133,120,55,170.03,279,52.00,32.00,-1050.00
2024-05-17 17:09:56.178746,1,5,7,0,2,0,76,78,129,120,54,170.03,279,0.00,27.00,-994.00
2024-05-17 17:09:56.259950,1,1,7,0,3,1,76,78,130,120,54,170.17,279,0.00,18.00,-974.00
2024-05-17 17:09:56.384308,1,0,7,0,3,1,75,78,128,120,54,170.00,279,-13.00,32.00,-977.00
2024-05-17 17:09:56.463983,0,-3,7,0,3,0,75,78,127,120,54,170.17,280,-7.00,39.00,-1035.00
2024-05-17 17:09:56.588043,1,-3,7,0,3,0,75,78,126,120,54,169.98,280,6.00,19.00,-1007.00
2024-05-17 17:09:56.668066,1,-2,7,0,3,0,75,78,126,120,54,170.29,280,13.00,67.00,-1033.00
2024-05-17 17:09:56.792852,1,-2,7,0,3,0,75,78,126,110,54,170.38,280,106.00,-12.00,-1126.00
2024-05-17 17:09:56.871834,1,-2,7,0,2,0,75,78,126,110,54,170.39,280,64.00,-7.00,-1018.00
2024-05-17 17:09:56.998147,2,-2,7,0,2,0,75,78,126,120,54,169.94,280,-90.00,83.00,-839.00
2024-05-17 17:09:57.075732,3,-1,7,0,2,0,75,78,125,120,54,170.45,280,-17.00,71.00,-966.00
2024-05-17 17:09:57.180077,3,-1,7,0,2,0,75,78,125,120,54,170.12,280,-53.00,39.00,-924.00
2024-05-17 17:09:57.279829,3,-2,7,-1,2,0,75,78,125,120,54,170.23,280,-35.00,30.00,-945.00
2024-05-17 17:09:57.382086,2,-2,7,-1,2,0,76,79,126,110,54,170.08,280,79.00,-27.00,-1044.00
2024-05-17 17:09:57.510890,2,-1,7,-1,2,0,76,79,127,110,54,170.36,281,2.00,35.00,-981.00
2024-05-17 17:09:57.585851,2,-2,7,-1,2,0,76,79,128,110,54,170.05,281,33.00,11.00,-997.00
2024-05-17 17:09:57.687766,-1,-6,7,-1,1,0,76,79,128,110,54,170.42,281,90.00,-6.00,-1044.00
2024-05-17 17:09:57.817252,0,-5,7,0,0,0,76,79,129,110,54,170.14,281,2.00,29.00,-873.00
2024-05-17 17:09:57.892982,1,-2,7,0,0,0,76,79,131,120,54,170.29,281,37.00,22.00,-1098.00
2024-05-17 17:09:58.024377,1,-2,7,0,0,0,76,79,132,120,54,170.57,281,24.00,16.00,-872.00
2024-05-17 17:09:58.096916,1,-2,7,0,0,0,76,79,132,120,54,170.22,281,8.00,25.00,-998.00
2024-05-17 17:09:58.198820,0,-3,7,0,0,0,76,79,133,120,54,170.20,281,-2.00,61.00,-941.00
2024-05-17 17:09:58.301505,0,-2,7,0,0,0,76,79,133,120,54,170.04,281,91.00,5.00,-1108.00
2024-05-17 17:09:58.432180,1,-2,7,0,0,0,76,79,133,120,54,170.33,281,65.00,-23.00,-907.00
2024-05-17 17:09:58.505394,1,-2,7,0,0,0,76,79,133,120,54,170.10,282,-12.00,59.00,-953.00
2024-05-17 17:09:58.636571,1,-2,7,0,0,0,76,79,132,120,54,170.24,282,66.00,8.00,-1080.00
2024-05-17 17:09:58.709273,1,-1,7,0,0,0,76,79,132,120,54,170.25,282,-25.00,48.00,-887.00
2024-05-17 17:09:58.810863,2,-1,7,0,0,0,76,79,131,120,54,170.36,282,26.00,20.00,-972.00
2024-05-17 17:09:58.943501,2,-1,7,0,0,0,76,79,130,120,54,170.01,282,-8.00,45.00,-1009.00
2024-05-17 17:09:59.014890,1,-1,7,0,0,0,76,79,129,120,54,170.20,282,18.00,48.00,-964.00
2024-05-17 17:09:59.150801,1,-1,7,0,0,0,76,79,129,120,54,169.93,282,-67.00,68.00,-916.00
2024-05-17 17:09:59.218896,1,-1,7,0,0,0,76,79,127,120,53,170.30,282,103.00,39.00,-1166.00
2024-05-17 17:09:59.353586,1,-1,7,0,0,0,76,79,126,120,53,170.15,282,4.00,33.00,-937.00
2024-05-17 17:09:59.422971,1,-1,7,0,0,0,76,79,125,120,53,170.07,282,67.00,15.00,-1083.00
2024-05-17 17:09:59.557886,2,-2,7,0,0,0,76,79,124,120,53,170.31,283,38.00,40.00,-1015.00
2024-05-17 17:09:59.626864,2,-2,7,0,0,0,76,79,122,120,53,170.41,283,-55.00,75.00,-973.00
2024-05-17 17:09:59.677893,2,-2,7,0,0,0,76,79,120,110,53,169.91,283,-51.00,68.00,-955.00
2024-05-17 17:09:59.820189,2,-2,7,0,0,0,76,79,119,110,53,169.99,283,10.00,38.00,-974.00
2024-05-17 17:09:59.881663,1,-2,7,0,0,0,76,79,115,110,53,169.94,283,97.00,-13.00,-1033.00
2024-05-17 17:10:00.069700,2,-2,8,0,0,0,76,79,113,110,53,170.00,283,14.00,23.00,-962.00
2024-05-17 17:10:00.089789,2,-1,13,0,0,0,76,79,110,110,53,169.98,283,-14.00,17.00,-915.00
2024-05-17 17:10:00.197935,2,-1,19,0,0,0,76,79,108,110,53,170.36,283,26.00,47.00,-1015.00
2024-05-17 17:10:00.289946,1,-2,25,0,0,0,76,79,106,110,53,169.75,283,7.00,20.00,-999.00
2024-05-17 17:10:00.479271,2,-2,31,0,0,0,76,79,104,100,53,170.04,283,22.00,36.00,-1000.00
2024-05-17 17:10:00.493698,2,-2,37,0,0,0,76,79,104,100,53,169.93,284,29.00,8.00,-993.00
2024-05-17 17:10:00.684061,1,-2,43,0,0,0,76,79,103,100,53,169.88,284,23.00,9.00,-1020.00
2024-05-17 17:10:00.697689,1,-1,49,0,0,0,76,79,101,100,53,169.80,284,90.00,-14.00,-1058.00
2024-05-17 17:10:00.888872,2,-1,55,0,0,0,76,79,100,100,53,169.96,284,37.00,21.00,-1037.00
2024-05-17 17:10:00.901646,2,0,60,0,0,0,76,79,100,100,53,169.77,284,11.00,62.00,-960.00
2024-05-17 17:10:01.093678,1,-1,66,0,0,0,76,79,101,100,53,169.75,284,44.00,38.00,-1062.00
2024-05-17 17:10:01.109594,1,-1,72,0,0,0,76,79,101,100,53,169.78,284,0.00,-10.00,-989.00
2024-05-17 17:10:01.218115,1,0,78,0,0,0,76,79,102,100,53,170.06,284,51.00,-17.00,-1015.00
2024-05-17 17:10:01.309806,1,0,84,0,0,0,76,79,104,100,53,169.85,284,-23.00,52.00,-978.00
2024-05-17 17:10:01.503282,1,0,90,0,0,-1,77,80,106,100,53,169.84,284,16.00,36.00,-1033.00
2024-05-17 17:10:01.513596,1,0,96,0,0,-1,77,80,108,100,53,170.17,285,-22.00,46.00,-958.00
2024-05-17 17:10:01.708063,1,0,102,0,0,-1,77,80,110,100,53,169.88,285,43.00,-21.00,-1035.00
2024-05-17 17:10:01.717582,2,0,108,0,0,-1,77,80,114,100,53,169.91,285,52.00,-7.00,-958.00
2024-05-17 17:10:01.913044,2,0,114,0,0,-1,77,80,116,100,53,170.04,285,73.00,2.00,-1165.00
2024-05-17 17:10:01.921900,2,0,120,0,0,-1,77,80,118,100,53,169.97,285,-1.00,15.00,-981.00
2024-05-17 17:10:02.023725,1,1,126,0,0,-1,77,80,121,110,53,169.92,285,-28.00,35.00,-903.00
2024-05-17 17:10:02.127315,1,0,132,0,0,-1,77,80,120,110,53,170.05,285,-46.00,83.00,-1027.00
2024-05-17 17:10:02.229843,0,0,138,0,0,-1,77,80,122,110,52,170.03,285,-26.00,13.00,-1007.00
2024-05-17 17:10:02.330291,1,0,145,0,0,0,77,80,123,110,52,170.21,285,15.00,9.00,-947.00
2024-05-17 17:10:02.431642,1,0,158,0,0,0,76,79,124,110,52,170.11,286,14.00,33.00,-1152.00
2024-05-17 17:10:02.633864,1,0,164,0,0,0,76,79,125,110,52,170.22,286,-3.00,33.00,-885.00
2024-05-17 17:10:02.635854,1,0,171,0,0,0,76,79,127,110,52,170.34,286,51.00,38.00,-960.00
2024-05-17 17:10:02.743339,1,0,178,0,0,0,76,79,127,110,52,170.28,286,12.00,41.00,-970.00
2024-05-17 17:10:02.840190,0,0,-175,0,0,0,76,79,127,120,52,170.25,286,11.00,12.00,-824.00
2024-05-17 17:10:02.947565,0,0,-168,0,0,0,76,79,127,120,52,170.31,286,8.00,40.00,-963.00
2024-05-17 17:10:03.044345,0,0,-162,0,0,0,76,79,126,120,52,169.97,286,-39.00,35.00,-918.00
2024-05-17 17:10:03.244055,0,0,-155,0,0,0,76,79,126,120,52,170.23,286,-55.00,60.00,-914.00
2024-05-17 17:10:03.247508,0,0,-149,0,0,0,76,79,126,120,52,169.92,286,-3.00,35.00,-977.00
2024-05-17 17:10:03.349995,0,0,-142,0,0,0,76,79,125,110,52,170.32,286,38.00,51.00,-1044.00
2024-05-17 17:10:03.451527,0,0,-136,0,0,0,76,79,124,110,52,170.33,287,-40.00,62.00,-1028.00
2024-05-17 17:10:03.553511,0,0,-129,0,0,0,76,79,123,110,52,170.34,287,-22.00,52.00,-1055.00
2024-05-17 17:10:03.604501,0,0,-123,0,0,0,76,79,122,110,52,170.12,287,-7.00,36.00,-1049.00
2024-05-17 17:10:03.756084,0,0,-117,0,0,0,76,79,121,110,52,170.17,287,-12.00,75.00,-976.00
2024-05-17 17:10:03.808519,0,0,-111,0,0,0,76,79,120,110,52,170.33,287,0.00,19.00,-1080.00
2024-05-17 17:10:03.960837,0,0,-105,0,0,0,76,79,119,110,52,170.34,287,-9.00,52.00,-1000.00
2024-05-17 17:10:04.012495,0,0,-99,0,0,0,76,79,119,110,52,170.00,287,54.00,-2.00,-1079.00
2024-05-17 17:10:04.165731,0,0,-94,0,0,0,76,79,119,110,52,170.04,287,23.00,-5.00,-946.00
2024-05-17 17:10:04.216611,0,0,-88,0,0,0,76,79,120,110,52,170.28,287,32.00,17.00,-1061.00
2024-05-17 17:10:04.370438,0,0,-82,0,0,0,76,79,121,110,52,170.33,287,-46.00,59.00,-906.00
2024-05-17 17:10:04.420500,0,0,-77,0,0,0,76,79,119,110,52,170.03,288,-5.00,13.00,-956.00
2024-05-17 17:10:04.579340,0,0,-71,0,0,0,76,79,120,110,52,170.21,288,-20.00,33.00,-976.00
2024-05-17 17:10:04.624610,0,0,-65,0,0,0,76,79,120,110,52,170.36,288,-27.00,42.00,-968.00
2024-05-17 17:10:04.779996,0,0,-59,0,0,0,76,79,121,110,52,170.34,288,75.00,9.00,-1021.00
2024-05-17 17:10:04.828495,0,0,-54,0,0,0,76,79,119,110,52,170.07,288,26.00,14.00,-1011.00
2024-05-17 17:10:04.986490,0,0,-48,0,0,0,76,79,119,110,52,169.99,288,7.00,28.00,-1014.00
2024-05-17 17:10:05.032449,0,0,-42,0,0,0,76,79,119,110,52,170.35,288,20.00,-1.00,-947.00
2024-05-17 17:10:05.189660,0,0,-36,0,0,0,76,79,120,110,52,170.21,288,12.00,22.00,-1075.00
2024-05-17 17:10:05.237546,0,0,-30,0,0,0,76,79,120,110,52,170.17,288,14.00,42.00,-934.00
2024-05-17 17:10:05.394837,0,0,-24,0,0,0,76,79,119,110,52,169.87,288,26.00,38.00,-1062.00
2024-05-17 17:10:05.440398,0,0,-18,0,0,0,75,79,119,110,52,170.06,289,-33.00,59.00,-906.00
2024-05-17 17:10:05.542371,0,0,-12,0,0,0,75,79,119,110,52,169.94,289,-14.00,57.00,-1037.00
2024-05-17 17:10:05.701627,0,0,-7,0,0,0,75,79,120,110,52,170.07,289,35.00,-1.00,-993.00
2024-05-17 17:10:05.749293,0,0,-3,0,0,0,75,79,120,110,52,170.29,289,39.00,25.00,-1077.00
2024-05-17 17:10:05.849676,0,0,0,0,0,0,75,79,120,110,52,170.16,289,48.00,13.00,-982.00
2024-05-17 17:10:05.950997,1,0,1,0,0,0,75,79,119,110,52,170.13,289,-4.00,32.00,-1003.00
2024-05-17 17:10:06.052392,1,0,2,1,0,0,75,79,120,110,52,170.04,289,11.00,19.00,-984.00
2024-05-17 17:10:06.163025,1,0,4,1,0,0,75,79,120,110,52,170.37,289,-3.00,36.00,-888.00
2024-05-17 17:10:06.257048,1,0,4,0,0,0,75,79,121,110,51,170.01,289,16.00,31.00,-1016.00
2024-05-17 17:10:06.418417,2,0,5,1,0,0,75,79,122,110,51,170.05,289,36.00,11.00,-909.00
2024-05-17 17:10:06.461657,2,0,5,1,0,0,75,79,123,110,51,170.19,290,-23.00,46.00,-1004.00
2024-05-17 17:10:06.564384,2,0,6,0,0,0,75,79,124,110,51,169.85,290,57.00,28.00,-1019.00
2024-05-17 17:10:06.665885,2,0,5,0,0,0,75,79,124,110,51,170.28,290,24.00,5.00,-943.00
2024-05-17 17:10:06.768426,3,0,5,0,0,0,75,79,125,110,51,170.10,290,47.00,2.00,-1040.00
2024-05-17 17:10:06.930582,3,0,5,0,0,0,75,79,125,110,51,170.36,290,67.00,2.00,-995.00
2024-05-17 17:10:06.971435,2,0,5,0,0,0,75,79,124,110,51,170.21,290,14.00,16.00,-998.00
2024-05-17 17:10:07.023937,2,0,5,0,0,0,75,79,125,110,51,170.33,290,54.00,28.00,-1020.00
2024-05-17 17:10:07.124498,2,0,5,0,0,0,75,79,125,110,51,170.23,290,-24.00,35.00,-972.00
2024-05-17 17:10:07.232146,2,0,5,0,0,0,75,79,125,110,51,169.85,290,-10.00,29.00,-987.00
2024-05-17 17:10:07.331918,1,0,5,0,0,0,75,79,125,110,51,170.10,290,20.00,31.00,-973.00
2024-05-17 17:10:07.489488,1,0,5,0,0,0,76,79,125,110,51,170.29,291,62.00,10.00,-1110.00
2024-05-17 17:10:07.583258,1,0,5,0,0,0,76,79,125,110,51,170.09,291,44.00,3.00,-1031.00
2024-05-17 17:10:07.639485,1,0,5,0,0,0,76,79,125,110,51,170.38,291,80.00,-4.00,-981.00
2024-05-17 17:10:07.736472,1,0,5,0,0,0,76,79,126,110,51,169.93,291,26.00,9.00,-1018.00
2024-05-17 17:10:07.852128,1,0,5,0,0,0,76,79,127,110,51,170.43,291,26.00,-2.00,-993.00
2024-05-17 17:10:07.941272,1,0,5,0,0,0,76,79,127,120,51,170.12,291,34.00,26.00,-978.00
2024-05-17 17:10:08.057148,1,0,5,0,0,0,76,79,127,120,51,170.17,291,25.00,20.00,-1014.00
2024-05-17 17:10:08.144395,1,0,5,0,0,0,76,79,126,120,51,170.18,291,51.00,41.00,-1002.00
2024-05-17 17:10:08.246194,1,0,5,0,0,0,76,79,126,120,51,170.10,291,22.00,42.00,-926.00
2024-05-17 17:10:08.367469,1,0,5,0,0,0,76,79,125,120,51,170.63,291,-24.00,27.00,-943.00
2024-05-17 17:10:08.450924,1,0,6,0,0,0,76,78,124,120,51,170.08,292,10.00,16.00,-937.00
2024-05-17 17:10:08.568785,1,0,5,0,0,0,76,78,123,120,51,170.08,292,55.00,23.00,-1008.00
2024-05-17 17:10:08.658139,1,0,0,0,0,0,76,78,121,110,51,170.41,292,0.00,20.00,-935.00
2024-05-17 17:10:08.758533,1,0,-4,0,0,0,76,78,119,110,51,170.16,292,-33.00,69.00,-976.00
2024-05-17 17:10:08.858303,0,-1,-10,0,0,0,76,78,117,110,51,170.22,292,36.00,6.00,-1004.00
2024-05-17 17:10:08.981737,0,-1,-15,0,0,0,76,78,115,110,51,170.38,292,19.00,38.00,-1056.00
2024-05-17 17:10:09.062198,0,-1,-21,0,0,0,76,78,114,110,51,170.15,292,65.00,-5.00,-1099.00
2024-05-17 17:10:09.183192,0,-1,-27,0,0,0,76,78,112,110,50,170.16,292,-11.00,56.00,-939.00
2024-05-17 17:10:09.266214,1,-1,-32,0,0,0,76,78,110,110,50,169.99,292,-19.00,52.00,-938.00
2024-05-17 17:10:09.388021,1,-1,-38,0,0,0,76,78,109,100,50,169.98,292,38.00,22.00,-1032.00
2024-05-17 17:10:09.470215,0,-1,-44,0,0,0,76,79,107,100,50,170.03,293,20.00,21.00,-957.00
2024-05-17 17:10:09.572168,0,0,-50,0,0,0,76,79,106,110,50,170.08,293,54.00,-3.00,-1115.00
2024-05-17 17:10:09.695812,0,-1,-57,0,0,0,76,79,105,110,50,170.00,293,15.00,25.00,-956.00
2024-05-17 17:10:09.776283,0,0,-63,0,0,0,76,79,104,110,50,169.86,293,32.00,13.00,-1069.00
2024-05-17 17:10:09.878148,0,0,-69,0,0,0,76,79,104,110,50,170.06,293,-19.00,60.00,-993.00
2024-05-17 17:10:10.002378,0,0,-75,0,0,0,76,79,103,110,50,169.96,293,-4.00,27.00,-1011.00
2024-05-17 17:10:10.082153,0,0,-81,0,0,0,76,79,103,110,50,169.70,293,32.00,7.00,-935.00
2024-05-17 17:10:10.207638,0,0,-87,0,0,0,76,79,103,110,50,169.80,293,28.00,19.00,-933.00
2024-05-17 17:10:10.286156,0,0,-93,0,0,0,76,79,103,110,50,169.99,293,61.00,1.00,-1122.00
2024-05-17 17:10:10.412001,0,0,-99,0,0,0,76,79,104,110,50,170.15,293,28.00,37.00,-1035.00
2024-05-17 17:10:10.490840,0,0,-105,0,0,0,75,80,104,110,50,169.97,294,34.00,7.00,-1096.00
2024-05-17 17:10:10.618876,0,0,-111,0,0,0,75,80,105,110,50,170.13,294,-6.00,31.00,-975.00
2024-05-17 17:10:10.695286,0,0,-117,0,0,0,75,80,106,110,50,169.97,294,14.00,16.00,-1029.00
2024-05-17 17:10:10.822371,0,0,-123,0,0,0,75,80,107,110,50,170.05,294,-13.00,27.00,-1002.00
2024-05-17 17:10:10.901599,0,0,-130,0,0,0,75,80,109,110,50,170.18,294,45.00,24.00,-1032.00
2024-05-17 17:10:11.001672,0,0,-136,0,0,0,75,80,111,110,50,170.12,294,9.00,-24.00,-960.00
2024-05-17 17:10:11.102107,0,0,-142,0,0,-1,75,80,113,110,50,170.17,294,22.00,-6.00,-882.00
2024-05-17 17:10:11.233008,1,0,-148,0,0,0,75,80,114,110,50,170.08,294,27.00,-19.00,-1048.00
2024-05-17 17:10:11.307762,1,0,-154,0,0,0,75,80,116,110,50,169.85,294,-65.00,24.00,-872.00
2024-05-17 17:10:11.357063,1,0,-160,0,0,0,75,80,117,110,50,170.13,294,76.00,-50.00,-953.00
2024-05-17 17:10:11.538407,1,0,-166,0,0,0,76,80,118,110,50,170.62,295,-7.00,3.00,-924.00
2024-05-17 17:10:11.612071,1,0,-173,0,0,0,76,80,120,110,50,170.19,295,40.00,26.00,-1008.00
2024-05-17 17:10:11.745064,1,0,-179,0,0,0,76,80,120,120,50,170.07,295,23.00,28.00,-1011.00
2024-05-17 17:10:11.765123,1,0,174,0,0,0,76,80,121,120,50,170.14,295,28.00,19.00,-1094.00
2024-05-17 17:10:11.947975,1,1,168,0,0,0,76,80,122,120,50,170.16,295,23.00,30.00,-988.00
2024-05-17 17:10:11.969260,1,0,162,0,0,0,76,80,122,120,50,170.24,295,30.00,-4.00,-982.00
2024-05-17 17:10:12.153787,1,0,156,0,0,0,76,80,123,120,50,170.13,295,12.00,23.00,-942.00
2024-05-17 17:10:12.173059,1,0,151,0,0,0,76,80,124,120,50,170.04,295,-29.00,38.00,-922.00
2024-05-17 17:10:12.357584,2,0,145,0,0,0,76,80,124,120,50,170.15,295,98.00,-10.00,-1026.00
2024-05-17 17:10:12.376967,2,0,139,0,0,0,76,80,125,120,50,169.93,295,97.00,11.00,-968.00
2024-05-17 17:10:12.562334,2,0,133,0,0,0,77,79,125,120,50,170.28,296,9.00,27.00,-868.00
2024-05-17 17:10:12.580955,2,0,127,0,0,0,77,79,125,120,50,170.10,296,10.00,20.00,-914.00
2024-05-17 17:10:12.767525,2,0,121,0,0,0,77,79,125,120,50,170.09,296,6.00,28.00,-1003.00
2024-05-17 17:10:12.794580,2,0,115,0,0,0,77,79,125,120,50,170.40,296,31.00,18.00,-936.00
2024-05-17 17:10:12.887146,2,0,109,0,0,0,77,79,125,120,50,170.46,296,-3.00,38.00,-880.00
2024-05-17 17:10:13.074320,1,0,103,0,0,0,77,79,125,120,50,170.55,296,-68.00,12.00,-850.00
2024-05-17 17:10:13.090992,1,0,97,0,0,0,77,79,126,120,50,170.14,296,6.00,-3.00,-1067.00
2024-05-17 17:10:13.279328,1,0,91,0,0,0,77,79,126,120,49,170.29,296,71.00,13.00,-960.00
2024-05-17 17:10:13.294950,1,0,85,0,0,0,77,79,125,120,49,170.16,296,-27.00,39.00,-917.00
2024-05-17 17:10:13.483993,2,0,79,0,0,0,77,79,126,120,49,170.01,296,-7.00,47.00,-941.00
2024-05-17 17:10:13.498948,2,0,73,0,0,0,76,78,125,120,49,170.21,297,12.00,72.00,-1039.00
2024-05-17 17:10:13.688700,2,0,67,0,0,0,76,78,126,120,49,170.19,297,92.00,16.00,-1068.00
2024-05-17 17:10:13.702883,3,-1,61,0,0,0,76,78,125,120,49,170.26,297,38.00,25.00,-1058.00
2024-05-17 17:10:13.896291,3,-1,55,0,0,0,76,78,125,120,49,170.39,297,32.00,58.00,-1078.00
2024-05-17 17:10:13.906882,2,-1,49,0,0,0,76,78,125,120,49,170.10,297,54.00,26.00,-1065.00
2024-05-17 17:10:14.098300,2,-1,43,0,0,0,76,78,124,120,49,170.18,297,28.00,50.00,-1006.00
2024-05-17 17:10:14.110836,2,-2,36,0,0,0,76,78,124,120,49,170.30,297,37.00,56.00,-1005.00
2024-05-17 17:10:14.303393,2,-2,30,0,0,0,76,78,123,120,49,169.87,297,16.00,31.00,-929.00
2024-05-17 17:10:14.314872,2,-2,24,0,0,0,76,78,122,120,49,170.47,297,-17.00,49.00,-971.00
2024-05-17 17:10:14.507899,2,-1,19,0,0,0,76,78,121,120,49,169.97,297,32.00,23.00,-935.00
2024-05-17 17:10:14.522297,2,-1,16,0,0,0,76,80,119,120,49,170.02,298,-1.00,83.00,-968.00
2024-05-17 17:10:14.620878,2,-1,13,0,0,0,76,80,118,120,49,170.22,298,22.00,55.00,-1020.00
2024-05-17 17:10:14.722904,2,-1,11,0,0,0,76,80,117,120,49,169.93,298,-11.00,67.00,-915.00
2024-05-17 17:10:14.825221,2,-1,10,0,0,0,76,80,115,120,49,170.31,298,34.00,22.00,-1022.00
2024-05-17 17:10:14.941202,1,0,9,0,0,0,76,80,114,120,49,170.00,298,40.00,39.00,-1052.00
2024-05-17 17:10:15.029189,0,-1,8,0,0,0,76,80,113,110,49,170.02,298,-6.00,29.00,-1006.00
2024-05-17 17:10:15.130999,0,-1,7,0,0,0,76,80,111,110,49,170.10,298,-76.00,37.00,-906.00
2024-05-17 17:10:15.182177,0,-1,7,0,0,0,76,80,111,110,49,169.99,298,25.00,21.00,-993.00
2024-05-17 17:10:15.327486,0,-1,7,0,0,0,76,80,110,110,49,170.26,298,12.00,8.00,-997.00
2024-05-17 17:10:15.386027,1,-1,7,0,0,0,76,80,109,110,49,169.97,298,15.00,48.00,-1014.00
2024-05-17 17:10:15.539467,1,-1,7,0,0,0,76,80,108,110,49,169.89,299,-51.00,52.00,-954.00
2024-05-17 17:10:15.739735,0,-1,7,0,0,0,76,80,108,110,49,170.12,299,15.00,11.00,-1017.00
2024-05-17 17:10:15.742882,0,-1,7,0,0,0,76,80,108,110,49,170.20,299,99.00,7.00,-1127.00
2024-05-17 17:10:15.795532,1,-1,7,0,0,0,76,80,107,110,49,169.84,299,48.00,48.00,-1086.00
2024-05-17 17:10:15.895924,1,-1,7,0,0,0,76,80,107,110,49,169.84,299,9.00,21.00,-952.00
2024-05-17 17:10:16.045685,1,-1,7,0,0,0,76,80,108,110,49,169.97,299,49.00,13.00,-1007.00
2024-05-17 17:10:16.100101,1,-1,7,0,0,0,76,80,107,110,49,170.06,299,64.00,12.00,-998.00
2024-05-17 17:10:16.249336,1,-1,7,0,0,0,76,80,107,110,49,170.24,299,5.00,48.00,-1059.00
2024-05-17 17:10:16.304029,0,-1,7,0,0,0,76,80,107,110,49,169.87,299,25.00,52.00,-1078.00
2024-05-17 17:10:16.453732,1,-1,7,0,0,0,76,80,107,110,49,169.84,300,48.00,2.00,-921.00
2024-05-17 17:10:16.508047,1,-1,7,0,0,0,76,78,107,110,49,169.98,300,-24.00,69.00,-960.00
2024-05-17 17:10:16.658784,2,-1,7,0,0,0,76,78,106,110,49,170.06,300,27.00,61.00,-1104.00
2024-05-17 17:10:16.711902,1,-1,7,0,0,0,76,78,106,110,49,170.29,300,6.00,51.00,-1005.00
2024-05-17 17:10:16.863615,1,-1,7,0,0,0,76,78,106,110,49,170.15,300,6.00,41.00,-975.00
2024-05-17 17:10:16.915856,0,-1,7,0,0,0,76,78,107,110,49,169.80,300,32.00,44.00,-1064.00
2024-05-17 17:10:17.033334,0,-2,7,0,0,0,76,78,107,110,49,169.93,300,29.00,45.00,-1051.00
2024-05-17 17:10:17.119870,0,-2,7,0,0,0,76,78,108,110,49,170.32,300,17.00,57.00,-1012.00
2024-05-17 17:10:17.273715,1,-2,7,0,0,0,76,78,110,110,49,170.19,300,0.00,58.00,-952.00
2024-05-17 17:10:17.324277,1,-1,7,0,0,-1,76,78,112,110,49,169.77,300,-14.00,29.00,-972.00
2024-05-17 17:10:17.477693,1,-1,7,0,0,-1,76,78,115,110,49,169.86,301,-22.00,54.00,-966.00
2024-05-17 17:10:17.528161,2,0,7,0,0,0,75,78,117,110,49,169.89,301,34.00,21.00,-1055.00
2024-05-17 17:10:17.682452,1,0,7,0,0,0,75,78,118,110,49,170.08,301,14.00,86.00,-918.00
2024-05-17 17:10:17.731782,1,-1,7,0,0,0,75,78,120,110,49,170.00,301,-40.00,80.00,-949.00
2024-05-17 17:10:17.887476,1,-1,7,0,0,0,75,78,123,120,49,170.28,301,12.00,40.00,-972.00
2024-05-17 17:10:17.936227,1,-1,7,0,0,0,75,78,124,120,49,170.13,301,22.00,25.00,-981.00
2024-05-17 17:10:18.038737,1,-1,7,0,0,0,75,78,126,120,49,170.26,301,-9.00,21.00,-914.00
2024-05-17 17:10:18.139893,1,-1,7,0,0,0,75,78,129,120,49,170.23,301,19.00,-13.00,-1042.00
2024-05-17 17:10:18.241940,1,-1,7,0,0,0,75,78,131,120,48,169.95,301,-68.00,49.00,-893.00
2024-05-17 17:10:18.399522,1,-1,7,0,0,0,75,78,133,120,48,170.32,301,-42.00,59.00,-781.00
2024-05-17 17:10:18.445843,1,-1,7,0,0,0,75,78,135,130,48,170.14,302,-31.00,89.00,-950.00
2024-05-17 17:10:18.604269,1,-1,7,0,0,0,76,78,136,130,48,170.39,302,-109.00,79.00,-907.00
2024-05-17 17:10:18.649793,1,-1,7,0,0,0,76,78,137,130,48,170.26,302,20.00,29.00,-839.00
2024-05-17 17:10:18.809772,1,-1,7,0,0,0,76,78,137,130,48,170.42,302,118.00,-6.00,-975.00
2024-05-17 17:10:18.854656,1,-1,7,0,0,1,76,78,137,130,48,170.35,302,8.00,43.00,-900.00
2024-05-17 17:10:19.013692,1,-1,7,0,0,1,76,78,137,130,48,170.31,302,89.00,-5.00,-1002.00
2024-05-17 17:10:19.057817,1,-1,7,0,0,1,76,78,137,130,48,170.23,302,77.00,-6.00,-1034.00
2024-05-17 17:10:19.223444,1,-1,7,0,0,1,76,78,136,130,48,170.24,302,-76.00,89.00,-831.00
2024-05-17 17:10:19.270019,1,-1,7,0,0,0,76,78,136,130,48,170.15,302,21.00,10.00,-1065.00
2024-05-17 17:10:19.317463,1,-1,7,0,0,0,76,78,135,130,48,170.19,302,-38.00,34.00,-840.00
2024-05-17 17:10:19.415267,1,-1,7,0,0,1,76,78,135,130,48,170.43,303,33.00,-2.00,-1012.00
2024-05-17 17:10:19.517189,1,-1,7,0,0,1,75,79,135,130,48,170.37,303,6.00,13.00,-976.00
2024-05-17 17:10:19.618826,1,-1,7,0,0,1,75,79,134,130,48,170.30,303,-25.00,116.00,-986.00
2024-05-17 17:10:19.730560,0,-1,7,0,0,1,75,79,134,130,48,170.45,303,23.00,27.00,-1063.00
2024-05-17 17:10:19.823394,1,-1,7,0,0,0,75,79,133,130,48,170.25,303,39.00,40.00,-974.00
2024-05-17 17:10:19.935995,1,-1,7,0,0,1,75,79,133,130,48,170.40,303,24.00,36.00,-1065.00
2024-05-17 17:10:20.027583,1,-1,7,0,0,0,75,79,132,130,48,170.21,303,-16.00,28.00,-925.00
2024-05-17 17:10:20.143462,1,-1,7,0,0,1,75,79,132,130,48,170.48,303,-15.00,34.00,-947.00
2024-05-17 17:10:20.230927,1,-1,7,0,0,0,75,79,132,130,48,170.16,303,79.00,-1.00,-1038.00
2024-05-17 17:10:20.334275,1,-1,7,0,0,0,75,79,132,130,48,170.42,303,38.00,33.00,-1075.00
2024-05-17 17:10:20.434775,1,-1,7,0,0,1,75,79,131,130,48,170.30,304,9.00,27.00,-1050.00
2024-05-17 17:10:20.549689,1,-1,7,0,0,0,75,77,131,130,48,170.15,304,13.00,41.00,-897.00
2024-05-17 17:10:20.642792,1,-1,7,0,0,0,75,77,131,130,48,170.07,304,39.00,40.00,-980.00
2024-05-17 17:10:20.740662,2,-1,7,0,0,0,75,77,130,130,48,170.17,304,-48.00,32.00,-914.00
2024-05-17 17:10:20.857118,2,0,7,0,0,0,75,77,130,130,48,170.11,304,31.00,17.00,-996.00
2024-05-17 17:10:20.947837,2,0,7,0,0,0,75,77,130,130,48,170.08,304,30.00,28.00,-984.00
2024-05-17 17:10:21.046680,1,0,7,0,0,0,75,77,129,130,48,170.40,304,47.00,38.00,-1043.00
2024-05-17 17:10:21.166452,2,-1,7,0,0,0,75,77,129,130,48,170.14,304,95.00,-16.00,-1103.00
2024-05-17 17:10:21.250684,1,-1,7,0,0,0,75,77,128,120,48,170.34,304,-30.00,45.00,-919.00
2024-05-17 17:10:21.368978,1,-1,7,0,0,0,75,77,127,120,48,170.09,304,-44.00,20.00,-888.00
2024-05-17 17:10:21.456251,1,-1,7,0,0,1,75,77,126,120,48,170.35,305,-10.00,10.00,-988.00
2024-05-17 17:10:21.557101,0,-1,7,0,0,0,74,78,125,120,48,170.20,305,47.00,-10.00,-934.00
2024-05-17 17:10:21.676107,1,-1,7,0,0,1,74,78,124,120,48,170.00,305,27.00,41.00,-989.00
2024-05-17 17:10:21.761427,1,-1,7,0,0,1,74,78,123,120,48,169.94,305,26.00,12.00,-1074.00
2024-05-17 17:10:21.863539,1,-1,7,0,0,0,74,78,122,120,48,170.07,305,-15.00,36.00,-953.00
2024-05-17 17:10:21.964862,1,-1,7,0,0,0,74,78,121,120,48,170.14,305,93.00,4.00,-1154.00
2024-05-17 17:10:22.069854,1,-1,7,0,0,0,74,78,120,120,48,170.27,305,-53.00,44.00,-966.00
2024-05-17 17:10:22.169598,1,-1,7,0,0,0,74,78,120,120,48,170.01,305,37.00,-7.00,-978.00
2024-05-17 17:10:22.274611,1,-1,7,0,0,0,74,78,119,120,47,170.03,305,39.00,18.00,-1026.00
2024-05-17 17:10:22.375617,2,-1,7,0,0,0,74,78,119,120,47,170.23,305,61.00,33.00,-1051.00
2024-05-17 17:10:22.474669,2,-1,7,0,0,0,74,78,118,120,47,169.85,306,130.00,-48.00,-1038.00
2024-05-17 17:10:22.597642,1,-1,7,0,0,0,76,78,117,120,47,170.01,306,0.00,63.00,-1033.00
2024-05-17 17:10:22.678567,1,-1,7,0,0,0,76,78,116,120,47,169.98,306,-55.00,52.00,-836.00
2024-05-17 17:10:22.802600,0,-1,7,0,0,0,76,78,116,120,47,170.02,306,-43.00,67.00,-904.00
2024-05-17 17:10:22.886945,0,-1,7,0,0,0,76,78,115,110,47,170.10,306,23.00,24.00,-1017.00
2024-05-17 17:10:22.933579,1,-1,7,0,0,0,76,78,115,110,47,170.29,306,16.00,11.00,-944.00
2024-05-17 17:10:23.089608,0,-1,7,0,0,0,76,78,114,110,47,170.17,306,-66.00,59.00,-956.00
2024-05-17 17:10:23.137805,0,-2,7,0,0,0,76,78,114,110,47,170.01,306,45.00,27.00,-1084.00
2024-05-17 17:10:23.314624,1,-1,7,0,0,0,76,78,114,110,47,170.20,306,12.00,61.00,-966.00
2024-05-17 17:10:23.341579,1,-1,7,0,0,0,76,78,114,110,47,170.28,306,4.00,41.00,-976.00
2024-05-17 17:10:23.519320,1,-1,7,0,0,0,76,78,113,110,47,170.13,307,-8.00,35.00,-951.00
2024-05-17 17:10:23.545579,1,-1,7,0,0,0,76,78,113,110,47,170.08,307,64.00,-36.00,-1012.00
2024-05-17 17:10:23.726516,1,-1,7,0,0,0,76,78,113,110,47,169.77,307,16.00,27.00,-1033.00
2024-05-17 17:10:23.751995,1,-1,7,0,0,0,76,78,113,110,47,169.85,307,29.00,48.00,-1045.00
2024-05-17 17:10:23.851681,1,-1,7,0,0,0,76,78,113,110,47,170.22,307,19.00,-7.00,-1000.00
2024-05-17 17:10:24.031451,1,-1,7,0,0,0,76,78,113,110,47,169.98,307,3.00,48.00,-927.00
2024-05-17 17:10:24.055504,1,-1,7,0,0,0,76,78,113,110,47,170.06,307,-51.00,61.00,-990.00
2024-05-17 17:10:24.240332,1,-1,7,0,0,0,76,78,113,110,47,170.20,307,-40.00,58.00,-837.00
2024-05-17 17:10:24.259503,1,-1,7,0,0,0,76,78,113,110,47,170.17,307,-7.00,69.00,-1000.00
2024-05-17 17:10:24.361521,1,-1,7,0,0,0,76,78,114,110,47,170.15,307,-25.00,74.00,-857.00
2024-05-17 17:10:24.543247,1,-1,7,0,0,0,76,78,113,110,47,169.94,308,115.00,-42.00,-1010.00
2024-05-17 17:10:24.565495,1,-1,7,0,0,0,75,79,115,110,47,170.13,308,48.00,-7.00,-1126.00
2024-05-17 17:10:24.747942,1,-1,7,0,0,0,75,79,114,110,47,170.16,308,83.00,21.00,-1088.00
2024-05-17 17:10:24.769452,1,-1,7,0,0,0,75,79,115,110,47,169.93,308,-7.00,46.00,-965.00
2024-05-17 17:10:24.953036,1,-2,7,0,0,0,75,79,115,110,47,169.98,308,-36.00,22.00,-943.00
2024-05-17 17:10:24.973490,0,-1,7,0,0,0,75,79,115,110,47,170.22,308,15.00,57.00,-1030.00
2024-05-17 17:10:25.075598,1,-1,7,0,0,0,75,79,116,110,47,170.04,308,-18.00,40.00,-941.00
2024-05-17 17:10:25.259876,1,-1,7,0,0,0,75,79,116,110,47,170.05,308,-1.00,60.00,-937.00
2024-05-17 17:10:25.279353,2,-1,7,0,0,0,75,79,116,110,47,170.10,308,16.00,29.00,-1067.00
2024-05-17 17:10:25.464828,2,-1,7,0,0,0,75,79,117,110,47,169.93,308,-19.00,61.00,-944.00
2024-05-17 17:10:25.485423,1,-1,7,0,0,0,75,79,116,120,47,169.96,309,34.00,36.00,-1069.00
2024-05-17 17:10:25.585412,1,-1,7,0,0,0,75,78,117,120,47,170.22,309,84.00,-37.00,-1060.00
2024-05-17 17:10:25.776468,1,-1,7,0,0,0,75,78,116,120,47,169.96,309,-5.00,30.00,-923.00
2024-05-17 17:10:25.789428,1,0,7,0,0,0,75,78,115,120,47,169.71,309,71.00,-13.00,-1031.00
2024-05-17 17:10:25.982874,1,0,7,0,0,0,75,78,115,120,47,169.91,309,-32.00,78.00,-919.00
2024-05-17 17:10:25.993971,1,0,7,0,0,0,75,78,115,110,47,170.24,309,45.00,32.00,-1082.00
2024-05-17 17:10:26.144561,1,0,7,0,0,0,75,78,114,110,47,170.21,309,95.00,23.00,-1077.00
2024-05-17 17:10:26.199564,1,0,7,0,0,0,75,78,113,110,47,170.10,309,-15.00,47.00,-1000.00
2024-05-17 17:10:26.300120,1,0,7,0,0,0,75,78,113,110,47,170.27,309,-73.00,65.00,-978.00
2024-05-17 17:10:26.401938,0,-1,7,0,0,0,75,78,113,110,47,170.14,309,22.00,34.00,-1068.00
2024-05-17 17:10:26.503672,0,-1,7,0,0,0,75,78,113,110,47,169.85,310,4.00,33.00,-988.00
2024-05-17 17:10:26.693627,0,-2,7,0,0,0,75,79,113,110,47,170.36,310,16.00,25.00,-932.00
2024-05-17 17:10:26.707373,0,-1,7,0,0,0,75,79,112,110,47,169.97,310,8.00,21.00,-951.00
2024-05-17 17:10:26.898505,0,-1,7,0,0,0,75,79,112,110,47,170.07,310,45.00,36.00,-1023.00
2024-05-17 17:10:26.911317,1,-1,7,0,0,0,75,79,110,110,47,170.25,310,10.00,26.00,-981.00
2024-05-17 17:10:26.962368,2,0,7,0,0,0,75,79,109,110,47,170.47,310,-37.00,61.00,-952.00
2024-05-17 17:10:27.106318,3,0,7,0,0,0,75,79,108,110,47,170.50,310,65.00,13.00,-1104.00
2024-05-17 17:10:27.166583,2,0,7,0,0,0,75,79,107,110,47,170.22,310,3.00,23.00,-981.00
2024-05-17 17:10:27.268453,2,-1,7,0,0,0,75,79,108,110,47,170.04,310,56.00,9.00,-1089.00
2024-05-17 17:10:27.410479,1,-1,7,0,0,0,75,79,107,110,47,169.87,310,45.00,61.00,-1128.00
2024-05-17 17:10:27.472370,1,-1,7,0,0,0,75,79,107,110,47,169.79,311,39.00,-13.00,-998.00
2024-05-17 17:10:27.574393,1,0,7,0,0,0,75,78,105,110,47,169.83,311,28.00,27.00,-979.00
2024-05-17 17:10:27.717623,1,0,7,0,0,0,75,78,104,110,47,170.08,311,34.00,0.00,-909.00
2024-05-17 17:10:27.778338,1,0,7,0,0,0,75,78,103,110,47,170.09,311,-26.00,19.00,-923.00
2024-05-17 17:10:27.932778,1,-1,7,0,0,0,75,78,103,110,47,170.07,311,93.00,-11.00,-1059.00
2024-05-17 17:10:27.985481,0,-1,7,0,0,0,75,78,102,110,47,169.85,311,0.00,37.00,-906.00
2024-05-17 17:10:28.084502,0,-1,7,0,0,0,75,78,102,110,47,170.24,311,128.00,5.00,-1167.00
2024-05-17 17:10:28.229617,0,-1,7,0,0,0,75,78,101,100,47,170.15,311,87.00,-42.00,-1030.00
2024-05-17 17:10:28.292906,0,-1,7,0,0,0,75,78,100,100,47,169.92,311,26.00,22.00,-1005.00
2024-05-17 17:10:28.390267,0,-1,7,0,0,0,75,78,101,100,47,169.95,311,21.00,-5.00,-1055.00
2024-05-17 17:10:28.540966,1,0,7,0,0,-1,75,78,101,100,47,169.69,312,-5.00,12.00,-929.00
2024-05-17 17:10:28.600575,2,0,7,0,0,-1,76,79,101,100,47,169.71,312,63.00,-35.00,-997.00
2024-05-17 17:10:28.702350,2,0,7,0,0,-1,76,79,100,100,47,170.07,312,-20.00,9.00,-924.00
2024-05-17 17:10:28.804032,2,-1,7,0,0,0,76,79,99,100,47,170.01,312,65.00,-30.00,-1019.00
2024-05-17 17:10:28.900572,1,-1,7,0,0,0,76,79,98,100,47,170.05,312,-22.00,42.00,-920.00
2024-05-17 17:10:29.049136,1,-1,7,0,0,0,76,79,97,100,47,169.99,312,46.00,-7.00,-1024.00
2024-05-17 17:10:29.104940,0,-1,7,0,0,0,76,79,96,100,47,169.80,312,-64.00,70.00,-1026.00
2024-05-17 17:10:29.206976,0,-1,7,0,0,0,76,79,96,110,46,169.83,312,1.00,22.00,-943.00
2024-05-17 17:10:29.308421,0,-1,7,0,0,0,76,79,95,110,46,170.06,312,130.00,-32.00,-1089.00
2024-05-17 17:10:29.458245,0,-1,7,0,0,0,76,79,94,110,46,169.77,312,7.00,49.00,-1075.00
2024-05-17 17:10:29.512171,0,-1,7,0,0,0,76,79,93,100,46,170.00,313,20.00,16.00,-1075.00
2024-05-17 17:10:29.663906,0,-1,7,0,0,0,75,78,93,100,46,169.85,313,41.00,32.00,-1010.00
2024-05-17 17:10:29.717228,0,-1,7,0,0,0,75,78,92,100,46,169.70,313,25.00,45.00,-1062.00
2024-05-17 17:10:29.867962,1,-1,7,0,0,0,75,78,91,100,46,169.97,313,55.00,13.00,-965.00
2024-05-17 17:10:29.920135,1,-1,7,0,0,0,75,78,89,100,46,169.97,313,-10.00,33.00,-872.00
2024-05-17 17:10:30.072682,1,-1,7,0,0,0,75,78,87,100,46,169.77,313,27.00,19.00,-954.00
2024-05-17 17:10:30.124859,1,-1,7,0,0,1,75,78,84,100,46,169.62,313,70.00,-27.00,-948.00
2024-05-17 17:10:30.206862,1,-1,7,0,0,2,75,78,80,100,46,169.92,313,34.00,10.00,-947.00
2024-05-17 17:10:30.284592,1,-1,7,0,0,3,75,78,75,90,46,169.58,313,35.00,-1.00,-905.00
2024-05-17 17:10:30.385021,1,-1,7,0,0,4,75,78,70,90,46,169.47,313,29.00,33.00,-976.00
2024-05-17 17:10:30.492091,1,-1,8,0,0,4,75,78,64,80,46,169.71,314,-7.00,69.00,-961.00
2024-05-17 17:10:30.586025,1,-1,8,0,0,4,75,79,58,80,46,169.43,314,-59.00,72.00,-947.00
2024-05-17 17:10:30.685077,1,-1,8,0,0,5,75,79,54,70,46,169.50,314,22.00,19.00,-972.00
2024-05-17 17:10:30.789390,1,-1,8,0,0,5,75,79,48,70,46,169.64,314,-9.00,24.00,-923.00
2024-05-17 17:10:30.889889,1,-1,8,0,0,5,75,79,42,60,46,169.65,314,40.00,56.00,-1026.00
2024-05-17 17:10:30.997630,0,-1,7,0,0,5,75,79,40,60,46,169.43,314,2.00,21.00,-956.00
2024-05-17 17:10:31.100166,0,-2,7,0,0,4,75,79,35,50,46,169.23,314,20.00,43.00,-1035.00
2024-05-17 17:10:31.196178,0,-1,7,0,0,4,75,79,30,50,46,169.16,314,2.00,52.00,-1029.00
2024-05-17 17:10:31.308629,0,-1,7,0,0,4,75,79,26,40,46,169.41,314,85.00,-7.00,-1108.00
2024-05-17 17:10:31.399426,1,-1,7,0,0,4,75,79,20,40,46,169.21,314,34.00,10.00,-1049.00
2024-05-17 17:10:31.509869,0,-1,7,0,0,4,75,79,14,30,46,168.48,315,4.00,21.00,-933.00
2024-05-17 17:10:31.604307,0,-1,7,0,0,4,75,79,10,30,46,167.81,315,-9.00,37.00,-975.00
2024-05-17 17:10:31.711026,0,-1,7,0,0,3,75,79,10,20,46,166.06,315,51.00,0.00,-1199.00
