TS,pitch,roll,yaw,vgx,vgy,vgz,templ,temph,tof,h,bat,baro,time,agx,agy,agz
2024-05-17 17:11:00.895849,0,0,1,0,0,0,78,81,10,0,46,169.01,316,-11.00,9.00,-999.00
2024-05-17 17:11:00.930533,0,0,1,0,0,0,78,81,10,0,46,168.85,316,-8.00,7.00,-1000.00
2024-05-17 17:11:01.099788,0,0,1,0,0,0,78,81,10,0,46,168.89,316,-10.00,8.00,-1000.00
2024-05-17 17:11:01.134596,0,0,1,0,0,0,78,81,10,0,46,168.86,316,-8.00,8.00,-1000.00
2024-05-17 17:11:01.304320,0,0,1,0,0,0,78,81,10,0,46,169.23,316,-9.00,9.00,-1001.00
2024-05-17 17:11:01.338630,0,0,1,0,0,0,78,81,10,0,46,168.83,316,-10.00,7.00,-1001.00
2024-05-17 17:11:01.509372,0,0,1,0,0,0,78,81,10,0,46,169.02,316,-9.00,9.00,-998.00
2024-05-17 17:11:01.542482,0,0,1,0,0,0,78,81,10,0,46,168.99,316,-8.00,7.00,-999.00
2024-05-17 17:11:01.715972,0,0,1,0,0,0,78,81,10,0,46,169.16,316,-9.00,8.00,-1001.00
2024-05-17 17:11:01.747893,0,0,1,0,0,0,77,81,10,0,46,168.91,316,-9.00,8.00,-1002.00
2024-05-17 17:11:01.848587,0,0,1,0,0,0,77,81,10,0,46,169.07,316,-9.00,8.00,-998.00
2024-05-17 17:11:01.950804,0,0,1,0,0,0,77,81,10,0,46,168.69,316,-10.00,8.00,-1000.00
2024-05-17 17:11:02.123667,0,0,1,0,0,0,77,81,10,0,46,168.86,316,-8.00,8.00,-1000.00
2024-05-17 17:11:02.155737,0,0,1,0,0,0,77,81,10,0,46,168.80,316,-9.00,7.00,-999.00
2024-05-17 17:11:02.330718,0,0,1,0,0,0,77,81,10,0,46,169.17,316,-8.00,8.00,-1000.00
2024-05-17 17:11:02.359338,0,0,1,0,0,0,77,81,10,0,46,169.06,316,-9.00,9.00,-1001.00
2024-05-17 17:11:02.533800,0,0,1,0,0,0,77,81,10,0,46,168.99,316,-9.00,9.00,-1000.00
2024-05-17 17:11:02.562604,0,0,1,0,0,0,77,81,10,0,46,168.92,316,-8.00,7.00,-1003.00
2024-05-17 17:11:02.738069,0,0,1,0,0,0,77,81,10,0,46,168.89,316,-8.00,8.00,-999.00
2024-05-17 17:11:02.768241,0,0,1,0,0,0,78,81,10,0,46,168.75,316,-9.00,9.00,-999.00
2024-05-17 17:11:02.868651,0,0,1,0,0,0,78,81,10,0,46,168.82,316,-8.00,8.00,-998.00
2024-05-17 17:11:03.045317,0,0,1,0,0,0,78,81,10,0,46,168.87,316,-11.00,9.00,-999.00
2024-05-17 17:11:03.072382,0,0,1,0,0,0,78,81,10,0,46,168.85,316,-8.00,7.00,-1001.00
2024-05-17 17:11:03.250107,0,0,1,0,0,0,78,81,10,0,46,168.90,316,-9.00,8.00,-998.00
2024-05-17 17:11:03.276510,0,0,1,0,0,0,78,81,10,0,46,168.68,316,-7.00,7.00,-1001.00
2024-05-17 17:11:03.381667,0,0,1,0,0,0,78,81,10,0,46,169.00,316,-10.00,8.00,-997.00
2024-05-17 17:11:03.480416,0,0,1,0,0,0,78,81,10,0,46,168.51,316,-9.00,8.00,-1001.00
2024-05-17 17:11:03.531592,0,0,1,0,0,0,78,81,10,0,46,168.95,316,-10.00,8.00,-1001.00
2024-05-17 17:11:03.659648,0,0,1,0,0,0,78,81,10,0,46,168.94,316,-9.00,7.00,-1000.00
2024-05-17 17:11:03.736428,0,0,1,0,0,0,79,81,10,0,46,168.99,316,-10.00,8.00,-1001.00
2024-05-17 17:11:03.865863,0,0,1,0,0,0,79,81,10,0,46,168.92,316,-9.00,7.00,-998.00
2024-05-17 17:11:03.939472,0,0,1,0,0,0,79,81,10,0,46,168.86,316,-10.00,7.00,-999.00
2024-05-17 17:11:04.041394,0,0,1,0,0,0,79,81,10,0,46,169.01,316,-10.00,7.00,-998.00
2024-05-17 17:11:04.171537,0,0,1,0,0,0,79,81,10,0,46,168.95,317,-8.00,12.00,-1005.00
2024-05-17 17:11:04.245202,0,0,1,0,0,0,79,81,10,0,46,168.95,317,-9.00,16.00,-1002.00
2024-05-17 17:11:04.376494,0,0,1,0,0,0,79,81,10,0,46,168.95,317,-9.00,-6.00,-996.00
2024-05-17 17:11:04.449338,0,0,2,0,0,0,79,81,10,0,46,168.95,317,-78.00,3.00,-937.00
2024-05-17 17:11:04.581908,0,0,3,0,0,0,79,81,10,0,46,168.95,317,27.00,3.00,-1104.00
2024-05-17 17:11:04.653243,0,0,4,0,0,0,79,81,10,0,46,168.95,317,39.00,-10.00,-965.00
2024-05-17 17:11:04.785943,0,0,4,0,0,0,79,81,10,0,46,168.95,317,31.00,27.00,-1095.00
2024-05-17 17:11:04.857282,0,2,5,0,0,-1,79,81,10,-10,46,168.95,317,40.00,0.00,-1334.00
2024-05-17 17:11:04.990681,1,-1,5,0,0,-4,79,81,10,-10,46,168.95,317,15.00,-12.00,-1215.00
2024-05-17 17:11:05.061257,1,0,5,0,0,-5,79,81,21,0,46,169.14,317,-11.00,26.00,-1039.00
2024-05-17 17:11:05.195529,0,0,5,0,0,-6,79,81,29,0,46,169.22,318,-22.00,37.00,-987.00
2024-05-17 17:11:05.265155,0,0,5,0,0,-6,79,81,38,0,46,169.22,318,86.00,-23.00,-1003.00
2024-05-17 17:11:05.400518,0,-1,5,0,0,-6,79,81,46,0,46,169.50,318,51.00,-3.00,-1010.00
2024-05-17 17:11:05.469737,0,-1,5,0,0,-6,79,81,56,0,46,169.68,318,-5.00,43.00,-929.00
2024-05-17 17:11:05.571178,0,-1,5,0,0,-5,79,81,64,10,46,169.40,318,56.00,-34.00,-876.00
2024-05-17 17:11:05.707525,0,-1,5,0,0,-4,79,81,67,10,46,169.99,318,90.00,-46.00,-891.00
2024-05-17 17:11:05.775275,0,0,5,0,0,-3,79,81,75,20,46,169.89,318,-28.00,-17.00,-874.00
2024-05-17 17:11:05.877883,1,0,5,0,0,-2,79,81,81,20,46,169.95,318,38.00,-21.00,-834.00
2024-05-17 17:11:05.979228,1,0,5,0,0,-1,79,81,85,30,46,169.84,318,119.00,-23.00,-1096.00
2024-05-17 17:11:06.081147,1,0,5,0,0,-1,79,81,89,30,46,169.74,318,48.00,17.00,-1016.00
2024-05-17 17:11:06.183146,1,0,5,0,0,0,79,81,93,30,46,170.14,319,-13.00,18.00,-872.00
2024-05-17 17:11:06.285188,1,0,5,0,0,0,79,81,94,30,46,170.25,319,-12.00,33.00,-922.00
2024-05-17 17:11:06.387167,1,0,5,0,0,0,79,81,96,30,46,170.30,319,78.00,-40.00,-970.00
2024-05-17 17:11:06.528712,0,0,5,0,0,1,79,81,97,40,46,169.99,319,116.00,-25.00,-1046.00
2024-05-17 17:11:06.591147,1,0,5,0,0,1,79,81,97,40,46,169.83,319,35.00,24.00,-1029.00
2024-05-17 17:11:06.731551,1,0,5,0,0,1,79,81,97,40,46,169.83,319,-27.00,37.00,-965.00
2024-05-17 17:11:06.795140,0,-1,5,0,0,1,78,81,98,40,46,170.27,319,-68.00,74.00,-833.00
2024-05-17 17:11:06.936307,0,-1,5,0,0,1,78,81,98,40,46,170.12,319,63.00,-11.00,-1083.00
2024-05-17 17:11:06.999096,0,-1,5,0,0,1,78,81,98,40,46,170.13,319,-39.00,55.00,-997.00
2024-05-17 17:11:07.141133,1,-1,5,0,0,1,78,81,98,40,46,170.12,319,54.00,16.00,-1143.00
2024-05-17 17:11:07.152581,0,-1,5,0,0,1,78,81,98,40,46,170.36,320,82.00,1.00,-1115.00
2024-05-17 17:11:07.351295,0,-1,4,0,0,1,78,81,99,40,46,169.95,320,-42.00,74.00,-878.00
2024-05-17 17:11:07.356427,1,-1,4,0,0,0,78,81,98,40,46,170.08,320,-41.00,50.00,-844.00
2024-05-17 17:11:07.550713,1,-1,4,0,0,1,78,81,97,40,46,169.98,320,144.00,-71.00,-1071.00
2024-05-17 17:11:07.560389,1,-1,4,0,0,1,78,81,95,40,46,170.13,320,-83.00,67.00,-926.00
2024-05-17 17:11:07.662142,1,-1,4,0,0,1,78,81,92,40,46,170.06,320,54.00,-16.00,-1013.00
2024-05-17 17:11:07.858034,1,0,5,0,0,1,78,82,89,40,46,170.02,320,-32.00,60.00,-841.00
2024-05-17 17:11:07.866155,1,-1,5,0,0,2,78,82,87,40,46,170.13,320,-9.00,51.00,-968.00
2024-05-17 17:11:08.074314,0,-1,5,0,0,2,78,82,85,30,46,170.13,320,-8.00,59.00,-1130.00
2024-05-17 17:11:08.076848,0,-1,5,0,0,1,78,82,83,30,46,169.70,320,48.00,39.00,-1102.00
2024-05-17 17:11:08.172531,0,-1,4,0,0,1,78,82,82,30,46,169.82,321,103.00,-1.00,-1071.00
2024-05-17 17:11:08.370332,1,-1,4,0,0,0,78,82,81,30,46,170.16,321,50.00,8.00,-994.00
2024-05-17 17:11:08.379180,1,-1,4,0,0,1,78,82,79,30,46,169.68,321,-31.00,53.00,-992.00
2024-05-17 17:11:08.478018,1,-1,4,0,0,0,78,82,78,30,46,169.67,321,2.00,30.00,-950.00
2024-05-17 17:11:08.677070,0,-1,4,0,0,0,78,82,77,30,46,169.54,321,6.00,44.00,-933.00
2024-05-17 17:11:08.682112,1,-1,4,0,0,0,78,82,75,30,46,170.02,321,5.00,40.00,-1010.00
2024-05-17 17:11:08.881886,0,-1,4,0,0,0,77,81,74,30,46,169.69,321,14.00,12.00,-944.00
2024-05-17 17:11:08.886066,1,-1,4,0,0,0,77,81,73,30,46,169.65,321,85.00,-36.00,-1046.00
2024-05-17 17:11:09.086740,0,-1,4,0,0,0,77,81,72,20,46,169.74,321,73.00,10.00,-1173.00
2024-05-17 17:11:09.093036,0,-1,4,0,0,0,77,81,72,20,46,169.91,321,12.00,25.00,-1071.00
2024-05-17 17:11:09.192033,0,-1,4,0,0,0,77,81,71,20,46,169.80,322,119.00,-15.00,-1151.00
2024-05-17 17:11:09.294028,0,-1,4,0,0,0,77,81,71,20,46,169.86,322,-32.00,38.00,-936.00
2024-05-17 17:11:09.396263,0,-1,4,0,0,0,77,81,71,20,46,169.79,322,-54.00,58.00,-1010.00
2024-05-17 17:11:09.498975,0,-1,4,0,0,0,77,81,70,20,46,169.81,322,15.00,26.00,-1115.00
2024-05-17 17:11:09.602326,1,-1,4,0,0,0,77,81,70,20,46,169.83,322,-66.00,79.00,-933.00
2024-05-17 17:11:09.705014,1,-1,4,0,0,0,77,81,70,20,46,169.90,322,9.00,-11.00,-999.00
2024-05-17 17:11:09.804920,0,-1,4,0,0,0,78,80,70,20,46,169.73,322,76.00,24.00,-1082.00
2024-05-17 17:11:09.909300,0,-1,4,0,0,0,78,80,70,20,46,170.01,322,-5.00,55.00,-998.00
2024-05-17 17:11:10.007991,0,-1,4,0,0,0,78,80,70,20,46,169.91,322,-15.00,52.00,-894.00
2024-05-17 17:11:10.112813,0,-1,4,0,0,0,78,80,70,20,46,169.97,322,-8.00,50.00,-975.00
2024-05-17 17:11:10.212781,0,-1,4,0,0,0,78,80,71,20,46,169.91,323,36.00,-7.00,-1017.00
2024-05-17 17:11:10.317482,1,-1,4,0,0,0,78,80,70,20,46,169.85,323,5.00,17.00,-1000.00
2024-05-17 17:11:10.415961,1,0,4,0,0,0,78,80,72,20,46,169.84,323,-18.00,30.00,-986.00
2024-05-17 17:11:10.517861,0,0,4,0,0,0,78,80,72,20,46,169.64,323,74.00,-32.00,-1015.00
2024-05-17 17:11:10.725552,0,0,4,0,0,0,78,80,71,20,46,169.45,323,0.00,41.00,-1030.00
2024-05-17 17:11:10.730386,1,0,4,0,0,0,78,80,71,20,46,169.79,323,12.00,36.00,-1017.00
2024-05-17 17:11:10.823925,1,-1,4,0,0,0,78,80,72,20,46,169.94,323,42.00,-26.00,-1052.00
2024-05-17 17:11:10.931407,1,-1,4,0,0,0,78,80,72,20,46,169.78,323,-91.00,63.00,-776.00
2024-05-17 17:11:11.029329,1,-1,4,0,0,0,78,80,72,20,46,169.87,323,-46.00,70.00,-860.00
2024-05-17 17:11:11.078910,0,-2,5,0,0,0,78,80,72,20,46,170.26,323,-68.00,50.00,-876.00
2024-05-17 17:11:11.238744,0,-2,5,0,0,0,78,80,72,20,46,169.76,324,-43.00,88.00,-988.00
2024-05-17 17:11:11.283775,0,-2,5,0,0,0,78,80,71,20,46,170.03,324,12.00,34.00,-988.00
2024-05-17 17:11:11.445743,0,-1,5,0,0,0,78,80,72,20,46,169.58,324,19.00,22.00,-1060.00
2024-05-17 17:11:11.486872,0,-1,5,0,0,-1,78,80,74,20,46,169.89,324,52.00,27.00,-1140.00
2024-05-17 17:11:11.647774,1,0,5,0,0,0,78,80,76,20,46,169.86,324,10.00,37.00,-1002.00
2024-05-17 17:11:11.690882,1,0,5,0,0,0,78,80,75,20,46,169.92,324,11.00,29.00,-1028.00
2024-05-17 17:11:11.854747,1,0,4,0,0,0,77,80,76,20,46,169.81,324,-42.00,72.00,-915.00
2024-05-17 17:11:11.894867,1,0,4,0,0,0,77,80,76,30,46,169.72,324,80.00,4.00,-1157.00
2024-05-17 17:11:12.056193,1,0,4,0,0,0,77,80,74,30,46,169.92,324,-1.00,39.00,-985.00
2024-05-17 17:11:12.098882,1,0,4,0,0,0,77,80,72,30,46,169.81,324,25.00,12.00,-973.00
2024-05-17 17:11:12.262927,0,-1,4,0,0,0,77,80,71,30,46,169.63,325,28.00,12.00,-985.00
2024-05-17 17:11:12.302826,1,0,4,0,0,0,77,80,71,20,46,169.88,325,96.00,-5.00,-1069.00
2024-05-17 17:11:12.404935,0,0,4,0,0,0,77,80,69,20,46,169.93,325,26.00,-5.00,-910.00
2024-05-17 17:11:12.570158,0,-1,4,0,0,0,77,80,67,20,46,169.77,325,-49.00,32.00,-982.00
2024-05-17 17:11:12.611051,0,-1,4,0,0,0,77,80,66,20,46,169.68,325,95.00,13.00,-1202.00
2024-05-17 17:11:12.712142,0,0,4,0,0,0,77,80,65,20,46,169.90,325,-52.00,48.00,-888.00
2024-05-17 17:11:12.813149,1,0,4,0,0,0,78,81,65,20,46,169.62,325,-99.00,58.00,-867.00
2024-05-17 17:11:12.979661,0,0,4,0,0,0,78,81,64,20,46,169.76,325,-21.00,43.00,-924.00
2024-05-17 17:11:13.016930,0,-1,4,0,0,0,78,81,64,20,46,169.84,325,57.00,30.00,-1102.00
2024-05-17 17:11:13.184968,0,-1,4,0,0,0,78,81,63,20,46,169.70,326,-11.00,45.00,-1083.00
2024-05-17 17:11:13.221022,0,-1,4,0,0,0,78,81,63,10,46,169.64,326,1.00,13.00,-1080.00
2024-05-17 17:11:13.389056,0,-1,4,0,0,0,78,81,63,10,46,169.80,326,18.00,54.00,-1068.00
2024-05-17 17:11:13.424967,1,0,4,0,0,-1,78,81,63,20,46,169.89,326,-19.00,8.00,-955.00
2024-05-17 17:11:13.596123,1,0,4,0,0,0,78,81,65,20,46,169.65,326,-3.00,30.00,-1047.00
2024-05-17 17:11:13.629861,1,0,4,0,0,-1,78,81,66,20,46,169.43,326,15.00,16.00,-1008.00
2024-05-17 17:11:13.798383,1,0,4,0,0,0,78,81,66,20,46,169.89,326,4.00,38.00,-988.00
2024-05-17 17:11:13.842190,1,0,4,0,0,0,77,80,65,20,46,169.66,326,-31.00,39.00,-956.00
2024-05-17 17:11:13.937523,1,0,4,0,0,0,77,80,66,20,46,169.70,326,-72.00,21.00,-933.00
2024-05-17 17:11:14.037785,1,0,4,0,0,0,77,80,66,20,46,169.84,326,17.00,-37.00,-968.00
2024-05-17 17:11:14.208090,1,0,4,0,0,0,77,80,66,20,46,169.77,327,68.00,-25.00,-1065.00
2024-05-17 17:11:14.246279,1,0,4,0,0,0,77,80,68,20,46,169.85,327,-25.00,36.00,-881.00
2024-05-17 17:11:14.343956,1,0,4,0,0,0,77,80,69,20,46,169.65,327,84.00,-22.00,-1010.00
2024-05-17 17:11:14.515242,1,0,4,0,0,0,77,80,69,20,46,169.54,327,33.00,18.00,-1028.00
2024-05-17 17:11:14.547834,1,-1,4,0,0,0,77,80,70,20,46,169.98,327,24.00,4.00,-1016.00
2024-05-17 17:11:14.598867,1,-1,4,0,0,-1,77,80,71,20,46,169.58,327,-10.00,10.00,-897.00
2024-05-17 17:11:14.719820,1,0,4,0,0,-1,77,80,72,20,46,169.90,327,35.00,-16.00,-911.00
2024-05-17 17:11:14.855317,1,-1,4,0,0,0,78,80,73,20,46,170.20,327,78.00,22.00,-1023.00
2024-05-17 17:11:14.955697,1,-1,4,0,0,0,78,80,73,20,46,169.68,327,-10.00,28.00,-1006.00
2024-05-17 17:11:15.130406,0,-1,5,0,0,0,78,80,74,20,46,169.84,327,20.00,-13.00,-1092.00
2024-05-17 17:11:15.130584,0,-1,5,0,0,-1,78,80,76,20,46,169.92,328,-36.00,52.00,-1112.00
2024-05-17 17:11:15.210744,0,-1,4,0,0,-2,78,80,77,30,46,169.71,328,-24.00,54.00,-1110.00
2024-05-17 17:11:15.333673,0,-1,4,0,0,-2,78,80,80,30,46,169.53,328,-69.00,78.00,-1009.00
2024-05-17 17:11:15.414662,0,-2,4,0,0,-4,78,80,84,30,46,170.03,328,14.00,12.00,-1094.00
2024-05-17 17:11:15.540009,0,-1,4,0,0,-4,78,80,87,40,46,169.77,328,43.00,16.00,-1063.00
2024-05-17 17:11:15.618699,1,-1,4,0,0,-5,78,80,92,40,46,170.18,328,2.00,35.00,-982.00
2024-05-17 17:11:15.742542,1,-1,4,0,0,-5,78,80,97,50,46,170.25,328,-42.00,70.00,-952.00
2024-05-17 17:11:15.822714,1,-1,4,0,0,-5,77,80,102,50,46,170.18,328,-9.00,24.00,-923.00
2024-05-17 17:11:15.925493,1,-1,4,0,0,-5,77,80,107,60,46,170.26,328,-80.00,73.00,-960.00
2024-05-17 17:11:16.026990,1,0,4,0,0,-5,77,80,112,60,46,170.02,328,42.00,33.00,-1080.00
2024-05-17 17:11:16.153787,2,0,4,0,0,-5,77,80,117,70,46,170.03,329,19.00,39.00,-1081.00
2024-05-17 17:11:16.230607,2,0,4,0,0,-5,77,80,122,70,46,170.24,329,36.00,43.00,-1009.00
2024-05-17 17:11:16.332607,2,0,4,0,0,-5,77,80,126,80,46,170.51,329,-1.00,11.00,-896.00
2024-05-17 17:11:16.434788,1,-1,4,0,0,-4,77,80,130,80,46,170.15,329,47.00,-1.00,-1028.00
2024-05-17 17:11:16.563499,1,-1,4,0,0,-4,77,80,133,80,46,169.96,329,4.00,49.00,-1008.00
2024-05-17 17:11:16.638576,1,-1,4,0,0,-4,77,80,137,90,46,170.23,329,35.00,44.00,-973.00
2024-05-17 17:11:16.740638,1,-1,4,0,0,-3,77,80,140,90,46,170.59,329,-13.00,71.00,-939.00
2024-05-17 17:11:16.870893,1,-1,4,0,0,-3,77,81,143,90,46,170.67,329,96.00,-6.00,-984.00
2024-05-17 17:11:16.945413,1,-1,4,0,0,-3,77,81,145,100,46,170.22,329,-15.00,34.00,-802.00
2024-05-17 17:11:17.076482,1,-1,4,0,0,-2,77,81,147,100,46,170.28,329,0.00,15.00,-927.00
2024-05-17 17:11:17.148601,0,-2,4,0,0,-2,77,81,149,100,46,170.16,330,45.00,-2.00,-928.00
2024-05-17 17:11:17.278673,0,-2,4,0,0,-2,77,81,151,100,46,170.63,330,5.00,38.00,-1080.00
2024-05-17 17:11:17.352667,0,-2,4,0,0,-2,77,81,152,100,46,170.64,330,-15.00,33.00,-897.00
2024-05-17 17:11:17.455426,0,-2,4,0,0,-1,77,81,153,100,46,170.47,330,-7.00,28.00,-948.00
2024-05-17 17:11:17.557023,0,-1,4,0,0,-1,77,81,155,110,46,170.76,330,16.00,45.00,-980.00
2024-05-17 17:11:17.659968,1,-1,4,0,0,-2,77,81,156,110,46,170.42,330,34.00,-16.00,-868.00
2024-05-17 17:11:17.791544,2,-1,4,0,0,-1,77,81,156,110,46,170.74,330,-4.00,23.00,-949.00
2024-05-17 17:11:17.870243,2,0,4,0,0,-1,77,80,156,110,46,170.74,330,64.00,-22.00,-928.00
2024-05-17 17:11:17.970180,2,0,4,0,0,-1,77,80,157,110,46,170.44,330,-58.00,58.00,-855.00
2024-05-17 17:11:18.068786,1,-1,4,0,0,0,77,80,157,110,46,170.61,330,25.00,22.00,-1003.00
2024-05-17 17:11:18.168553,1,-1,4,0,0,0,77,80,157,110,46,170.54,331,19.00,8.00,-1027.00
2024-05-17 17:11:18.303188,1,-1,4,0,0,0,77,80,157,110,46,170.56,331,22.00,-2.00,-1066.00
2024-05-17 17:11:18.321540,1,-1,4,0,0,0,77,80,157,110,46,170.80,331,8.00,13.00,-982.00
2024-05-17 17:11:18.424389,0,-1,4,0,0,0,77,80,157,110,46,170.51,331,-46.00,69.00,-968.00
2024-05-17 17:11:18.610197,0,-1,4,0,0,0,77,80,157,110,46,170.73,331,25.00,20.00,-1073.00
2024-05-17 17:11:18.627544,0,-1,4,0,0,0,77,80,157,110,46,170.49,331,82.00,0.00,-1114.00
2024-05-17 17:11:18.815964,0,-1,4,0,0,0,77,80,157,110,46,170.56,331,-14.00,47.00,-1027.00
2024-05-17 17:11:18.883693,0,-1,4,0,0,0,77,79,157,110,46,170.46,331,-95.00,71.00,-978.00
2024-05-17 17:11:19.019317,0,-2,4,0,0,0,77,79,158,110,46,170.83,331,25.00,25.00,-1043.00
2024-05-17 17:11:19.036115,0,-2,4,0,0,0,77,79,158,110,46,170.78,331,4.00,-24.00,-1108.00
2024-05-17 17:11:19.224973,1,-1,4,0,0,0,77,79,158,110,46,170.61,332,61.00,22.00,-1010.00
2024-05-17 17:11:19.239430,2,0,4,0,0,0,77,79,158,110,46,170.60,332,56.00,-11.00,-990.00
2024-05-17 17:11:19.341954,2,0,4,0,0,0,77,79,158,110,46,170.50,332,36.00,3.00,-997.00
2024-05-17 17:11:19.443491,2,0,4,0,0,0,77,79,158,110,46,170.75,332,99.00,1.00,-1162.00
2024-05-17 17:11:19.558611,2,0,4,0,0,0,77,79,157,110,46,170.32,332,-50.00,61.00,-829.00
2024-05-17 17:11:19.653603,2,-1,4,0,0,0,77,79,156,110,46,170.36,332,-5.00,33.00,-935.00
2024-05-17 17:11:19.751862,2,-1,4,0,0,0,77,79,156,110,46,170.52,332,10.00,27.00,-977.00
2024-05-17 17:11:19.851580,1,-1,4,0,0,0,77,80,155,110,46,170.48,332,21.00,-4.00,-1025.00
2024-05-17 17:11:20.043655,2,-1,4,0,0,0,77,80,154,110,46,170.27,332,-67.00,67.00,-900.00
2024-05-17 17:11:20.055538,1,-1,4,0,0,0,77,80,152,110,46,170.39,332,15.00,18.00,-967.00
2024-05-17 17:11:20.248351,1,-1,5,0,0,0,77,80,151,100,46,170.33,333,0.00,62.00,-1001.00
2024-05-17 17:11:20.259618,1,-1,5,0,0,0,77,80,150,100,46,170.52,333,28.00,33.00,-1056.00
2024-05-17 17:11:20.453957,1,-1,5,0,0,0,77,80,149,100,46,170.71,333,18.00,28.00,-1027.00
2024-05-17 17:11:20.463558,1,-1,4,0,0,0,77,80,149,100,46,170.46,333,31.00,25.00,-957.00
2024-05-17 17:11:20.658303,1,-1,4,0,0,0,77,80,149,100,46,170.28,333,15.00,45.00,-1120.00
2024-05-17 17:11:20.668291,1,-1,4,0,0,0,77,80,150,100,46,170.60,333,75.00,25.00,-1042.00
2024-05-17 17:11:20.770804,1,-1,4,0,0,0,77,80,150,100,46,170.60,333,35.00,62.00,-1018.00
2024-05-17 17:11:20.871525,1,-1,4,0,0,0,77,80,150,100,46,170.56,333,39.00,18.00,-1051.00
2024-05-17 17:11:21.068440,0,-1,4,0,0,0,77,80,151,100,46,170.36,333,65.00,1.00,-1096.00
2024-05-17 17:11:21.075523,0,-1,4,0,0,0,77,80,153,100,46,170.53,333,21.00,15.00,-1035.00
2024-05-17 17:11:21.228033,1,-1,4,0,0,0,77,80,155,100,46,170.71,334,-26.00,68.00,-962.00
2024-05-17 17:11:21.279266,1,-1,4,0,0,-1,77,80,156,100,46,170.67,334,16.00,15.00,-939.00
2024-05-17 17:11:21.477009,2,-1,4,0,0,0,77,80,158,100,46,170.48,334,-51.00,112.00,-926.00
2024-05-17 17:11:21.483341,1,-1,4,0,0,0,77,80,160,110,46,170.35,334,50.00,-21.00,-916.00
2024-05-17 17:11:21.585526,2,-1,4,0,0,0,77,80,161,110,46,170.53,334,49.00,42.00,-989.00
2024-05-17 17:11:21.784328,2,-1,4,0,0,0,77,80,161,110,46,170.72,334,-13.00,54.00,-914.00
2024-05-17 17:11:21.790658,2,-1,4,0,0,1,77,80,161,110,46,170.26,334,-9.00,32.00,-870.00
2024-05-17 17:11:21.891371,2,-1,4,0,0,1,76,80,160,110,46,170.70,334,31.00,34.00,-965.00
2024-05-17 17:11:22.091398,2,-1,4,0,0,1,76,80,159,110,46,170.50,334,57.00,2.00,-953.00
2024-05-17 17:11:22.095300,2,-1,4,0,0,2,76,80,157,100,46,170.69,334,-27.00,38.00,-861.00
2024-05-17 17:11:22.296226,1,-1,4,0,0,2,76,80,155,100,46,170.32,335,17.00,26.00,-956.00
2024-05-17 17:11:22.299292,1,-1,4,0,0,2,76,80,153,100,46,170.69,335,24.00,48.00,-1030.00
2024-05-17 17:11:22.401720,1,-1,4,0,0,3,76,80,151,100,46,170.69,335,-5.00,65.00,-994.00
2024-05-17 17:11:22.452298,1,-1,4,0,0,2,76,80,149,90,46,170.50,335,22.00,49.00,-960.00
2024-05-17 17:11:22.606795,1,-1,4,0,0,3,76,80,147,90,46,170.37,335,84.00,17.00,-1102.00
2024-05-17 17:11:22.657459,1,-1,4,0,0,2,76,80,145,90,46,170.60,335,-31.00,37.00,-945.00
2024-05-17 17:11:22.758302,1,-1,4,0,0,2,76,80,143,90,46,170.35,335,15.00,14.00,-1071.00
2024-05-17 17:11:22.912727,1,-1,4,0,0,2,76,79,140,90,46,170.37,335,57.00,6.00,-1094.00
2024-05-17 17:11:22.962269,1,-1,4,0,0,2,76,79,138,90,46,170.17,335,-35.00,43.00,-958.00
2024-05-17 17:11:23.115392,1,-1,4,0,0,2,76,79,137,80,46,170.38,335,15.00,35.00,-1016.00
2024-05-17 17:11:23.167841,1,-1,4,0,0,2,76,79,135,80,46,170.29,336,-37.00,129.00,-975.00
2024-05-17 17:11:23.270948,1,-1,4,0,0,2,76,79,133,80,46,170.51,336,80.00,27.00,-1023.00
2024-05-17 17:11:23.370251,2,-1,4,0,0,2,76,79,132,80,46,170.25,336,20.00,15.00,-1021.00
2024-05-17 17:11:23.472560,2,-1,4,0,0,2,76,79,130,80,46,170.25,336,31.00,-2.00,-1041.00
2024-05-17 17:11:23.578717,1,-1,4,0,0,1,76,79,128,80,46,170.12,336,26.00,13.00,-1105.00
2024-05-17 17:11:23.676359,2,0,4,0,0,1,76,79,127,70,46,170.08,336,16.00,7.00,-958.00
2024-05-17 17:11:23.832200,1,-1,4,0,0,1,76,79,125,70,46,170.11,336,19.00,7.00,-963.00
2024-05-17 17:11:23.880134,1,-1,4,0,0,1,77,80,123,70,46,170.30,336,31.00,61.00,-1038.00
2024-05-17 17:11:24.037011,1,-1,4,0,0,1,77,80,123,70,46,170.26,336,32.00,35.00,-944.00
2024-05-17 17:11:24.084279,1,-1,4,0,0,1,77,80,122,70,46,170.23,336,52.00,12.00,-1183.00
2024-05-17 17:11:24.241725,1,-1,4,0,0,1,77,80,121,70,46,170.30,337,-81.00,104.00,-924.00
2024-05-17 17:11:24.288234,2,-1,4,0,0,1,77,80,121,70,46,170.25,337,0.00,24.00,-888.00
2024-05-17 17:11:24.446557,2,-1,4,0,0,1,77,80,120,70,46,170.43,337,40.00,4.00,-993.00
2024-05-17 17:11:24.492508,2,-1,4,0,0,0,77,80,120,70,46,170.18,337,26.00,31.00,-1013.00
2024-05-17 17:11:24.651386,2,-1,4,0,0,0,77,80,120,70,46,170.01,337,5.00,24.00,-961.00
2024-05-17 17:11:24.697282,2,-1,4,0,0,0,77,80,120,70,46,170.30,337,76.00,-27.00,-993.00
2024-05-17 17:11:24.856116,2,-1,4,0,0,0,77,80,120,70,46,170.07,337,13.00,23.00,-942.00
2024-05-17 17:11:24.903680,2,-1,4,0,0,0,76,80,120,70,46,170.33,337,-78.00,69.00,-860.00
2024-05-17 17:11:25.002097,1,-1,4,0,0,0,76,80,119,70,46,170.13,337,-18.00,80.00,-968.00
2024-05-17 17:11:25.104298,1,-1,4,0,0,0,76,80,120,70,46,170.18,337,33.00,13.00,-955.00
2024-05-17 17:11:25.206795,1,-1,4,0,0,1,76,80,120,70,46,169.91,338,119.00,-28.00,-1128.00
2024-05-17 17:11:25.308856,1,-1,4,0,0,0,76,80,121,70,46,170.09,338,13.00,37.00,-978.00
2024-05-17 17:11:25.470506,1,-1,4,0,0,0,76,80,121,70,46,170.38,338,18.00,38.00,-1078.00
2024-05-17 17:11:25.512537,1,-1,4,0,0,0,76,80,121,70,46,170.23,338,71.00,46.00,-1090.00
2024-05-17 17:11:25.618501,1,-1,4,0,0,0,76,80,122,70,46,170.23,338,-9.00,53.00,-971.00
2024-05-17 17:11:25.717338,1,-1,4,0,0,0,76,80,122,70,46,170.18,338,5.00,54.00,-1013.00
2024-05-17 17:11:25.880258,1,-1,4,0,0,0,76,80,123,70,46,170.17,338,-17.00,53.00,-978.00
2024-05-17 17:11:25.923706,1,-1,4,0,0,0,76,79,124,70,46,170.29,338,-42.00,50.00,-991.00
2024-05-17 17:11:26.023232,1,-1,4,0,0,0,76,79,126,70,46,169.90,338,48.00,23.00,-1140.00
2024-05-17 17:11:26.187513,1,-1,4,0,0,0,76,79,126,70,46,170.17,338,39.00,27.00,-1052.00
2024-05-17 17:11:26.227171,1,-1,4,0,0,0,76,79,128,70,46,170.34,339,94.00,-11.00,-1041.00
2024-05-17 17:11:26.282436,1,0,4,0,0,0,76,79,128,70,46,170.21,339,25.00,14.00,-933.00
2024-05-17 17:11:26.383154,1,0,4,0,0,0,76,79,129,70,46,170.00,339,18.00,-12.00,-980.00
2024-05-17 17:11:26.486528,1,0,4,0,0,0,76,79,128,70,46,170.04,339,-24.00,47.00,-915.00
2024-05-17 17:11:26.588594,1,-1,4,0,0,0,76,79,128,70,46,170.25,339,25.00,16.00,-1008.00
2024-05-17 17:11:26.686161,0,-1,4,0,0,0,76,79,128,70,46,170.26,339,19.00,31.00,-963.00
2024-05-17 17:11:26.801969,0,-1,4,0,0,0,76,79,127,70,46,170.19,339,81.00,14.00,-966.00
2024-05-17 17:11:26.890194,1,-1,4,0,0,0,76,79,127,70,46,170.26,339,110.00,16.00,-1178.00
2024-05-17 17:11:27.006694,1,-1,4,0,0,0,76,79,125,70,46,170.30,339,-67.00,77.00,-847.00
2024-05-17 17:11:27.094109,0,-1,5,0,0,0,76,79,125,70,46,170.52,339,-17.00,55.00,-936.00
2024-05-17 17:11:27.211497,0,-1,4,0,0,0,76,79,123,70,45,169.85,340,34.00,16.00,-1080.00
2024-05-17 17:11:27.298189,1,-1,4,0,0,0,76,79,121,70,45,170.18,340,-5.00,43.00,-928.00
2024-05-17 17:11:27.416430,1,-1,4,0,0,0,76,79,120,70,45,170.08,340,0.00,31.00,-1014.00
2024-05-17 17:11:27.502235,1,-1,4,0,0,0,76,79,119,70,45,170.04,340,-16.00,56.00,-1024.00
2024-05-17 17:11:27.604004,0,-1,4,0,0,0,76,79,118,70,45,170.13,340,46.00,14.00,-1099.00
2024-05-17 17:11:27.730728,0,-1,4,0,0,0,76,79,116,70,45,170.28,340,18.00,17.00,-1046.00
2024-05-17 17:11:27.808049,0,-1,5,0,0,0,76,79,116,70,45,170.13,340,58.00,13.00,-1133.00
2024-05-17 17:11:27.928153,-7,-1,5,2,0,0,76,80,113,70,45,169.88,340,-10.00,52.00,-1001.00
2024-05-17 17:11:28.012125,-7,-1,5,3,0,0,76,80,112,60,45,170.16,340,-22.00,51.00,-1002.00
2024-05-17 17:11:28.132887,-6,-1,4,4,0,0,76,80,112,60,45,170.23,341,-45.00,26.00,-983.00
2024-05-17 17:11:28.216021,-6,-1,4,5,0,0,76,80,112,60,45,170.23,341,5.00,14.00,-1040.00
2024-05-17 17:11:28.337679,-5,-1,4,6,0,0,76,80,111,60,45,170.13,341,-30.00,24.00,-962.00
2024-05-17 17:11:28.420267,-5,-2,4,6,0,0,76,80,112,60,45,170.31,341,14.00,13.00,-1060.00
2024-05-17 17:11:28.546298,-4,-2,4,7,0,0,76,80,112,60,45,170.22,341,-108.00,82.00,-1033.00
2024-05-17 17:11:28.624111,-2,-2,4,7,0,0,76,80,111,60,45,169.89,341,-20.00,17.00,-961.00
2024-05-17 17:11:28.748918,0,-2,4,8,0,-1,76,80,110,60,45,170.30,341,-30.00,28.00,-906.00
2024-05-17 17:11:28.828109,4,-2,4,7,0,0,76,80,109,60,45,170.17,341,14.00,44.00,-1034.00
2024-05-17 17:11:28.952201,5,-1,4,6,0,0,77,80,108,60,45,170.01,341,54.00,49.00,-1177.00
2024-05-17 17:11:29.032029,5,-1,4,5,0,0,77,80,107,60,45,169.99,341,59.00,6.00,-1150.00
2024-05-17 17:11:29.157068,4,-1,4,4,0,0,77,80,103,60,45,170.06,342,-85.00,97.00,-941.00
2024-05-17 17:11:29.235817,3,0,4,3,0,0,77,80,102,60,44,170.15,342,-27.00,76.00,-1041.00
2024-05-17 17:11:29.361813,2,0,4,3,0,0,77,80,101,60,44,170.05,342,-20.00,28.00,-920.00
2024-05-17 17:11:29.440759,2,-1,4,3,0,0,77,80,100,60,44,169.85,342,4.00,26.00,-951.00
2024-05-17 17:11:29.542413,2,-1,4,2,0,0,77,80,99,50,44,170.06,342,8.00,17.00,-962.00
2024-05-17 17:11:29.645243,2,-1,4,2,0,0,77,80,98,50,44,169.84,342,25.00,20.00,-1046.00
2024-05-17 17:11:29.745977,3,-1,4,2,0,0,77,80,97,50,44,169.60,342,-73.00,42.00,-871.00
2024-05-17 17:11:29.873777,5,-1,4,1,0,0,77,80,96,50,44,170.00,342,39.00,4.00,-1069.00
2024-05-17 17:11:29.950960,4,-1,4,0,0,0,77,80,97,50,44,170.15,342,8.00,37.00,-973.00
2024-05-17 17:11:30.054595,2,-1,4,0,0,0,77,80,97,50,44,169.85,342,65.00,-10.00,-1033.00
2024-05-17 17:11:30.154023,2,-1,4,0,0,-1,77,80,98,50,44,169.91,343,9.00,82.00,-1057.00
2024-05-17 17:11:30.283933,1,-1,4,0,0,-1,77,80,99,50,44,169.98,343,26.00,13.00,-1025.00
2024-05-17 17:11:30.362269,1,-1,4,0,0,-1,77,80,101,50,44,169.88,343,32.00,25.00,-1037.00
2024-05-17 17:11:30.411094,1,-1,4,0,0,-1,77,80,102,50,44,169.67,343,63.00,0.00,-997.00
2024-05-17 17:11:30.511760,1,-1,4,0,0,-1,77,80,103,50,44,169.96,343,65.00,20.00,-1033.00
2024-05-17 17:11:30.613231,1,-1,4,0,0,-1,77,80,104,50,44,170.15,343,23.00,43.00,-996.00
2024-05-17 17:11:30.795500,1,-1,4,0,0,-1,77,80,105,50,44,170.07,343,52.00,2.00,-1005.00
2024-05-17 17:11:30.817048,2,-1,4,0,0,-1,77,80,107,60,44,169.95,343,37.00,32.00,-988.00
2024-05-17 17:11:31.000278,2,-1,4,0,0,-1,75,80,108,60,44,169.99,343,52.00,17.00,-1043.00
2024-05-17 17:11:31.021876,2,0,4,0,0,-1,75,80,109,60,44,169.89,343,-27.00,63.00,-983.00
2024-05-17 17:11:31.205318,2,-1,4,0,0,0,75,80,111,60,44,170.08,344,57.00,14.00,-1017.00
2024-05-17 17:11:31.226416,2,-1,4,0,0,0,75,80,112,60,44,170.18,344,77.00,-52.00,-1010.00
2024-05-17 17:11:31.327322,2,-1,4,0,0,0,75,80,114,60,44,169.89,344,41.00,27.00,-1054.00
2024-05-17 17:11:31.512629,1,-1,4,0,0,0,75,80,115,60,44,169.78,344,145.00,14.00,-1061.00
2024-05-17 17:11:31.531231,1,-1,4,0,0,0,75,80,117,60,44,170.27,344,-1.00,72.00,-879.00
2024-05-17 17:11:31.717629,2,-1,4,0,0,0,75,80,118,60,44,170.14,344,-24.00,25.00,-867.00
2024-05-17 17:11:31.734989,2,-1,4,0,0,0,75,80,119,60,44,170.35,344,126.00,36.00,-1101.00
2024-05-17 17:11:31.922192,1,-1,4,0,0,0,75,80,120,70,44,169.92,344,-38.00,28.00,-973.00
2024-05-17 17:11:31.939831,1,-1,4,0,0,0,76,79,122,70,44,170.32,344,49.00,19.00,-974.00
2024-05-17 17:11:32.040719,2,0,4,0,0,0,76,79,123,70,44,170.08,344,18.00,26.00,-911.00
2024-05-17 17:11:32.228868,2,-1,4,0,0,0,76,79,124,70,44,170.12,345,62.00,24.00,-1001.00
2024-05-17 17:11:32.246701,7,-2,4,0,0,0,76,79,126,70,43,170.17,345,43.00,44.00,-953.00
2024-05-17 17:11:32.348495,8,-1,4,-1,0,0,76,79,127,70,43,170.12,345,57.00,14.00,-983.00
2024-05-17 17:11:32.449039,8,-1,4,-2,0,0,76,79,127,70,43,170.10,345,96.00,-44.00,-1053.00
2024-05-17 17:11:32.646246,8,-1,4,-3,0,0,76,79,128,70,43,170.19,345,24.00,42.00,-1043.00
2024-05-17 17:11:32.652774,8,-2,4,-4,0,0,76,79,128,70,43,170.12,345,21.00,11.00,-897.00
2024-05-17 17:11:32.843261,8,-2,4,-5,0,0,76,79,128,70,43,170.45,345,56.00,38.00,-874.00
2024-05-17 17:11:32.857261,8,-2,4,-6,0,0,76,79,129,70,43,169.96,345,73.00,18.00,-1132.00
2024-05-17 17:11:33.048126,8,-2,4,-7,0,0,77,79,130,70,43,170.27,345,82.00,43.00,-1095.00
2024-05-17 17:11:33.060736,7,-2,4,-8,0,0,77,79,129,70,43,170.34,345,57.00,30.00,-889.00
2024-05-17 17:11:33.253345,2,-2,4,-8,0,0,77,79,128,70,43,170.06,346,84.00,21.00,-1103.00
2024-05-17 17:11:33.264839,0,-2,4,-8,0,0,77,79,127,70,43,170.14,346,99.00,44.00,-1089.00
2024-05-17 17:11:33.458032,-2,-1,5,-7,-1,0,77,79,127,70,43,169.90,346,113.00,-5.00,-922.00
2024-05-17 17:11:33.468610,-3,-1,4,-5,-1,0,77,79,128,70,43,170.04,346,75.00,23.00,-948.00
2024-05-17 17:11:33.570626,-2,0,4,-4,0,0,77,79,127,70,43,170.09,346,37.00,30.00,-1073.00
2024-05-17 17:11:33.766026,0,0,4,-3,0,0,77,79,128,70,43,170.19,346,119.00,-3.00,-1120.00
2024-05-17 17:11:33.775426,0,0,4,-3,0,0,77,79,126,70,43,170.14,346,53.00,27.00,-1004.00
2024-05-17 17:11:33.877722,1,0,4,-3,0,0,77,79,125,70,43,170.20,346,95.00,-2.00,-932.00
2024-05-17 17:11:33.979747,1,0,4,-2,0,0,76,79,124,70,43,170.24,346,18.00,59.00,-957.00
2024-05-17 17:11:34.174459,2,0,4,-2,0,0,76,79,122,70,43,170.19,346,64.00,31.00,-1048.00
2024-05-17 17:11:34.185309,1,0,4,-2,0,0,76,79,121,70,42,170.15,347,66.00,-10.00,-1045.00
2024-05-17 17:11:34.285119,1,0,4,-2,0,0,76,79,119,70,42,170.01,347,33.00,19.00,-1018.00
2024-05-17 17:11:34.335656,-2,-1,4,-2,0,0,76,79,117,70,42,170.09,347,33.00,16.00,-937.00
2024-05-17 17:11:34.482358,-3,-1,4,-1,0,1,76,79,116,70,42,170.34,347,22.00,30.00,-1083.00
2024-05-17 17:11:34.540681,-1,-1,4,0,0,0,76,79,113,70,42,170.16,347,-15.00,31.00,-954.00
2024-05-17 17:11:34.686570,0,-1,4,0,0,0,76,79,112,70,42,170.14,347,-12.00,26.00,-1029.00
2024-05-17 17:11:34.743868,0,-1,4,0,0,0,76,79,111,60,42,170.10,347,-30.00,26.00,-1053.00
2024-05-17 17:11:34.891599,0,-2,4,-1,0,0,76,79,111,60,42,170.34,347,4.00,29.00,-995.00
2024-05-17 17:11:34.949685,0,-2,4,0,0,0,76,79,111,60,42,170.09,347,-47.00,22.00,-989.00
2024-05-17 17:11:35.050477,0,-1,4,0,0,0,76,79,111,60,42,169.94,347,-17.00,75.00,-973.00
2024-05-17 17:11:35.198573,0,-1,4,0,0,0,76,79,111,60,42,170.14,348,49.00,5.00,-1020.00
2024-05-17 17:11:35.253874,0,-1,4,0,0,0,76,79,112,60,42,170.20,348,-9.00,30.00,-1058.00
2024-05-17 17:11:35.403846,1,-1,4,0,0,0,76,79,113,60,42,170.33,348,52.00,-26.00,-1003.00
2024-05-17 17:11:35.457962,1,-1,4,0,0,0,76,79,114,60,42,170.28,348,44.00,23.00,-1006.00
2024-05-17 17:11:35.559837,1,0,4,0,0,0,76,79,115,60,42,170.09,348,6.00,25.00,-880.00
2024-05-17 17:11:35.711041,2,0,4,0,0,0,76,79,117,60,42,170.01,348,-9.00,50.00,-970.00
2024-05-17 17:11:35.763777,1,0,4,0,0,0,76,79,117,60,42,170.32,348,22.00,19.00,-988.00
2024-05-17 17:11:35.915569,1,0,4,0,0,0,76,79,118,70,42,170.05,348,32.00,-1.00,-1016.00
2024-05-17 17:11:35.967756,1,-1,4,0,0,0,76,79,120,70,42,170.56,348,15.00,23.00,-1022.00
2024-05-17 17:11:36.120281,1,0,4,0,0,0,76,79,121,70,42,169.94,348,31.00,20.00,-985.00
2024-05-17 17:11:36.174021,1,-1,4,0,0,0,76,79,121,70,42,170.45,349,32.00,39.00,-1105.00
2024-05-17 17:11:36.273829,1,-1,4,0,0,0,76,79,122,70,42,170.18,349,13.00,27.00,-1101.00
2024-05-17 17:11:36.427378,0,-1,4,0,0,0,76,79,123,70,42,170.37,349,25.00,15.00,-955.00
2024-05-17 17:11:36.477799,0,-1,4,0,0,0,76,79,124,70,42,170.28,349,14.00,7.00,-1008.00
2024-05-17 17:11:36.579515,0,-1,4,0,0,0,76,79,125,70,42,170.02,349,108.00,4.00,-1170.00
2024-05-17 17:11:36.738281,1,-1,4,0,0,0,76,79,125,70,42,170.36,349,37.00,0.00,-922.00
2024-05-17 17:11:36.785594,1,-4,4,0,0,0,76,79,125,70,42,170.28,349,-54.00,12.00,-825.00
2024-05-17 17:11:36.886086,1,-9,4,0,-1,0,76,79,126,70,42,170.07,349,-18.00,54.00,-991.00
2024-05-17 17:11:37.041752,1,-8,4,0,-2,0,76,79,124,70,42,170.15,349,-28.00,97.00,-956.00
2024-05-17 17:11:37.089833,1,-6,4,0,-3,0,76,79,122,70,42,170.34,349,23.00,37.00,-1011.00
2024-05-17 17:11:37.246574,0,-3,4,0,-3,0,76,79,122,70,41,170.14,350,12.00,87.00,-1052.00
2024-05-17 17:11:37.293557,0,0,4,0,-3,0,76,79,120,70,41,170.06,350,-58.00,56.00,-796.00
2024-05-17 17:11:37.553880,0,0,4,0,-3,0,76,79,119,70,41,170.07,350,109.00,17.00,-1065.00
2024-05-17 17:11:37.554071,0,-1,4,0,-2,0,76,79,118,70,41,169.99,350,-5.00,63.00,-993.00
2024-05-17 17:11:37.599517,1,-1,4,0,-2,0,76,79,117,70,41,170.13,350,23.00,40.00,-1034.00
2024-05-17 17:11:37.758419,2,-1,4,0,-2,0,76,79,116,70,41,170.32,350,60.00,11.00,-1047.00
2024-05-17 17:11:37.803572,1,-1,4,0,-2,0,76,79,114,70,41,170.03,350,83.00,19.00,-1032.00
2024-05-17 17:11:37.963282,1,-1,4,0,-2,0,76,79,113,70,41,169.83,350,13.00,23.00,-943.00
2024-05-17 17:11:38.007535,1,-1,4,0,-2,0,77,79,111,60,41,169.88,350,19.00,39.00,-998.00
2024-05-17 17:11:38.170481,1,-1,4,0,-2,0,77,79,109,60,41,170.12,350,48.00,23.00,-1116.00
2024-05-17 17:11:38.172434,1,-1,4,0,-2,0,77,79,108,60,41,170.12,351,62.00,46.00,-1115.00
2024-05-17 17:11:38.262570,1,-1,4,0,-2,0,77,79,106,60,41,169.97,351,-1.00,36.00,-848.00
2024-05-17 17:11:38.372861,1,-1,4,0,-2,0,77,79,105,60,41,170.15,351,63.00,1.00,-1014.00
2024-05-17 17:11:38.466434,1,-1,5,0,-2,0,77,79,103,60,41,169.95,351,48.00,43.00,-997.00
2024-05-17 17:11:38.568889,1,2,5,0,-2,0,77,79,103,60,41,170.10,351,43.00,54.00,-942.00
2024-05-17 17:11:38.674798,1,3,5,0,-1,0,77,79,101,60,41,170.12,351,84.00,29.00,-1076.00
2024-05-17 17:11:38.774153,1,0,5,0,0,0,77,79,100,60,41,169.84,351,85.00,-5.00,-1106.00
2024-05-17 17:11:38.877460,1,0,5,0,0,0,77,79,98,60,41,169.86,351,18.00,24.00,-1024.00
2024-05-17 17:11:38.979745,1,-1,5,0,0,0,76,79,98,50,41,169.91,351,86.00,-5.00,-1142.00
2024-05-17 17:11:39.078676,1,-1,5,0,0,0,76,79,97,50,41,170.13,351,63.00,-1.00,-1130.00
2024-05-17 17:11:39.180785,1,-1,5,0,0,0,76,79,97,50,41,169.77,352,36.00,52.00,-1022.00
2024-05-17 17:11:39.297523,1,-1,5,0,0,0,76,79,97,60,41,170.22,352,30.00,26.00,-1063.00
2024-05-17 17:11:39.384566,2,-1,5,0,0,0,76,79,96,60,41,169.72,352,41.00,-8.00,-1071.00
2024-05-17 17:11:39.486568,1,-1,5,0,0,-1,76,79,96,60,41,169.98,352,90.00,4.00,-1000.00
2024-05-17 17:11:39.588576,2,-1,4,0,0,0,76,79,95,60,41,170.20,352,2.00,57.00,-889.00
2024-05-17 17:11:39.704180,2,-1,4,0,0,-1,76,79,95,60,41,169.90,352,29.00,31.00,-972.00
2024-05-17 17:11:39.792493,2,-1,4,0,0,0,76,79,94,60,41,169.79,352,45.00,11.00,-984.00
2024-05-17 17:11:39.915855,1,-1,4,0,0,0,76,79,94,60,41,170.17,352,108.00,12.00,-1072.00
2024-05-17 17:11:39.997718,1,-1,4,0,0,0,76,79,94,60,41,169.69,352,-9.00,41.00,-952.00
2024-05-17 17:11:40.099015,2,-1,4,0,0,0,76,79,93,60,41,170.18,352,33.00,32.00,-994.00
2024-05-17 17:11:40.201063,2,-1,4,0,0,0,76,79,93,60,40,169.74,353,33.00,38.00,-1052.00
2024-05-17 17:11:40.302519,2,-1,4,0,0,-1,76,79,92,60,40,170.10,353,37.00,50.00,-981.00
2024-05-17 17:11:40.423135,2,-1,4,0,0,0,76,79,92,60,40,169.78,353,-32.00,71.00,-960.00
2024-05-17 17:11:40.506536,1,-1,4,0,0,0,76,79,91,60,40,169.99,353,24.00,46.00,-967.00
2024-05-17 17:11:40.608751,2,-1,4,0,0,0,76,79,90,60,40,169.94,353,25.00,44.00,-1033.00
2024-05-17 17:11:40.710398,2,-1,4,0,0,0,76,79,90,60,40,170.02,353,38.00,33.00,-1036.00
2024-05-17 17:11:40.812490,2,-2,4,0,0,0,76,79,90,60,40,170.02,353,39.00,28.00,-975.00
2024-05-17 17:11:40.933372,2,-2,4,0,0,0,76,79,89,60,40,170.02,353,-34.00,66.00,-1033.00
2024-05-17 17:11:41.017116,1,3,4,0,0,0,75,79,89,60,40,169.78,353,40.00,81.00,-958.00
2024-05-17 17:11:41.137654,0,6,4,0,1,0,75,79,88,60,40,169.52,353,-11.00,61.00,-1037.00
2024-05-17 17:11:41.222184,0,3,4,0,3,0,75,79,91,60,40,170.00,354,33.00,10.00,-1098.00
2024-05-17 17:11:41.322345,0,1,4,0,3,0,75,79,91,60,40,170.06,354,-19.00,43.00,-951.00
2024-05-17 17:11:41.444867,1,-1,4,0,4,0,75,79,91,60,40,169.84,354,-5.00,10.00,-956.00
2024-05-17 17:11:41.477599,1,-3,4,0,3,0,75,79,92,60,40,169.85,354,-34.00,43.00,-998.00
2024-05-17 17:11:41.577354,1,-2,4,0,3,-1,75,79,94,60,40,169.67,354,-54.00,39.00,-970.00
2024-05-17 17:11:41.756736,1,-2,4,0,3,-1,75,79,94,60,40,169.95,354,32.00,2.00,-967.00
2024-05-17 17:11:41.781358,1,-2,4,0,2,-1,75,79,94,60,40,170.07,354,4.00,21.00,-984.00
2024-05-17 17:11:41.883452,2,-1,4,0,2,0,75,79,95,60,40,169.98,354,-35.00,42.00,-902.00
2024-05-17 17:11:42.059200,2,-1,4,0,2,0,76,78,95,60,40,169.87,354,-17.00,37.00,-978.00
2024-05-17 17:11:42.087418,2,-1,4,0,2,0,76,78,96,60,40,169.75,354,-41.00,46.00,-946.00
2024-05-17 17:11:42.264819,2,-1,4,0,2,0,76,78,96,60,40,169.98,355,2.00,23.00,-1000.00
2024-05-17 17:11:42.291188,-1,-1,4,-1,2,0,76,78,96,60,40,169.73,355,43.00,-13.00,-1081.00
2024-05-17 17:11:42.468832,0,-2,4,0,2,0,76,78,98,60,40,170.01,355,0.00,47.00,-1060.00
2024-05-17 17:11:42.496270,0,-4,4,0,2,0,76,78,97,60,40,169.74,355,97.00,18.00,-1193.00
2024-05-17 17:11:42.597252,1,-6,4,0,1,0,76,78,96,60,40,170.06,355,47.00,22.00,-1025.00
2024-05-17 17:11:42.700090,1,-4,4,0,0,0,76,78,97,60,40,169.88,355,18.00,-12.00,-1042.00
2024-05-17 17:11:42.878481,0,-2,4,0,0,0,76,78,97,60,40,169.84,355,-50.00,39.00,-938.00
2024-05-17 17:11:42.903640,0,-2,4,0,0,0,76,78,97,60,40,169.97,355,1.00,23.00,-989.00
2024-05-17 17:11:43.083371,0,-2,4,0,0,0,76,79,97,60,40,170.12,355,65.00,6.00,-1072.00
2024-05-17 17:11:43.107388,0,-2,4,0,0,0,76,79,98,60,40,170.09,356,63.00,66.00,-1071.00
2024-05-17 17:11:43.288460,0,-2,4,0,0,0,76,79,99,60,39,169.93,356,68.00,-39.00,-1022.00
2024-05-17 17:11:43.314545,1,-2,4,0,0,0,76,79,99,60,39,169.90,356,58.00,4.00,-970.00
2024-05-17 17:11:43.414547,0,-2,4,0,0,0,76,79,99,60,39,169.80,356,-8.00,62.00,-909.00
2024-05-17 17:11:43.517462,0,-2,4,0,0,0,76,79,100,60,39,170.00,356,26.00,28.00,-1032.00
2024-05-17 17:11:43.617364,0,-2,4,0,0,0,76,79,100,70,39,169.51,356,31.00,41.00,-991.00
2024-05-17 17:11:43.728897,0,-2,4,0,0,0,76,79,101,70,39,169.78,356,-33.00,45.00,-952.00
2024-05-17 17:11:43.821501,1,-1,4,0,0,0,76,79,101,70,39,169.88,356,56.00,44.00,-1098.00
2024-05-17 17:11:44.005067,0,-2,4,0,0,0,76,79,101,70,39,169.93,356,12.00,29.00,-1010.00
2024-05-17 17:11:44.025492,0,-2,4,0,0,0,76,79,102,70,39,169.84,356,-44.00,84.00,-923.00
2024-05-17 17:11:44.215590,0,-2,4,0,0,0,76,79,103,70,39,170.06,357,-4.00,61.00,-1033.00
2024-05-17 17:11:44.229247,0,-2,4,0,0,0,76,79,103,70,39,170.03,357,29.00,24.00,-1031.00
2024-05-17 17:11:44.414499,1,-2,4,0,0,0,76,79,103,70,39,170.17,357,24.00,11.00,-979.00
2024-05-17 17:11:44.433028,1,-1,4,0,0,0,76,79,102,70,39,170.21,357,77.00,-19.00,-991.00
2024-05-17 17:11:44.535244,1,-1,4,0,0,0,76,79,102,70,39,170.16,357,15.00,-7.00,-982.00
2024-05-17 17:11:44.653224,0,-1,4,0,0,0,76,79,102,70,39,170.09,357,-14.00,49.00,-1031.00
2024-05-17 17:11:44.739059,1,-1,4,0,0,0,76,79,103,70,39,169.81,357,-17.00,76.00,-924.00
2024-05-17 17:11:44.926348,1,-1,8,0,0,0,76,79,103,70,39,170.15,357,-29.00,60.00,-972.00
2024-05-17 17:11:44.943040,1,-1,14,0,0,0,76,79,103,70,39,169.75,357,-28.00,43.00,-1048.00
2024-05-17 17:11:45.131155,1,-1,20,0,0,0,77,79,103,70,39,169.94,357,121.00,-15.00,-1030.00
2024-05-17 17:11:45.148371,1,-1,26,0,0,0,77,79,104,70,39,169.74,358,28.00,17.00,-1100.00
2024-05-17 17:11:45.335976,1,-1,31,0,0,0,77,79,105,70,38,169.95,358,54.00,40.00,-1104.00
2024-05-17 17:11:45.336081,1,-1,37,0,0,0,77,79,106,70,38,170.11,358,64.00,-5.00,-970.00
2024-05-17 17:11:45.402014,1,-2,43,0,0,0,77,79,107,70,38,169.89,358,-1.00,28.00,-944.00
2024-05-17 17:11:45.504372,1,-2,49,0,0,0,77,79,108,70,38,170.08,358,-35.00,77.00,-985.00
2024-05-17 17:11:45.643187,1,-1,55,0,0,0,77,79,109,70,38,170.30,358,1.00,65.00,-951.00
2024-05-17 17:11:45.708024,1,-1,61,0,0,0,77,79,110,70,38,170.20,358,-9.00,20.00,-875.00
2024-05-17 17:11:45.852987,2,0,66,0,0,0,77,79,110,70,38,169.82,358,7.00,30.00,-955.00
2024-05-17 17:11:45.911991,2,0,72,0,0,0,77,79,111,70,38,170.18,358,41.00,-12.00,-950.00
2024-05-17 17:11:46.054318,2,0,78,0,0,0,75,79,112,70,38,169.69,358,10.00,46.00,-946.00
2024-05-17 17:11:46.115959,1,0,84,0,0,0,75,79,112,70,38,169.92,359,58.00,-27.00,-986.00
2024-05-17 17:11:46.259336,1,0,90,0,0,0,75,79,112,70,38,170.07,359,-6.00,29.00,-963.00
2024-05-17 17:11:46.320773,1,0,96,0,0,0,75,79,113,70,38,170.03,359,-84.00,98.00,-926.00
2024-05-17 17:11:46.462330,1,0,102,0,0,0,75,79,114,70,38,169.82,359,83.00,-48.00,-1051.00
2024-05-17 17:11:46.524531,1,0,108,0,0,0,75,79,115,70,38,170.10,359,6.00,-4.00,-938.00
2024-05-17 17:11:46.625978,1,0,114,0,0,0,75,79,116,80,38,170.18,359,-16.00,53.00,-1003.00
2024-05-17 17:11:46.769586,1,0,120,0,0,0,75,79,117,80,38,169.90,359,-57.00,88.00,-984.00
2024-05-17 17:11:46.829930,1,0,126,0,0,0,75,79,118,80,38,170.41,359,66.00,30.00,-989.00
2024-05-17 17:11:46.974361,1,0,132,0,0,0,75,79,118,80,38,170.01,359,39.00,-3.00,-980.00
2024-05-17 17:11:47.033906,2,0,138,0,0,0,76,80,119,80,38,170.11,359,53.00,0.00,-961.00
2024-05-17 17:11:47.180138,1,0,145,0,0,0,76,80,119,80,38,170.02,360,-59.00,58.00,-857.00
2024-05-17 17:11:47.237875,1,0,152,0,0,0,76,80,118,80,38,170.08,360,48.00,28.00,-1072.00
2024-05-17 17:11:47.383943,1,0,158,0,0,0,76,80,119,80,38,170.57,360,13.00,1.00,-987.00
2024-05-17 17:11:47.443895,1,0,165,0,0,0,76,80,118,80,38,170.11,360,-36.00,84.00,-893.00
2024-05-17 17:11:47.544590,1,0,171,0,0,1,76,80,117,80,38,170.29,360,11.00,33.00,-998.00
2024-05-17 17:11:47.691130,1,0,178,0,0,1,76,80,116,80,38,170.40,360,40.00,33.00,-1024.00
2024-05-17 17:11:47.747899,1,0,-174,0,0,1,76,80,115,80,38,170.46,360,3.00,19.00,-1011.00
2024-05-17 17:11:47.896248,1,0,-167,0,0,1,76,80,114,80,38,170.19,360,73.00,35.00,-993.00
2024-05-17 17:11:47.953661,1,0,-161,0,0,1,76,80,113,80,38,170.38,360,29.00,21.00,-1006.00
2024-05-17 17:11:48.054973,1,0,-154,0,0,0,76,79,113,80,38,170.40,360,25.00,21.00,-935.00
2024-05-17 17:11:48.156971,1,0,-147,0,0,0,76,79,112,80,38,170.35,361,4.00,22.00,-971.00
2024-05-17 17:11:48.257880,1,0,-141,0,0,0,76,79,111,80,38,170.16,361,61.00,-9.00,-1136.00
2024-05-17 17:11:48.407950,1,0,-134,0,0,0,76,79,110,70,38,169.96,361,89.00,-15.00,-1099.00
2024-05-17 17:11:48.461979,0,0,-127,0,0,1,76,79,110,70,38,169.85,361,29.00,12.00,-1100.00
2024-05-17 17:11:48.613950,0,0,-121,0,0,0,76,79,108,70,38,170.28,361,36.00,4.00,-926.00
2024-05-17 17:11:48.665825,0,0,-114,0,0,0,76,79,109,70,38,169.99,361,37.00,24.00,-977.00
2024-05-17 17:11:48.817933,0,1,-108,0,0,0,76,79,109,70,38,170.19,361,-4.00,60.00,-982.00
2024-05-17 17:11:48.818932,0,0,-101,0,0,0,76,79,109,70,38,169.99,361,71.00,-11.00,-1037.00
2024-05-17 17:11:48.922798,0,0,-95,0,0,0,76,79,108,70,38,170.31,361,0.00,37.00,-965.00
2024-05-17 17:11:49.127271,0,0,-89,0,0,0,76,80,108,70,38,169.94,361,-17.00,36.00,-1031.00
2024-05-17 17:11:49.175786,0,0,-83,0,0,0,76,80,108,70,37,169.96,362,2.00,18.00,-1054.00
2024-05-17 17:11:49.329529,0,0,-77,0,0,0,76,80,106,70,37,170.06,362,-13.00,19.00,-1011.00
2024-05-17 17:11:49.379975,0,0,-71,0,0,0,76,80,107,70,37,169.97,362,-45.00,41.00,-943.00
2024-05-17 17:11:49.431837,0,0,-65,0,0,0,76,80,106,70,37,169.93,362,5.00,25.00,-971.00
2024-05-17 17:11:49.534203,0,0,-59,0,0,0,76,80,106,70,37,170.22,362,-45.00,63.00,-946.00
2024-05-17 17:11:49.636712,0,0,-54,0,0,0,76,80,105,70,37,170.10,362,-20.00,23.00,-956.00
2024-05-17 17:11:49.737101,0,0,-48,0,0,0,76,80,105,70,37,170.18,362,25.00,20.00,-1044.00
2024-05-17 17:11:49.838828,0,-1,-42,0,0,0,76,80,105,70,37,170.17,362,-26.00,74.00,-1033.00
2024-05-17 17:11:49.945359,0,-1,-36,0,0,0,76,80,105,70,37,170.16,362,34.00,39.00,-1033.00
2024-05-17 17:11:50.047652,0,0,-30,0,0,0,76,79,105,70,37,170.28,362,37.00,25.00,-1074.00
2024-05-17 17:11:50.144974,0,0,-25,0,0,0,76,79,104,70,37,170.34,363,-37.00,78.00,-995.00
2024-05-17 17:11:50.247197,0,0,-19,0,0,0,76,79,106,70,37,170.02,363,-7.00,24.00,-840.00
2024-05-17 17:11:50.350005,0,0,-14,0,0,0,76,79,106,70,37,170.07,363,-18.00,46.00,-1021.00
2024-05-17 17:11:50.450947,0,0,-10,0,0,0,76,79,106,70,37,170.16,363,1.00,27.00,-950.00
2024-05-17 17:11:50.552819,0,0,-7,0,0,0,76,79,108,70,37,169.91,363,7.00,73.00,-968.00
2024-05-17 17:11:50.661747,0,0,-4,0,0,0,76,79,108,70,37,170.20,363,-97.00,65.00,-917.00
2024-05-17 17:11:50.759072,0,0,-2,0,0,0,76,79,110,70,37,170.10,363,22.00,18.00,-1067.00
2024-05-17 17:11:50.858892,0,0,-1,0,0,0,76,79,110,70,37,170.42,363,-32.00,34.00,-983.00
2024-05-17 17:11:50.967903,0,0,0,0,0,0,76,79,110,70,37,169.83,363,-94.00,67.00,-902.00
2024-05-17 17:11:51.062877,1,0,1,0,0,0,76,79,111,70,37,170.36,363,16.00,15.00,-1064.00
2024-05-17 17:11:51.166455,1,0,1,0,0,0,76,79,111,70,37,170.24,364,20.00,34.00,-1013.00
2024-05-17 17:11:51.266842,1,0,2,0,0,0,76,79,111,70,37,170.05,364,0.00,45.00,-970.00
2024-05-17 17:11:51.385358,1,0,2,0,0,0,76,79,111,70,37,170.30,364,-7.00,29.00,-999.00
2024-05-17 17:11:51.471117,1,0,2,0,0,0,76,79,112,70,37,170.18,364,-19.00,34.00,-976.00
2024-05-17 17:11:51.573669,1,0,2,0,0,0,76,79,112,70,37,170.17,364,54.00,13.00,-1022.00
2024-05-17 17:11:51.684910,1,0,2,0,0,0,76,79,112,70,37,169.93,364,25.00,23.00,-1005.00
2024-05-17 17:11:51.776902,1,0,2,0,0,0,76,79,112,70,37,170.08,364,-11.00,50.00,-961.00
2024-05-17 17:11:51.889605,1,0,2,0,0,0,76,79,111,70,37,170.09,364,46.00,32.00,-1069.00
2024-05-17 17:11:51.987014,1,0,2,0,0,0,76,79,111,70,37,170.05,364,28.00,7.00,-959.00
2024-05-17 17:11:52.087192,1,0,2,0,0,0,76,79,110,70,37,169.97,364,50.00,-2.00,-1039.00
2024-05-17 17:11:52.185450,2,0,2,0,0,0,76,79,110,70,37,170.01,365,18.00,54.00,-1007.00
2024-05-17 17:11:52.299595,2,0,2,0,0,0,76,79,109,70,37,169.87,365,-13.00,44.00,-939.00
2024-05-17 17:11:52.388900,1,0,2,0,0,0,76,79,109,70,37,169.86,365,-4.00,16.00,-892.00
2024-05-17 17:11:52.504057,1,0,2,0,0,0,76,79,108,70,37,170.27,365,48.00,-8.00,-949.00
2024-05-17 17:11:52.593253,0,-1,2,0,0,0,76,79,108,70,37,170.14,365,58.00,-19.00,-1082.00
2024-05-17 17:11:52.708833,0,-1,2,0,0,0,76,79,108,70,37,170.28,365,-58.00,58.00,-934.00
2024-05-17 17:11:52.796810,0,-1,2,0,0,0,76,79,107,70,37,170.13,365,25.00,13.00,-978.00
2024-05-17 17:11:52.916645,0,-1,2,0,0,0,76,79,107,70,37,170.23,365,94.00,-10.00,-1009.00
2024-05-17 17:11:52.950558,1,0,2,0,0,0,76,79,106,70,37,169.90,365,51.00,-5.00,-997.00
2024-05-17 17:11:53.120728,2,0,2,0,0,0,75,79,106,70,37,170.14,365,-11.00,19.00,-877.00
2024-05-17 17:11:53.153694,2,0,2,0,0,0,75,79,106,70,36,170.25,366,21.00,18.00,-1007.00
2024-05-17 17:11:53.329601,1,0,2,0,0,0,75,79,106,70,36,169.94,366,-13.00,26.00,-912.00
2024-05-17 17:11:53.372458,1,0,2,0,0,0,75,79,106,70,36,170.14,366,26.00,36.00,-1024.00
2024-05-17 17:11:53.459607,1,0,2,0,0,0,75,79,105,70,36,170.12,366,-3.00,39.00,-1137.00
2024-05-17 17:11:53.572587,0,-1,1,0,0,0,75,79,105,70,36,170.24,366,28.00,63.00,-1039.00
2024-05-17 17:11:53.663684,0,-1,-3,0,0,0,75,79,105,70,36,170.33,366,50.00,25.00,-1006.00
2024-05-17 17:11:53.835680,0,-1,-9,0,0,0,75,79,104,70,36,169.89,366,3.00,35.00,-1036.00
2024-05-17 17:11:53.869057,0,-1,-15,0,0,0,75,79,104,70,36,169.95,366,22.00,23.00,-971.00
2024-05-17 17:11:54.039961,0,-1,-21,0,0,0,75,79,104,70,36,170.25,366,45.00,18.00,-1098.00
2024-05-17 17:11:54.071591,0,-1,-27,0,0,0,76,79,103,70,36,170.17,366,54.00,2.00,-1024.00
2024-05-17 17:11:54.173528,1,0,-33,0,0,0,76,79,103,70,36,170.36,367,-3.00,44.00,-948.00
2024-05-17 17:11:54.347931,1,0,-39,0,0,0,76,79,103,70,36,170.16,367,3.00,24.00,-1043.00
2024-05-17 17:11:54.377619,1,-1,-45,0,0,0,76,79,104,70,36,170.28,367,92.00,3.00,-1084.00
2024-05-17 17:11:54.479686,1,-1,-51,0,0,0,76,79,105,70,36,169.97,367,23.00,41.00,-1027.00
2024-05-17 17:11:54.581591,1,0,-57,0,0,0,76,79,105,70,36,170.03,367,-23.00,22.00,-951.00
2024-05-17 17:11:54.683706,1,0,-63,0,0,0,76,79,106,70,36,170.00,367,-3.00,37.00,-989.00
2024-05-17 17:11:54.785572,0,0,-69,0,0,0,76,79,106,70,36,170.04,367,-17.00,30.00,-1070.00
2024-05-17 17:11:54.887673,0,0,-75,0,0,0,76,79,107,70,36,169.92,367,23.00,28.00,-1012.00
2024-05-17 17:11:55.067377,0,0,-82,0,0,0,76,79,108,70,36,170.07,367,-17.00,-3.00,-970.00
2024-05-17 17:11:55.091565,0,0,-88,0,0,0,76,79,109,70,36,170.31,367,-9.00,10.00,-1019.00
2024-05-17 17:11:55.274099,0,0,-94,0,0,0,76,79,110,70,36,170.03,368,62.00,-11.00,-1066.00
2024-05-17 17:11:55.296049,0,0,-100,0,0,0,76,79,112,70,36,169.93,368,4.00,35.00,-1007.00
2024-05-17 17:11:55.473450,0,0,-106,0,0,0,76,79,113,70,36,170.23,368,87.00,-51.00,-993.00
2024-05-17 17:11:55.499797,0,0,-112,0,0,0,76,79,113,70,36,170.19,368,-3.00,21.00,-957.00
2024-05-17 17:11:55.602390,1,0,-119,0,0,0,76,79,113,70,36,170.32,368,23.00,21.00,-1006.00
2024-05-17 17:11:55.703611,1,0,-125,0,0,0,76,79,113,80,36,170.52,368,-12.00,36.00,-987.00
2024-05-17 17:11:55.883011,2,0,-131,0,0,0,76,79,112,80,36,170.46,368,2.00,26.00,-923.00
2024-05-17 17:11:55.907474,1,0,-137,0,0,0,76,79,111,80,36,170.26,368,37.00,26.00,-947.00
2024-05-17 17:11:56.088966,1,0,-143,0,0,0,76,79,110,80,36,170.33,368,-8.00,8.00,-1003.00
2024-05-17 17:11:56.113287,1,0,-150,0,0,1,76,79,109,70,36,170.19,368,7.00,-6.00,-977.00
2024-05-17 17:11:56.213722,0,0,-156,0,0,1,76,79,108,70,35,170.02,369,-44.00,27.00,-943.00
2024-05-17 17:11:56.317676,0,0,-162,0,0,0,76,79,108,70,35,170.25,369,-6.00,46.00,-978.00
2024-05-17 17:11:56.418399,0,0,-168,0,0,0,76,79,108,70,35,170.20,369,-24.00,-9.00,-989.00
2024-05-17 17:11:56.520507,0,0,-174,0,0,0,76,79,107,70,35,170.08,369,-9.00,18.00,-1047.00
2024-05-17 17:11:56.622921,1,0,179,0,0,0,76,79,107,70,35,170.03,369,39.00,21.00,-1051.00
2024-05-17 17:11:56.725176,1,0,173,0,0,0,76,79,107,70,35,169.94,369,23.00,30.00,-1023.00
2024-05-17 17:11:56.774418,1,0,167,0,0,0,76,79,107,70,35,169.93,369,43.00,-36.00,-975.00
2024-05-17 17:11:56.910597,1,0,161,0,0,0,76,79,108,70,35,170.20,369,8.00,6.00,-1035.00
2024-05-17 17:11:56.978862,1,1,155,0,0,0,76,79,108,70,35,170.03,369,-32.00,19.00,-887.00
2024-05-17 17:11:57.112002,1,0,149,0,0,0,75,79,109,70,35,169.99,369,26.00,-7.00,-1027.00
2024-05-17 17:11:57.182591,1,0,143,0,0,0,75,79,109,70,35,170.09,370,54.00,-33.00,-1076.00
2024-05-17 17:11:57.319696,2,0,136,0,0,0,75,79,110,70,35,170.20,370,110.00,-66.00,-979.00
2024-05-17 17:11:57.386569,2,0,130,0,0,0,75,79,110,70,35,170.27,370,-14.00,38.00,-941.00
2024-05-17 17:11:57.521447,1,0,124,0,0,0,75,79,110,70,35,169.95,370,23.00,3.00,-956.00
2024-05-17 17:11:57.590413,1,0,118,0,0,0,75,79,110,70,35,170.34,370,0.00,28.00,-999.00
2024-05-17 17:11:57.726986,1,0,111,0,0,0,75,79,109,70,35,169.89,370,-57.00,61.00,-879.00
2024-05-17 17:11:57.794559,1,0,105,0,0,0,75,79,109,70,35,170.19,370,-46.00,59.00,-980.00
2024-05-17 17:11:57.932067,2,0,99,0,0,0,75,79,108,70,35,170.09,370,11.00,32.00,-983.00
2024-05-17 17:11:57.998427,2,0,93,0,0,0,75,79,106,70,35,170.07,370,14.00,29.00,-998.00
2024-05-17 17:11:58.136896,2,0,87,0,0,0,75,80,105,70,35,170.11,370,-16.00,26.00,-930.00
2024-05-17 17:11:58.202423,2,0,75,0,0,0,75,80,104,70,35,170.01,371,18.00,28.00,-956.00
2024-05-17 17:11:58.340613,2,0,69,0,0,0,75,80,102,70,35,169.97,371,22.00,28.00,-1027.00
2024-05-17 17:11:58.406401,2,0,63,0,0,0,75,80,101,70,35,169.81,371,132.00,-66.00,-1028.00
2024-05-17 17:11:58.545976,2,0,57,0,0,0,75,80,99,70,35,169.93,371,9.00,31.00,-973.00
2024-05-17 17:11:58.610723,1,0,52,0,0,0,75,80,97,70,35,170.25,371,1.00,40.00,-971.00
2024-05-17 17:11:58.751795,1,-1,46,0,0,0,75,80,96,60,35,169.88,371,-16.00,43.00,-945.00
2024-05-17 17:11:58.816076,0,0,40,0,0,0,75,80,95,60,35,169.90,371,17.00,25.00,-1011.00
2024-05-17 17:11:58.917274,0,0,34,0,0,0,75,80,93,60,35,170.24,371,80.00,21.00,-1044.00
2024-05-17 17:11:59.018448,0,-1,28,0,0,0,75,80,92,60,35,170.01,371,44.00,-11.00,-992.00
2024-05-17 17:11:59.159817,1,-1,22,0,0,0,77,79,91,60,35,169.93,372,10.00,42.00,-1012.00
2024-05-17 17:11:59.222390,1,0,18,0,0,0,77,79,90,60,35,170.11,372,42.00,19.00,-1072.00
2024-05-17 17:11:59.324438,1,0,14,0,0,0,77,79,89,60,35,169.75,372,-65.00,76.00,-947.00
2024-05-17 17:11:59.469019,1,0,11,0,0,0,77,79,88,60,35,170.06,372,26.00,14.00,-946.00
2024-05-17 17:11:59.529098,1,0,9,0,0,0,77,79,88,60,35,170.06,372,62.00,-21.00,-1048.00
2024-05-17 17:11:59.630402,1,0,7,0,0,0,77,79,87,60,35,169.80,372,28.00,54.00,-1283.00
2024-05-17 17:11:59.774188,1,0,6,0,0,0,77,79,87,60,35,169.99,372,16.00,49.00,-1278.00
2024-05-17 17:11:59.834181,0,0,5,0,0,0,77,79,87,60,35,169.94,372,-6.00,35.00,-851.00
2024-05-17 17:11:59.941039,0,0,4,0,0,0,77,79,86,60,35,169.88,372,42.00,-13.00,-1011.00
2024-05-17 17:12:00.038496,0,-1,4,0,0,0,77,79,86,60,35,169.99,372,-33.00,65.00,-962.00
2024-05-17 17:12:00.140305,0,-1,4,0,0,0,76,78,87,60,35,169.92,373,41.00,20.00,-1022.00
2024-05-17 17:12:00.291368,0,-1,4,0,0,0,76,78,87,60,35,169.54,373,-4.00,65.00,-1051.00
2024-05-17 17:12:00.344527,0,-1,4,0,0,0,76,78,87,60,35,170.24,373,48.00,39.00,-1093.00
2024-05-17 17:12:00.492812,0,-1,4,0,0,0,76,78,87,60,35,169.93,373,42.00,38.00,-1097.00
2024-05-17 17:12:00.548478,0,-1,4,0,0,-1,76,78,87,60,35,170.01,373,-16.00,14.00,-897.00
2024-05-17 17:12:00.599534,0,-1,4,0,0,0,76,78,87,60,35,170.02,373,-14.00,68.00,-955.00
2024-05-17 17:12:00.798535,0,-1,4,0,0,0,76,78,87,60,35,170.01,373,31.00,-13.00,-991.00
2024-05-17 17:12:00.803498,0,-1,4,0,0,0,76,78,87,60,35,169.86,373,16.00,7.00,-1076.00
2024-05-17 17:12:00.906573,0,-1,4,0,0,0,76,78,87,60,35,170.14,373,89.00,1.00,-1096.00
2024-05-17 17:12:01.007323,0,0,4,0,0,-1,76,78,88,60,35,170.07,373,20.00,8.00,-1034.00
2024-05-17 17:12:01.208023,1,0,4,0,0,-1,76,78,89,60,35,169.76,374,-50.00,44.00,-906.00
2024-05-17 17:12:01.211294,1,0,4,0,0,0,76,78,90,60,34,169.96,374,-9.00,34.00,-943.00
2024-05-17 17:12:01.313464,0,0,4,0,0,0,76,78,91,60,34,169.80,374,-23.00,47.00,-931.00
2024-05-17 17:12:01.515862,0,-1,4,0,0,0,76,78,92,60,34,170.03,374,49.00,31.00,-1113.00
2024-05-17 17:12:01.517876,0,-1,4,0,0,0,76,78,93,60,34,170.26,374,15.00,16.00,-1017.00
2024-05-17 17:12:01.620498,1,-1,4,0,0,0,76,78,95,60,34,170.31,374,78.00,-11.00,-1237.00
2024-05-17 17:12:01.722502,1,-1,4,0,0,-2,76,78,96,60,34,170.03,374,53.00,31.00,-968.00
2024-05-17 17:12:01.824455,1,-1,4,0,0,-1,76,78,97,60,34,170.17,374,3.00,68.00,-926.00
2024-05-17 17:12:01.927132,1,-1,4,0,0,0,76,78,97,60,34,169.89,374,9.00,72.00,-966.00
2024-05-17 17:12:02.029143,1,-1,4,0,0,0,76,78,97,60,34,170.18,374,45.00,25.00,-995.00
2024-05-17 17:12:02.131346,0,-1,4,0,0,0,75,78,96,60,34,169.91,375,47.00,30.00,-992.00
2024-05-17 17:12:02.336714,0,-1,4,0,0,0,75,78,95,60,34,170.14,375,-4.00,17.00,-904.00
2024-05-17 17:12:02.336876,0,-1,4,0,0,0,75,78,93,60,34,169.73,375,40.00,3.00,-1024.00
2024-05-17 17:12:02.439911,0,-1,4,0,0,0,75,78,92,60,34,169.88,375,-27.00,57.00,-983.00
2024-05-17 17:12:02.539537,0,-1,4,0,0,0,75,78,90,60,34,169.97,375,-8.00,4.00,-944.00
2024-05-17 17:12:02.641587,0,-1,4,0,0,0,75,78,88,60,34,169.89,375,-3.00,26.00,-942.00
2024-05-17 17:12:02.744078,0,-1,4,0,0,0,75,78,87,60,34,170.14,375,34.00,-18.00,-998.00
2024-05-17 17:12:02.846672,0,-1,4,0,0,0,75,78,86,60,34,170.12,375,24.00,23.00,-964.00
2024-05-17 17:12:02.948818,1,-1,4,0,0,0,75,78,84,60,34,169.74,375,34.00,31.00,-1026.00
2024-05-17 17:12:03.051183,0,-1,4,0,0,0,75,78,83,60,34,170.01,375,0.00,32.00,-944.00
2024-05-17 17:12:03.151538,1,-1,4,0,0,0,76,79,82,60,34,169.85,376,75.00,-3.00,-986.00
2024-05-17 17:12:03.254183,1,-1,4,0,0,0,76,79,80,60,34,170.07,376,32.00,32.00,-1020.00
2024-05-17 17:12:03.355634,1,-1,4,0,0,0,76,79,79,60,34,169.80,376,8.00,28.00,-1105.00
2024-05-17 17:12:03.460730,0,-1,4,0,0,0,76,79,78,60,34,169.56,376,30.00,33.00,-1101.00
2024-05-17 17:12:03.559326,0,-2,4,0,0,0,76,79,77,60,34,169.92,376,-1.00,69.00,-966.00
2024-05-17 17:12:03.665503,0,-1,4,0,0,0,76,79,76,60,34,169.77,376,-5.00,49.00,-918.00
2024-05-17 17:12:03.763201,0,-1,4,0,0,0,76,79,75,60,34,170.04,376,-59.00,99.00,-957.00
2024-05-17 17:12:03.870491,1,-1,4,0,0,0,76,79,75,60,34,169.67,376,-16.00,34.00,-999.00
2024-05-17 17:12:03.967011,1,0,4,0,0,0,76,79,73,50,34,170.01,376,-8.00,27.00,-959.00
2024-05-17 17:12:04.018268,1,0,4,0,0,0,76,79,73,50,34,169.92,376,4.00,27.00,-918.00
2024-05-17 17:12:04.177608,1,0,4,0,0,0,76,79,73,50,34,169.63,377,-2.00,18.00,-890.00
2024-05-17 17:12:04.273185,1,0,4,0,0,0,76,79,73,50,34,169.73,377,73.00,-6.00,-1015.00
2024-05-17 17:12:04.382347,1,-1,4,0,0,0,76,79,72,60,34,169.69,377,-28.00,31.00,-886.00
2024-05-17 17:12:04.479577,1,-1,4,0,0,0,76,79,73,60,34,169.83,377,17.00,41.00,-1053.00
2024-05-17 17:12:04.579267,1,-1,4,0,0,-1,76,79,73,60,34,170.19,377,34.00,37.00,-966.00
2024-05-17 17:12:04.630448,0,-1,4,0,0,0,76,79,74,60,34,170.00,377,-69.00,82.00,-921.00
2024-05-17 17:12:04.793173,0,-2,4,0,0,0,76,79,74,60,34,169.66,377,-17.00,60.00,-826.00
2024-05-17 17:12:04.834084,1,-1,4,0,0,-1,76,79,74,60,34,169.99,377,22.00,22.00,-975.00
2024-05-17 17:12:04.936054,1,-1,4,0,0,-1,76,79,75,60,34,169.65,377,94.00,-3.00,-1075.00
2024-05-17 17:12:05.099279,1,-2,4,0,0,-1,76,79,75,60,34,169.94,377,-53.00,67.00,-872.00
2024-05-17 17:12:05.140108,1,-1,4,0,0,-1,76,79,75,60,34,169.63,378,-27.00,66.00,-930.00
2024-05-17 17:12:05.304735,1,-1,4,0,0,0,76,79,75,60,34,169.81,378,114.00,16.00,-1106.00
2024-05-17 17:12:05.344484,1,-1,4,0,0,0,76,79,75,60,34,170.08,378,-13.00,41.00,-960.00
2024-05-17 17:12:05.508759,1,-1,4,0,0,0,76,79,74,60,34,169.88,378,-11.00,49.00,-875.00
2024-05-17 17:12:05.548431,1,-1,4,0,0,0,76,79,74,60,34,169.95,378,-68.00,96.00,-877.00
2024-05-17 17:12:05.713511,1,-1,4,0,0,0,76,79,74,60,34,169.81,378,30.00,38.00,-988.00
2024-05-17 17:12:05.752201,0,-2,4,0,0,0,76,79,74,60,34,169.62,378,11.00,42.00,-973.00
2024-05-17 17:12:05.918505,1,-2,4,0,0,0,76,79,74,60,34,169.79,378,96.00,-5.00,-1147.00
2024-05-17 17:12:05.956231,1,-1,4,0,0,0,76,79,75,60,34,169.76,378,38.00,31.00,-960.00
2024-05-17 17:12:06.123584,1,-1,4,0,0,0,76,79,76,60,34,169.83,378,28.00,2.00,-1013.00
2024-05-17 17:12:06.160094,1,-1,4,0,0,0,76,79,76,60,33,169.82,379,2.00,53.00,-1024.00
2024-05-17 17:12:06.332489,1,-1,4,0,0,0,76,79,77,60,33,169.93,379,83.00,-1.00,-1104.00
2024-05-17 17:12:06.364035,1,-1,4,0,0,0,76,79,79,60,33,169.80,379,-16.00,73.00,-1005.00
2024-05-17 17:12:06.532669,1,-1,4,0,0,0,76,79,80,60,33,169.97,379,1.00,31.00,-1002.00
2024-05-17 17:12:06.568084,0,-1,4,0,0,-1,76,79,83,60,33,169.81,379,-27.00,73.00,-928.00
2024-05-17 17:12:06.737501,1,-1,4,0,0,0,76,79,84,60,33,169.83,379,-15.00,49.00,-992.00
2024-05-17 17:12:06.772048,1,-1,4,0,0,0,76,79,85,60,33,170.12,379,14.00,13.00,-941.00
2024-05-17 17:12:06.942261,1,0,4,0,0,0,76,79,87,60,33,170.01,379,37.00,16.00,-965.00
2024-05-17 17:12:06.977064,0,0,4,0,0,0,76,79,88,70,33,169.85,379,-18.00,17.00,-964.00
2024-05-17 17:12:07.147045,0,-1,4,0,0,0,76,79,90,70,33,170.04,379,20.00,29.00,-1143.00
2024-05-17 17:12:07.180184,0,-1,4,0,0,0,75,79,93,70,33,170.00,380,78.00,5.00,-1065.00
2024-05-17 17:12:07.352006,0,-1,4,0,0,0,75,79,95,70,33,169.92,380,3.00,9.00,-974.00
2024-05-17 17:12:07.384135,1,-1,4,0,0,0,75,79,97,70,33,169.89,380,-13.00,47.00,-989.00
2024-05-17 17:12:07.556733,2,0,4,0,0,0,75,79,99,70,33,170.05,380,21.00,14.00,-956.00
2024-05-17 17:12:07.587984,2,0,4,0,0,0,75,79,101,70,33,169.91,380,-3.00,10.00,-932.00
2024-05-17 17:12:07.762480,2,0,4,0,0,0,75,79,103,80,33,169.97,380,98.00,0.00,-1009.00
2024-05-17 17:12:07.794634,1,0,4,0,0,0,75,79,104,80,33,170.00,380,84.00,-6.00,-984.00
2024-05-17 17:12:07.895085,2,0,4,0,0,0,75,79,105,80,33,170.26,380,-34.00,20.00,-889.00
2024-05-17 17:12:07.996046,2,0,4,0,0,0,75,79,106,80,33,170.51,380,10.00,42.00,-949.00
2024-05-17 17:12:08.171488,1,0,4,0,0,0,75,79,106,80,33,170.00,380,31.00,-2.00,-968.00
2024-05-17 17:12:08.203220,1,-1,4,0,0,1,75,78,106,80,33,170.20,381,3.00,29.00,-893.00
2024-05-17 17:12:08.302332,0,-1,4,0,0,1,75,78,107,80,33,170.23,381,27.00,36.00,-1011.00
2024-05-17 17:12:08.352974,0,-1,4,0,0,0,75,78,108,80,33,170.29,381,17.00,23.00,-988.00
2024-05-17 17:12:08.455597,0,-1,4,0,0,0,75,78,108,80,33,170.29,381,-50.00,51.00,-946.00
2024-05-17 17:12:08.581453,1,-1,4,0,0,0,75,78,108,80,33,170.12,381,40.00,30.00,-1026.00
2024-05-17 17:12:08.658950,1,-1,4,0,0,0,75,78,107,80,33,170.10,381,47.00,35.00,-959.00
2024-05-17 17:12:08.785463,1,-1,4,0,0,0,75,78,106,80,33,170.16,381,-21.00,31.00,-1068.00
2024-05-17 17:12:08.863005,1,-1,4,0,0,1,75,78,105,80,33,170.31,381,11.00,39.00,-949.00
2024-05-17 17:12:08.990286,1,0,4,0,0,1,75,78,103,80,33,170.29,381,40.00,-5.00,-996.00
