TS,pitch,roll,yaw,vgx,vgy,vgz,templ,temph,tof,h,bat,baro,time,agx,agy,agz
2024-05-19 09:22:05.002540,0,0,0,0,0,0,59,60,10,0,100,109.35,0,9.00,10.00,-998.00
2024-05-19 09:22:05.092987,0,0,0,0,0,0,59,60,10,0,100,109.42,0,12.00,12.00,-999.00
2024-05-19 09:22:05.206808,0,0,0,0,0,0,59,60,10,0,100,109.32,0,12.00,10.00,-999.00
2024-05-19 09:22:05.296788,0,0,0,0,0,0,59,60,10,0,100,109.31,0,10.00,11.00,-998.00
2024-05-19 09:22:05.411535,0,0,0,0,0,0,59,60,10,0,100,109.45,0,11.00,11.00,-998.00
2024-05-19 09:22:05.500813,0,0,0,0,0,0,59,60,10,0,100,109.24,0,10.00,11.00,-999.00
2024-05-19 09:22:05.616423,0,0,0,0,0,0,59,60,10,0,100,109.50,0,11.00,11.00,-999.00
2024-05-19 09:22:05.704771,0,0,0,0,0,0,59,60,10,0,100,109.29,0,12.00,11.00,-997.00
2024-05-19 09:22:05.821142,0,0,0,0,0,0,59,60,10,0,100,109.52,0,10.00,11.00,-1001.00
2024-05-19 09:22:05.908852,0,0,0,0,0,0,59,60,10,0,100,109.38,0,10.00,12.00,-1000.00
2024-05-19 09:22:06.010875,0,0,0,0,0,0,58,61,10,0,100,109.33,0,11.00,11.00,-999.00
2024-05-19 09:22:06.128347,0,0,0,0,0,0,58,61,10,0,100,109.39,0,10.00,11.00,-998.00
2024-05-19 09:22:06.215630,0,0,0,0,0,0,58,61,10,0,100,109.53,0,11.00,10.00,-1000.00
2024-05-19 09:22:06.333137,0,0,0,0,0,0,58,61,10,0,100,109.31,0,10.00,11.00,-998.00
2024-05-19 09:22:06.418940,0,0,0,0,0,0,58,61,10,0,100,109.03,0,12.00,11.00,-999.00
2024-05-19 09:22:06.537696,0,0,0,0,0,0,58,61,10,0,100,109.15,0,10.00,11.00,-1000.00
2024-05-19 09:22:06.622924,0,0,0,0,0,0,58,61,10,0,100,109.47,0,11.00,11.00,-999.00
2024-05-19 09:22:06.724807,0,0,0,0,0,0,58,61,10,0,100,109.56,0,12.00,10.00,-998.00
2024-05-19 09:22:06.845162,0,0,0,0,0,0,58,61,10,0,100,109.43,0,11.00,10.00,-1000.00
2024-05-19 09:22:06.928879,0,0,0,0,0,0,58,61,10,0,100,109.23,0,11.00,9.00,-1000.00
2024-05-19 09:22:07.030918,0,0,0,0,0,0,59,60,10,0,100,109.47,0,11.00,11.00,-998.00
2024-05-19 09:22:07.152453,0,0,0,0,0,0,59,60,10,0,100,109.16,0,11.00,10.00,-999.00
2024-05-19 09:22:07.234965,0,0,0,0,0,0,59,60,10,0,100,109.34,0,11.00,10.00,-997.00
2024-05-19 09:22:07.357134,0,0,0,0,0,0,59,60,10,0,100,109.34,0,10.00,9.00,-999.00
2024-05-19 09:22:07.438882,0,0,0,0,0,0,59,60,10,0,100,109.43,0,11.00,11.00,-998.00
2024-05-19 09:22:07.562160,0,0,0,0,0,0,59,60,10,0,100,109.25,0,12.00,11.00,-999.00
2024-05-19 09:22:07.592335,0,0,0,0,0,0,59,60,10,0,100,109.33,0,12.00,11.00,-1002.00
2024-05-19 09:22:07.694048,0,0,0,0,0,0,59,60,10,0,100,109.21,0,12.00,10.00,-998.00
2024-05-19 09:22:07.869219,0,0,0,0,0,0,59,60,10,0,100,109.16,0,10.00,10.00,-998.00
2024-05-19 09:22:07.897994,0,0,0,0,0,0,59,60,10,0,100,109.04,0,12.00,10.00,-999.00
2024-05-19 09:22:08.074090,0,0,0,0,0,0,58,61,10,0,100,109.10,0,12.00,10.00,-999.00
2024-05-19 09:22:08.104819,0,0,0,0,0,0,58,61,10,0,100,109.53,0,12.00,12.00,-999.00
2024-05-19 09:22:08.204830,0,0,0,0,0,0,58,61,10,0,100,109.16,0,10.00,11.00,-1000.00
2024-05-19 09:22:08.381142,0,0,0,0,0,0,58,61,10,0,100,109.44,0,10.00,11.00,-998.00
2024-05-19 09:22:08.408723,0,0,0,0,0,0,58,61,10,0,100,109.34,0,12.00,11.00,-997.00
2024-05-19 09:22:08.590486,0,0,0,0,0,0,58,61,10,0,100,109.32,0,10.00,10.00,-998.00
2024-05-19 09:22:08.612662,0,0,0,0,0,0,58,61,10,0,100,109.30,0,11.00,13.00,-999.00
2024-05-19 09:22:08.714725,0,0,0,0,0,0,58,61,10,0,100,109.25,0,12.00,10.00,-999.00
2024-05-19 09:22:08.893079,0,0,0,0,0,0,58,61,10,0,100,109.25,0,13.00,12.00,-1001.00
2024-05-19 09:22:08.918829,0,0,0,0,0,0,58,61,10,0,100,109.25,0,14.00,5.00,-998.00
2024-05-19 09:22:09.020675,0,0,0,0,0,0,59,61,10,0,100,109.25,0,-16.00,29.00,-1005.00
2024-05-19 09:22:09.200188,0,0,1,0,0,0,59,61,10,0,100,109.25,0,47.00,39.00,-1027.00
2024-05-19 09:22:09.224615,0,0,2,0,0,0,59,61,10,0,100,109.25,0,34.00,-12.00,-1021.00
2024-05-19 09:22:09.404971,0,0,3,0,0,0,59,61,10,0,100,109.25,0,4.00,14.00,-1143.00
2024-05-19 09:22:09.428617,0,0,3,0,0,-2,59,61,10,0,100,109.25,0,49.00,-13.00,-1394.00
2024-05-19 09:22:09.609828,2,0,3,0,0,-5,59,61,10,0,100,109.25,0,-18.00,-5.00,-1175.00
2024-05-19 09:22:09.632560,1,0,3,0,0,-8,59,61,18,10,100,109.68,0,-58.00,-2.00,-1129.00
2024-05-19 09:22:09.734822,0,1,4,0,0,-9,59,61,27,20,100,110.01,0,-5.00,-12.00,-1028.00
2024-05-19 09:22:09.917036,1,1,4,0,0,-9,59,61,36,30,100,109.85,1,-27.00,14.00,-919.00
2024-05-19 09:22:09.938600,1,1,3,0,0,-9,59,61,44,40,100,109.78,1,14.00,-3.00,-923.00
2024-05-19 09:22:10.040558,0,0,3,0,0,-8,60,62,48,50,100,110.16,1,-31.00,13.00,-798.00
2024-05-19 09:22:10.224206,0,0,3,0,0,-6,60,62,55,50,100,110.03,1,19.00,-4.00,-841.00
2024-05-19 09:22:10.244566,0,0,3,0,0,-4,60,62,60,60,99,110.13,1,8.00,-30.00,-855.00
2024-05-19 09:22:10.429060,0,0,3,0,0,-3,60,62,63,60,99,110.10,1,19.00,-9.00,-892.00
2024-05-19 09:22:10.448456,0,0,3,0,0,-2,60,62,65,70,99,110.04,1,-76.00,28.00,-893.00
2024-05-19 09:22:10.633810,-1,0,3,0,0,-1,60,62,67,70,99,110.22,1,-67.00,21.00,-939.00
2024-05-19 09:22:10.653242,-1,0,3,0,0,-1,60,62,69,70,99,110.14,1,-19.00,-4.00,-965.00
2024-05-19 09:22:10.838606,-2,0,3,0,0,0,60,62,69,70,99,110.36,1,31.00,-30.00,-1029.00
2024-05-19 09:22:10.856540,-2,0,3,0,0,0,60,62,70,70,99,110.19,2,0.00,-1.00,-1007.00
2024-05-19 09:22:11.043422,-2,0,3,0,0,-1,60,62,71,70,99,110.33,2,-17.00,-13.00,-1059.00
2024-05-19 09:22:11.060448,-1,1,3,0,0,-1,59,62,72,70,99,110.04,2,1.00,-12.00,-993.00
2024-05-19 09:22:11.248239,0,1,3,0,0,-1,59,62,72,70,99,110.07,2,-86.00,1.00,-983.00
2024-05-19 09:22:11.264394,0,1,3,0,0,-1,59,62,74,70,99,110.65,2,-38.00,23.00,-954.00
2024-05-19 09:22:11.315773,0,1,3,0,0,0,59,62,74,70,99,110.07,2,-2.00,-7.00,-987.00
2024-05-19 09:22:11.453024,0,1,3,0,0,0,59,62,74,70,99,110.05,2,-40.00,-18.00,-976.00
2024-05-19 09:22:11.526200,0,0,3,0,0,0,59,62,75,80,99,110.29,2,-2.00,-16.00,-959.00
2024-05-19 09:22:11.621683,0,0,3,0,0,0,59,62,75,80,99,110.28,2,-29.00,-9.00,-995.00
2024-05-19 09:22:11.760539,0,0,3,0,0,0,59,62,75,80,99,110.34,2,45.00,-52.00,-1065.00
2024-05-19 09:22:11.825915,0,0,3,0,0,0,59,62,76,80,99,110.25,3,4.00,-46.00,-982.00
2024-05-19 09:22:11.965017,0,1,3,0,0,0,59,62,77,80,99,110.12,3,-41.00,-21.00,-1006.00
2024-05-19 09:22:12.029815,0,1,3,0,0,0,60,62,77,80,99,110.56,3,-46.00,-14.00,-1010.00
2024-05-19 09:22:12.169767,0,1,3,0,0,0,60,62,78,80,99,110.17,3,-12.00,-34.00,-992.00
2024-05-19 09:22:12.233736,0,1,3,0,0,0,60,62,78,80,98,110.20,3,29.00,-46.00,-1000.00
2024-05-19 09:22:12.374596,0,2,3,0,0,0,60,62,79,80,98,110.21,3,-9.00,-19.00,-1011.00
2024-05-19 09:22:12.437592,0,1,3,0,0,0,60,62,79,80,98,110.01,3,-7.00,-13.00,-991.00
2024-05-19 09:22:12.579418,0,1,3,0,0,0,60,62,79,80,98,110.38,3,25.00,-21.00,-986.00
2024-05-19 09:22:12.641593,0,2,3,0,0,0,60,62,80,80,98,110.43,3,25.00,-27.00,-931.00
2024-05-19 09:22:12.784218,0,1,3,0,0,0,60,62,80,80,98,110.59,3,10.00,-33.00,-1021.00
2024-05-19 09:22:12.845677,1,1,3,0,0,0,60,62,80,80,98,110.18,4,-18.00,-21.00,-1021.00
2024-05-19 09:22:12.989024,1,2,3,0,0,0,60,62,80,80,98,110.08,4,135.00,-91.00,-1011.00
2024-05-19 09:22:13.049688,0,2,3,0,0,0,60,63,80,80,98,110.25,4,51.00,-63.00,-981.00
2024-05-19 09:22:13.193838,1,2,3,0,0,0,60,63,80,80,98,110.19,4,-3.00,-27.00,-969.00
2024-05-19 09:22:13.253741,2,2,3,0,0,0,60,63,81,80,98,110.23,4,20.00,-40.00,-982.00
2024-05-19 09:22:13.398537,2,3,3,0,0,0,60,63,80,80,98,110.28,4,47.00,-27.00,-983.00
2024-05-19 09:22:13.457651,3,3,3,0,0,0,60,63,80,80,98,110.27,4,28.00,-35.00,-1035.00
2024-05-19 09:22:13.603333,3,2,3,0,0,0,60,63,81,80,98,110.44,4,-18.00,-44.00,-957.00
2024-05-19 09:22:13.661737,2,2,3,0,0,0,60,63,81,80,98,110.18,4,43.00,-46.00,-971.00
2024-05-19 09:22:13.808255,2,2,3,0,0,0,60,63,80,80,98,110.31,4,109.00,-54.00,-997.00
2024-05-19 09:22:13.865669,2,2,3,0,0,0,60,63,80,80,98,109.96,5,58.00,-50.00,-1013.00
2024-05-19 09:22:14.013401,2,2,3,0,0,0,60,63,80,80,98,110.29,5,11.00,-37.00,-1024.00
2024-05-19 09:22:14.069819,2,2,3,0,0,0,61,63,80,80,98,110.40,5,78.00,-61.00,-1001.00
2024-05-19 09:22:14.217903,1,2,3,0,0,0,61,63,80,80,98,110.41,5,43.00,-50.00,-1016.00
2024-05-19 09:22:14.274609,1,1,3,0,0,0,61,63,80,80,97,110.42,5,41.00,-44.00,-997.00
2024-05-19 09:22:14.422773,1,1,3,0,0,0,61,63,79,80,97,110.11,5,3.00,-11.00,-1082.00
2024-05-19 09:22:14.482684,1,1,3,0,0,0,61,63,79,80,97,110.11,5,21.00,-27.00,-1034.00
2024-05-19 09:22:14.581811,1,1,3,0,0,0,61,63,79,80,97,110.26,5,17.00,-24.00,-984.00
2024-05-19 09:22:14.682393,0,1,3,0,0,0,61,63,79,80,97,110.23,5,-2.00,-20.00,-996.00
2024-05-19 09:22:14.784832,1,1,3,0,0,0,61,63,80,80,97,110.40,5,76.00,-54.00,-1023.00
2024-05-19 09:22:14.887357,2,1,3,0,0,0,61,63,80,80,97,110.34,6,125.00,-76.00,-1030.00
2024-05-19 09:22:14.936557,2,1,3,0,0,0,61,63,80,80,97,110.16,6,-39.00,-1.00,-1015.00
2024-05-19 09:22:15.089823,2,1,3,0,0,0,61,63,80,80,97,110.19,6,11.00,-19.00,-978.00
2024-05-19 09:22:15.247759,1,1,3,0,0,0,61,63,80,80,97,110.09,6,72.00,-53.00,-1020.00
2024-05-19 09:22:15.293649,1,1,3,0,0,0,61,63,80,80,97,110.19,6,10.00,-24.00,-990.00
2024-05-19 09:22:15.344454,2,1,3,0,0,0,61,63,80,80,97,110.18,6,-6.00,-17.00,-1022.00
2024-05-19 09:22:15.446649,2,0,3,0,0,0,61,63,80,80,97,110.30,6,0.00,-11.00,-1000.00
2024-05-19 09:22:15.549232,1,0,3,0,0,0,61,63,79,80,97,110.11,6,20.00,-7.00,-1002.00
2024-05-19 09:22:15.651628,2,0,4,0,0,0,61,63,79,80,97,110.27,6,14.00,25.00,-961.00
2024-05-19 09:22:15.754262,1,0,4,0,0,0,61,63,79,80,97,110.04,6,41.00,-25.00,-1096.00
2024-05-19 09:22:15.854371,1,0,4,0,0,0,61,63,79,80,97,110.24,7,-41.00,52.00,-1104.00
2024-05-19 09:22:15.958607,1,0,4,0,0,-1,61,63,81,80,97,110.18,7,0.00,-20.00,-1103.00
2024-05-19 09:22:16.061339,0,0,4,0,0,-2,62,64,83,80,97,110.23,7,33.00,15.00,-1106.00
2024-05-19 09:22:16.160162,0,0,4,0,0,-3,62,64,86,80,97,110.25,7,33.00,19.00,-1099.00
2024-05-19 09:22:16.265850,0,0,4,0,0,-3,62,64,90,90,96,110.38,7,9.00,17.00,-1045.00
2024-05-19 09:22:16.364216,0,-1,4,0,0,-4,62,64,94,90,96,110.26,7,-36.00,66.00,-1064.00
2024-05-19 09:22:16.470701,0,-1,3,0,0,-4,62,64,99,90,96,110.31,7,107.00,-55.00,-1091.00
2024-05-19 09:22:16.568265,0,-1,3,0,0,-5,62,64,104,100,96,110.37,7,88.00,-41.00,-997.00
2024-05-19 09:22:16.675495,0,-1,4,0,0,-5,62,64,109,100,96,110.51,7,13.00,39.00,-1040.00
2024-05-19 09:22:16.772076,0,-1,4,0,0,-5,62,64,114,110,96,110.61,7,33.00,35.00,-945.00
2024-05-19 09:22:16.880206,0,0,4,0,0,-5,62,64,119,110,96,110.67,8,63.00,-9.00,-955.00
2024-05-19 09:22:16.976214,1,0,3,0,0,-4,62,64,124,120,96,110.59,8,14.00,48.00,-966.00
2024-05-19 09:22:17.078174,1,0,3,0,0,-4,62,65,128,120,96,110.55,8,75.00,-39.00,-989.00
2024-05-19 09:22:17.180077,2,0,3,0,0,-4,62,65,133,130,96,110.68,8,-3.00,57.00,-955.00
2024-05-19 09:22:17.289914,1,-1,3,0,0,-4,62,65,136,130,96,110.78,8,59.00,-39.00,-982.00
2024-05-19 09:22:17.384172,0,-2,3,0,0,-4,62,65,140,140,96,110.67,8,32.00,52.00,-1150.00
2024-05-19 09:22:17.494671,0,-2,3,0,0,-4,62,65,143,140,96,110.64,8,56.00,41.00,-939.00
2024-05-19 09:22:17.588112,1,-2,3,0,0,-3,62,65,146,140,96,110.63,8,-5.00,46.00,-921.00
2024-05-19 09:22:17.699517,2,-1,3,0,0,-3,62,65,148,150,96,111.09,8,36.00,4.00,-962.00
2024-05-19 09:22:17.792170,2,-1,3,0,0,-3,62,65,151,150,96,110.61,8,9.00,42.00,-979.00
2024-05-19 09:22:17.904330,2,-1,3,0,0,-3,62,65,153,150,96,110.95,9,91.00,-24.00,-932.00
2024-05-19 09:22:17.996253,2,-1,3,0,0,-2,62,65,155,160,96,110.84,9,-11.00,22.00,-950.00
2024-05-19 09:22:18.098171,1,0,3,0,0,-2,62,65,157,160,96,110.93,9,1.00,-24.00,-963.00
2024-05-19 09:22:18.211596,1,0,3,0,0,-2,62,65,159,160,96,110.75,9,-54.00,20.00,-923.00
2024-05-19 09:22:18.302130,1,0,3,0,0,-1,62,65,160,160,95,111.17,9,53.00,-14.00,-930.00
2024-05-19 09:22:18.416377,1,0,3,0,0,-1,62,65,161,160,95,110.81,9,50.00,-25.00,-1044.00
2024-05-19 09:22:18.506259,1,0,3,0,0,-1,62,65,163,160,95,110.91,9,39.00,-8.00,-973.00
2024-05-19 09:22:18.621306,1,0,3,0,0,0,62,65,164,160,95,110.74,9,4.00,0.00,-1016.00
2024-05-19 09:22:18.662709,2,1,3,0,0,0,62,65,165,170,95,110.85,9,91.00,-32.00,-971.00
2024-05-19 09:22:18.761414,1,1,3,0,0,0,62,65,166,170,95,111.02,9,-10.00,24.00,-995.00
2024-05-19 09:22:18.928303,1,1,3,0,0,0,62,65,167,170,95,111.09,10,-40.00,36.00,-1032.00
2024-05-19 09:22:18.965389,1,0,3,0,0,0,62,65,168,170,95,111.17,10,63.00,-6.00,-933.00
2024-05-19 09:22:19.132936,3,1,3,0,0,0,63,65,169,170,95,111.28,10,57.00,-7.00,-1022.00
2024-05-19 09:22:19.169338,3,1,3,0,0,-1,63,65,171,170,95,111.15,10,28.00,9.00,-972.00
2024-05-19 09:22:19.337758,3,0,3,0,0,0,63,65,172,170,95,110.97,10,33.00,-2.00,-1008.00
2024-05-19 09:22:19.373312,3,0,3,0,0,0,63,65,173,170,95,111.01,10,68.00,-36.00,-1044.00
2024-05-19 09:22:19.542562,2,0,3,0,0,0,63,65,173,170,95,111.03,10,-14.00,27.00,-991.00
2024-05-19 09:22:19.578155,2,0,3,0,0,0,63,65,174,170,95,110.89,10,-54.00,46.00,-940.00
2024-05-19 09:22:19.747692,2,0,3,0,0,0,63,65,175,170,95,111.32,10,7.00,-15.00,-924.00
2024-05-19 09:22:19.801552,3,0,3,0,0,0,63,65,175,170,95,111.29,11,29.00,13.00,-963.00
2024-05-19 09:22:19.884825,2,0,3,0,0,0,63,65,176,180,95,111.12,11,-5.00,19.00,-991.00
2024-05-19 09:22:20.054697,3,0,4,0,0,0,63,65,176,180,95,111.52,11,77.00,-18.00,-970.00
2024-05-19 09:22:20.087736,2,0,4,0,0,0,63,65,176,170,95,111.43,11,65.00,-26.00,-981.00
2024-05-19 09:22:20.259764,2,-1,4,0,0,0,63,65,176,170,95,111.31,11,-39.00,54.00,-1020.00
2024-05-19 09:22:20.291457,1,-1,4,-1,0,0,63,65,175,170,94,111.20,11,-22.00,35.00,-1057.00
2024-05-19 09:22:20.464553,0,-1,4,-1,0,0,63,65,175,170,94,111.06,11,71.00,-28.00,-1013.00
2024-05-19 09:22:20.495390,0,-1,4,0,0,0,63,65,174,170,94,110.98,11,59.00,-14.00,-1008.00
2024-05-19 09:22:20.669683,1,-1,4,0,0,0,63,65,175,170,94,110.88,11,18.00,5.00,-1003.00
2024-05-19 09:22:20.699438,0,-1,4,0,0,0,63,65,175,170,94,111.00,11,-17.00,23.00,-1019.00
2024-05-19 09:22:20.874056,0,0,3,-1,0,0,63,65,176,170,94,110.98,12,73.00,-44.00,-1014.00
2024-05-19 09:22:20.903259,0,-1,3,0,0,0,63,65,176,170,94,111.20,12,64.00,-18.00,-988.00
2024-05-19 09:22:21.076451,0,0,3,0,0,0,63,65,176,170,94,110.95,12,22.00,14.00,-1001.00
2024-05-19 09:22:21.107244,0,-1,3,0,0,0,64,65,175,170,94,110.91,12,11.00,-17.00,-1035.00
2024-05-19 09:22:21.283704,0,-1,3,0,0,0,64,65,177,180,94,111.16,12,-2.00,14.00,-1045.00
2024-05-19 09:22:21.311283,0,0,3,0,0,0,64,65,178,180,94,110.67,12,21.00,-30.00,-976.00
2024-05-19 09:22:21.413226,0,0,3,0,0,0,64,65,178,180,94,110.68,12,19.00,-27.00,-992.00
2024-05-19 09:22:21.544936,0,0,3,0,0,0,64,65,178,180,94,110.96,12,-18.00,39.00,-964.00
2024-05-19 09:22:21.617212,0,0,3,0,0,0,64,65,178,180,94,110.91,12,65.00,-19.00,-1004.00
2024-05-19 09:22:21.795257,0,0,3,0,0,0,64,65,177,180,94,111.10,12,-15.00,19.00,-933.00
2024-05-19 09:22:21.821136,0,0,3,0,0,0,64,65,177,180,94,111.06,13,33.00,-14.00,-963.00
2024-05-19 09:22:22.000079,0,0,3,0,0,1,64,65,175,180,94,111.29,13,63.00,-5.00,-934.00
2024-05-19 09:22:22.025173,1,0,3,0,0,1,64,65,174,170,94,111.10,13,59.00,-14.00,-974.00
2024-05-19 09:22:22.204764,0,0,3,0,0,2,63,66,171,170,94,110.80,13,47.00,-9.00,-949.00
2024-05-19 09:22:22.229919,1,0,3,0,0,2,63,66,168,170,94,111.00,13,102.00,-29.00,-959.00
2024-05-19 09:22:22.409706,1,0,3,0,0,2,63,66,164,170,94,110.89,13,21.00,0.00,-1034.00
2024-05-19 09:22:22.434142,1,0,3,0,0,2,63,66,162,160,94,110.69,13,24.00,-10.00,-940.00
2024-05-19 09:22:22.614436,1,0,3,0,0,3,63,66,157,160,94,110.89,13,9.00,-16.00,-972.00
2024-05-19 09:22:22.614965,1,0,3,0,0,3,63,66,154,160,94,110.99,13,39.00,-11.00,-1020.00
2024-05-19 09:22:22.689183,1,0,3,0,0,2,63,66,151,150,94,110.97,13,144.00,-70.00,-1016.00
2024-05-19 09:22:22.819357,2,0,3,0,0,2,63,66,148,150,94,110.66,14,56.00,-12.00,-1002.00
2024-05-19 09:22:22.893126,2,0,3,0,0,2,63,66,145,150,94,110.77,14,-8.00,29.00,-949.00
2024-05-19 09:22:23.023988,2,0,3,0,0,2,63,66,143,140,94,110.67,14,63.00,16.00,-1040.00
2024-05-19 09:22:23.097090,2,0,3,0,0,2,63,68,139,140,94,110.77,14,-2.00,37.00,-1052.00
2024-05-19 09:22:23.228823,2,0,3,0,0,2,63,68,138,140,94,110.72,14,82.00,-40.00,-970.00
2024-05-19 09:22:23.301537,2,-1,3,0,0,1,63,68,136,140,94,110.62,14,20.00,0.00,-1014.00
2024-05-19 09:22:23.433653,2,-1,3,0,0,1,63,68,134,140,94,110.62,14,-49.00,34.00,-1008.00
2024-05-19 09:22:23.506371,2,0,3,0,0,1,63,68,132,130,94,110.51,14,-44.00,31.00,-1020.00
2024-05-19 09:22:23.608769,1,0,3,0,0,1,63,68,130,130,94,110.47,14,98.00,-39.00,-970.00
2024-05-19 09:22:23.709613,1,0,3,0,0,1,63,68,129,130,94,110.52,14,20.00,23.00,-1013.00
2024-05-19 09:22:23.811640,1,0,3,0,0,0,63,68,127,130,94,110.51,15,40.00,1.00,-1025.00
2024-05-19 09:22:23.913148,1,0,3,0,0,0,63,68,127,130,94,110.84,15,-4.00,47.00,-989.00
2024-05-19 09:22:24.048075,2,0,3,0,0,0,63,68,126,130,94,110.62,15,64.00,25.00,-977.00
2024-05-19 09:22:24.117097,2,0,3,0,0,0,64,67,126,130,94,110.93,15,36.00,22.00,-1006.00
2024-05-19 09:22:24.253006,2,0,3,0,0,0,64,67,126,130,94,110.74,15,9.00,-3.00,-1043.00
2024-05-19 09:22:24.321609,2,0,3,0,0,0,64,67,126,130,94,110.80,15,80.00,-12.00,-989.00
2024-05-19 09:22:24.457801,2,0,3,0,0,0,64,67,127,130,94,110.46,15,0.00,11.00,-1033.00
2024-05-19 09:22:24.525248,2,0,3,0,0,0,64,67,127,130,94,110.66,15,-58.00,84.00,-1001.00
2024-05-19 09:22:24.662619,1,0,3,0,0,0,64,67,128,130,94,110.67,15,13.00,37.00,-1134.00
2024-05-19 09:22:24.729258,2,0,3,0,0,0,64,67,128,130,94,110.69,15,71.00,-15.00,-929.00
2024-05-19 09:22:24.867409,2,0,3,0,0,0,64,67,128,130,94,110.67,16,1.00,32.00,-917.00
2024-05-19 09:22:24.939941,2,0,3,0,0,0,64,67,128,130,94,110.48,16,-7.00,47.00,-1106.00
2024-05-19 09:22:25.035344,2,0,3,0,0,0,64,67,127,130,94,110.49,16,93.00,-77.00,-924.00
2024-05-19 09:22:25.174556,1,-1,3,0,0,0,65,66,126,130,94,110.49,16,-71.00,98.00,-1002.00
2024-05-19 09:22:25.239191,1,-1,3,0,0,0,65,66,124,130,94,110.58,16,-3.00,-2.00,-1000.00
2024-05-19 09:22:25.380617,0,-1,3,0,0,0,65,66,122,130,94,110.60,16,69.00,-42.00,-1014.00
2024-05-19 09:22:25.443468,0,-1,3,0,0,0,65,66,119,130,94,110.51,16,28.00,5.00,-978.00
2024-05-19 09:22:25.584070,1,0,3,0,0,0,65,66,116,120,94,110.39,16,107.00,-42.00,-987.00
2024-05-19 09:22:25.646828,1,0,3,0,0,0,65,66,113,120,94,110.43,16,-3.00,14.00,-1051.00
2024-05-19 09:22:25.788833,2,0,3,0,0,0,65,66,111,120,94,110.52,16,62.00,-16.00,-1121.00
2024-05-19 09:22:25.850932,-1,2,3,0,0,0,65,66,108,120,94,110.44,17,28.00,20.00,-1032.00
2024-05-19 09:22:25.993707,-5,2,3,1,0,0,65,66,107,120,94,110.27,17,80.00,-31.00,-1081.00
2024-05-19 09:22:26.054965,-5,1,3,3,0,0,65,66,107,120,94,110.49,17,22.00,2.00,-1088.00
2024-05-19 09:22:26.198490,-4,0,3,4,0,0,65,67,107,110,94,110.25,17,28.00,-13.00,-1069.00
2024-05-19 09:22:26.259125,-4,0,3,5,0,0,65,67,108,110,94,110.44,17,43.00,-24.00,-1105.00
2024-05-19 09:22:26.309707,-4,-1,3,6,0,-1,65,67,109,120,94,110.55,17,-45.00,52.00,-1015.00
2024-05-19 09:22:26.505879,-4,-1,3,6,0,-1,65,67,110,120,94,110.73,17,7.00,-15.00,-962.00
2024-05-19 09:22:26.513776,-3,-1,3,7,0,0,65,67,111,120,94,110.22,17,2.00,-4.00,-995.00
2024-05-19 09:22:26.710479,-2,-1,3,7,0,0,65,67,111,120,94,110.59,17,44.00,35.00,-942.00
2024-05-19 09:22:26.717674,1,0,3,8,1,0,65,67,112,120,94,110.14,17,17.00,92.00,-1006.00
2024-05-19 09:22:26.915285,4,-1,3,7,1,0,65,67,113,120,94,110.44,18,-84.00,141.00,-1174.00
2024-05-19 09:22:26.921987,6,-3,3,6,1,0,65,67,114,120,94,109.98,18,58.00,17.00,-1017.00
2024-05-19 09:22:27.080345,7,-4,3,5,1,-1,65,67,116,120,94,110.50,18,-17.00,61.00,-984.00
2024-05-19 09:22:27.125730,6,-6,2,4,1,0,64,67,117,120,94,110.38,18,-11.00,42.00,-1014.00
2024-05-19 09:22:27.324880,4,-6,3,3,0,0,64,67,118,120,94,110.64,18,9.00,57.00,-995.00
2024-05-19 09:22:27.329678,3,-5,3,3,0,-1,64,67,119,120,94,110.64,18,9.00,37.00,-969.00
2024-05-19 09:22:27.529692,3,-4,3,2,0,0,64,67,120,130,94,110.27,18,42.00,19.00,-958.00
2024-05-19 09:22:27.533868,3,-4,2,2,0,0,64,67,121,130,94,110.49,18,59.00,15.00,-980.00
2024-05-19 09:22:27.635631,3,-3,2,2,0,0,64,67,122,130,94,110.43,18,68.00,13.00,-967.00
2024-05-19 09:22:27.737671,3,-3,2,2,0,0,64,67,123,130,94,110.45,18,52.00,31.00,-995.00
2024-05-19 09:22:27.839616,2,-3,3,1,0,0,64,67,124,130,94,110.44,19,-18.00,57.00,-984.00
2024-05-19 09:22:27.941650,2,-3,3,1,-1,0,64,67,125,130,94,110.41,19,35.00,23.00,-994.00
2024-05-19 09:22:28.043683,1,-3,3,1,-1,0,64,67,126,130,94,110.63,19,-6.00,39.00,-935.00
2024-05-19 09:22:28.145629,1,-2,3,1,-1,0,65,67,127,130,94,110.59,19,29.00,42.00,-1027.00
2024-05-19 09:22:28.348866,1,-2,3,1,-1,0,65,67,128,130,94,110.43,19,114.00,-14.00,-957.00
2024-05-19 09:22:28.349771,0,-2,3,1,-1,0,65,67,129,130,94,110.62,19,63.00,25.00,-988.00
2024-05-19 09:22:28.451603,1,0,3,1,-1,0,65,67,131,130,94,110.33,19,90.00,-14.00,-995.00
2024-05-19 09:22:28.556679,6,2,3,1,-1,0,65,67,133,130,94,110.19,19,129.00,-43.00,-1025.00
2024-05-19 09:22:28.656322,5,1,3,1,0,0,65,67,133,130,94,110.57,19,40.00,30.00,-988.00
2024-05-19 09:22:28.758575,4,0,3,0,0,0,65,67,133,140,94,110.50,19,91.00,19.00,-963.00
2024-05-19 09:22:28.860940,3,0,3,0,0,0,65,67,134,140,94,110.38,20,84.00,-5.00,-1058.00
2024-05-19 09:22:28.963374,3,0,3,0,0,0,65,67,134,140,94,110.66,20,104.00,4.00,-944.00
2024-05-19 09:22:29.063828,3,-1,3,0,0,0,65,67,134,140,94,110.50,20,84.00,-3.00,-988.00
2024-05-19 09:22:29.165790,3,-1,3,0,0,0,66,68,134,140,94,110.52,20,41.00,61.00,-1020.00
2024-05-19 09:22:29.270707,2,-2,3,0,0,0,66,68,135,140,94,110.42,20,102.00,15.00,-1015.00
2024-05-19 09:22:29.369727,2,-3,3,0,0,0,66,68,135,140,94,110.68,20,-15.00,73.00,-910.00
2024-05-19 09:22:29.475311,2,-3,3,0,0,0,66,68,135,140,94,110.40,20,102.00,11.00,-997.00
2024-05-19 09:22:29.573734,2,-3,3,0,0,0,66,68,135,140,94,110.59,20,74.00,31.00,-956.00
2024-05-19 09:22:29.680057,2,-3,3,0,0,0,66,68,135,140,94,110.55,20,71.00,24.00,-1022.00
2024-05-19 09:22:29.777622,2,-3,3,0,0,0,66,68,136,140,94,110.74,20,74.00,-7.00,-971.00
2024-05-19 09:22:29.887019,3,-2,3,0,0,0,66,68,135,140,94,110.43,21,97.00,12.00,-934.00
2024-05-19 09:22:29.930916,3,-2,3,0,0,0,66,68,135,140,94,110.64,21,49.00,36.00,-997.00
2024-05-19 09:22:30.081032,3,-2,3,0,0,0,66,68,135,140,94,110.58,21,78.00,33.00,-1010.00
2024-05-19 09:22:30.135674,3,-3,3,0,0,0,67,69,135,140,94,110.52,21,64.00,41.00,-970.00
2024-05-19 09:22:30.296763,4,-2,3,0,0,0,67,69,134,140,94,110.67,21,27.00,31.00,-1028.00
2024-05-19 09:22:30.340019,4,-2,3,0,0,0,67,69,134,140,94,110.63,21,92.00,-10.00,-993.00
2024-05-19 09:22:30.499724,4,-2,3,0,0,0,67,69,133,140,94,110.36,21,57.00,43.00,-977.00
2024-05-19 09:22:30.544764,4,-1,3,0,0,0,67,69,133,140,94,110.49,21,66.00,26.00,-977.00
2024-05-19 09:22:30.659504,4,-1,3,0,0,0,67,69,132,130,94,110.51,21,35.00,59.00,-954.00
2024-05-19 09:22:30.749304,4,-1,3,0,0,0,67,69,132,130,94,110.55,21,49.00,45.00,-986.00
2024-05-19 09:22:30.851442,5,0,3,0,0,0,67,69,133,130,94,110.54,22,106.00,0.00,-987.00
2024-05-19 09:22:30.951857,8,0,3,0,0,0,67,69,133,130,94,110.35,22,81.00,25.00,-987.00
2024-05-19 09:22:31.056440,8,0,3,0,0,0,67,69,133,130,94,110.76,22,122.00,18.00,-1020.00
2024-05-19 09:22:31.155480,8,0,3,-1,0,0,67,69,134,130,94,110.36,22,157.00,3.00,-969.00
2024-05-19 09:22:31.258261,8,0,3,-2,0,0,67,69,133,130,94,110.20,22,134.00,38.00,-962.00
2024-05-19 09:22:31.360151,8,-1,3,-2,0,0,67,69,134,130,94,110.71,22,89.00,20.00,-974.00
2024-05-19 09:22:31.462905,8,-1,3,-3,0,0,67,69,133,130,94,110.17,22,90.00,31.00,-984.00
2024-05-19 09:22:31.627647,8,-2,3,-3,0,0,67,69,134,130,94,110.36,22,39.00,49.00,-999.00
2024-05-19 09:22:31.667722,8,-2,3,-4,0,0,67,69,134,130,94,110.44,22,135.00,28.00,-1021.00
2024-05-19 09:22:31.770450,8,-2,3,-4,0,0,67,69,134,130,94,110.33,22,103.00,70.00,-980.00
2024-05-19 09:22:31.874949,8,-3,3,-5,0,0,67,69,134,130,94,110.27,23,81.00,26.00,-981.00
2024-05-19 09:22:31.977244,7,-4,3,-5,0,0,67,69,134,130,94,110.56,23,116.00,14.00,-968.00
2024-05-19 09:22:32.074967,7,-5,3,-5,0,0,67,69,134,130,94,110.29,23,139.00,7.00,-935.00
2024-05-19 09:22:32.175402,5,-6,3,-5,0,0,67,70,132,130,94,110.18,23,74.00,41.00,-962.00
2024-05-19 09:22:32.277424,2,-4,3,-5,-1,0,67,70,132,130,94,110.51,23,99.00,27.00,-1005.00
2024-05-19 09:22:32.444766,0,-2,3,-4,-1,0,67,70,131,130,94,110.32,23,83.00,43.00,-1053.00
2024-05-19 09:22:32.481937,1,-1,3,-3,-1,0,67,70,130,130,94,110.48,23,102.00,2.00,-1006.00
2024-05-19 09:22:32.649599,2,-1,3,-3,-1,0,67,70,131,130,94,110.08,23,96.00,39.00,-999.00
2024-05-19 09:22:32.685440,3,-2,3,-2,-1,0,67,70,131,130,94,110.38,23,19.00,65.00,-961.00
2024-05-19 09:22:32.854274,4,-2,3,-2,-1,0,67,70,130,130,94,110.35,23,152.00,-15.00,-1010.00
2024-05-19 09:22:32.891023,4,-2,3,-2,-1,0,67,70,130,130,94,110.30,24,40.00,63.00,-956.00
2024-05-19 09:22:32.991359,4,-1,3,-2,-1,0,67,70,130,130,94,110.44,24,135.00,5.00,-1043.00
2024-05-19 09:22:33.094520,4,-2,3,-2,-1,0,67,70,130,130,94,110.21,24,90.00,18.00,-1011.00
2024-05-19 09:22:33.263947,4,-2,3,-2,0,0,67,70,129,130,94,110.35,24,102.00,-5.00,-1029.00
2024-05-19 09:22:33.299094,3,-3,3,-2,-1,0,67,70,129,130,94,110.50,24,93.00,12.00,-1012.00
2024-05-19 09:22:33.399508,3,-3,3,-2,-1,0,67,70,130,130,94,110.07,24,-9.00,74.00,-997.00
2024-05-19 09:22:33.571224,3,-2,3,-2,-1,0,67,70,130,130,94,110.38,24,111.00,3.00,-985.00
2024-05-19 09:22:33.606629,2,-2,3,-2,-1,0,67,70,130,130,94,110.64,24,77.00,4.00,-982.00
2024-05-19 09:22:33.707024,0,-3,3,-1,-1,0,67,70,130,130,94,110.25,24,1.00,85.00,-962.00
2024-05-19 09:22:33.756813,0,2,3,-1,-1,0,67,70,131,130,94,110.53,24,83.00,12.00,-1064.00
2024-05-19 09:22:33.878741,0,1,3,0,0,0,67,70,131,130,94,110.61,25,101.00,4.00,-1011.00
2024-05-19 09:22:33.960787,1,0,3,0,0,0,67,70,131,130,94,110.19,25,61.00,14.00,-1013.00
2024-05-19 09:22:34.083704,2,-1,3,0,0,0,67,70,132,130,94,110.31,25,5.00,55.00,-903.00
2024-05-19 09:22:34.215456,2,-1,3,0,0,0,66,71,132,130,94,110.54,25,95.00,12.00,-993.00
2024-05-19 09:22:34.390465,2,-1,3,0,0,0,66,71,133,130,94,110.46,25,65.00,1.00,-971.00
2024-05-19 09:22:34.390662,2,-1,3,0,0,0,66,71,133,130,94,110.69,25,42.00,0.00,-947.00
2024-05-19 09:22:34.470595,1,-1,3,0,0,0,66,71,134,130,94,110.49,25,51.00,14.00,-977.00
2024-05-19 09:22:34.595281,2,-1,3,0,0,0,66,71,134,130,94,110.39,25,53.00,9.00,-986.00
2024-05-19 09:22:34.674669,2,-1,3,0,0,0,66,71,134,130,94,110.51,25,55.00,-11.00,-954.00
2024-05-19 09:22:34.800075,2,-1,3,0,0,0,66,71,134,130,94,110.23,26,41.00,-5.00,-964.00
2024-05-19 09:22:34.878702,1,-1,3,0,0,0,66,71,134,130,94,110.67,26,16.00,15.00,-1001.00
2024-05-19 09:22:35.004779,1,-1,3,0,0,0,66,71,134,130,94,110.57,26,69.00,5.00,-996.00
2024-05-19 09:22:35.082856,1,-1,3,0,0,0,66,71,134,130,94,110.36,26,49.00,48.00,-950.00
2024-05-19 09:22:35.209694,1,-1,3,0,0,0,67,70,133,130,94,110.56,26,10.00,16.00,-1018.00
2024-05-19 09:22:35.289628,1,-2,3,0,0,0,67,70,133,130,94,110.65,26,72.00,16.00,-1074.00
2024-05-19 09:22:35.388628,1,-2,3,0,0,0,67,70,134,130,94,110.60,26,60.00,3.00,-958.00
2024-05-19 09:22:35.516828,1,-2,3,0,0,0,67,70,134,130,94,110.47,26,52.00,19.00,-1057.00
2024-05-19 09:22:35.592764,1,-2,3,0,0,0,67,70,134,130,94,110.84,26,80.00,-15.00,-1037.00
2024-05-19 09:22:35.721617,1,-2,3,0,0,0,67,70,134,130,94,110.34,26,0.00,41.00,-1006.00
2024-05-19 09:22:35.796651,1,-2,3,0,0,0,67,70,134,130,94,110.62,27,39.00,14.00,-988.00
2024-05-19 09:22:35.898496,1,-2,3,0,0,0,67,70,134,130,94,110.50,27,-13.00,42.00,-963.00
2024-05-19 09:22:36.031974,1,-2,3,0,0,0,67,70,134,130,94,110.44,27,34.00,15.00,-984.00
2024-05-19 09:22:36.102354,3,-7,3,0,0,0,67,70,135,130,94,110.43,27,19.00,-8.00,-1030.00
2024-05-19 09:22:36.233462,3,-8,3,0,-2,0,67,70,135,130,94,110.79,27,-33.00,67.00,-1004.00
2024-05-19 09:22:36.306336,2,-6,3,0,-3,0,67,70,137,130,94,110.55,27,47.00,39.00,-1005.00
2024-05-19 09:22:36.438327,1,-4,3,0,-3,0,67,70,135,130,94,110.33,27,29.00,35.00,-1067.00
2024-05-19 09:22:36.510320,0,-1,3,0,-3,0,67,70,134,130,94,110.83,27,85.00,20.00,-971.00
2024-05-19 09:22:36.643451,0,0,3,0,-3,0,67,70,134,130,94,110.46,27,6.00,30.00,-952.00
2024-05-19 09:22:36.714483,0,0,3,0,-2,0,67,70,134,130,94,110.48,27,12.00,50.00,-959.00
2024-05-19 09:22:36.847922,0,-2,3,0,-2,0,67,70,133,130,94,110.60,28,40.00,45.00,-1001.00
2024-05-19 09:22:36.918320,-1,-2,3,0,-2,0,67,70,133,130,94,110.44,28,28.00,34.00,-1016.00
2024-05-19 09:22:37.052732,-1,-3,3,0,-2,0,67,70,132,130,94,110.55,28,28.00,39.00,-1046.00
2024-05-19 09:22:37.122360,0,-2,4,0,-2,0,67,70,132,130,94,110.59,28,5.00,55.00,-961.00
2024-05-19 09:22:37.257507,0,-2,4,0,-2,0,68,71,131,130,94,110.42,28,74.00,55.00,-1029.00
2024-05-19 09:22:37.326324,0,-3,4,0,-1,0,68,71,130,130,94,110.56,28,52.00,50.00,-1055.00
2024-05-19 09:22:37.462315,1,-3,3,0,-1,0,68,71,129,130,94,110.59,28,102.00,25.00,-1030.00
2024-05-19 09:22:37.530313,1,-3,3,0,-1,0,68,71,128,130,94,110.36,28,-17.00,63.00,-1005.00
2024-05-19 09:22:37.632069,2,-3,3,0,-1,0,68,71,127,130,94,110.34,28,57.00,47.00,-1023.00
2024-05-19 09:22:37.769657,2,-3,3,1,-1,0,68,71,127,130,94,110.66,28,64.00,47.00,-1058.00
2024-05-19 09:22:37.788627,2,-3,3,1,-1,0,68,71,126,130,94,110.50,29,53.00,53.00,-1015.00
2024-05-19 09:22:37.887055,2,-3,3,1,-1,0,68,71,125,130,94,110.68,29,46.00,55.00,-1027.00
2024-05-19 09:22:38.076704,2,-3,3,1,-1,0,68,71,125,130,94,110.30,29,47.00,55.00,-1007.00
2024-05-19 09:22:38.091297,2,-3,3,0,-1,0,68,71,124,130,94,110.75,29,84.00,35.00,-986.00
2024-05-19 09:22:38.285846,4,-3,3,0,-1,0,68,71,124,130,94,110.22,29,29.00,88.00,-960.00
2024-05-19 09:22:38.295046,3,-4,3,0,-1,0,68,71,123,120,94,110.16,29,32.00,38.00,-958.00
2024-05-19 09:22:38.487497,2,-3,3,0,-1,0,68,71,123,120,94,110.11,29,61.00,42.00,-1008.00
2024-05-19 09:22:38.500379,2,-2,3,0,-1,0,68,71,123,120,94,110.37,29,43.00,58.00,-1002.00
2024-05-19 09:22:38.691102,3,-2,3,0,-1,0,68,71,123,120,94,110.52,29,111.00,25.00,-1097.00
2024-05-19 09:22:38.704663,3,-2,3,0,-1,0,68,71,123,120,94,110.46,29,86.00,3.00,-1015.00
2024-05-19 09:22:38.805018,3,1,3,0,-1,0,68,71,123,120,94,110.48,30,60.00,45.00,-930.00
2024-05-19 09:22:38.998276,2,0,3,0,0,0,68,71,123,120,94,110.46,30,52.00,17.00,-1085.00
2024-05-19 09:22:39.009007,2,0,3,0,0,0,68,71,123,120,94,110.43,30,56.00,11.00,-995.00
2024-05-19 09:22:39.111039,2,-1,3,0,0,0,68,71,124,120,94,110.35,30,40.00,38.00,-982.00
2024-05-19 09:22:39.306648,2,-1,3,0,0,0,68,71,125,120,94,110.34,30,88.00,4.00,-1049.00
2024-05-19 09:22:39.315264,2,-1,3,0,0,0,68,71,126,120,94,110.32,30,102.00,-19.00,-1072.00
2024-05-19 09:22:39.510478,2,-1,3,0,0,0,68,71,126,130,94,110.22,30,12.00,32.00,-1015.00
2024-05-19 09:22:39.519452,2,-1,3,0,0,0,68,71,127,130,94,110.56,30,14.00,49.00,-1047.00
2024-05-19 09:22:39.621122,2,-1,3,0,0,0,68,71,127,130,94,110.35,30,68.00,16.00,-975.00
2024-05-19 09:22:39.817713,2,-2,3,0,0,0,68,71,128,130,94,110.56,30,53.00,44.00,-984.00
2024-05-19 09:22:39.825560,3,-2,3,0,0,0,68,71,128,130,94,110.20,31,67.00,16.00,-1088.00
2024-05-19 09:22:40.022444,3,-2,3,0,0,0,68,71,130,130,94,110.54,31,84.00,14.00,-1078.00
2024-05-19 09:22:40.030040,3,-2,3,0,0,0,68,71,130,130,94,110.46,31,14.00,39.00,-995.00
2024-05-19 09:22:40.131045,3,-2,3,0,0,0,68,71,131,130,94,110.34,31,87.00,32.00,-956.00
2024-05-19 09:22:40.329629,3,-2,3,0,0,0,69,72,131,130,94,110.41,31,83.00,41.00,-938.00
2024-05-19 09:22:40.337147,4,-2,3,0,0,0,69,72,131,130,94,110.38,31,94.00,7.00,-949.00
2024-05-19 09:22:40.437114,3,-2,3,0,0,0,69,72,131,130,94,110.83,31,73.00,23.00,-1011.00
2024-05-19 09:22:40.636911,4,-2,3,0,0,0,69,72,131,130,94,110.63,31,32.00,62.00,-1008.00
2024-05-19 09:22:40.641190,4,-2,3,0,0,0,69,72,131,130,94,110.64,31,91.00,15.00,-1016.00
2024-05-19 09:22:40.841637,4,-2,3,0,0,0,69,72,130,130,94,110.29,31,96.00,21.00,-967.00
2024-05-19 09:22:40.844976,4,-2,3,0,0,0,69,72,130,130,94,110.65,32,42.00,25.00,-995.00
2024-05-19 09:22:40.947248,3,-2,3,0,0,0,69,72,130,130,94,110.58,32,132.00,3.00,-997.00
2024-05-19 09:22:41.048935,3,-2,3,0,0,0,69,72,129,130,94,110.50,32,91.00,20.00,-972.00
2024-05-19 09:22:41.150922,3,-1,3,0,0,0,69,72,129,130,94,110.47,32,25.00,8.00,-1026.00
2024-05-19 09:22:41.253006,2,5,3,0,0,0,69,71,128,130,94,110.66,32,34.00,58.00,-865.00
2024-05-19 09:22:41.455842,3,7,3,0,1,0,69,71,129,130,94,110.47,32,19.00,23.00,-1001.00
2024-05-19 09:22:41.456896,3,5,3,0,2,0,69,71,127,130,94,110.30,32,45.00,-4.00,-1019.00
2024-05-19 09:22:41.662813,4,2,3,0,3,0,69,71,126,130,94,110.42,32,45.00,-6.00,-1020.00
2024-05-19 09:22:41.663005,4,0,3,0,3,0,69,71,126,130,94,110.27,32,108.00,-24.00,-1071.00
2024-05-19 09:22:41.711923,3,-1,3,0,3,0,69,71,126,130,94,110.55,32,91.00,-31.00,-1008.00
2024-05-19 09:22:41.865517,3,-1,3,0,2,0,69,71,126,130,94,110.41,33,54.00,-29.00,-984.00
2024-05-19 09:22:41.916192,3,0,3,0,2,0,69,71,127,130,94,110.36,33,92.00,-20.00,-1006.00
2024-05-19 09:22:42.070297,3,0,3,0,2,0,69,71,126,130,94,110.55,33,23.00,-2.00,-970.00
2024-05-19 09:22:42.119770,4,0,3,0,2,0,69,71,126,130,94,110.47,33,77.00,-23.00,-1027.00
2024-05-19 09:22:42.275041,5,0,3,0,2,0,69,72,127,130,94,110.72,33,12.00,-21.00,-904.00
2024-05-19 09:22:42.324124,5,0,3,0,2,0,69,72,127,130,94,110.51,33,52.00,-1.00,-1003.00
2024-05-19 09:22:42.480325,3,0,3,0,2,0,69,72,127,130,94,110.38,33,55.00,30.00,-1035.00
2024-05-19 09:22:42.531244,1,0,3,0,2,0,69,72,126,130,94,110.30,33,63.00,-7.00,-1049.00
2024-05-19 09:22:42.630117,1,-1,3,0,3,0,69,72,125,130,94,110.50,33,1.00,17.00,-962.00
2024-05-19 09:22:42.787149,1,-2,3,0,3,0,69,72,125,130,94,110.28,33,40.00,40.00,-920.00
2024-05-19 09:22:42.834193,1,-6,3,0,2,0,69,72,125,130,94,110.57,34,59.00,-5.00,-1050.00
2024-05-19 09:22:42.991891,2,-7,3,0,1,0,69,72,125,130,94,110.42,34,5.00,25.00,-1047.00
2024-05-19 09:22:43.038313,2,-4,3,0,0,0,69,72,124,130,94,110.55,34,31.00,36.00,-937.00
2024-05-19 09:22:43.139945,2,-3,3,0,0,0,69,72,123,130,94,110.49,34,52.00,0.00,-997.00
2024-05-19 09:22:43.299226,3,-2,3,0,0,0,69,73,122,130,94,110.31,34,17.00,28.00,-1014.00
2024-05-19 09:22:43.345224,2,-2,3,0,0,0,69,73,121,120,94,110.39,34,40.00,19.00,-999.00
2024-05-19 09:22:43.446973,2,-2,3,0,0,0,69,73,120,120,94,110.58,34,23.00,33.00,-974.00
2024-05-19 09:22:43.606578,1,-2,3,0,0,0,69,73,120,120,94,110.35,34,44.00,26.00,-1025.00
2024-05-19 09:22:43.652219,1,-2,3,0,0,0,69,73,119,120,94,110.42,34,60.00,5.00,-980.00
2024-05-19 09:22:43.751997,0,-1,3,0,0,0,69,73,119,120,94,110.23,34,49.00,20.00,-911.00
2024-05-19 09:22:43.913744,0,-1,3,0,0,0,69,73,119,120,94,110.37,35,50.00,21.00,-1025.00
2024-05-19 09:22:43.956070,1,-1,3,0,0,0,69,73,119,120,94,110.37,35,92.00,23.00,-968.00
2024-05-19 09:22:44.118665,0,-1,3,0,0,0,69,73,120,120,94,110.35,35,62.00,29.00,-1075.00
2024-05-19 09:22:44.160170,0,-1,3,0,0,0,69,73,120,120,94,110.42,35,30.00,32.00,-1026.00
2024-05-19 09:22:44.323609,0,-1,3,0,0,0,70,73,121,120,94,110.56,35,49.00,20.00,-988.00
2024-05-19 09:22:44.365147,0,-1,3,0,0,0,70,73,122,120,94,110.63,35,19.00,25.00,-982.00
2024-05-19 09:22:44.528848,0,-1,3,0,0,0,70,73,124,120,94,110.23,35,40.00,17.00,-1017.00
2024-05-19 09:22:44.567986,0,-1,3,0,0,0,70,73,126,120,94,110.56,35,119.00,-12.00,-990.00
2024-05-19 09:22:44.732763,1,-1,3,0,0,0,70,73,127,130,94,110.53,35,33.00,25.00,-964.00
2024-05-19 09:22:44.772013,1,-1,3,0,0,0,70,73,127,130,94,110.64,35,24.00,43.00,-965.00
2024-05-19 09:22:44.937547,1,-1,3,0,0,0,70,73,128,130,94,110.49,36,16.00,17.00,-967.00
2024-05-19 09:22:44.977582,1,-1,3,0,0,0,70,73,128,130,94,110.35,36,20.00,-16.00,-996.00
2024-05-19 09:22:45.077658,1,-1,3,0,0,0,70,73,128,130,94,110.56,36,14.00,27.00,-945.00
2024-05-19 09:22:45.179666,1,-1,3,0,0,0,70,73,127,130,94,110.43,36,68.00,-22.00,-925.00
2024-05-19 09:22:45.347115,1,-1,7,0,0,0,71,73,127,130,94,110.50,36,-8.00,26.00,-986.00
2024-05-19 09:22:45.384016,0,-1,13,0,0,0,71,73,127,130,94,110.62,36,28.00,22.00,-1062.00
2024-05-19 09:22:45.434670,0,-1,19,0,0,0,71,73,126,130,94,110.43,36,131.00,-21.00,-1042.00
2024-05-19 09:22:45.551836,0,-1,25,0,0,0,71,73,125,130,94,110.40,36,95.00,10.00,-986.00
2024-05-19 09:22:45.638705,0,-2,32,0,0,0,71,73,125,130,94,110.59,36,-50.00,71.00,-1028.00
2024-05-19 09:22:45.740697,0,-2,38,0,0,0,71,73,124,130,94,110.64,36,-25.00,54.00,-1030.00
2024-05-19 09:22:45.859116,0,-2,45,0,0,0,71,73,123,130,94,110.41,37,21.00,60.00,-1018.00
2024-05-19 09:22:45.944711,0,-3,52,0,0,0,71,73,123,120,94,110.57,37,62.00,49.00,-982.00
2024-05-19 09:22:46.063839,1,-3,58,0,0,0,71,73,123,120,94,110.61,37,49.00,58.00,-977.00
2024-05-19 09:22:46.148774,2,-2,64,0,0,0,71,73,123,120,94,110.44,37,28.00,45.00,-998.00
2024-05-19 09:22:46.268683,2,-2,71,0,0,0,70,74,122,120,94,110.45,37,28.00,61.00,-1006.00
2024-05-19 09:22:46.352849,2,-3,77,0,0,0,70,74,122,120,94,110.37,37,33.00,44.00,-1055.00
2024-05-19 09:22:46.473494,1,-3,83,0,0,0,70,74,123,120,94,110.37,37,70.00,47.00,-1031.00
2024-05-19 09:22:46.556664,2,-3,88,0,0,0,70,74,124,120,94,110.53,37,13.00,68.00,-992.00
2024-05-19 09:22:46.678265,2,-2,94,0,0,0,70,74,125,120,94,110.31,37,100.00,-40.00,-966.00
2024-05-19 09:22:46.760636,3,-1,99,0,0,0,70,74,126,130,94,110.39,37,69.00,0.00,-919.00
2024-05-19 09:22:46.883090,3,0,105,0,0,0,70,74,127,130,94,110.53,38,-5.00,6.00,-919.00
2024-05-19 09:22:46.964545,3,0,110,0,0,0,70,74,127,130,94,110.63,38,60.00,16.00,-1037.00
2024-05-19 09:22:47.087863,2,0,115,0,0,0,70,74,128,130,94,110.59,38,32.00,3.00,-1042.00
2024-05-19 09:22:47.168587,2,0,121,0,0,0,70,74,129,130,94,110.32,38,37.00,-23.00,-1010.00
2024-05-19 09:22:47.292674,2,1,126,0,0,0,70,74,131,130,94,110.48,38,42.00,-41.00,-1055.00
2024-05-19 09:22:47.372744,1,1,132,0,0,0,70,74,131,130,94,110.70,38,35.00,0.00,-951.00
2024-05-19 09:22:47.497536,1,1,137,0,0,0,70,74,132,130,94,110.55,38,63.00,-2.00,-1032.00
2024-05-19 09:22:47.576613,1,1,143,0,0,0,70,74,133,130,94,110.74,38,20.00,9.00,-1019.00
2024-05-19 09:22:47.702312,0,1,149,0,0,0,70,74,133,130,94,110.49,38,34.00,1.00,-999.00
2024-05-19 09:22:47.780549,0,1,154,0,0,0,70,74,133,130,94,110.32,38,-5.00,7.00,-1037.00
2024-05-19 09:22:47.907104,0,1,160,0,0,0,70,74,133,130,94,110.61,39,21.00,3.00,-981.00
2024-05-19 09:22:47.984720,0,1,166,0,0,0,70,74,133,130,94,110.42,39,31.00,-11.00,-988.00
2024-05-19 09:22:48.096679,0,0,172,0,0,0,70,74,133,130,94,110.55,39,8.00,22.00,-1004.00
2024-05-19 09:22:48.188567,0,0,178,0,0,0,70,74,133,130,94,110.50,39,-42.00,59.00,-1003.00
2024-05-19 09:22:48.316684,0,0,-175,0,-1,0,70,73,132,130,94,110.91,39,56.00,41.00,-956.00
2024-05-19 09:22:48.392821,0,0,-169,0,-1,0,70,73,132,130,94,110.58,39,15.00,33.00,-982.00
2024-05-19 09:22:48.521469,0,0,-163,0,-1,0,70,73,131,130,94,110.58,39,91.00,-8.00,-1033.00
2024-05-19 09:22:48.596588,0,0,-157,0,-1,0,70,73,131,130,94,110.51,39,-5.00,47.00,-950.00
2024-05-19 09:22:48.726288,1,0,-150,0,-1,0,70,73,131,130,94,110.64,39,-24.00,44.00,-980.00
2024-05-19 09:22:48.800512,1,0,-144,0,-1,0,70,73,131,130,94,110.58,39,39.00,20.00,-1002.00
2024-05-19 09:22:48.931075,2,0,-138,0,-1,0,70,73,130,130,94,110.41,40,-34.00,60.00,-957.00
2024-05-19 09:22:49.004499,2,0,-131,0,-1,0,70,73,130,130,94,110.54,40,75.00,15.00,-1003.00
2024-05-19 09:22:49.135741,2,0,-125,0,-1,0,70,73,129,130,94,110.40,40,102.00,-16.00,-1040.00
2024-05-19 09:22:49.157866,2,0,-119,0,-1,0,70,73,129,130,94,110.64,40,53.00,15.00,-1058.00
2024-05-19 09:22:49.340640,2,0,-106,0,-1,0,71,73,129,130,94,110.54,40,65.00,4.00,-972.00
2024-05-19 09:22:49.413065,2,0,-100,0,-1,0,71,73,129,130,94,110.43,40,28.00,18.00,-1017.00
2024-05-19 09:22:49.545480,2,0,-93,0,-1,0,71,73,128,130,94,110.50,40,5.00,43.00,-978.00
2024-05-19 09:22:49.617939,2,0,-87,0,0,0,71,73,128,130,94,110.83,40,47.00,18.00,-955.00
2024-05-19 09:22:49.667476,2,0,-80,0,0,0,71,73,128,130,94,110.31,40,-16.00,58.00,-961.00
2024-05-19 09:22:49.852651,2,0,-74,0,0,0,71,73,128,130,94,110.54,41,102.00,8.00,-1055.00
2024-05-19 09:22:49.871428,2,0,-68,0,0,0,71,73,128,130,94,110.62,41,103.00,2.00,-1009.00
2024-05-19 09:22:50.057467,2,0,-62,0,0,0,71,73,128,130,94,110.58,41,23.00,16.00,-1015.00
2024-05-19 09:22:50.075364,2,0,-56,0,0,0,71,73,128,130,94,110.70,41,36.00,4.00,-1123.00
2024-05-19 09:22:50.177768,2,0,-50,0,0,0,71,73,128,130,94,110.51,41,57.00,4.00,-1037.00
2024-05-19 09:22:50.364675,1,1,-45,0,0,0,71,75,129,130,94,110.57,41,102.00,-14.00,-982.00
2024-05-19 09:22:50.381698,1,1,-39,0,0,0,71,75,128,130,94,110.29,41,10.00,-11.00,-1049.00
2024-05-19 09:22:50.569467,1,1,-34,0,0,0,71,75,128,130,94,110.58,41,-61.00,26.00,-1018.00
2024-05-19 09:22:50.585410,0,1,-29,0,0,0,71,75,128,130,94,110.64,41,-39.00,0.00,-943.00
2024-05-19 09:22:50.774206,0,1,-23,0,0,0,71,75,128,130,94,110.52,41,-6.00,26.00,-978.00
2024-05-19 09:22:50.789660,0,1,-18,0,0,0,71,75,127,130,94,110.27,42,-12.00,19.00,-950.00
2024-05-19 09:22:50.979039,0,2,-13,0,0,0,71,75,128,130,94,110.75,42,28.00,4.00,-1005.00
2024-05-19 09:22:50.993651,0,2,-9,0,0,0,71,75,129,130,94,110.26,42,64.00,18.00,-995.00
2024-05-19 09:22:51.099740,0,1,-6,0,0,0,71,75,129,130,94,110.75,42,61.00,-6.00,-1057.00
2024-05-19 09:22:51.197389,0,1,-3,0,0,0,71,75,129,130,94,110.42,42,-31.00,21.00,-900.00
2024-05-19 09:22:51.388634,1,1,-1,0,0,0,72,75,129,130,94,110.51,42,-32.00,0.00,-1007.00
2024-05-19 09:22:51.401459,0,0,0,0,0,0,72,75,129,130,94,110.45,42,5.00,17.00,-1041.00
2024-05-19 09:22:51.594012,0,0,1,0,0,0,72,75,129,130,94,110.75,42,-27.00,8.00,-1006.00
2024-05-19 09:22:51.605297,0,0,2,0,0,0,72,75,128,130,94,110.60,42,23.00,-1.00,-1015.00
2024-05-19 09:22:51.798665,0,0,3,0,0,0,72,75,128,130,94,110.44,42,5.00,3.00,-1028.00
2024-05-19 09:22:51.809357,1,0,3,0,0,0,72,75,127,130,94,110.33,43,-15.00,21.00,-988.00
2024-05-19 09:22:52.002991,1,0,4,0,0,0,72,75,127,130,94,110.75,43,-32.00,7.00,-1063.00
2024-05-19 09:22:52.013841,1,0,4,0,0,0,72,75,126,130,94,110.45,43,50.00,-34.00,-1037.00
2024-05-19 09:22:52.208188,1,0,5,0,0,0,72,75,126,130,94,110.68,43,100.00,-49.00,-989.00
2024-05-19 09:22:52.217376,1,0,5,0,0,0,72,75,127,130,94,110.40,43,3.00,14.00,-997.00
2024-05-19 09:22:52.412771,2,0,6,0,0,0,72,74,128,130,94,110.27,43,80.00,-25.00,-1048.00
2024-05-19 09:22:52.421379,2,0,6,0,0,0,72,74,127,130,94,110.49,43,19.00,-10.00,-997.00
2024-05-19 09:22:52.617734,2,0,6,0,0,0,72,74,128,130,94,110.41,43,-1.00,37.00,-984.00
2024-05-19 09:22:52.625442,2,0,6,0,0,0,72,74,128,130,94,110.48,43,52.00,-15.00,-947.00
2024-05-19 09:22:52.822765,2,0,6,0,0,0,72,74,128,130,94,110.52,43,65.00,-21.00,-1024.00
2024-05-19 09:22:52.829710,2,0,6,0,0,0,72,74,128,130,94,110.77,44,33.00,-15.00,-993.00
2024-05-19 09:22:53.027274,2,0,6,0,0,0,72,74,128,130,94,110.60,44,-27.00,18.00,-995.00
2024-05-19 09:22:53.033660,2,0,6,0,0,0,72,74,128,130,94,110.67,44,-22.00,10.00,-972.00
2024-05-19 09:22:53.085238,2,0,6,0,0,0,72,74,128,130,94,110.65,44,139.00,-56.00,-973.00
2024-05-19 09:22:53.186608,2,0,6,0,0,0,72,74,127,130,94,110.80,44,20.00,62.00,-979.00
2024-05-19 09:22:53.339711,2,0,6,0,0,0,71,75,127,130,94,110.44,44,50.00,17.00,-967.00
2024-05-19 09:22:53.391257,1,0,6,0,1,0,71,75,127,130,94,110.63,44,67.00,17.00,-944.00
2024-05-19 09:22:53.539527,2,-1,6,0,1,0,71,75,127,130,94,110.76,44,-6.00,23.00,-1115.00
2024-05-19 09:22:53.596410,2,-1,6,0,1,0,71,75,128,130,94,110.45,44,55.00,12.00,-1068.00
2024-05-19 09:22:53.697268,2,-1,6,0,0,0,71,75,128,130,94,110.55,44,1.00,63.00,-978.00
2024-05-19 09:22:53.798668,1,-1,0,0,0,0,71,75,128,130,94,110.43,45,9.00,57.00,-921.00
2024-05-19 09:22:53.901242,1,-2,-4,0,0,0,71,75,129,130,94,110.33,45,-8.00,46.00,-918.00
2024-05-19 09:22:54.003547,1,-2,-9,0,0,0,71,75,129,130,94,110.31,45,67.00,22.00,-1019.00
2024-05-19 09:22:54.106563,1,-2,-15,0,0,0,71,75,130,130,94,110.59,45,104.00,-4.00,-1034.00
2024-05-19 09:22:54.206191,2,-2,-21,0,0,0,71,75,130,130,94,110.51,45,40.00,12.00,-1005.00
2024-05-19 09:22:54.358227,2,-2,-27,0,0,0,73,75,130,130,94,110.13,45,77.00,15.00,-976.00
2024-05-19 09:22:54.410197,2,-2,-33,0,0,0,73,75,131,130,94,110.56,45,33.00,45.00,-1018.00
2024-05-19 09:22:54.563027,1,-2,-40,0,0,0,73,75,131,130,94,110.78,45,27.00,54.00,-937.00
2024-05-19 09:22:54.614211,1,-2,-46,0,0,0,73,75,130,130,94,110.69,45,38.00,54.00,-960.00
2024-05-19 09:22:54.768064,1,-2,-53,0,0,0,73,75,130,130,94,110.35,45,-14.00,51.00,-957.00
2024-05-19 09:22:54.818573,0,-2,-60,0,0,0,73,75,130,130,94,110.35,46,9.00,42.00,-1056.00
2024-05-19 09:22:54.972612,0,-1,-66,0,0,0,73,75,129,130,94,110.43,46,-17.00,74.00,-947.00
2024-05-19 09:22:55.022501,-1,0,-72,0,0,0,73,75,129,130,94,110.50,46,-62.00,42.00,-979.00
2024-05-19 09:22:55.177418,-1,0,-78,-1,0,0,73,75,128,130,94,110.76,46,-20.00,39.00,-994.00
2024-05-19 09:22:55.226151,-1,0,-84,-1,0,0,73,75,128,130,94,110.85,46,-52.00,47.00,-979.00
2024-05-19 09:22:55.382200,-1,1,-90,0,0,0,73,76,128,130,93,110.52,46,44.00,15.00,-1070.00
2024-05-19 09:22:55.430510,0,1,-96,0,0,0,73,76,128,130,93,110.59,46,-12.00,48.00,-1023.00
2024-05-19 09:22:55.587753,0,1,-101,0,0,0,73,76,127,130,93,110.60,46,30.00,12.00,-1038.00
2024-05-19 09:22:55.634050,0,1,-107,0,0,0,73,76,127,130,93,110.48,46,2.00,34.00,-1013.00
2024-05-19 09:22:55.736156,0,0,-114,0,0,0,73,76,127,130,93,110.49,46,129.00,-30.00,-1066.00
2024-05-19 09:22:55.894233,0,0,-120,0,0,0,73,76,127,130,93,110.40,47,-33.00,29.00,-896.00
2024-05-19 09:22:55.940058,0,0,-127,0,0,0,73,76,126,130,93,110.31,47,-11.00,1.00,-981.00
2024-05-19 09:22:56.098926,0,0,-133,0,0,0,73,76,126,130,93,110.41,47,-81.00,47.00,-959.00
2024-05-19 09:22:56.146292,0,0,-139,0,0,0,73,76,126,130,93,110.17,47,-85.00,17.00,-946.00
2024-05-19 09:22:56.247846,0,1,-145,0,0,0,73,76,126,130,93,110.34,47,17.00,-3.00,-1016.00
2024-05-19 09:22:56.350255,0,2,-151,0,0,0,73,75,127,130,93,110.24,47,0.00,32.00,-1013.00
2024-05-19 09:22:56.450809,1,2,-156,0,0,0,73,75,126,130,93,110.26,47,9.00,-4.00,-1037.00
2024-05-19 09:22:56.554573,1,2,-161,0,0,0,73,75,128,130,93,110.10,47,20.00,5.00,-998.00
2024-05-19 09:22:56.654161,1,2,-167,0,0,0,73,75,128,130,93,110.54,47,-20.00,19.00,-995.00
2024-05-19 09:22:56.756053,1,1,-172,0,0,0,73,75,128,130,93,110.51,47,-1.00,-3.00,-1036.00
2024-05-19 09:22:56.858166,1,2,-178,0,0,0,73,75,128,130,93,110.49,48,32.00,-22.00,-938.00
2024-05-19 09:22:56.960074,1,2,176,0,0,0,73,75,129,130,93,110.37,48,-14.00,-6.00,-990.00
2024-05-19 09:22:57.011016,2,2,170,0,0,0,73,75,129,130,93,110.47,48,65.00,-16.00,-1024.00
2024-05-19 09:22:57.123405,2,2,165,0,0,0,73,75,129,130,93,110.25,48,22.00,24.00,-942.00
2024-05-19 09:22:57.215107,2,1,159,0,0,0,73,75,129,130,93,110.46,48,-10.00,25.00,-977.00
2024-05-19 09:22:57.327785,2,1,152,0,0,0,73,75,129,130,93,110.27,48,91.00,-41.00,-972.00
2024-05-19 09:22:57.419076,2,1,146,0,0,0,73,75,129,130,93,110.43,48,-57.00,31.00,-1002.00
2024-05-19 09:22:57.532606,2,1,140,0,0,0,73,75,128,130,93,110.60,48,76.00,-56.00,-1024.00
2024-05-19 09:22:57.623070,2,1,134,0,0,0,73,75,128,130,93,110.60,48,81.00,-33.00,-954.00
2024-05-19 09:22:57.737390,2,1,128,0,0,0,73,75,128,130,93,110.76,48,51.00,-43.00,-1034.00
2024-05-19 09:22:57.827067,2,1,122,0,0,0,73,75,128,130,93,110.89,49,17.00,-22.00,-1001.00
2024-05-19 09:22:57.942220,2,1,116,0,0,0,73,75,128,130,93,110.64,49,18.00,-1.00,-1051.00
2024-05-19 09:22:58.031004,2,1,111,0,0,0,73,75,127,130,93,110.50,49,-21.00,26.00,-1073.00
2024-05-19 09:22:58.149936,2,1,105,0,0,0,73,75,128,130,93,110.54,49,0.00,14.00,-979.00
2024-05-19 09:22:58.234969,1,1,99,0,-1,0,73,75,127,130,93,110.38,49,4.00,-9.00,-975.00
2024-05-19 09:22:58.351598,1,1,93,0,0,0,72,75,126,130,93,110.35,49,95.00,-30.00,-1013.00
2024-05-19 09:22:58.438998,1,1,88,1,0,0,72,75,127,130,93,110.83,49,10.00,4.00,-981.00
2024-05-19 09:22:58.556586,2,1,82,0,0,0,72,75,126,130,93,110.69,49,24.00,-17.00,-990.00
2024-05-19 09:22:58.642933,2,1,76,1,0,0,72,75,126,130,93,110.54,49,60.00,-42.00,-1049.00
2024-05-19 09:22:58.761357,3,1,71,0,0,0,72,75,126,130,93,110.28,49,75.00,-53.00,-993.00
2024-05-19 09:22:58.846990,3,1,65,0,0,0,72,75,126,130,93,110.42,50,71.00,-20.00,-1039.00
2024-05-19 09:22:58.966210,3,2,60,0,0,0,72,75,127,130,93,110.29,50,97.00,-7.00,-996.00
2024-05-19 09:22:59.050959,4,2,54,0,0,0,72,75,127,130,93,110.78,50,5.00,8.00,-999.00
2024-05-19 09:22:59.171492,3,1,49,0,0,0,72,75,127,130,93,110.30,50,63.00,-23.00,-975.00
2024-05-19 09:22:59.254974,3,1,44,0,-1,0,72,75,128,130,93,110.66,50,27.00,15.00,-954.00
2024-05-19 09:22:59.375703,2,1,38,0,-1,0,73,76,128,130,93,110.50,50,86.00,-34.00,-1023.00
2024-05-19 09:22:59.458962,2,1,33,0,-1,0,73,76,128,130,93,110.39,50,-2.00,30.00,-976.00
2024-05-19 09:22:59.580537,2,1,27,0,0,0,73,76,128,130,93,110.63,50,46.00,-20.00,-955.00
2024-05-19 09:22:59.663205,3,1,23,0,0,0,73,76,127,130,93,110.32,50,26.00,16.00,-905.00
2024-05-19 09:22:59.785349,3,1,19,0,0,0,73,76,127,130,93,110.49,50,13.00,7.00,-1042.00
2024-05-19 09:22:59.866906,3,1,16,0,0,0,73,76,126,130,93,110.47,51,71.00,-15.00,-964.00
2024-05-19 09:22:59.990188,3,1,14,0,0,0,73,76,127,130,93,110.60,51,30.00,1.00,-981.00
2024-05-19 09:23:00.070902,3,1,12,0,0,0,73,76,126,130,93,110.41,51,109.00,-35.00,-971.00
2024-05-19 09:23:00.172884,3,1,11,0,0,0,73,76,125,130,93,110.42,51,54.00,-9.00,-974.00
2024-05-19 09:23:00.297367,4,2,10,0,0,0,73,76,125,130,92,110.32,51,85.00,-20.00,-1060.00
2024-05-19 09:23:00.376852,3,2,9,0,0,0,73,77,123,130,92,110.59,51,-2.00,13.00,-953.00
2024-05-19 09:23:00.502610,4,2,8,0,0,0,73,77,122,130,92,110.65,51,50.00,-7.00,-947.00
2024-05-19 09:23:00.581980,3,2,8,0,0,0,73,77,121,130,92,110.26,51,35.00,16.00,-996.00
2024-05-19 09:23:00.707010,2,2,7,-1,0,0,73,77,120,120,92,110.39,51,82.00,-33.00,-1018.00
2024-05-19 09:23:00.786102,2,2,7,-1,0,0,73,77,119,120,92,110.46,51,65.00,5.00,-1047.00
2024-05-19 09:23:00.911855,1,2,6,0,0,0,73,77,119,120,92,110.29,52,82.00,-32.00,-974.00
2024-05-19 09:23:00.989998,1,1,6,0,0,0,73,77,118,120,92,110.40,52,152.00,-66.00,-1042.00
2024-05-19 09:23:01.116777,1,1,5,0,0,0,73,77,119,120,92,110.50,52,45.00,7.00,-1078.00
2024-05-19 09:23:01.143473,1,1,4,0,0,0,73,77,119,120,92,110.11,52,94.00,-4.00,-1086.00
2024-05-19 09:23:01.321715,2,0,4,0,0,0,73,77,119,120,92,110.31,52,6.00,-11.00,-948.00
2024-05-19 09:23:01.346790,2,0,3,0,0,0,73,76,120,120,92,110.25,52,42.00,-44.00,-933.00
2024-05-19 09:23:01.526238,2,0,3,0,0,0,73,76,119,120,92,110.01,52,41.00,-24.00,-956.00
2024-05-19 09:23:01.550859,1,0,3,0,0,0,73,76,120,120,92,110.22,52,55.00,-4.00,-1003.00
2024-05-19 09:23:01.730940,1,0,2,0,0,0,73,76,121,120,92,110.51,52,-7.00,21.00,-910.00
2024-05-19 09:23:01.754853,2,0,2,0,0,0,73,76,122,120,92,110.19,52,18.00,58.00,-1001.00
2024-05-19 09:23:01.936018,1,0,2,0,1,0,73,76,124,120,92,110.42,53,31.00,35.00,-960.00
2024-05-19 09:23:01.959668,1,-1,2,0,1,0,73,76,125,120,92,110.42,53,39.00,22.00,-1009.00
2024-05-19 09:23:02.140675,2,-1,2,0,1,0,73,76,128,120,92,110.17,53,97.00,29.00,-1054.00
2024-05-19 09:23:02.163413,2,-1,2,0,1,0,73,76,130,130,92,110.47,53,61.00,66.00,-946.00
2024-05-19 09:23:02.345719,3,-1,3,0,1,0,73,76,131,130,92,110.49,53,70.00,33.00,-972.00
2024-05-19 09:23:02.366852,3,-2,3,0,1,0,73,77,133,130,92,110.73,53,52.00,59.00,-904.00
2024-05-19 09:23:02.504906,4,-2,3,0,0,0,73,77,134,130,92,110.48,53,32.00,34.00,-851.00
2024-05-19 09:23:02.572295,3,-2,3,0,0,0,73,77,134,130,92,110.46,53,33.00,58.00,-1033.00
2024-05-19 09:23:02.672661,3,-2,3,0,0,0,73,77,136,130,92,110.57,53,135.00,22.00,-1765.00
2024-05-19 09:23:02.857275,1,-3,3,0,0,-3,73,77,142,130,92,110.69,53,25.00,224.00,-1377.00
2024-05-19 09:23:02.876572,0,-13,4,1,0,-10,73,77,257,140,92,110.80,54,47.00,667.00,-1003.00
2024-05-19 09:23:03.062106,1,-99,2,2,-5,-11,73,77,468,150,92,110.61,54,16.00,566.00,-991.00
2024-05-19 09:23:03.080616,0,133,2,2,-10,2,73,77,381,160,92,110.77,54,64.00,216.00,-1722.00
2024-05-19 09:23:03.182774,0,19,3,2,-3,11,73,77,147,150,92,110.80,54,63.00,-22.00,-1475.00
2024-05-19 09:23:03.369274,1,-9,4,3,-3,8,73,77,137,140,92,110.69,54,56.00,56.00,-1349.00
2024-05-19 09:23:03.386774,2,6,3,3,-3,2,74,77,132,130,92,110.62,54,103.00,24.00,-1306.00
2024-05-19 09:23:03.574016,3,3,3,3,-1,0,74,77,130,130,92,110.23,54,-1.00,68.00,-1106.00
2024-05-19 09:23:03.592162,3,0,3,2,0,0,74,77,129,130,92,110.43,54,24.00,57.00,-1050.00
2024-05-19 09:23:03.692572,2,-1,3,2,0,0,74,77,128,130,92,110.46,54,92.00,55.00,-1094.00
2024-05-19 09:23:03.881261,3,-2,3,2,0,0,74,77,129,130,92,110.46,55,115.00,-5.00,-1092.00
2024-05-19 09:23:03.896634,3,-2,3,2,0,0,74,77,130,130,92,110.30,55,46.00,28.00,-938.00
2024-05-19 09:23:04.086053,3,-2,3,1,0,0,74,77,130,130,92,110.64,55,16.00,47.00,-932.00
2024-05-19 09:23:04.100533,3,-2,3,1,0,0,74,77,130,130,92,110.29,55,92.00,5.00,-961.00
2024-05-19 09:23:04.202684,5,-1,3,1,0,0,74,77,130,130,92,110.42,55,76.00,19.00,-983.00
2024-05-19 09:23:04.305000,5,-1,3,1,0,0,74,77,130,130,92,110.60,55,24.00,72.00,-972.00
2024-05-19 09:23:04.495564,4,-2,2,0,0,0,73,76,129,130,92,110.42,55,188.00,14.00,-988.00
2024-05-19 09:23:04.508541,4,-2,3,0,0,0,73,76,129,130,92,110.39,55,57.00,47.00,-959.00
2024-05-19 09:23:04.700477,3,-2,3,0,0,0,73,76,128,130,92,110.58,55,74.00,35.00,-1077.00
2024-05-19 09:23:04.712948,3,-2,3,0,0,0,73,76,127,130,92,110.52,55,85.00,42.00,-954.00
2024-05-19 09:23:04.905258,3,-3,3,0,0,0,73,76,127,120,92,110.44,56,18.00,72.00,-976.00
2024-05-19 09:23:04.916559,3,-2,3,0,0,0,73,76,126,120,92,110.34,56,105.00,0.00,-1011.00
2024-05-19 09:23:05.110317,2,-2,3,0,0,0,73,76,126,120,92,110.55,56,91.00,37.00,-917.00
2024-05-19 09:23:05.110799,3,-2,3,0,0,0,73,76,125,120,92,110.35,56,21.00,80.00,-918.00
2024-05-19 09:23:05.172370,3,-2,3,0,0,0,73,76,125,120,92,109.97,56,49.00,67.00,-955.00
2024-05-19 09:23:05.274565,3,-2,3,0,0,0,73,76,125,120,91,110.46,56,93.00,28.00,-989.00
2024-05-19 09:23:05.417184,3,-2,3,0,0,0,74,77,125,120,91,110.39,56,45.00,53.00,-984.00
2024-05-19 09:23:05.482074,3,-2,3,0,0,0,74,77,125,120,91,110.27,56,98.00,14.00,-1053.00
2024-05-19 09:23:05.580621,3,-2,3,0,0,0,74,77,124,120,91,110.51,56,62.00,60.00,-1029.00
2024-05-19 09:23:05.724353,2,-1,3,0,0,0,74,77,124,120,91,110.28,56,79.00,19.00,-974.00
2024-05-19 09:23:05.784555,3,-1,3,0,0,0,74,77,125,120,91,110.45,57,51.00,40.00,-1006.00
2024-05-19 09:23:05.929254,3,0,3,0,0,0,74,77,126,120,91,110.39,57,82.00,42.00,-986.00
2024-05-19 09:23:05.988646,3,-1,3,0,0,0,74,77,127,120,91,110.27,57,75.00,10.00,-960.00
2024-05-19 09:23:06.134453,3,0,3,0,0,0,74,77,127,120,91,110.58,57,58.00,53.00,-987.00
2024-05-19 09:23:06.192604,3,0,3,0,0,0,74,77,128,120,91,110.15,57,108.00,15.00,-1051.00
2024-05-19 09:23:06.338976,3,0,3,0,0,0,74,77,129,120,91,110.47,57,57.00,51.00,-950.00
2024-05-19 09:23:06.396593,3,-1,3,0,0,0,74,77,129,120,91,110.47,57,66.00,69.00,-919.00
2024-05-19 09:23:06.543809,3,-1,3,0,0,0,74,77,130,120,91,110.33,57,98.00,-7.00,-1031.00
2024-05-19 09:23:06.601101,4,-1,3,0,0,0,74,77,130,120,91,110.22,57,-14.00,92.00,-1053.00
2024-05-19 09:23:06.748980,4,-1,3,0,0,0,74,77,130,120,91,110.10,57,61.00,12.00,-932.00
2024-05-19 09:23:06.805690,3,-1,3,0,0,0,74,77,130,120,91,110.28,58,61.00,41.00,-962.00
2024-05-19 09:23:06.953631,3,-1,3,0,0,0,74,77,129,120,91,110.18,58,52.00,43.00,-980.00
2024-05-19 09:23:07.010774,3,-1,3,0,0,0,74,77,129,120,91,110.21,58,97.00,25.00,-976.00
2024-05-19 09:23:07.111573,3,-1,3,0,0,0,74,77,128,120,91,110.35,58,79.00,40.00,-1008.00
2024-05-19 09:23:07.215172,3,-1,3,0,0,0,74,77,128,120,91,110.23,58,83.00,21.00,-1124.00
2024-05-19 09:23:07.318062,3,-1,3,0,0,0,74,77,128,120,91,110.25,58,77.00,-1.00,-1024.00
2024-05-19 09:23:07.418695,3,-1,3,0,0,0,74,77,128,120,91,110.11,58,28.00,43.00,-950.00
2024-05-19 09:23:07.520636,3,-1,3,0,0,0,74,77,128,120,91,110.02,58,96.00,32.00,-974.00
2024-05-19 09:23:07.620637,3,-1,3,0,0,0,74,77,127,120,91,110.02,58,72.00,50.00,-1019.00
2024-05-19 09:23:07.772927,3,-1,3,0,0,0,74,77,128,120,91,110.29,58,34.00,29.00,-970.00
2024-05-19 09:23:07.824518,3,-1,3,0,0,0,74,77,127,120,91,110.31,59,63.00,39.00,-957.00
2024-05-19 09:23:07.977363,4,-1,3,0,0,0,74,77,128,120,91,110.16,59,62.00,55.00,-1002.00
2024-05-19 09:23:08.028471,4,-1,3,0,0,0,74,77,128,120,91,110.13,59,125.00,10.00,-1030.00
2024-05-19 09:23:08.183691,4,-1,3,0,0,0,74,77,127,120,91,110.41,59,37.00,55.00,-978.00
2024-05-19 09:23:08.232438,4,-1,3,0,0,0,74,77,127,120,91,110.15,59,115.00,2.00,-976.00
2024-05-19 09:23:08.350302,3,-2,3,0,0,0,74,77,127,120,91,110.26,59,10.00,73.00,-970.00
2024-05-19 09:23:08.436534,2,-2,3,0,0,0,74,77,127,120,91,110.06,59,103.00,-14.00,-1042.00
2024-05-19 09:23:08.591764,2,-2,3,0,0,0,74,77,127,120,91,110.35,59,20.00,49.00,-961.00
2024-05-19 09:23:08.591941,2,-2,3,0,0,0,74,77,127,120,91,110.32,59,111.00,34.00,-992.00
2024-05-19 09:23:08.691699,2,-1,3,0,0,0,74,77,127,120,91,110.34,59,81.00,46.00,-1021.00
2024-05-19 09:23:08.796875,3,-1,3,0,0,0,74,77,127,120,91,110.52,60,74.00,4.00,-994.00
2024-05-19 09:23:08.895757,3,-1,3,0,0,0,74,77,126,120,91,110.31,60,22.00,90.00,-952.00
2024-05-19 09:23:09.001435,2,-2,3,0,0,0,74,77,127,120,91,110.16,60,0.00,62.00,-1027.00
2024-05-19 09:23:09.099987,2,-2,3,0,0,0,74,77,126,120,91,110.28,60,50.00,50.00,-1024.00
2024-05-19 09:23:09.201303,3,-1,3,0,0,0,74,77,126,120,91,110.31,60,156.00,-35.00,-953.00
2024-05-19 09:23:09.308694,1,1,3,0,0,-1,74,77,128,120,91,110.27,60,121.00,12.00,-1568.00
2024-05-19 09:23:09.405348,0,4,5,0,1,-9,75,78,136,130,91,110.57,60,163.00,-84.00,-1840.00
2024-05-19 09:23:09.514528,-7,68,6,1,6,-14,75,78,405,140,91,110.58,60,95.00,449.00,-1507.00
2024-05-19 09:23:09.611131,2,-170,-11,1,13,-1,75,78,494,150,91,110.99,60,299.00,858.00,-989.00
2024-05-19 09:23:09.720791,16,-49,18,1,8,10,75,78,200,140,91,110.51,60,336.00,851.00,-1241.00
2024-05-19 09:23:09.814563,-8,13,29,2,6,9,75,78,137,130,91,110.62,61,178.00,216.00,-897.00
2024-05-19 09:23:09.924534,0,1,33,2,10,5,75,78,121,130,91,110.28,61,49.00,20.00,-1386.00
2024-05-19 09:23:10.017345,5,-4,37,2,10,2,75,78,117,120,91,110.21,61,43.00,-22.00,-1334.00
2024-05-19 09:23:10.127623,7,-5,38,2,8,0,75,78,114,120,91,110.26,61,-81.00,81.00,-1096.00
2024-05-19 09:23:10.222458,6,-6,30,2,7,0,75,78,110,120,91,110.00,61,-5.00,37.00,-1057.00
2024-05-19 09:23:10.323305,3,-7,19,1,5,0,75,78,108,110,91,110.24,61,95.00,-39.00,-1089.00
2024-05-19 09:23:10.440004,2,-6,8,2,4,0,74,77,106,110,91,110.10,61,104.00,-54.00,-1021.00
2024-05-19 09:23:10.527308,3,-4,2,2,3,-1,74,77,105,120,91,110.18,61,84.00,-26.00,-1108.00
2024-05-19 09:23:10.640250,4,-3,2,3,3,-1,74,77,105,120,91,110.09,61,-43.00,55.00,-1007.00
2024-05-19 09:23:10.731317,4,-3,2,2,2,-1,74,77,105,120,91,110.05,61,10.00,49.00,-860.00
2024-05-19 09:23:10.845061,4,-3,2,2,2,-1,74,77,105,120,91,110.03,62,-2.00,52.00,-1020.00
2024-05-19 09:23:10.935220,3,-3,2,1,2,-1,74,77,105,120,91,109.93,62,55.00,34.00,-1000.00
2024-05-19 09:23:11.049178,3,-2,2,1,1,-1,74,77,105,120,91,110.02,62,44.00,9.00,-992.00
2024-05-19 09:23:11.140013,3,-2,2,1,1,-1,74,77,106,120,91,110.42,62,15.00,38.00,-974.00
2024-05-19 09:23:11.241226,2,-2,2,0,1,-1,74,77,106,120,90,110.10,62,138.00,-52.00,-1012.00
2024-05-19 09:23:11.343905,2,-2,2,1,1,-1,74,77,107,120,90,110.20,62,62.00,-4.00,-995.00
2024-05-19 09:23:11.446237,2,-1,2,1,1,-1,75,79,108,130,90,110.30,62,75.00,-9.00,-1017.00
2024-05-19 09:23:11.548264,3,-3,2,1,0,-1,75,79,108,130,90,110.45,62,113.00,10.00,-1024.00
2024-05-19 09:23:11.649493,4,-2,2,1,0,-1,75,79,108,130,90,110.26,62,42.00,62.00,-1013.00
2024-05-19 09:23:11.765966,4,-2,2,1,0,-1,75,79,109,130,90,110.14,62,3.00,61.00,-959.00
2024-05-19 09:23:11.853808,4,-2,2,0,0,-1,75,79,109,130,90,110.25,63,162.00,26.00,-970.00
2024-05-19 09:23:11.971051,4,-3,2,0,0,-1,75,79,110,130,90,109.93,63,137.00,-18.00,-927.00
2024-05-19 09:23:12.057547,5,-3,2,1,0,0,75,79,110,130,90,110.25,63,39.00,18.00,-991.00
2024-05-19 09:23:12.108812,5,-3,2,1,0,0,75,79,111,130,90,109.98,63,57.00,34.00,-974.00
2024-05-19 09:23:12.211349,5,-3,2,0,0,0,75,79,110,130,90,110.20,63,106.00,19.00,-1045.00
2024-05-19 09:23:12.381055,4,-3,2,0,0,0,75,79,111,130,90,110.04,63,97.00,52.00,-978.00
2024-05-19 09:23:12.414172,4,-3,2,0,0,0,75,78,111,130,90,109.88,63,-11.00,76.00,-1047.00
2024-05-19 09:23:12.585772,3,-3,2,0,0,0,75,78,112,130,90,109.90,63,63.00,40.00,-991.00
2024-05-19 09:23:12.618839,3,-3,2,0,0,0,75,78,112,130,90,110.38,63,52.00,89.00,-945.00
2024-05-19 09:23:12.720388,3,-3,2,0,0,0,75,78,113,130,90,110.01,63,71.00,36.00,-956.00
2024-05-19 09:23:12.892922,3,-3,2,0,0,0,75,78,113,130,90,110.17,64,29.00,108.00,-990.00
2024-05-19 09:23:12.929458,3,-4,2,0,0,0,75,78,113,130,90,110.21,64,45.00,45.00,-943.00
2024-05-19 09:23:13.026555,2,-4,2,0,0,0,75,78,113,130,90,109.99,64,82.00,71.00,-1073.00
2024-05-19 09:23:13.199771,2,-4,2,0,0,0,75,78,113,130,90,110.04,64,137.00,24.00,-992.00
