TS,pitch,roll,yaw,vgx,vgy,vgz,templ,temph,tof,h,bat,baro,time,agx,agy,agz
2024-05-19 09:24:06.832392,0,0,0,0,0,0,79,82,10,0,86,108.97,83,9.00,12.00,-1001.00
2024-05-19 09:24:06.959309,0,0,0,0,0,0,79,82,10,0,86,108.79,83,8.00,10.00,-999.00
2024-05-19 09:24:07.036357,0,0,0,0,0,0,79,82,10,0,86,109.17,83,8.00,12.00,-998.00
2024-05-19 09:24:07.164107,0,0,0,0,0,0,79,82,10,0,86,108.92,83,8.00,12.00,-1002.00
2024-05-19 09:24:07.240458,0,0,0,0,0,0,79,82,10,0,86,108.76,83,9.00,11.00,-999.00
2024-05-19 09:24:07.369118,0,0,0,0,0,0,79,82,10,0,86,109.03,83,8.00,11.00,-999.00
2024-05-19 09:24:07.444750,0,0,0,0,0,0,79,82,10,0,86,108.71,83,8.00,11.00,-999.00
2024-05-19 09:24:07.546291,0,0,0,0,0,0,79,82,10,0,86,108.93,83,8.00,12.00,-1000.00
2024-05-19 09:24:07.649093,0,0,0,0,0,0,79,82,10,0,86,108.70,83,9.00,12.00,-999.00
2024-05-19 09:24:07.778469,0,0,0,0,0,0,80,83,10,0,86,109.11,83,8.00,11.00,-1002.00
2024-05-19 09:24:07.852305,0,0,0,0,0,0,80,83,10,0,86,109.07,83,8.00,12.00,-1001.00
2024-05-19 09:24:07.983166,0,0,0,0,0,0,80,83,10,0,86,108.89,83,9.00,13.00,-1002.00
2024-05-19 09:24:08.056433,0,0,0,0,0,0,80,83,10,0,86,108.87,83,9.00,12.00,-1001.00
2024-05-19 09:24:08.188071,0,0,0,0,0,0,80,83,10,0,86,109.02,83,11.00,12.00,-999.00
2024-05-19 09:24:08.260215,0,0,0,0,0,0,80,83,10,0,86,108.57,83,9.00,11.00,-999.00
2024-05-19 09:24:08.393164,0,0,0,0,0,0,80,83,10,0,86,109.06,83,8.00,12.00,-999.00
2024-05-19 09:24:08.464302,0,0,0,0,0,0,80,83,10,0,86,108.84,83,9.00,12.00,-1000.00
2024-05-19 09:24:08.598300,0,0,0,0,0,0,80,83,10,0,86,109.20,83,8.00,12.00,-1001.00
2024-05-19 09:24:08.668943,0,0,0,0,0,0,80,83,10,0,86,108.88,83,8.00,10.00,-999.00
2024-05-19 09:24:08.802362,0,0,0,0,0,0,81,83,10,0,86,108.75,83,7.00,11.00,-998.00
2024-05-19 09:24:08.872262,0,0,0,0,0,0,81,83,10,0,86,109.14,83,7.00,11.00,-1001.00
2024-05-19 09:24:08.924225,0,0,0,0,0,0,81,83,10,0,86,108.96,83,8.00,11.00,-999.00
2024-05-19 09:24:09.110047,0,0,0,0,0,0,81,83,10,0,86,108.75,83,9.00,12.00,-1001.00
2024-05-19 09:24:09.127831,0,0,0,0,0,0,81,83,10,0,86,108.80,83,7.00,11.00,-998.00
2024-05-19 09:24:09.314506,0,0,0,0,0,0,81,83,10,0,86,108.82,83,8.00,10.00,-999.00
2024-05-19 09:24:09.331145,0,0,0,0,0,0,81,83,10,0,86,108.77,83,9.00,11.00,-999.00
2024-05-19 09:24:09.519293,0,0,0,0,0,0,81,83,10,0,86,108.98,83,9.00,13.00,-999.00
2024-05-19 09:24:09.535090,0,0,0,0,0,0,81,83,10,0,86,108.70,83,8.00,12.00,-999.00
2024-05-19 09:24:09.637172,0,0,0,0,0,0,81,83,10,0,86,108.84,83,7.00,13.00,-999.00
2024-05-19 09:24:09.826479,0,0,0,0,0,0,80,82,10,0,86,108.74,83,9.00,10.00,-1001.00
2024-05-19 09:24:09.841399,0,0,0,0,0,0,80,82,10,0,86,108.89,83,7.00,12.00,-999.00
2024-05-19 09:24:10.031290,0,0,0,0,0,0,80,82,10,0,86,108.58,83,7.00,10.00,-999.00
2024-05-19 09:24:10.045491,0,0,0,0,0,0,80,82,10,0,86,108.68,83,7.00,12.00,-999.00
2024-05-19 09:24:10.236691,0,0,0,0,0,0,80,82,10,0,86,108.94,83,7.00,11.00,-998.00
2024-05-19 09:24:10.249161,0,0,0,0,0,0,80,82,10,0,86,108.90,83,8.00,11.00,-999.00
2024-05-19 09:24:10.440843,0,0,0,0,0,0,80,82,10,0,86,108.75,83,9.00,11.00,-999.00
2024-05-19 09:24:10.453508,0,0,0,0,0,0,80,82,10,0,86,108.76,83,9.00,11.00,-1000.00
2024-05-19 09:24:10.646411,0,0,0,0,0,0,80,82,10,0,86,108.81,83,8.00,11.00,-1000.00
2024-05-19 09:24:10.657779,0,0,0,0,0,0,80,82,10,0,86,108.69,83,8.00,11.00,-1000.00
2024-05-19 09:24:10.850850,0,0,0,0,0,0,81,82,10,0,86,108.63,83,9.00,11.00,-1000.00
2024-05-19 09:24:10.861175,0,0,0,0,0,0,81,82,10,0,86,108.76,83,8.00,12.00,-1004.00
2024-05-19 09:24:11.055958,0,0,0,0,0,0,81,82,10,0,86,108.65,83,8.00,11.00,-1000.00
2024-05-19 09:24:11.065744,0,0,0,0,0,0,81,82,10,0,86,108.81,83,7.00,11.00,-999.00
2024-05-19 09:24:11.260729,0,0,0,0,0,0,81,82,10,0,86,108.69,83,8.00,12.00,-1002.00
2024-05-19 09:24:11.269685,0,0,0,0,0,0,81,82,10,0,86,108.93,83,9.00,11.00,-1000.00
2024-05-19 09:24:11.371381,0,0,0,0,0,0,81,82,10,0,86,108.86,83,8.00,13.00,-1001.00
2024-05-19 09:24:11.568461,0,0,0,0,0,0,81,82,10,0,86,108.93,83,17.00,22.00,-1007.00
2024-05-19 09:24:11.575082,0,0,0,0,0,0,81,82,10,0,86,108.86,84,4.00,0.00,-1008.00
2024-05-19 09:24:11.771804,0,0,0,0,0,0,81,82,10,0,86,108.86,84,65.00,28.00,-1029.00
2024-05-19 09:24:11.779886,0,0,1,0,0,0,81,82,10,0,86,108.86,84,-40.00,-19.00,-1109.00
2024-05-19 09:24:11.976738,0,0,3,0,0,0,81,82,10,0,86,108.86,84,68.00,-21.00,-1001.00
2024-05-19 09:24:11.983866,0,0,3,0,0,0,81,82,10,0,86,108.86,84,22.00,8.00,-1148.00
2024-05-19 09:24:12.181468,0,1,3,1,0,-1,81,82,10,0,86,108.86,84,47.00,20.00,-1317.00
2024-05-19 09:24:12.182698,2,0,4,1,0,-4,81,82,10,0,86,108.86,84,-24.00,-2.00,-1227.00
2024-05-19 09:24:12.238955,3,-2,4,0,0,-7,81,82,20,10,86,109.17,84,85.00,-49.00,-1160.00
2024-05-19 09:24:12.386872,2,0,4,0,0,-8,81,82,29,10,86,109.43,84,79.00,-20.00,-1039.00
2024-05-19 09:24:12.443031,1,0,4,0,0,-8,81,82,37,20,86,109.42,84,31.00,8.00,-965.00
2024-05-19 09:24:12.591441,1,0,4,0,0,-8,81,82,40,30,86,109.12,85,59.00,-11.00,-931.00
2024-05-19 09:24:12.647659,1,0,4,0,0,-8,81,82,48,40,86,109.12,85,40.00,-10.00,-841.00
2024-05-19 09:24:12.748985,1,0,3,0,0,-6,81,82,53,50,86,109.61,85,5.00,26.00,-822.00
2024-05-19 09:24:12.898647,1,0,3,0,0,-5,81,82,57,50,86,109.80,85,43.00,14.00,-973.00
2024-05-19 09:24:12.952888,0,0,3,0,0,-4,81,82,60,60,86,109.68,85,76.00,1.00,-830.00
2024-05-19 09:24:13.103110,0,0,3,0,0,-2,81,82,62,60,86,109.57,85,21.00,17.00,-887.00
2024-05-19 09:24:13.157305,1,0,3,0,0,-2,81,82,63,60,86,109.82,85,70.00,-23.00,-948.00
2024-05-19 09:24:13.308074,1,0,3,0,0,-1,81,82,64,60,86,109.65,85,-64.00,41.00,-916.00
2024-05-19 09:24:13.365916,1,0,4,0,0,0,81,82,64,60,86,109.88,85,-24.00,30.00,-1029.00
2024-05-19 09:24:13.462897,1,0,4,0,0,-1,81,82,64,60,86,109.63,85,54.00,-1.00,-1056.00
2024-05-19 09:24:13.615442,2,0,4,0,0,-1,81,82,64,60,86,109.39,86,61.00,3.00,-1031.00
2024-05-19 09:24:13.666878,2,0,4,0,0,0,81,82,64,60,86,109.67,86,43.00,6.00,-1026.00
2024-05-19 09:24:13.768887,1,0,3,0,0,0,80,83,64,60,86,109.42,86,15.00,2.00,-1009.00
2024-05-19 09:24:13.922318,1,0,3,0,0,-1,80,83,65,60,86,109.74,86,41.00,-4.00,-1009.00
2024-05-19 09:24:13.972886,1,0,3,0,0,-1,80,83,64,60,86,109.67,86,10.00,15.00,-1076.00
2024-05-19 09:24:14.128222,2,0,3,0,0,-1,80,83,65,60,86,109.60,86,25.00,11.00,-1006.00
2024-05-19 09:24:14.177114,2,0,3,0,0,-1,80,83,66,60,86,109.68,86,52.00,7.00,-983.00
2024-05-19 09:24:14.332143,2,0,3,0,0,-1,80,83,67,70,86,109.78,86,36.00,11.00,-973.00
2024-05-19 09:24:14.382129,2,0,3,0,0,-1,80,83,68,70,86,109.84,86,11.00,1.00,-976.00
2024-05-19 09:24:14.536643,2,0,3,0,0,-1,80,83,69,70,86,109.77,86,74.00,-33.00,-994.00
2024-05-19 09:24:14.584759,2,0,3,0,0,-1,80,83,70,70,86,109.71,87,7.00,8.00,-970.00
2024-05-19 09:24:14.686793,2,0,4,0,0,-1,80,83,70,70,86,109.79,87,11.00,3.00,-1034.00
2024-05-19 09:24:14.844164,2,0,4,0,0,-1,81,84,71,70,86,109.97,87,69.00,-7.00,-998.00
2024-05-19 09:24:14.890745,2,0,4,0,0,-1,81,84,72,70,86,109.79,87,42.00,5.00,-939.00
2024-05-19 09:24:15.048643,2,0,4,0,0,0,81,84,73,70,86,109.60,87,71.00,-18.00,-1023.00
2024-05-19 09:24:15.094772,2,0,4,0,0,-1,81,84,74,70,86,109.94,87,51.00,6.00,-1014.00
2024-05-19 09:24:15.253398,2,0,4,0,0,-1,81,84,75,70,86,109.78,87,40.00,-1.00,-1028.00
2024-05-19 09:24:15.299271,2,0,4,0,0,-1,81,84,77,70,86,109.53,87,49.00,6.00,-1020.00
2024-05-19 09:24:15.401064,2,0,4,0,0,-1,81,84,78,70,86,109.76,87,43.00,5.00,-971.00
2024-05-19 09:24:15.505745,2,0,4,0,0,-1,81,84,80,70,86,110.08,88,9.00,16.00,-1026.00
2024-05-19 09:24:15.604987,2,0,4,0,0,-1,81,84,82,80,86,109.85,88,40.00,5.00,-866.00
2024-05-19 09:24:15.717237,2,0,4,0,0,0,81,84,83,80,86,109.85,88,-43.00,36.00,-1036.00
2024-05-19 09:24:15.809278,2,0,4,0,0,0,80,83,84,80,86,109.81,88,66.00,-30.00,-979.00
2024-05-19 09:24:15.970180,1,0,4,0,0,0,80,83,85,80,86,109.58,88,79.00,-20.00,-1012.00
2024-05-19 09:24:16.013534,1,0,4,0,0,0,80,83,87,80,86,109.84,88,9.00,4.00,-966.00
2024-05-19 09:24:16.064195,2,0,3,0,0,0,80,83,88,80,86,109.84,88,50.00,5.00,-1055.00
2024-05-19 09:24:16.175339,2,0,3,0,0,0,80,83,89,80,86,110.13,88,-11.00,13.00,-993.00
2024-05-19 09:24:16.268429,1,0,3,0,0,0,80,83,90,80,86,109.78,88,-5.00,25.00,-878.00
2024-05-19 09:24:16.381430,1,0,3,0,0,0,80,83,92,80,86,109.85,88,-19.00,30.00,-897.00
2024-05-19 09:24:16.471736,1,0,3,0,0,0,80,83,92,80,86,109.92,89,48.00,0.00,-994.00
2024-05-19 09:24:16.585028,1,0,3,0,0,0,80,83,93,80,86,109.75,89,-20.00,31.00,-1004.00
2024-05-19 09:24:16.676080,1,0,3,0,0,0,80,83,93,80,86,109.91,89,30.00,3.00,-1017.00
2024-05-19 09:24:16.789801,1,0,4,0,0,0,81,83,93,90,86,109.75,89,46.00,-19.00,-947.00
2024-05-19 09:24:16.879745,2,0,4,0,0,0,81,83,93,90,86,109.61,89,11.00,-1.00,-1020.00
2024-05-19 09:24:16.994532,2,0,4,0,0,0,81,83,93,90,86,109.72,89,68.00,-18.00,-1084.00
2024-05-19 09:24:17.083719,2,0,4,0,0,0,81,83,92,90,86,109.82,89,-6.00,2.00,-982.00
2024-05-19 09:24:17.202254,2,0,4,0,0,0,81,83,92,80,86,109.88,89,7.00,25.00,-955.00
2024-05-19 09:24:17.288456,2,0,4,0,0,0,81,83,92,80,86,109.88,89,-13.00,14.00,-884.00
2024-05-19 09:24:17.403977,1,0,4,0,0,0,81,83,90,80,86,109.80,89,59.00,-48.00,-1113.00
2024-05-19 09:24:17.491749,1,0,4,0,0,0,81,83,90,80,86,109.80,90,44.00,-1.00,-1008.00
2024-05-19 09:24:17.608970,1,0,4,0,0,0,81,83,90,80,86,109.95,90,108.00,-38.00,-1026.00
2024-05-19 09:24:17.696686,1,0,4,0,0,0,81,83,89,80,86,109.50,90,48.00,-18.00,-980.00
2024-05-19 09:24:17.813469,1,0,4,0,0,0,80,83,88,80,86,109.77,90,-30.00,10.00,-938.00
2024-05-19 09:24:17.900702,0,0,4,0,0,0,80,83,88,80,86,109.68,90,-77.00,57.00,-898.00
2024-05-19 09:24:18.018298,1,0,4,0,0,0,80,83,87,80,86,110.02,90,105.00,-49.00,-1006.00
2024-05-19 09:24:18.104644,1,0,4,0,0,1,80,83,86,80,86,109.82,90,90.00,3.00,-1068.00
2024-05-19 09:24:18.223095,1,0,4,0,0,0,80,83,85,80,86,109.80,90,-1.00,59.00,-1092.00
2024-05-19 09:24:18.309436,1,0,4,0,0,1,80,83,85,80,86,109.58,90,23.00,48.00,-1083.00
2024-05-19 09:24:18.410771,1,0,4,0,0,0,80,83,86,80,86,109.56,90,24.00,7.00,-1106.00
2024-05-19 09:24:18.530553,1,0,3,0,0,0,80,83,86,80,86,109.82,91,-4.00,-2.00,-1000.00
2024-05-19 09:24:18.614965,0,0,3,0,0,0,80,83,87,80,86,109.91,91,-72.00,72.00,-864.00
2024-05-19 09:24:18.735382,0,-1,3,0,0,0,80,83,88,80,86,109.69,91,-9.00,19.00,-1032.00
2024-05-19 09:24:18.819390,0,-1,3,0,0,0,80,83,90,80,86,109.91,91,-28.00,12.00,-996.00
2024-05-19 09:24:18.942633,0,-1,3,0,0,0,80,83,91,80,86,109.78,91,-23.00,34.00,-995.00
2024-05-19 09:24:19.022586,0,0,3,0,0,0,80,83,92,80,86,109.62,91,14.00,-8.00,-989.00
2024-05-19 09:24:19.144607,0,0,3,0,0,0,80,83,93,80,86,110.06,91,66.00,-23.00,-973.00
2024-05-19 09:24:19.226588,1,0,3,0,0,0,80,83,94,90,86,110.05,91,103.00,-52.00,-1080.00
2024-05-19 09:24:19.349482,1,0,3,0,0,0,80,83,94,90,86,109.74,91,-14.00,18.00,-932.00
2024-05-19 09:24:19.430555,2,0,3,0,0,0,80,83,94,90,86,109.98,91,30.00,-16.00,-943.00
2024-05-19 09:24:19.481546,1,0,3,0,0,0,80,83,94,90,86,109.99,92,92.00,-27.00,-986.00
2024-05-19 09:24:19.657096,1,0,3,0,0,0,80,83,94,90,86,110.13,92,-31.00,13.00,-962.00
2024-05-19 09:24:19.685496,1,0,3,0,0,0,80,83,94,90,86,109.74,92,4.00,-1.00,-1042.00
2024-05-19 09:24:19.861374,1,0,3,0,0,0,80,82,93,90,86,109.80,92,21.00,-3.00,-1027.00
2024-05-19 09:24:19.889885,1,0,3,0,0,0,80,82,93,90,86,110.16,92,18.00,8.00,-951.00
2024-05-19 09:24:20.067279,2,1,3,0,0,0,80,82,92,90,86,109.85,92,59.00,8.00,-927.00
2024-05-19 09:24:20.093524,2,0,4,0,0,0,80,82,91,90,86,109.89,92,60.00,-21.00,-1041.00
2024-05-19 09:24:20.271346,2,0,4,0,0,0,80,82,91,90,86,109.59,92,-27.00,35.00,-1022.00
2024-05-19 09:24:20.298542,2,0,4,0,0,0,80,82,90,80,86,109.83,92,35.00,-8.00,-1087.00
2024-05-19 09:24:20.476751,2,0,4,0,0,0,80,82,90,80,86,109.76,92,22.00,11.00,-905.00
2024-05-19 09:24:20.503624,2,0,4,0,0,0,80,82,89,80,86,109.53,93,49.00,-17.00,-1069.00
2024-05-19 09:24:20.604616,2,0,4,0,0,0,80,82,88,80,86,109.90,93,10.00,5.00,-910.00
2024-05-19 09:24:20.705621,2,0,4,0,0,0,80,82,87,80,86,109.91,93,-42.00,17.00,-1002.00
2024-05-19 09:24:20.885535,2,0,3,0,0,0,80,82,87,80,86,109.47,93,30.00,4.00,-988.00
2024-05-19 09:24:20.909537,1,0,3,0,0,0,80,82,86,80,86,109.63,93,7.00,3.00,-1006.00
2024-05-19 09:24:21.090980,1,0,3,0,0,0,80,82,85,80,86,109.85,93,97.00,-30.00,-1059.00
2024-05-19 09:24:21.113574,1,0,3,0,0,0,80,82,85,80,86,109.53,93,73.00,-41.00,-1034.00
2024-05-19 09:24:21.295183,1,0,3,0,0,0,80,82,84,80,86,109.81,93,-14.00,4.00,-1077.00
2024-05-19 09:24:21.317600,1,0,3,0,0,0,80,82,84,80,86,109.90,93,79.00,-5.00,-1126.00
2024-05-19 09:24:21.419532,0,0,3,0,0,0,80,82,84,80,86,109.67,93,61.00,-3.00,-991.00
2024-05-19 09:24:21.602773,1,0,3,0,0,0,80,82,84,80,86,109.53,94,42.00,-9.00,-1064.00
2024-05-19 09:24:21.623930,1,0,3,0,0,0,80,82,84,80,86,109.85,94,11.00,30.00,-894.00
2024-05-19 09:24:21.808054,1,0,3,0,0,0,80,82,84,80,86,109.66,94,14.00,0.00,-1107.00
2024-05-19 09:24:21.829031,0,0,3,0,0,0,81,83,86,80,86,109.75,94,6.00,22.00,-1010.00
2024-05-19 09:24:21.930226,1,0,3,0,0,0,81,83,87,80,86,109.67,94,-8.00,23.00,-1040.00
2024-05-19 09:24:22.035203,0,0,3,0,0,0,81,83,89,80,86,109.79,94,-26.00,16.00,-1033.00
2024-05-19 09:24:22.134152,0,0,3,0,0,-1,81,83,90,80,86,109.58,94,40.00,-10.00,-1019.00
2024-05-19 09:24:22.319342,0,0,3,0,0,-1,81,83,92,80,86,110.12,94,24.00,10.00,-990.00
2024-05-19 09:24:22.338488,1,0,3,0,0,-1,81,83,94,90,86,109.79,94,-8.00,14.00,-1102.00
2024-05-19 09:24:22.439689,1,0,3,0,0,-2,81,83,96,90,86,110.03,94,8.00,16.00,-1039.00
2024-05-19 09:24:22.626881,1,0,3,0,0,-3,81,83,100,90,86,109.83,95,-33.00,43.00,-1012.00
2024-05-19 09:24:22.648978,1,0,3,0,0,-3,81,83,103,90,86,110.08,95,80.00,-20.00,-1067.00
2024-05-19 09:24:22.745705,1,0,3,0,0,-4,81,83,109,100,86,110.25,95,34.00,-9.00,-1130.00
2024-05-19 09:24:23.036552,1,0,3,0,0,-5,80,83,114,100,86,110.24,95,34.00,-8.00,-997.00
2024-05-19 09:24:23.038153,1,0,3,0,0,-5,80,83,120,110,86,110.11,95,-16.00,14.00,-1034.00
2024-05-19 09:24:23.052060,1,0,3,0,0,-5,80,83,126,120,86,110.05,95,-13.00,2.00,-929.00
2024-05-19 09:24:23.241280,1,0,3,0,0,-5,80,83,131,120,86,110.13,95,99.00,-33.00,-918.00
2024-05-19 09:24:23.241601,1,0,3,0,0,-5,80,83,137,130,86,110.11,95,52.00,11.00,-978.00
2024-05-19 09:24:23.306306,1,0,3,0,0,-5,80,83,141,130,86,110.00,95,-7.00,-7.00,-1065.00
2024-05-19 09:24:23.446963,1,0,3,0,0,-5,80,83,146,140,86,110.45,95,-38.00,62.00,-900.00
2024-05-19 09:24:23.510658,2,0,3,0,0,-4,80,83,151,140,86,110.32,96,89.00,-44.00,-968.00
2024-05-19 09:24:23.613019,2,0,3,0,0,-4,80,83,155,150,86,110.18,96,52.00,-19.00,-945.00
2024-05-19 09:24:23.753295,2,0,3,0,0,-3,80,83,158,150,86,110.47,96,41.00,-9.00,-1022.00
2024-05-19 09:24:23.817004,2,0,3,0,0,-3,80,84,161,150,86,110.60,96,127.00,-35.00,-967.00
2024-05-19 09:24:23.957752,2,0,3,0,0,-3,80,84,165,160,86,110.51,96,-3.00,7.00,-971.00
2024-05-19 09:24:24.021386,2,0,3,0,0,-2,80,84,167,160,86,110.68,96,39.00,-8.00,-954.00
2024-05-19 09:24:24.162210,2,0,3,0,0,-2,80,84,169,160,86,110.60,96,81.00,-3.00,-1010.00
2024-05-19 09:24:24.225035,2,0,3,0,0,-2,80,84,171,170,86,110.46,96,21.00,3.00,-1024.00
2024-05-19 09:24:24.367045,2,0,3,0,0,-2,80,84,174,170,86,110.69,96,-17.00,22.00,-903.00
2024-05-19 09:24:24.428597,2,0,3,0,0,-1,80,84,175,170,86,110.39,96,69.00,-7.00,-1081.00
2024-05-19 09:24:24.572159,2,0,3,0,0,-1,80,84,175,170,86,110.79,97,45.00,14.00,-1023.00
2024-05-19 09:24:24.632322,2,0,3,0,0,-1,80,84,177,170,86,110.39,97,-17.00,11.00,-1091.00
2024-05-19 09:24:24.776594,2,0,3,0,0,-1,80,84,178,170,86,110.70,97,60.00,-10.00,-990.00
2024-05-19 09:24:24.836911,2,0,3,0,0,0,80,83,178,170,86,110.50,97,27.00,9.00,-982.00
2024-05-19 09:24:24.981428,3,0,3,0,0,0,80,83,180,170,86,110.62,97,91.00,-57.00,-1053.00
2024-05-19 09:24:25.040354,3,1,3,0,0,0,80,83,179,170,86,110.56,97,10.00,6.00,-978.00
2024-05-19 09:24:25.187554,3,1,3,0,0,0,80,83,180,170,86,110.65,97,-70.00,36.00,-966.00
2024-05-19 09:24:25.244568,2,0,3,0,0,0,80,83,180,180,86,110.68,97,56.00,-11.00,-970.00
2024-05-19 09:24:25.391326,1,0,3,0,0,0,80,83,181,180,86,110.79,97,61.00,-20.00,-1044.00
2024-05-19 09:24:25.448541,1,0,3,0,0,0,80,83,181,180,86,110.41,97,55.00,-25.00,-1025.00
2024-05-19 09:24:25.596476,1,0,3,0,0,0,80,83,181,180,86,110.55,98,-57.00,16.00,-1048.00
2024-05-19 09:24:25.652567,1,0,3,0,0,0,80,83,181,180,86,110.38,98,52.00,-27.00,-986.00
2024-05-19 09:24:25.756487,2,0,3,0,0,0,80,83,181,180,86,110.56,98,42.00,0.00,-981.00
2024-05-19 09:24:25.857068,2,0,3,0,0,0,81,84,180,180,86,110.62,98,-13.00,6.00,-927.00
2024-05-19 09:24:25.958320,2,0,3,0,0,0,81,84,180,180,86,110.70,98,73.00,-48.00,-1033.00
2024-05-19 09:24:26.108624,2,0,3,0,0,0,81,84,180,180,86,110.47,98,55.00,-43.00,-1031.00
2024-05-19 09:24:26.162369,2,0,3,0,0,0,81,84,179,180,86,110.69,98,59.00,-7.00,-1069.00
2024-05-19 09:24:26.313066,2,0,3,0,0,0,81,84,178,180,86,110.54,98,82.00,-9.00,-1007.00
2024-05-19 09:24:26.366253,2,0,3,0,0,0,81,84,177,180,86,110.35,98,43.00,-36.00,-1023.00
2024-05-19 09:24:26.468117,2,0,3,0,0,0,81,84,175,170,86,110.47,98,69.00,-40.00,-1047.00
2024-05-19 09:24:26.621620,2,0,3,0,0,0,81,84,174,170,86,110.65,99,10.00,-2.00,-895.00
2024-05-19 09:24:26.673008,2,0,3,0,0,0,81,84,173,170,86,110.16,99,94.00,-31.00,-1148.00
2024-05-19 09:24:26.825367,2,0,3,0,0,0,81,84,173,170,86,110.70,99,49.00,-28.00,-1033.00
2024-05-19 09:24:26.876675,3,0,3,0,0,0,81,84,173,170,86,110.70,99,26.00,-2.00,-1099.00
2024-05-19 09:24:27.029825,2,0,3,0,0,0,81,84,174,170,86,110.72,99,65.00,-18.00,-945.00
2024-05-19 09:24:27.030799,2,0,3,0,0,0,81,84,174,170,86,110.62,99,17.00,-2.00,-1031.00
2024-05-19 09:24:27.138835,2,0,3,0,0,0,81,84,173,170,86,110.43,99,-12.00,29.00,-883.00
2024-05-19 09:24:27.234815,2,0,3,0,0,0,81,84,174,170,86,110.64,99,1.00,3.00,-1071.00
2024-05-19 09:24:27.337131,2,0,3,0,0,0,81,84,173,170,86,110.74,99,71.00,-21.00,-1019.00
2024-05-19 09:24:27.437195,1,0,3,0,0,0,81,84,173,170,86,110.44,99,44.00,-21.00,-918.00
2024-05-19 09:24:27.542058,2,0,3,0,0,0,81,84,174,170,86,110.45,100,40.00,-2.00,-1111.00
2024-05-19 09:24:27.641244,2,0,3,0,0,0,81,84,173,170,86,110.55,100,77.00,-19.00,-1064.00
2024-05-19 09:24:27.747313,1,0,3,0,0,0,81,84,173,170,86,110.54,100,-17.00,33.00,-929.00
2024-05-19 09:24:27.845309,1,0,3,0,0,0,80,83,173,170,86,110.47,100,47.00,3.00,-997.00
2024-05-19 09:24:27.947353,1,0,3,0,0,0,80,83,173,170,86,110.39,100,50.00,-27.00,-1038.00
2024-05-19 09:24:28.054058,1,0,3,0,0,0,80,83,173,170,86,110.43,100,94.00,-27.00,-963.00
2024-05-19 09:24:28.151502,2,0,3,0,0,0,80,83,173,170,86,110.30,100,75.00,-18.00,-939.00
2024-05-19 09:24:28.258529,2,0,3,0,0,0,80,83,173,170,86,110.60,100,15.00,-7.00,-835.00
2024-05-19 09:24:28.361323,2,0,3,0,0,0,80,83,172,170,86,110.49,100,30.00,-14.00,-956.00
2024-05-19 09:24:28.458872,2,0,3,0,0,1,80,83,171,170,86,110.32,100,81.00,-1.00,-967.00
2024-05-19 09:24:28.559748,2,0,3,0,0,1,80,83,168,170,86,110.33,101,-54.00,7.00,-935.00
2024-05-19 09:24:28.672561,2,0,3,0,0,2,80,83,166,170,86,110.58,101,18.00,-7.00,-912.00
2024-05-19 09:24:28.763086,2,0,3,0,0,2,80,83,163,160,86,110.36,101,90.00,-33.00,-1000.00
2024-05-19 09:24:28.876430,2,0,3,0,0,2,81,83,161,160,86,110.38,101,74.00,-51.00,-1022.00
2024-05-19 09:24:28.967211,2,0,3,0,0,2,81,83,158,160,86,110.38,101,19.00,-2.00,-1002.00
2024-05-19 09:24:29.070288,2,0,3,0,0,2,81,83,155,150,86,110.45,101,14.00,-12.00,-879.00
2024-05-19 09:24:29.171544,2,0,3,0,0,2,81,83,152,150,86,110.25,101,92.00,-18.00,-997.00
2024-05-19 09:24:29.283321,2,0,3,0,0,2,81,83,148,150,86,110.27,101,28.00,6.00,-1009.00
2024-05-19 09:24:29.376032,2,0,3,0,0,3,81,83,145,150,86,110.53,101,124.00,-55.00,-1001.00
2024-05-19 09:24:29.477112,1,0,3,0,0,2,81,83,142,140,86,110.34,101,65.00,-36.00,-1083.00
2024-05-19 09:24:29.590672,1,0,3,0,0,2,81,83,140,140,86,110.32,102,14.00,3.00,-1060.00
2024-05-19 09:24:29.681623,1,0,3,0,0,2,81,83,137,140,86,110.18,102,63.00,-14.00,-1034.00
2024-05-19 09:24:29.794812,1,0,3,0,0,2,81,83,135,130,86,110.16,102,-15.00,4.00,-919.00
2024-05-19 09:24:29.885086,1,0,3,0,0,2,81,84,132,130,86,110.28,102,36.00,24.00,-979.00
2024-05-19 09:24:29.999283,1,0,3,0,0,2,81,84,130,130,86,110.17,102,48.00,-11.00,-1093.00
2024-05-19 09:24:30.090450,1,0,3,0,0,2,81,84,129,130,86,110.06,102,96.00,-44.00,-965.00
2024-05-19 09:24:30.192005,1,0,3,0,0,2,81,84,128,130,86,109.93,102,56.00,12.00,-1032.00
2024-05-19 09:24:30.307253,2,0,3,0,0,1,81,84,128,120,86,109.91,102,51.00,-10.00,-1052.00
2024-05-19 09:24:30.344456,2,0,3,0,0,0,81,84,129,120,86,109.92,102,85.00,-28.00,-1150.00
2024-05-19 09:24:30.446658,2,0,3,0,0,0,81,84,129,120,86,110.27,102,-7.00,13.00,-1025.00
2024-05-19 09:24:30.614055,2,0,3,0,0,0,81,84,130,120,86,110.20,103,103.00,-41.00,-1125.00
2024-05-19 09:24:30.650722,1,0,3,0,0,0,81,84,131,120,86,110.26,103,73.00,-24.00,-1010.00
2024-05-19 09:24:30.818164,1,0,3,0,0,0,81,84,131,130,86,110.26,103,6.00,-15.00,-1050.00
2024-05-19 09:24:30.905089,1,0,3,0,0,0,81,83,131,130,86,110.02,103,5.00,6.00,-966.00
2024-05-19 09:24:31.023676,1,0,3,0,0,0,81,83,132,130,86,110.17,103,-51.00,23.00,-957.00
2024-05-19 09:24:31.109077,1,0,3,0,0,0,81,83,131,130,86,110.00,103,39.00,-18.00,-1030.00
2024-05-19 09:24:31.162167,1,0,3,0,0,0,81,83,131,130,86,110.19,103,66.00,11.00,-957.00
2024-05-19 09:24:31.262481,2,0,3,0,0,0,81,83,131,130,86,110.11,103,-3.00,-2.00,-978.00
2024-05-19 09:24:31.366467,1,0,3,0,0,0,81,83,131,130,86,110.37,103,-23.00,29.00,-1005.00
2024-05-19 09:24:31.470503,1,0,3,0,0,0,81,83,130,130,86,110.09,104,26.00,-6.00,-997.00
2024-05-19 09:24:31.571140,1,0,3,0,0,0,81,83,129,120,86,110.32,104,90.00,-39.00,-1003.00
2024-05-19 09:24:31.671706,1,0,3,0,0,0,81,83,130,120,86,110.04,104,17.00,0.00,-1044.00
2024-05-19 09:24:31.772253,2,0,3,0,0,0,81,83,129,120,86,109.94,104,59.00,-29.00,-970.00
2024-05-19 09:24:31.945654,2,1,3,0,0,0,81,84,129,120,86,109.81,104,-46.00,20.00,-1015.00
2024-05-19 09:24:31.975869,1,0,3,0,0,0,81,84,128,120,86,110.07,104,57.00,0.00,-983.00
2024-05-19 09:24:32.095426,1,0,3,0,0,0,81,84,128,120,86,109.93,104,-15.00,-6.00,-1007.00
2024-05-19 09:24:32.179880,0,0,3,0,0,0,81,84,127,120,86,110.05,104,31.00,10.00,-1008.00
2024-05-19 09:24:32.354455,-3,0,3,0,0,0,81,84,127,120,86,110.10,104,8.00,-12.00,-997.00
2024-05-19 09:24:32.383798,-7,0,3,0,0,0,81,84,126,120,86,110.17,104,22.00,-25.00,-1034.00
2024-05-19 09:24:32.486233,-7,0,3,2,0,0,81,84,126,120,86,110.04,105,12.00,-18.00,-1037.00
2024-05-19 09:24:32.661324,-7,0,3,3,0,0,81,84,125,120,86,110.32,105,14.00,-3.00,-1096.00
2024-05-19 09:24:32.689844,-7,0,3,4,0,0,81,84,124,120,86,110.18,105,-21.00,2.00,-990.00
2024-05-19 09:24:32.866129,-6,0,3,5,0,0,81,84,123,120,86,109.80,105,-11.00,-6.00,-1076.00
2024-05-19 09:24:32.893865,-6,0,3,6,0,0,81,84,122,120,86,109.99,105,-43.00,18.00,-1011.00
2024-05-19 09:24:33.071294,-4,0,3,7,0,0,81,84,123,120,86,109.84,105,-37.00,-17.00,-1090.00
2024-05-19 09:24:33.097853,-2,0,3,8,0,0,81,84,123,120,86,110.07,105,-75.00,10.00,-1015.00
2024-05-19 09:24:33.275780,0,0,3,8,0,0,81,84,124,120,86,110.02,105,6.00,-30.00,-1045.00
2024-05-19 09:24:33.301832,2,0,3,8,0,0,81,84,125,120,86,110.11,105,46.00,-47.00,-1073.00
2024-05-19 09:24:33.480868,5,0,3,7,0,0,81,84,126,120,86,110.22,105,-57.00,-13.00,-960.00
2024-05-19 09:24:33.506233,6,0,3,6,0,0,81,84,128,120,86,110.13,106,-29.00,-13.00,-983.00
2024-05-19 09:24:33.607778,6,0,3,5,0,0,81,84,129,120,86,110.15,106,-53.00,8.00,-1020.00
2024-05-19 09:24:33.711695,4,0,3,4,0,0,81,84,129,120,86,110.18,106,8.00,6.00,-971.00
2024-05-19 09:24:33.811727,3,0,3,3,0,0,81,84,129,120,86,110.06,106,7.00,-11.00,-1018.00
2024-05-19 09:24:33.992962,2,0,3,2,0,0,81,84,130,120,86,109.97,106,-12.00,-4.00,-1013.00
2024-05-19 09:24:34.016545,1,0,3,2,0,0,81,84,130,120,86,109.92,106,30.00,-39.00,-977.00
2024-05-19 09:24:34.197663,1,0,3,2,0,0,81,84,130,120,86,110.29,106,41.00,-53.00,-1058.00
2024-05-19 09:24:34.219956,1,0,3,2,0,0,81,84,130,130,86,110.32,106,39.00,-15.00,-940.00
2024-05-19 09:24:34.402779,2,0,3,1,0,0,81,84,130,120,86,110.23,106,-13.00,-4.00,-1068.00
2024-05-19 09:24:34.424532,4,0,3,1,0,0,81,84,130,120,86,110.09,106,7.00,10.00,-1012.00
2024-05-19 09:24:34.606932,3,0,3,0,0,0,81,84,130,120,86,110.29,107,-27.00,-1.00,-926.00
2024-05-19 09:24:34.629673,2,0,3,0,0,0,81,84,129,120,86,110.02,107,69.00,-31.00,-1034.00
2024-05-19 09:24:34.679887,2,0,3,0,0,0,81,84,128,120,86,109.81,107,-70.00,43.00,-802.00
2024-05-19 09:24:34.782446,1,0,3,0,0,0,81,84,127,120,86,109.93,107,33.00,7.00,-1015.00
2024-05-19 09:24:34.915959,1,0,3,0,0,0,80,84,127,120,86,110.21,107,64.00,-27.00,-994.00
2024-05-19 09:24:34.985875,2,0,3,0,0,0,80,84,127,120,86,110.07,107,38.00,-17.00,-1055.00
2024-05-19 09:24:35.119625,1,0,3,0,0,0,80,84,126,120,86,109.92,107,-28.00,21.00,-1017.00
2024-05-19 09:24:35.190271,1,0,3,0,0,0,80,84,127,120,86,110.11,107,-4.00,20.00,-915.00
2024-05-19 09:24:35.324539,1,0,3,0,0,0,80,84,126,120,86,110.02,107,53.00,8.00,-1040.00
2024-05-19 09:24:35.393826,1,0,3,0,0,0,80,84,126,120,86,109.78,107,64.00,-21.00,-925.00
2024-05-19 09:24:35.501529,1,0,3,0,0,0,80,84,125,120,86,110.25,108,10.00,18.00,-964.00
2024-05-19 09:24:35.598198,1,0,3,0,0,0,80,84,125,120,86,110.18,108,-8.00,17.00,-954.00
2024-05-19 09:24:35.733745,1,0,3,0,0,0,80,84,125,120,86,109.99,108,41.00,-19.00,-999.00
2024-05-19 09:24:35.802392,1,0,3,0,0,0,80,84,124,120,86,109.99,108,-19.00,18.00,-1029.00
2024-05-19 09:24:35.938195,1,0,3,0,0,0,81,84,125,120,86,109.98,108,50.00,15.00,-1021.00
2024-05-19 09:24:36.005824,1,0,3,0,0,0,81,84,125,120,86,110.04,108,-15.00,10.00,-927.00
2024-05-19 09:24:36.143239,0,0,3,0,0,0,81,84,125,120,86,110.25,108,13.00,8.00,-992.00
2024-05-19 09:24:36.209725,0,0,3,0,0,0,81,84,125,120,86,109.97,108,-3.00,-14.00,-966.00
2024-05-19 09:24:36.348005,1,0,3,0,0,0,81,84,125,120,85,110.15,108,22.00,-11.00,-1054.00
2024-05-19 09:24:36.413838,2,0,3,0,0,0,81,84,125,120,85,110.01,108,16.00,-13.00,-1006.00
2024-05-19 09:24:36.516604,2,0,3,0,0,0,81,84,125,120,85,109.86,109,40.00,-14.00,-1037.00
2024-05-19 09:24:36.617640,1,0,3,0,0,0,81,84,124,120,85,109.89,109,31.00,-38.00,-1055.00
2024-05-19 09:24:36.757956,1,0,3,0,0,0,81,84,124,120,85,109.89,109,7.00,3.00,-916.00
2024-05-19 09:24:36.821683,4,0,3,0,0,0,81,84,123,120,85,110.31,109,-58.00,28.00,-1083.00
2024-05-19 09:24:36.962124,8,0,3,0,0,0,81,84,124,120,85,110.05,109,46.00,21.00,-1013.00
2024-05-19 09:24:37.025630,8,0,3,-1,0,0,81,84,124,120,85,109.74,109,93.00,-17.00,-1163.00
2024-05-19 09:24:37.166938,8,0,3,-2,0,0,81,84,124,120,85,110.05,109,45.00,-9.00,-1016.00
2024-05-19 09:24:37.229987,8,0,3,-3,0,0,81,84,125,120,85,110.07,109,67.00,-22.00,-1017.00
2024-05-19 09:24:37.371722,8,0,3,-4,0,0,81,84,125,120,85,110.08,109,-28.00,40.00,-1014.00
2024-05-19 09:24:37.434222,8,0,3,-5,0,0,81,84,126,120,85,109.90,109,49.00,2.00,-899.00
2024-05-19 09:24:37.576826,8,0,3,-6,0,0,81,84,126,120,85,109.78,110,91.00,6.00,-986.00
2024-05-19 09:24:37.637554,8,0,3,-7,0,0,81,84,126,120,85,109.73,110,114.00,-12.00,-994.00
2024-05-19 09:24:37.744736,7,0,3,-7,0,0,81,84,126,120,85,109.81,110,90.00,-29.00,-1011.00
2024-05-19 09:24:37.841518,3,0,3,-7,0,0,81,84,126,120,85,109.98,110,99.00,-13.00,-1040.00
2024-05-19 09:24:37.986360,0,1,3,-7,0,0,82,84,127,120,85,109.90,110,129.00,-14.00,-1072.00
2024-05-19 09:24:38.045820,-1,0,3,-6,0,0,82,84,127,120,85,109.88,110,156.00,-61.00,-988.00
2024-05-19 09:24:38.191401,-2,0,3,-5,0,0,82,84,128,120,85,110.14,110,128.00,-12.00,-1145.00
2024-05-19 09:24:38.250209,0,0,3,-4,0,0,82,84,129,120,85,109.85,110,43.00,19.00,-965.00
2024-05-19 09:24:38.395964,0,0,3,-3,0,0,82,84,131,120,85,110.38,110,111.00,-40.00,-1050.00
2024-05-19 09:24:38.402477,2,1,3,-2,0,0,82,84,131,120,85,110.06,110,36.00,10.00,-1107.00
2024-05-19 09:24:38.505252,2,1,3,-2,0,0,82,84,132,130,85,110.32,111,-36.00,46.00,-917.00
2024-05-19 09:24:38.704396,2,0,3,-2,0,0,82,84,133,130,85,110.20,111,99.00,-36.00,-938.00
2024-05-19 09:24:38.708827,2,0,3,-2,0,0,82,84,134,130,85,109.82,111,66.00,-12.00,-960.00
2024-05-19 09:24:38.908889,3,0,3,-2,0,0,82,84,135,130,85,109.86,111,14.00,-7.00,-984.00
2024-05-19 09:24:38.912498,3,0,3,-2,0,0,82,84,136,130,85,110.36,111,18.00,7.00,-1028.00
2024-05-19 09:24:39.114860,2,0,3,-2,0,0,82,84,136,130,85,110.11,111,74.00,-3.00,-1024.00
2024-05-19 09:24:39.116752,2,0,3,-2,0,0,82,84,135,130,85,109.84,111,35.00,-37.00,-917.00
2024-05-19 09:24:39.317201,-2,0,3,-1,0,0,82,84,136,130,85,109.95,111,20.00,-29.00,-1009.00
2024-05-19 09:24:39.321270,0,0,3,0,0,0,82,84,136,130,85,109.88,111,72.00,-22.00,-1103.00
2024-05-19 09:24:39.423663,1,0,3,0,0,0,82,84,136,130,85,110.24,111,19.00,3.00,-982.00
2024-05-19 09:24:39.524675,1,0,3,0,0,0,82,84,136,130,85,110.01,112,74.00,-37.00,-1021.00
2024-05-19 09:24:39.627242,2,0,3,0,0,0,82,84,136,130,85,110.03,112,61.00,-4.00,-1018.00
2024-05-19 09:24:39.728936,2,0,3,0,0,0,82,84,136,130,85,110.04,112,100.00,-4.00,-1018.00
2024-05-19 09:24:39.932065,2,0,3,0,0,0,82,84,135,130,85,110.14,112,10.00,-11.00,-998.00
2024-05-19 09:24:39.933865,2,0,3,0,0,0,81,84,135,130,85,109.87,112,134.00,-53.00,-1075.00
2024-05-19 09:24:40.034568,2,0,3,0,0,0,81,84,135,130,85,110.02,112,15.00,-2.00,-954.00
2024-05-19 09:24:40.136779,2,0,3,0,0,0,81,84,134,130,85,110.13,112,116.00,-35.00,-1023.00
2024-05-19 09:24:40.240888,2,0,3,0,0,0,81,84,134,130,84,109.96,112,-36.00,56.00,-934.00
2024-05-19 09:24:40.341476,2,0,3,0,0,0,81,84,133,130,84,110.09,112,32.00,-30.00,-1015.00
2024-05-19 09:24:40.443743,1,0,3,0,0,0,81,84,133,130,84,110.07,112,102.00,-22.00,-948.00
2024-05-19 09:24:40.546458,2,0,3,0,0,0,81,84,132,130,84,110.07,113,44.00,-5.00,-987.00
2024-05-19 09:24:40.646570,2,0,3,0,0,0,81,84,132,120,84,109.99,113,86.00,-22.00,-981.00
2024-05-19 09:24:40.749182,2,0,3,0,0,0,81,84,132,120,84,110.03,113,103.00,-40.00,-952.00
2024-05-19 09:24:40.853219,2,0,3,0,0,0,81,84,132,130,84,109.93,113,0.00,2.00,-875.00
2024-05-19 09:24:40.952492,2,0,3,0,0,0,81,85,131,130,84,110.06,113,31.00,-5.00,-983.00
2024-05-19 09:24:41.059772,1,0,3,0,0,0,81,85,131,120,84,110.05,113,56.00,-5.00,-1049.00
2024-05-19 09:24:41.156641,1,0,3,0,0,0,81,85,131,120,84,110.23,113,1.00,11.00,-985.00
2024-05-19 09:24:41.259506,2,0,3,0,0,0,81,85,131,120,84,110.10,113,88.00,-39.00,-1003.00
2024-05-19 09:24:41.361041,1,0,3,0,0,0,81,85,131,120,84,110.00,113,28.00,-14.00,-969.00
2024-05-19 09:24:41.467625,1,0,3,0,0,0,81,85,131,120,84,109.84,113,-41.00,56.00,-958.00
2024-05-19 09:24:41.564415,2,-3,3,0,0,0,81,85,131,130,84,110.14,114,43.00,0.00,-960.00
2024-05-19 09:24:41.672474,2,-8,3,0,-1,0,81,85,131,130,84,109.97,114,95.00,-32.00,-1030.00
2024-05-19 09:24:41.768364,2,-7,3,0,-2,0,81,85,129,130,84,110.20,114,-24.00,51.00,-993.00
2024-05-19 09:24:41.877664,2,-4,3,0,-3,0,81,85,127,120,84,109.79,114,52.00,13.00,-1012.00
2024-05-19 09:24:41.972467,1,-2,3,0,-3,0,82,85,126,120,84,109.87,114,52.00,-4.00,-1033.00
2024-05-19 09:24:42.086977,1,0,3,0,-3,0,82,85,125,120,84,109.85,114,68.00,-4.00,-1089.00
2024-05-19 09:24:42.176333,1,0,3,0,-3,0,82,85,124,120,84,109.82,114,34.00,29.00,-993.00
2024-05-19 09:24:42.227612,2,0,3,0,-3,0,82,85,123,120,84,110.01,114,0.00,14.00,-1083.00
2024-05-19 09:24:42.329539,2,0,4,0,-3,0,82,85,123,120,84,109.95,114,66.00,24.00,-998.00
2024-05-19 09:24:42.432993,2,0,3,0,-3,0,82,85,123,120,84,110.02,114,0.00,26.00,-1000.00
2024-05-19 09:24:42.533267,2,0,3,0,-2,0,82,85,123,120,84,109.98,115,56.00,-12.00,-1149.00
2024-05-19 09:24:42.635267,1,0,3,0,-2,0,82,85,123,120,84,110.11,115,80.00,-14.00,-1005.00
2024-05-19 09:24:42.738028,2,0,3,0,-2,0,82,85,124,120,84,109.98,115,90.00,-7.00,-1035.00
2024-05-19 09:24:42.839659,2,0,3,0,-2,0,82,85,126,120,84,109.77,115,13.00,36.00,-964.00
2024-05-19 09:24:43.003567,2,0,3,0,-2,0,80,85,126,120,84,110.05,115,80.00,-12.00,-1017.00
2024-05-19 09:24:43.043431,2,0,3,0,-2,0,80,85,128,120,84,110.15,115,68.00,-16.00,-1016.00
2024-05-19 09:24:43.208306,2,0,3,0,-2,0,80,85,129,120,84,110.25,115,45.00,-5.00,-906.00
2024-05-19 09:24:43.248149,1,0,3,0,-2,0,80,85,130,120,84,110.04,115,22.00,25.00,-1011.00
2024-05-19 09:24:43.515636,1,4,3,0,-2,0,80,85,130,120,84,110.08,115,-11.00,36.00,-969.00
2024-05-19 09:24:43.517622,1,4,3,0,-1,0,80,85,132,120,84,110.07,115,54.00,-6.00,-1076.00
2024-05-19 09:24:43.554392,2,2,3,0,0,0,80,85,132,120,84,110.10,116,18.00,-4.00,-973.00
2024-05-19 09:24:43.656984,1,0,3,0,0,0,80,85,132,120,84,110.08,116,58.00,-13.00,-999.00
2024-05-19 09:24:43.759678,1,0,3,0,0,0,80,85,133,120,84,110.24,116,42.00,-7.00,-1055.00
2024-05-19 09:24:43.926472,2,0,3,0,0,0,80,85,133,130,84,109.95,116,-8.00,11.00,-985.00
2024-05-19 09:24:43.962625,2,0,3,0,0,0,82,84,134,130,84,110.00,116,-3.00,14.00,-994.00
2024-05-19 09:24:44.130064,2,0,3,0,0,0,82,84,134,130,84,109.97,116,19.00,0.00,-1013.00
2024-05-19 09:24:44.166393,2,0,3,0,0,0,82,84,135,130,84,109.88,116,22.00,-6.00,-1009.00
2024-05-19 09:24:44.269692,2,0,3,0,0,0,82,84,135,130,84,110.01,116,43.00,-15.00,-1025.00
2024-05-19 09:24:44.437623,2,0,3,0,0,0,82,84,136,130,84,109.87,116,47.00,-26.00,-1044.00
2024-05-19 09:24:44.473198,2,0,3,0,0,0,82,84,136,130,84,110.30,116,55.00,-22.00,-1020.00
2024-05-19 09:24:44.642110,2,0,3,0,0,0,82,84,136,130,84,110.12,117,118.00,-50.00,-968.00
2024-05-19 09:24:44.677285,2,0,3,0,0,0,82,84,137,130,84,110.15,117,6.00,-1.00,-1062.00
2024-05-19 09:24:44.846843,2,0,3,0,0,0,82,84,137,130,84,110.38,117,39.00,-29.00,-966.00
2024-05-19 09:24:44.881429,2,0,3,0,0,0,82,84,137,130,84,109.88,117,16.00,-17.00,-987.00
2024-05-19 09:24:45.051961,2,0,3,0,0,0,81,85,138,130,84,110.08,117,107.00,-56.00,-1020.00
2024-05-19 09:24:45.098565,2,0,3,0,0,0,81,85,137,130,84,110.05,117,141.00,-73.00,-965.00
2024-05-19 09:24:45.188220,2,0,3,0,0,0,81,85,137,130,84,110.20,117,10.00,-9.00,-985.00
2024-05-19 09:24:45.358802,2,0,3,0,0,0,81,85,136,130,83,109.96,117,5.00,-8.00,-988.00
2024-05-19 09:24:45.391961,1,0,3,0,0,0,81,85,135,130,83,109.96,117,26.00,-1.00,-967.00
2024-05-19 09:24:45.444221,2,0,3,0,0,0,81,85,133,130,83,109.97,117,103.00,-36.00,-954.00
2024-05-19 09:24:45.546113,2,0,3,0,0,0,81,85,133,130,83,110.20,118,88.00,-21.00,-1001.00
2024-05-19 09:24:45.648906,2,0,3,0,0,0,81,85,131,130,83,110.05,118,-39.00,24.00,-1043.00
2024-05-19 09:24:45.748096,1,4,3,0,0,1,81,85,131,120,83,109.79,118,40.00,8.00,-1017.00
2024-05-19 09:24:45.871148,1,8,3,0,1,0,81,85,130,120,83,109.75,118,-28.00,2.00,-1015.00
2024-05-19 09:24:45.952587,1,7,3,0,2,0,81,85,129,120,83,110.13,118,24.00,-14.00,-1023.00
2024-05-19 09:24:46.075601,1,4,3,0,3,0,81,85,128,120,83,110.07,118,-54.00,2.00,-1071.00
2024-05-19 09:24:46.156190,2,1,3,0,3,0,81,85,129,120,83,110.19,118,-10.00,-20.00,-1083.00
2024-05-19 09:24:46.280778,2,0,3,0,3,0,81,85,129,120,83,110.16,118,36.00,-27.00,-1027.00
2024-05-19 09:24:46.359970,2,0,3,0,3,0,81,85,130,120,83,110.20,118,-4.00,7.00,-903.00
2024-05-19 09:24:46.486475,2,0,3,0,2,0,81,85,132,120,83,109.99,118,65.00,-51.00,-952.00
2024-05-19 09:24:46.565097,2,0,3,0,2,0,81,85,132,120,83,110.10,119,83.00,-63.00,-962.00
2024-05-19 09:24:46.690005,3,0,3,0,2,0,81,85,133,120,83,110.11,119,26.00,-29.00,-988.00
2024-05-19 09:24:46.769203,3,1,3,0,2,0,81,85,134,120,83,109.94,119,31.00,-41.00,-998.00
2024-05-19 09:24:46.894805,3,1,3,0,2,0,81,85,135,130,83,110.06,119,55.00,-67.00,-1039.00
2024-05-19 09:24:46.972980,0,1,3,0,2,0,81,85,136,130,83,110.31,119,91.00,-110.00,-982.00
2024-05-19 09:24:47.099597,1,2,3,0,1,0,81,85,136,130,83,110.22,119,53.00,-22.00,-926.00
2024-05-19 09:24:47.176736,2,2,3,0,2,0,81,85,136,130,83,110.10,119,89.00,-63.00,-943.00
2024-05-19 09:24:47.311330,2,1,3,0,2,0,81,85,136,130,83,110.15,119,38.00,-28.00,-993.00
2024-05-19 09:24:47.381065,1,0,3,0,1,0,81,85,135,130,83,109.87,119,120.00,-58.00,-1030.00
2024-05-19 09:24:47.510470,2,0,3,0,1,0,81,85,134,130,83,110.14,120,61.00,-45.00,-939.00
2024-05-19 09:24:47.586075,2,0,3,0,1,0,81,85,133,130,83,110.06,120,23.00,-25.00,-1036.00
2024-05-19 09:24:47.686438,5,-2,3,0,1,0,81,85,132,130,83,110.15,120,52.00,-45.00,-968.00
2024-05-19 09:24:47.816397,6,-1,3,0,0,0,81,85,132,130,83,110.06,120,24.00,-22.00,-975.00
2024-05-19 09:24:47.890121,2,0,3,0,0,0,81,85,130,120,83,110.09,120,89.00,-40.00,-990.00
2024-05-19 09:24:48.021225,0,1,3,0,0,0,82,84,129,120,83,109.92,120,88.00,-37.00,-1103.00
2024-05-19 09:24:48.095200,1,1,3,0,0,0,82,84,129,120,83,109.96,120,-27.00,-18.00,-1006.00
2024-05-19 09:24:48.227092,3,1,3,0,0,0,82,84,128,120,83,109.90,120,57.00,-12.00,-936.00
2024-05-19 09:24:48.298127,3,1,3,0,0,0,82,84,128,120,83,110.01,120,106.00,-34.00,-931.00
2024-05-19 09:24:48.430894,3,1,3,0,0,0,82,84,128,120,83,110.03,120,33.00,-19.00,-996.00
2024-05-19 09:24:48.502236,4,2,3,0,0,0,82,84,127,120,83,110.13,121,93.00,-20.00,-935.00
2024-05-19 09:24:48.604742,4,2,3,0,0,0,82,84,127,120,83,109.76,121,11.00,23.00,-960.00
2024-05-19 09:24:48.738067,4,2,3,0,0,0,82,84,127,120,83,110.11,121,84.00,-18.00,-1079.00
2024-05-19 09:24:48.808762,4,1,3,0,0,0,82,84,127,120,83,110.05,121,117.00,-69.00,-1018.00
2024-05-19 09:24:48.942922,3,1,3,0,0,0,82,84,127,120,83,109.97,121,82.00,-24.00,-1051.00
2024-05-19 09:24:49.012077,3,1,3,0,0,0,82,85,127,120,83,109.92,121,138.00,-56.00,-1005.00
2024-05-19 09:24:49.152527,4,1,3,0,0,0,82,85,127,120,83,109.91,121,45.00,-7.00,-979.00
2024-05-19 09:24:49.216116,3,1,3,0,0,0,82,85,127,120,83,110.28,121,81.00,-18.00,-1036.00
2024-05-19 09:24:49.352550,3,0,3,0,0,0,82,85,127,120,82,109.91,121,72.00,-6.00,-928.00
2024-05-19 09:24:49.369252,3,0,3,0,0,0,82,85,127,120,82,109.98,121,24.00,-18.00,-1009.00
2024-05-19 09:24:49.668597,3,0,3,0,0,0,82,85,127,120,82,110.00,122,113.00,-21.00,-911.00
2024-05-19 09:24:49.670916,4,1,3,0,0,0,82,85,127,120,82,110.12,122,81.00,-22.00,-1014.00
2024-05-19 09:24:49.680347,4,1,3,0,0,0,82,85,127,120,82,110.01,122,18.00,-7.00,-1025.00
2024-05-19 09:24:49.778457,3,1,3,0,0,0,82,85,126,120,82,109.85,122,89.00,-19.00,-1007.00
2024-05-19 09:24:49.968634,4,1,3,0,0,0,82,85,126,120,82,109.97,122,-6.00,-10.00,-971.00
2024-05-19 09:24:49.982466,3,0,3,0,0,0,82,85,125,120,82,109.98,122,-14.00,-17.00,-887.00
2024-05-19 09:24:50.083501,1,0,3,0,0,0,82,85,123,120,82,110.15,122,5.00,-15.00,-998.00
2024-05-19 09:24:50.186800,2,0,4,0,0,0,82,85,122,120,82,109.70,122,50.00,-42.00,-985.00
2024-05-19 09:24:50.288832,2,1,9,0,0,0,82,85,122,120,82,109.79,122,96.00,-66.00,-1051.00
2024-05-19 09:24:50.390645,1,1,15,0,0,0,82,85,121,120,82,109.94,122,45.00,-15.00,-1054.00
2024-05-19 09:24:50.491014,1,1,21,0,0,0,82,85,120,120,82,109.61,123,104.00,-35.00,-1042.00
2024-05-19 09:24:50.683486,1,1,26,0,0,0,82,85,121,120,82,110.11,123,98.00,-50.00,-1008.00
2024-05-19 09:24:50.694801,1,1,32,0,0,0,82,85,121,120,82,109.70,123,96.00,-72.00,-1043.00
2024-05-19 09:24:50.888304,0,1,38,0,0,0,82,85,121,120,82,109.74,123,68.00,-50.00,-936.00
2024-05-19 09:24:50.903511,0,2,44,0,0,0,82,85,123,120,82,109.66,123,72.00,-56.00,-1007.00
2024-05-19 09:24:51.000893,1,2,49,0,0,0,81,84,123,120,82,110.00,123,-22.00,5.00,-1006.00
2024-05-19 09:24:51.195565,0,1,55,0,0,0,81,84,124,120,82,109.66,123,-30.00,-13.00,-932.00
2024-05-19 09:24:51.204813,0,1,61,0,0,0,81,84,124,120,82,109.74,123,14.00,0.00,-923.00
2024-05-19 09:24:51.400361,0,1,67,0,0,0,81,84,126,120,82,109.71,123,-11.00,-4.00,-907.00
2024-05-19 09:24:51.408801,0,2,73,0,0,0,81,84,127,120,82,110.27,123,47.00,-22.00,-1161.00
2024-05-19 09:24:51.510800,0,1,80,0,0,0,81,84,128,120,82,109.74,124,-7.00,12.00,-1035.00
2024-05-19 09:24:51.612799,0,0,86,0,0,0,81,84,129,120,82,109.71,124,26.00,7.00,-998.00
2024-05-19 09:24:51.809962,0,0,92,0,0,0,81,84,131,120,82,110.21,124,20.00,-17.00,-937.00
2024-05-19 09:24:51.816838,0,0,98,0,0,0,81,84,131,130,82,109.86,124,8.00,17.00,-946.00
2024-05-19 09:24:52.014727,0,1,105,0,0,0,81,84,132,130,82,110.21,124,-44.00,80.00,-956.00
2024-05-19 09:24:52.020818,0,0,111,0,0,0,82,85,131,130,82,110.17,124,8.00,-10.00,-1010.00
2024-05-19 09:24:52.219559,0,0,117,0,0,0,82,85,131,130,82,110.22,124,66.00,15.00,-1053.00
2024-05-19 09:24:52.224787,0,0,123,0,0,0,82,85,131,130,82,110.20,124,87.00,-14.00,-967.00
2024-05-19 09:24:52.424413,0,0,129,0,0,0,82,85,131,130,82,110.33,124,-15.00,38.00,-991.00
2024-05-19 09:24:52.428722,0,0,135,0,0,0,82,85,130,130,82,109.98,124,15.00,43.00,-1065.00
2024-05-19 09:24:52.530772,0,0,141,0,0,0,82,85,130,130,82,110.39,125,-34.00,44.00,-1050.00
2024-05-19 09:24:52.731594,1,0,147,0,0,0,82,85,130,130,82,110.27,125,-31.00,7.00,-935.00
2024-05-19 09:24:52.734789,1,0,154,0,0,0,82,85,129,120,82,110.24,125,95.00,13.00,-1015.00
2024-05-19 09:24:52.789182,1,0,160,0,0,0,82,85,129,120,82,110.08,125,49.00,27.00,-1038.00
2024-05-19 09:24:52.889791,1,0,166,0,0,0,82,85,128,120,82,110.20,125,-16.00,66.00,-988.00
2024-05-19 09:24:53.040737,1,0,172,0,0,0,82,85,127,120,82,110.28,125,18.00,61.00,-1024.00
2024-05-19 09:24:53.243599,1,0,179,0,0,0,82,85,126,120,82,110.12,125,46.00,43.00,-1016.00
2024-05-19 09:24:53.245328,2,0,-174,0,0,0,82,85,126,120,82,110.21,125,-23.00,28.00,-938.00
2024-05-19 09:24:53.448318,1,0,-167,0,0,0,82,85,125,120,82,109.98,125,12.00,32.00,-1008.00
2024-05-19 09:24:53.449203,1,0,-161,0,0,0,82,85,124,120,82,110.14,125,70.00,44.00,-1090.00
2024-05-19 09:24:53.499958,1,0,-154,0,0,0,82,85,124,120,82,110.10,126,-31.00,61.00,-881.00
2024-05-19 09:24:53.601779,1,0,-147,0,-1,0,82,85,125,120,82,110.14,126,2.00,51.00,-1069.00
2024-05-19 09:24:53.755956,1,0,-140,0,-1,0,82,85,127,120,82,109.73,126,23.00,66.00,-957.00
2024-05-19 09:24:53.805864,2,0,-134,0,-1,0,82,85,129,120,82,109.95,126,50.00,45.00,-957.00
2024-05-19 09:24:53.908651,2,0,-127,0,-1,0,82,85,131,120,82,110.07,126,21.00,63.00,-1025.00
2024-05-19 09:24:54.062777,2,0,-121,0,-1,-1,82,85,133,120,82,110.34,126,13.00,36.00,-917.00
2024-05-19 09:24:54.112198,2,0,-114,0,-1,-1,82,85,136,130,82,110.18,126,138.00,-34.00,-1017.00
2024-05-19 09:24:54.267555,2,0,-108,0,-1,-1,82,85,137,130,81,110.16,126,81.00,10.00,-975.00
2024-05-19 09:24:54.315806,2,0,-101,0,-1,-1,82,85,139,130,81,110.30,126,58.00,10.00,-893.00
2024-05-19 09:24:54.472678,2,0,-95,0,-1,0,82,85,140,130,81,110.06,126,83.00,-11.00,-1000.00
2024-05-19 09:24:54.519738,2,0,-88,0,-1,0,82,85,140,130,81,110.31,127,25.00,11.00,-945.00
2024-05-19 09:24:54.677154,2,1,-81,0,-1,0,82,85,140,130,81,110.05,127,-3.00,15.00,-897.00
2024-05-19 09:24:54.724408,2,1,-75,0,-1,0,82,85,140,130,81,110.30,127,69.00,-16.00,-1003.00
2024-05-19 09:24:54.881950,1,1,-69,0,0,0,82,85,139,130,81,110.15,127,81.00,12.00,-993.00
2024-05-19 09:24:54.929429,1,1,-62,0,0,1,82,85,138,130,81,109.99,127,20.00,-20.00,-1041.00
2024-05-19 09:24:55.029922,1,1,-56,0,0,1,82,85,136,130,81,110.31,127,79.00,-15.00,-1040.00
2024-05-19 09:24:55.131945,1,1,-49,0,-1,1,82,85,135,130,81,109.99,127,-43.00,35.00,-1085.00
2024-05-19 09:24:55.234608,1,2,-42,0,0,0,82,85,134,130,81,110.40,127,46.00,-20.00,-955.00
2024-05-19 09:24:55.335552,1,2,-36,0,0,0,82,85,133,130,81,110.25,127,44.00,11.00,-987.00
2024-05-19 09:24:55.496311,1,2,-29,0,0,0,82,85,132,130,81,110.14,127,-35.00,40.00,-988.00
2024-05-19 09:24:55.540169,1,2,-22,0,0,0,82,85,130,130,81,109.85,128,50.00,-29.00,-988.00
2024-05-19 09:24:55.642312,0,2,-16,1,0,0,82,85,128,120,81,110.14,128,68.00,-37.00,-1077.00
2024-05-19 09:24:55.743729,1,2,-11,0,0,0,82,85,126,120,81,109.91,128,69.00,-3.00,-1073.00
2024-05-19 09:24:55.905931,0,2,-7,1,0,1,82,85,125,120,81,110.31,128,102.00,-16.00,-1057.00
2024-05-19 09:24:55.948721,1,1,-5,1,0,0,82,85,125,120,81,110.30,128,11.00,6.00,-986.00
2024-05-19 09:24:56.051071,1,1,-3,0,0,0,82,85,125,120,81,109.96,128,29.00,-19.00,-1125.00
2024-05-19 09:24:56.152296,0,1,-1,0,0,0,82,85,126,120,81,110.17,128,79.00,-30.00,-1071.00
2024-05-19 09:24:56.253658,0,1,0,0,0,0,82,85,127,120,81,110.16,128,-5.00,-4.00,-1025.00
2024-05-19 09:24:56.417928,0,1,0,0,0,0,82,85,128,120,81,110.08,128,35.00,-8.00,-1007.00
2024-05-19 09:24:56.460361,1,1,0,1,0,0,82,85,130,120,81,110.14,128,-2.00,21.00,-940.00
2024-05-19 09:24:56.562834,1,1,1,1,0,0,82,85,131,120,81,110.19,129,-11.00,5.00,-978.00
2024-05-19 09:24:56.661561,1,1,1,0,0,0,82,85,133,120,81,110.06,129,-44.00,11.00,-1055.00
2024-05-19 09:24:56.763802,1,1,2,0,0,0,82,85,134,130,81,110.01,129,28.00,-36.00,-979.00
2024-05-19 09:24:56.930526,1,1,2,0,0,0,82,85,135,130,81,109.97,129,19.00,3.00,-1042.00
2024-05-19 09:24:56.967555,1,1,2,0,0,0,82,85,136,130,81,110.08,129,91.00,-49.00,-952.00
2024-05-19 09:24:57.134837,1,0,2,0,0,0,82,85,138,130,81,110.00,129,17.00,8.00,-937.00
2024-05-19 09:24:57.171724,1,0,1,0,0,0,82,85,138,130,81,110.04,129,31.00,-8.00,-933.00
2024-05-19 09:24:57.339808,1,0,1,0,0,0,82,85,138,130,81,110.04,129,42.00,-16.00,-963.00
2024-05-19 09:24:57.339998,1,0,1,0,0,0,82,85,138,130,81,110.31,129,35.00,13.00,-1000.00
2024-05-19 09:24:57.426625,1,0,1,0,0,0,82,85,138,130,81,110.08,129,27.00,-5.00,-1033.00
2024-05-19 09:24:57.528558,1,0,1,0,0,0,82,85,137,130,81,110.25,130,-6.00,7.00,-867.00
2024-05-19 09:24:57.630511,1,0,1,0,0,0,82,85,136,130,81,110.02,130,12.00,2.00,-994.00
2024-05-19 09:24:57.749187,0,0,1,0,0,0,82,85,135,130,81,110.03,130,-20.00,46.00,-989.00
2024-05-19 09:24:57.835558,0,0,1,0,0,0,82,85,135,130,81,110.24,130,-2.00,0.00,-934.00
2024-05-19 09:24:57.954200,1,0,1,0,0,0,82,85,134,130,81,110.09,130,12.00,9.00,-1019.00
2024-05-19 09:24:58.041389,1,0,1,0,0,0,82,84,133,130,81,110.05,130,53.00,0.00,-1040.00
2024-05-19 09:24:58.141577,1,1,1,0,0,0,82,84,132,130,81,110.22,130,-10.00,13.00,-1008.00
2024-05-19 09:24:58.242767,1,0,1,0,0,0,82,84,131,130,81,110.16,130,41.00,-13.00,-1048.00
2024-05-19 09:24:58.344818,1,1,1,0,0,0,82,84,130,130,81,110.21,130,71.00,-13.00,-1001.00
2024-05-19 09:24:58.446626,1,0,1,0,0,0,82,84,129,120,81,110.20,130,40.00,-16.00,-1028.00
2024-05-19 09:24:58.551435,1,0,1,0,0,0,82,84,128,120,81,110.22,131,25.00,-27.00,-1038.00
2024-05-19 09:24:58.650687,1,0,1,0,0,0,82,84,128,120,81,110.30,131,-25.00,16.00,-901.00
2024-05-19 09:24:58.755842,1,0,1,0,0,0,82,84,127,120,81,110.16,131,25.00,27.00,-930.00
2024-05-19 09:24:58.854545,1,0,0,0,0,0,82,84,127,120,81,110.31,131,85.00,3.00,-1111.00
2024-05-19 09:24:58.977848,2,0,-6,0,0,0,82,84,126,120,81,110.14,131,-12.00,21.00,-1034.00
2024-05-19 09:24:59.058452,2,0,-12,0,0,0,82,85,126,120,81,109.89,131,45.00,-14.00,-1042.00
2024-05-19 09:24:59.182683,2,0,-18,0,0,0,82,85,126,120,81,109.97,131,-12.00,18.00,-1003.00
2024-05-19 09:24:59.262409,3,0,-25,0,0,0,82,85,125,120,81,109.95,131,70.00,-8.00,-1020.00
2024-05-19 09:24:59.387492,3,0,-32,0,0,0,82,85,126,120,81,110.06,131,145.00,-45.00,-987.00
2024-05-19 09:24:59.471638,3,0,-38,0,0,0,82,85,125,120,81,110.01,131,13.00,26.00,-1019.00
2024-05-19 09:24:59.568764,4,0,-44,0,0,0,82,85,125,120,81,110.17,132,16.00,59.00,-1008.00
2024-05-19 09:24:59.694710,3,-1,-51,0,0,0,82,85,125,120,81,110.09,132,39.00,37.00,-982.00
2024-05-19 09:24:59.772434,3,-1,-57,0,0,0,82,85,125,120,81,109.90,132,116.00,13.00,-955.00
2024-05-19 09:24:59.900973,3,-1,-63,0,0,0,82,85,126,120,81,109.94,132,-25.00,95.00,-1030.00
2024-05-19 09:24:59.976391,3,-1,-69,0,0,0,82,85,126,120,81,110.08,132,42.00,11.00,-925.00
2024-05-19 09:25:00.104322,3,-1,-75,0,0,0,82,85,126,120,81,109.85,132,102.00,15.00,-1023.00
2024-05-19 09:25:00.181075,3,0,-81,0,0,0,82,85,126,120,81,109.81,132,47.00,21.00,-1065.00
2024-05-19 09:25:00.309095,2,-1,-87,0,0,0,82,85,126,120,81,109.82,132,33.00,25.00,-1038.00
2024-05-19 09:25:00.384355,2,0,-93,0,0,0,82,85,126,120,81,110.20,132,-25.00,56.00,-1106.00
2024-05-19 09:25:00.513904,2,-1,-100,0,0,0,82,85,127,120,81,110.07,132,3.00,16.00,-910.00
2024-05-19 09:25:00.588493,2,0,-106,0,0,0,82,85,126,120,81,109.99,133,22.00,38.00,-991.00
2024-05-19 09:25:00.718710,2,0,-112,0,0,0,82,85,126,120,81,110.04,133,63.00,42.00,-942.00
2024-05-19 09:25:00.741422,2,0,-118,0,0,0,82,85,125,120,81,110.02,133,3.00,57.00,-984.00
2024-05-19 09:25:00.923479,2,0,-124,0,0,0,82,85,125,120,81,109.75,133,21.00,45.00,-1048.00
2024-05-19 09:25:00.945487,2,-1,-130,0,0,0,82,85,124,120,81,110.10,133,-31.00,74.00,-1021.00
2024-05-19 09:25:01.128406,1,-1,-136,0,0,0,82,85,123,120,81,109.91,133,-1.00,66.00,-965.00
2024-05-19 09:25:01.149360,1,0,-142,0,0,0,82,85,122,120,81,110.11,133,-2.00,19.00,-1069.00
2024-05-19 09:25:01.333750,1,-1,-148,0,0,0,82,85,120,120,80,110.25,133,-27.00,56.00,-1048.00
2024-05-19 09:25:01.353311,1,-1,-154,0,0,0,82,85,120,120,80,109.98,133,53.00,47.00,-946.00
2024-05-19 09:25:01.537899,1,-1,-159,0,0,0,82,85,119,120,80,110.04,133,53.00,19.00,-1149.00
2024-05-19 09:25:01.559027,1,0,-165,0,0,0,82,85,118,120,80,110.11,134,-12.00,69.00,-964.00
2024-05-19 09:25:01.659433,2,0,-171,0,0,0,82,85,117,120,80,110.13,134,40.00,26.00,-1038.00
2024-05-19 09:25:01.845110,1,0,-177,0,0,0,82,85,118,120,80,110.09,134,-14.00,52.00,-1091.00
2024-05-19 09:25:01.863257,2,0,176,0,0,0,82,85,118,120,80,110.07,134,-38.00,69.00,-913.00
2024-05-19 09:25:02.049888,2,0,170,0,0,0,82,85,118,120,80,110.00,134,44.00,25.00,-1169.00
2024-05-19 09:25:02.067240,1,-1,158,0,0,0,82,84,120,120,80,109.74,134,21.00,29.00,-971.00
2024-05-19 09:25:02.254662,1,-1,152,0,0,0,82,84,121,120,80,110.12,134,9.00,19.00,-1085.00
2024-05-19 09:25:02.271235,1,-1,146,0,0,0,82,84,122,120,80,109.85,134,-14.00,61.00,-1060.00
2024-05-19 09:25:02.465902,1,-1,140,0,0,0,82,84,124,120,80,110.16,134,0.00,51.00,-985.00
2024-05-19 09:25:02.475252,1,-1,133,0,0,0,82,84,125,120,80,110.33,135,-21.00,29.00,-972.00
2024-05-19 09:25:02.577291,1,-1,127,0,0,0,82,84,127,120,80,109.98,135,-17.00,23.00,-956.00
2024-05-19 09:25:02.770664,0,-1,120,0,0,0,82,84,129,120,80,110.09,135,85.00,0.00,-1086.00
2024-05-19 09:25:02.781261,1,-1,114,0,0,0,82,84,131,120,80,110.11,135,-61.00,86.00,-875.00
2024-05-19 09:25:02.971380,0,-1,107,0,0,0,82,84,132,120,80,109.89,135,96.00,-14.00,-1100.00
2024-05-19 09:25:02.985445,0,0,101,0,0,0,82,84,133,130,80,110.16,135,-25.00,35.00,-920.00
2024-05-19 09:25:03.176288,1,0,95,0,0,0,81,85,135,130,80,110.16,135,0.00,2.00,-1023.00
2024-05-19 09:25:03.189142,2,0,89,0,0,0,81,85,136,130,80,110.17,135,-50.00,71.00,-903.00
2024-05-19 09:25:03.387914,2,0,83,0,0,0,81,85,138,130,80,110.29,135,30.00,-16.00,-1007.00
2024-05-19 09:25:03.399879,1,0,77,0,0,0,81,85,137,130,80,110.29,135,15.00,16.00,-1043.00
2024-05-19 09:25:03.495150,1,0,71,0,0,0,81,85,137,130,80,110.25,136,17.00,6.00,-936.00
2024-05-19 09:25:03.597111,1,0,65,0,0,0,81,85,137,130,80,110.14,136,83.00,-11.00,-958.00
2024-05-19 09:25:03.792254,1,0,59,0,0,0,81,85,137,130,80,110.16,136,-1.00,7.00,-983.00
2024-05-19 09:25:03.801093,0,0,53,0,0,0,81,85,136,130,80,110.11,136,25.00,11.00,-1033.00
2024-05-19 09:25:03.995378,0,0,48,0,0,0,81,85,136,130,80,110.57,136,-15.00,20.00,-992.00
2024-05-19 09:25:04.005256,0,0,42,0,0,0,81,85,135,130,80,110.27,136,-9.00,27.00,-1048.00
2024-05-19 09:25:04.200369,1,0,36,0,0,0,82,85,133,130,80,110.14,136,47.00,12.00,-1000.00
2024-05-19 09:25:04.209094,0,0,30,0,0,0,82,85,132,130,80,110.07,136,5.00,0.00,-1017.00
2024-05-19 09:25:04.404990,0,0,24,0,0,0,82,85,131,130,80,110.19,136,19.00,-8.00,-995.00
2024-05-19 09:25:04.413093,1,0,18,0,0,0,82,85,131,120,80,110.47,136,43.00,-3.00,-1087.00
2024-05-19 09:25:04.609817,2,0,14,0,0,0,82,85,131,120,80,109.84,137,61.00,-34.00,-1007.00
2024-05-19 09:25:04.617070,2,0,11,0,0,0,82,85,130,120,80,110.00,137,-6.00,60.00,-981.00
2024-05-19 09:25:04.814599,2,0,8,0,0,0,82,85,130,120,80,110.10,137,113.00,-69.00,-1024.00
2024-05-19 09:25:04.821106,3,1,6,0,0,0,82,85,131,120,80,110.23,137,-72.00,51.00,-922.00
2024-05-19 09:25:05.019308,2,1,5,0,0,0,82,85,130,120,80,109.92,137,54.00,12.00,-1050.00
2024-05-19 09:25:05.025239,1,0,3,0,0,0,82,85,131,120,80,109.86,137,10.00,15.00,-1024.00
2024-05-19 09:25:05.224247,0,0,3,0,0,0,81,85,132,120,80,110.16,137,28.00,-5.00,-1040.00
2024-05-19 09:25:05.230499,0,0,2,0,0,0,81,85,132,120,80,110.28,137,76.00,14.00,-1018.00
2024-05-19 09:25:05.281896,1,0,2,0,0,0,81,85,133,120,80,110.26,137,58.00,16.00,-935.00
2024-05-19 09:25:05.432282,1,0,1,0,0,0,81,85,134,120,80,110.49,137,78.00,3.00,-1027.00
2024-05-19 09:25:05.487091,2,0,1,0,0,0,81,85,135,130,80,110.48,138,-36.00,5.00,-965.00
2024-05-19 09:25:05.589335,2,0,0,0,0,0,81,85,136,130,80,110.46,138,54.00,0.00,-1077.00
2024-05-19 09:25:05.690229,2,0,0,0,0,0,81,85,136,130,80,110.42,138,-22.00,32.00,-927.00
2024-05-19 09:25:05.791088,1,0,0,0,0,0,81,85,137,130,80,110.23,138,36.00,-19.00,-1022.00
2024-05-19 09:25:05.941459,1,0,0,0,0,0,81,85,138,130,80,110.35,138,91.00,6.00,-1045.00
2024-05-19 09:25:05.998727,1,0,0,0,0,0,81,85,138,130,80,110.36,138,-41.00,54.00,-1034.00
2024-05-19 09:25:06.098940,1,0,0,0,0,0,81,85,139,130,80,110.11,138,36.00,24.00,-947.00
2024-05-19 09:25:06.199527,1,0,0,0,0,0,81,85,140,130,80,110.14,138,17.00,-4.00,-945.00
2024-05-19 09:25:06.350740,1,0,0,0,0,0,81,85,140,130,80,110.38,138,0.00,19.00,-1050.00
2024-05-19 09:25:06.403100,2,0,0,0,0,0,81,85,140,130,80,110.05,138,77.00,-9.00,-1055.00
2024-05-19 09:25:06.555575,2,0,-1,0,0,0,81,85,141,130,80,110.17,139,-15.00,48.00,-909.00
2024-05-19 09:25:06.607106,1,0,-1,0,0,0,81,85,140,130,80,110.44,139,33.00,8.00,-1075.00
2024-05-19 09:25:06.760660,0,0,-1,0,0,0,81,85,139,130,80,110.14,139,24.00,8.00,-995.00
2024-05-19 09:25:06.811140,1,0,0,0,0,0,81,85,139,130,80,110.26,139,-21.00,47.00,-1025.00
2024-05-19 09:25:06.965105,1,0,0,0,0,0,81,85,139,130,80,110.18,139,-6.00,34.00,-984.00
2024-05-19 09:25:07.015082,1,0,0,0,0,0,81,85,139,130,80,110.13,139,-63.00,26.00,-928.00
2024-05-19 09:25:07.117085,1,0,0,0,0,0,82,85,138,130,80,110.02,139,87.00,16.00,-1061.00
2024-05-19 09:25:07.272188,0,0,0,0,0,-1,82,85,139,130,80,110.09,139,109.00,8.00,-1566.00
2024-05-19 09:25:07.321005,0,-1,0,0,0,-7,82,85,146,130,80,110.63,139,37.00,32.00,-1220.00
2024-05-19 09:25:07.481988,0,-50,-1,0,-1,-12,82,85,313,140,80,110.43,139,-48.00,93.00,-1722.00
2024-05-19 09:25:07.525196,0,-173,-2,0,-10,-3,82,85,470,150,80,110.32,140,-66.00,230.00,-1300.00
2024-05-19 09:25:07.627305,-1,64,0,0,-7,11,82,85,282,150,80,110.63,140,-4.00,679.00,-1027.00
2024-05-19 09:25:07.784201,0,-5,1,0,-3,12,82,85,143,140,80,110.28,140,5.00,581.00,-925.00
2024-05-19 09:25:07.831637,0,0,5,0,-3,9,82,85,131,130,80,110.13,140,97.00,134.00,-1604.00
2024-05-19 09:25:07.989061,0,3,3,0,-3,5,82,85,124,120,80,110.02,140,1.00,-14.00,-1168.00
2024-05-19 09:25:08.036513,0,1,0,0,-1,1,82,85,120,110,80,109.95,140,-44.00,120.00,-1428.00
2024-05-19 09:25:08.137251,0,0,0,0,0,0,83,85,119,110,80,109.98,140,-46.00,51.00,-1215.00
2024-05-19 09:25:08.239439,1,-1,0,0,0,-1,83,85,119,110,79,109.85,140,32.00,33.00,-1096.00
2024-05-19 09:25:08.343936,1,-1,0,1,-1,-2,83,85,120,110,79,109.75,140,42.00,31.00,-1025.00
2024-05-19 09:25:08.442927,1,0,0,0,-1,-2,83,85,121,120,79,109.93,140,-81.00,76.00,-994.00
2024-05-19 09:25:08.603439,1,2,0,0,-1,-1,83,85,122,120,79,109.97,141,-36.00,70.00,-900.00
2024-05-19 09:25:08.646908,1,2,0,0,0,-1,83,85,123,120,79,110.16,141,6.00,54.00,-999.00
2024-05-19 09:25:08.697858,1,1,0,0,0,-1,83,85,122,120,79,110.06,141,35.00,27.00,-1023.00
2024-05-19 09:25:08.808169,1,0,0,0,0,-1,83,85,122,120,79,110.11,141,-23.00,56.00,-1042.00
2024-05-19 09:25:08.901885,1,0,0,0,0,0,83,85,123,120,79,110.10,141,-61.00,102.00,-955.00
2024-05-19 09:25:09.013009,1,-1,0,0,0,0,83,85,122,120,79,110.09,141,60.00,39.00,-1016.00
2024-05-19 09:25:09.106050,1,-1,0,0,0,0,82,85,122,120,79,109.95,141,-13.00,47.00,-1058.00
2024-05-19 09:25:09.217815,1,-1,0,0,0,0,82,85,122,120,79,109.84,141,-90.00,80.00,-959.00
2024-05-19 09:25:09.309913,1,-1,0,0,0,0,82,85,121,120,79,110.02,141,-31.00,50.00,-963.00
2024-05-19 09:25:09.422591,1,-1,0,0,0,0,82,85,121,120,79,110.01,141,44.00,49.00,-1049.00
2024-05-19 09:25:09.513939,1,0,0,0,0,0,82,85,120,120,79,110.05,142,-68.00,69.00,-1137.00
2024-05-19 09:25:09.615914,1,-1,0,0,0,0,82,85,119,110,79,110.00,142,46.00,38.00,-1080.00
2024-05-19 09:25:09.730108,1,-1,0,0,0,0,82,85,119,110,79,109.78,142,53.00,40.00,-974.00
2024-05-19 09:25:09.819764,1,-1,0,0,0,0,82,85,118,110,79,109.89,142,48.00,23.00,-978.00
2024-05-19 09:25:09.934763,1,0,0,0,0,0,82,85,117,110,79,109.87,142,53.00,45.00,-1084.00
2024-05-19 09:25:10.023825,1,-1,0,0,0,0,82,85,117,110,79,109.80,142,89.00,15.00,-1021.00
2024-05-19 09:25:10.139421,1,-1,0,0,0,0,82,85,116,110,79,110.13,142,16.00,60.00,-1076.00
2024-05-19 09:25:10.227863,1,-1,0,0,0,0,82,85,116,110,78,110.02,142,99.00,-6.00,-1079.00
2024-05-19 09:25:10.344136,1,-1,0,0,0,0,82,85,116,110,78,109.96,142,96.00,38.00,-997.00
2024-05-19 09:25:10.431814,1,-1,0,0,0,0,82,85,115,110,78,109.86,142,33.00,59.00,-938.00
2024-05-19 09:25:10.548908,1,-1,0,0,1,0,82,85,115,110,78,109.88,143,-6.00,39.00,-910.00
2024-05-19 09:25:10.635954,1,-2,0,0,1,0,82,85,115,110,78,109.92,143,23.00,30.00,-1056.00
2024-05-19 09:25:10.753868,1,-2,0,0,0,0,82,85,115,110,78,109.99,143,94.00,22.00,-1074.00
2024-05-19 09:25:10.839911,1,-1,0,0,0,0,82,85,116,110,78,109.93,143,35.00,46.00,-999.00
2024-05-19 09:25:10.958684,1,-1,0,0,0,0,82,85,116,110,78,109.85,143,37.00,50.00,-1041.00
2024-05-19 09:25:11.043884,1,-1,0,0,0,0,82,85,117,110,78,109.85,143,28.00,25.00,-952.00
2024-05-19 09:25:11.163420,1,-1,0,0,0,0,83,86,117,110,78,109.70,143,80.00,37.00,-1009.00
2024-05-19 09:25:11.248770,2,0,0,0,0,0,83,86,119,110,78,110.13,143,86.00,21.00,-979.00
2024-05-19 09:25:11.368223,2,-1,0,0,0,0,83,86,119,110,78,110.02,143,-1.00,62.00,-1014.00
2024-05-19 09:25:11.455318,2,-1,0,0,0,0,83,86,120,110,78,110.13,143,37.00,28.00,-981.00
2024-05-19 09:25:11.554245,2,-1,0,0,0,0,83,86,124,110,78,110.08,144,-21.00,62.00,-920.00
2024-05-19 09:25:11.675489,2,-1,0,0,0,0,83,86,126,110,78,109.96,144,29.00,40.00,-1050.00
2024-05-19 09:25:11.758791,2,-1,0,0,0,-1,83,86,129,110,78,109.91,144,30.00,68.00,-853.00
2024-05-19 09:25:11.880286,2,-1,0,0,0,-1,83,86,132,110,78,110.32,144,51.00,22.00,-1024.00
2024-05-19 09:25:11.962872,2,-2,0,0,0,-1,83,86,135,120,78,109.88,144,102.00,25.00,-957.00
2024-05-19 09:25:12.086232,2,-1,0,0,0,-1,83,86,137,120,78,109.93,144,-36.00,84.00,-970.00
2024-05-19 09:25:12.166780,2,-1,0,0,0,-1,82,86,140,120,78,110.03,144,95.00,26.00,-1008.00
2024-05-19 09:25:12.289781,2,-2,0,0,0,-1,82,86,141,120,78,110.49,144,21.00,62.00,-940.00
2024-05-19 09:25:12.370806,2,-1,0,0,0,0,82,86,142,120,78,109.97,144,107.00,-14.00,-938.00
2024-05-19 09:25:12.421723,3,-1,0,0,0,0,82,86,142,130,78,110.20,144,17.00,37.00,-943.00
2024-05-19 09:25:12.597905,3,-1,0,0,0,0,82,86,141,130,78,110.30,145,25.00,19.00,-997.00
2024-05-19 09:25:12.625688,3,-1,0,0,0,0,82,86,140,130,78,110.24,145,46.00,21.00,-930.00
2024-05-19 09:25:12.801837,2,-1,0,0,0,0,82,86,138,130,78,110.29,145,63.00,32.00,-1001.00
2024-05-19 09:25:12.829700,2,-1,0,0,0,1,82,86,136,120,78,110.19,145,13.00,51.00,-934.00
2024-05-19 09:25:13.006773,2,-1,0,0,0,1,82,86,134,120,78,110.23,145,113.00,-14.00,-1038.00
2024-05-19 09:25:13.033713,2,0,0,0,0,1,82,86,132,120,78,110.35,145,73.00,-2.00,-988.00
2024-05-19 09:25:13.211671,3,0,-1,0,0,1,83,86,128,120,78,110.02,145,114.00,13.00,-1146.00
2024-05-19 09:25:13.237668,2,0,-1,0,0,1,83,86,127,120,77,110.01,145,119.00,4.00,-1037.00
2024-05-19 09:25:13.416227,2,0,-1,0,0,1,83,86,125,120,77,109.98,145,50.00,44.00,-1017.00
2024-05-19 09:25:13.441660,3,0,-1,0,0,0,83,86,124,110,77,109.84,145,-57.00,64.00,-971.00
2024-05-19 09:25:13.589815,2,0,0,0,0,0,83,86,123,110,77,109.84,146,35.00,22.00,-1027.00
2024-05-19 09:25:13.646534,2,0,0,0,0,0,83,86,122,110,77,110.09,146,20.00,30.00,-1053.00
2024-05-19 09:25:13.825715,2,0,0,0,0,0,83,86,122,110,77,110.21,146,61.00,95.00,-1523.00
2024-05-19 09:25:13.850542,0,2,0,0,1,-3,83,86,128,110,77,110.35,146,90.00,52.00,-1862.00
2024-05-19 09:25:13.968207,0,11,3,0,2,-11,83,86,218,120,77,110.35,146,26.00,177.00,-1607.00
2024-05-19 09:25:14.054527,-10,97,-1,0,9,-11,83,86,498,130,77,110.44,146,179.00,901.00,-995.00
2024-05-19 09:25:14.157966,10,-136,-12,0,13,3,82,85,258,140,77,110.48,146,304.00,863.00,-1107.00
2024-05-19 09:25:14.258531,7,-20,20,1,6,11,82,85,125,130,77,109.84,146,177.00,328.00,-990.00
2024-05-19 09:25:14.440031,-5,10,27,1,7,9,82,85,112,120,77,109.87,146,24.00,67.00,-1478.00
2024-05-19 09:25:14.462500,2,-2,36,1,9,5,82,85,105,110,77,110.02,146,43.00,13.00,-1360.00
2024-05-19 09:25:14.647437,6,-5,44,0,8,1,82,85,102,110,77,109.89,147,16.00,22.00,-1145.00
2024-05-19 09:25:14.666472,7,-6,51,0,7,0,82,85,99,110,77,109.67,147,27.00,23.00,-1085.00
