TS,pitch,roll,yaw,vgx,vgy,vgz,templ,temph,tof,h,bat,baro,time,agx,agy,agz
2024-05-19 09:26:11.681696,0,0,-1,0,0,0,85,88,10,0,73,107.77,170,-8.00,16.00,-998.00
2024-05-19 09:26:11.686486,0,0,-1,0,0,0,85,88,10,0,73,107.96,170,-9.00,15.00,-999.00
2024-05-19 09:26:11.788533,0,0,-1,0,0,0,85,88,10,0,73,108.23,170,-8.00,15.00,-1003.00
2024-05-19 09:26:11.988572,0,0,-1,0,0,0,85,88,10,0,73,108.01,170,-9.00,17.00,-1000.00
2024-05-19 09:26:11.992517,0,0,-1,0,0,0,85,88,10,0,73,107.97,170,-8.00,15.00,-995.00
2024-05-19 09:26:12.193197,0,0,-1,0,0,0,85,88,10,0,73,107.76,170,-9.00,15.00,-998.00
2024-05-19 09:26:12.193269,0,0,-1,0,0,0,85,88,10,0,73,107.86,170,-8.00,16.00,-1001.00
2024-05-19 09:26:12.247525,0,0,-1,0,0,0,85,88,10,0,73,108.19,170,-9.00,15.00,-996.00
2024-05-19 09:26:12.398144,0,0,-1,0,0,0,85,88,10,0,73,108.13,170,-9.00,17.00,-999.00
2024-05-19 09:26:12.451567,0,0,-1,0,0,0,86,88,10,0,73,108.06,170,-8.00,15.00,-998.00
2024-05-19 09:26:12.602869,0,0,-1,0,0,0,86,88,10,0,73,107.97,170,-9.00,16.00,-999.00
2024-05-19 09:26:12.655432,0,0,-1,0,0,0,86,88,10,0,73,107.79,170,-9.00,15.00,-999.00
2024-05-19 09:26:12.757454,0,0,-1,0,0,0,86,88,10,0,73,108.05,170,-8.00,14.00,-1000.00
2024-05-19 09:26:12.910057,0,0,-1,0,0,0,86,88,10,0,73,107.91,170,-9.00,15.00,-999.00
2024-05-19 09:26:12.961681,0,0,-1,0,0,0,86,88,10,0,73,108.06,170,-9.00,17.00,-1001.00
2024-05-19 09:26:13.114874,0,0,-1,0,0,0,86,88,10,0,73,108.21,170,-9.00,16.00,-1000.00
2024-05-19 09:26:13.165454,0,0,-1,0,0,0,86,88,10,0,73,107.95,170,-9.00,16.00,-997.00
2024-05-19 09:26:13.319890,0,0,-1,0,0,0,86,88,10,0,73,108.09,170,-9.00,16.00,-998.00
2024-05-19 09:26:13.373782,0,0,-1,0,0,0,86,88,10,0,73,107.80,170,-9.00,15.00,-999.00
2024-05-19 09:26:13.471467,0,0,-1,0,0,0,86,88,10,0,73,107.81,170,-10.00,16.00,-999.00
2024-05-19 09:26:13.627467,0,0,-1,0,0,0,86,88,10,0,73,107.91,170,-9.00,16.00,-1000.00
2024-05-19 09:26:13.675482,0,0,-1,0,0,0,86,88,10,0,73,107.72,170,-10.00,15.00,-998.00
2024-05-19 09:26:13.782281,0,0,-1,0,0,0,86,88,10,0,73,108.03,170,-8.00,16.00,-1001.00
2024-05-19 09:26:13.879578,0,0,-1,0,0,0,86,88,10,0,73,107.94,170,-9.00,17.00,-1001.00
2024-05-19 09:26:14.036485,0,0,-1,0,0,0,86,88,10,0,73,108.06,170,-9.00,16.00,-1000.00
2024-05-19 09:26:14.083628,0,0,-1,0,0,0,86,88,10,0,73,108.13,170,-9.00,17.00,-998.00
2024-05-19 09:26:14.241378,0,0,-1,0,0,0,86,88,10,0,73,107.64,170,-8.00,17.00,-1000.00
2024-05-19 09:26:14.287427,0,0,-1,0,0,0,86,88,10,0,73,108.36,170,-8.00,16.00,-1000.00
2024-05-19 09:26:14.446114,0,0,-1,0,0,0,86,88,10,0,73,107.88,170,-9.00,15.00,-999.00
2024-05-19 09:26:14.491348,0,0,-1,0,0,0,85,88,10,0,73,107.96,170,-9.00,14.00,-999.00
2024-05-19 09:26:14.608815,0,0,-1,0,0,0,85,88,10,0,73,107.84,170,-8.00,17.00,-999.00
2024-05-19 09:26:14.697989,0,0,-1,0,0,0,85,88,10,0,73,107.97,170,-8.00,15.00,-1000.00
2024-05-19 09:26:14.797235,0,0,-1,0,0,0,85,88,10,0,73,107.97,170,-10.00,16.00,-998.00
2024-05-19 09:26:14.899240,0,0,-1,0,0,0,85,88,10,0,73,107.97,170,-1.00,33.00,-996.00
2024-05-19 09:26:15.060261,0,0,0,0,0,0,85,88,10,0,73,107.97,170,-115.00,4.00,-981.00
2024-05-19 09:26:15.103249,0,0,2,0,0,0,85,88,10,0,73,107.97,170,-4.00,68.00,-919.00
2024-05-19 09:26:15.265148,0,0,2,0,0,0,85,88,10,0,73,107.97,170,-72.00,50.00,-1164.00
2024-05-19 09:26:15.308382,0,0,3,0,0,0,85,88,10,0,73,107.97,170,-64.00,85.00,-1048.00
2024-05-19 09:26:15.358093,1,2,4,0,1,-2,85,88,10,0,73,107.97,170,20.00,18.00,-1282.00
2024-05-19 09:26:15.511733,0,-2,4,0,1,-5,87,88,10,0,73,107.97,171,-94.00,28.00,-1363.00
2024-05-19 09:26:15.613551,-1,-5,4,0,1,-7,87,88,14,10,73,108.14,171,-46.00,25.00,-1231.00
2024-05-19 09:26:15.666628,0,-3,4,0,0,-8,87,88,23,20,73,108.50,171,38.00,-5.00,-1071.00
2024-05-19 09:26:15.766233,0,-3,4,0,0,-9,87,88,33,30,73,108.42,171,-86.00,82.00,-1067.00
2024-05-19 09:26:15.879534,0,-2,3,0,0,-9,87,88,41,40,73,108.34,171,-110.00,82.00,-824.00
2024-05-19 09:26:15.970160,0,-2,3,0,0,-8,87,88,46,50,73,108.62,171,11.00,25.00,-857.00
2024-05-19 09:26:16.084298,0,-1,3,0,0,-7,87,88,54,50,73,108.45,171,16.00,7.00,-805.00
2024-05-19 09:26:16.174157,2,0,3,0,0,-5,87,88,60,60,73,108.67,171,33.00,-34.00,-853.00
2024-05-19 09:26:16.289115,1,-1,3,0,0,-3,87,88,63,60,73,108.61,171,-20.00,31.00,-785.00
2024-05-19 09:26:16.378165,1,-1,3,0,0,-2,87,88,63,70,73,108.96,171,16.00,68.00,-944.00
2024-05-19 09:26:16.493920,0,-1,3,0,0,-1,86,88,66,70,73,109.17,172,55.00,17.00,-919.00
2024-05-19 09:26:16.582119,0,-1,3,0,0,0,86,88,67,70,73,108.92,172,-6.00,39.00,-977.00
2024-05-19 09:26:16.701758,0,-1,3,0,0,0,86,88,67,70,73,109.11,172,-11.00,39.00,-1000.00
2024-05-19 09:26:16.786101,0,-1,3,0,0,0,86,88,67,70,73,108.79,172,9.00,9.00,-1126.00
2024-05-19 09:26:16.903525,0,-1,3,0,0,0,86,88,67,70,73,108.59,172,-26.00,51.00,-1028.00
2024-05-19 09:26:16.990071,0,-1,3,0,0,0,86,88,67,70,73,109.01,172,-32.00,41.00,-1036.00
2024-05-19 09:26:17.108319,-1,-2,4,0,0,0,86,88,67,70,73,108.85,172,-20.00,98.00,-766.00
2024-05-19 09:26:17.194467,0,-2,3,0,0,0,86,88,67,70,73,109.12,172,39.00,5.00,-1043.00
2024-05-19 09:26:17.313102,-1,-2,3,0,0,0,86,88,67,70,73,108.88,172,73.00,35.00,-987.00
2024-05-19 09:26:17.398028,-1,-2,3,0,0,-1,86,88,67,70,73,108.76,172,-79.00,67.00,-1114.00
2024-05-19 09:26:17.517895,0,-2,4,0,0,-1,86,88,68,70,73,108.69,173,-56.00,81.00,-1008.00
2024-05-19 09:26:17.602700,0,-2,4,0,0,-1,86,88,69,70,73,108.89,173,48.00,27.00,-1026.00
2024-05-19 09:26:17.722679,0,-2,4,0,0,0,86,88,69,70,73,108.92,173,-44.00,68.00,-1017.00
2024-05-19 09:26:17.805935,0,-3,3,0,0,-1,86,88,71,70,73,109.08,173,5.00,39.00,-1116.00
2024-05-19 09:26:17.927499,0,-3,3,0,0,-1,86,88,71,70,73,108.88,173,16.00,44.00,-1108.00
2024-05-19 09:26:18.010046,1,-2,3,0,0,-1,86,88,73,70,73,108.91,173,59.00,26.00,-918.00
2024-05-19 09:26:18.132289,0,-3,3,0,0,-1,86,88,74,70,73,108.77,173,-18.00,60.00,-984.00
2024-05-19 09:26:18.214036,0,-2,3,0,0,-1,86,88,75,70,73,109.19,173,18.00,44.00,-925.00
2024-05-19 09:26:18.337104,1,-2,3,0,0,-1,86,88,77,70,73,108.97,173,8.00,51.00,-1022.00
2024-05-19 09:26:18.418020,2,-2,3,0,0,-1,86,88,79,80,73,109.21,173,62.00,3.00,-1134.00
2024-05-19 09:26:18.541833,1,-2,3,0,0,-1,86,89,79,80,73,109.04,174,-19.00,82.00,-1013.00
2024-05-19 09:26:18.622359,1,-2,3,0,0,-1,86,89,80,80,73,108.94,174,-26.00,77.00,-1003.00
2024-05-19 09:26:18.746708,0,-3,3,0,0,0,86,89,80,80,73,109.04,174,38.00,44.00,-965.00
2024-05-19 09:26:18.825946,0,-2,3,0,0,0,86,89,79,80,73,109.04,174,17.00,9.00,-1031.00
2024-05-19 09:26:18.951486,0,-2,3,0,0,0,86,89,79,80,73,109.07,174,-50.00,52.00,-1022.00
2024-05-19 09:26:19.029928,0,-1,3,0,0,0,86,89,79,80,73,108.88,174,-79.00,21.00,-967.00
2024-05-19 09:26:19.156316,0,-1,3,0,0,0,86,89,79,80,73,108.88,174,-15.00,64.00,-986.00
2024-05-19 09:26:19.233964,0,-1,3,0,0,0,86,89,78,80,73,108.89,174,38.00,-9.00,-1008.00
2024-05-19 09:26:19.362642,0,0,3,0,0,0,86,89,78,80,73,108.93,174,-26.00,3.00,-1083.00
2024-05-19 09:26:19.438046,0,0,3,0,0,0,86,89,77,80,73,108.95,174,-72.00,78.00,-994.00
2024-05-19 09:26:19.567039,0,0,3,0,0,0,86,88,76,80,73,108.98,175,19.00,39.00,-1052.00
2024-05-19 09:26:19.641953,0,0,3,0,0,0,86,88,75,80,73,108.68,175,-36.00,38.00,-986.00
2024-05-19 09:26:19.770655,0,-1,3,0,0,0,86,88,74,80,73,108.88,175,65.00,-13.00,-1114.00
2024-05-19 09:26:19.845876,0,-1,3,0,0,0,86,88,73,70,73,108.72,175,37.00,-12.00,-1053.00
2024-05-19 09:26:19.897225,0,-1,3,0,0,0,86,88,72,70,73,108.69,175,-37.00,6.00,-1056.00
2024-05-19 09:26:20.078052,0,0,3,0,0,0,86,88,71,70,73,108.53,175,-46.00,26.00,-1025.00
2024-05-19 09:26:20.101027,-1,0,3,0,0,0,86,88,70,70,73,109.07,175,-29.00,15.00,-1025.00
2024-05-19 09:26:20.282856,-1,0,4,0,0,0,86,88,69,70,73,108.79,175,-81.00,42.00,-977.00
2024-05-19 09:26:20.305151,-1,-1,4,0,0,0,86,88,69,70,73,108.98,175,-43.00,36.00,-1058.00
2024-05-19 09:26:20.487607,-1,-1,4,0,0,0,86,88,69,70,73,108.56,175,-99.00,87.00,-993.00
2024-05-19 09:26:20.509078,-1,-1,4,0,0,0,86,88,70,70,73,108.76,176,-50.00,31.00,-1003.00
2024-05-19 09:26:20.692367,-1,-2,3,0,0,0,86,88,70,70,73,109.05,176,60.00,-28.00,-991.00
2024-05-19 09:26:20.713220,-2,-2,3,0,0,0,86,88,71,70,73,108.96,176,-6.00,14.00,-951.00
2024-05-19 09:26:20.815136,-1,-1,3,0,0,0,86,88,71,70,73,108.94,176,46.00,-7.00,-1115.00
2024-05-19 09:26:20.999610,0,-1,3,0,0,-1,86,88,72,70,73,108.71,176,-70.00,38.00,-958.00
2024-05-19 09:26:21.019027,0,0,3,0,0,0,86,88,72,70,73,108.90,176,-22.00,11.00,-1056.00
2024-05-19 09:26:21.204455,0,0,3,0,0,-1,86,88,73,70,73,108.74,176,3.00,6.00,-999.00
2024-05-19 09:26:21.223048,0,0,3,0,0,0,86,88,73,70,73,109.07,176,-91.00,77.00,-952.00
2024-05-19 09:26:21.411446,-2,-1,3,0,0,0,86,88,74,70,73,108.71,176,-48.00,37.00,-967.00
2024-05-19 09:26:21.427042,-3,-2,3,-1,0,0,86,88,74,70,73,109.13,176,28.00,-9.00,-1060.00
2024-05-19 09:26:21.614025,-3,-2,3,0,0,0,85,89,75,70,73,109.15,177,56.00,-39.00,-1071.00
2024-05-19 09:26:21.630912,-1,-2,3,0,0,-1,85,89,75,70,73,109.11,177,-16.00,41.00,-1041.00
2024-05-19 09:26:21.818753,0,-1,3,0,0,0,85,89,75,70,73,109.12,177,20.00,9.00,-1022.00
2024-05-19 09:26:21.834895,0,-1,3,0,0,0,85,89,76,70,73,109.13,177,13.00,25.00,-981.00
2024-05-19 09:26:21.937060,0,-1,3,0,0,0,85,89,76,70,73,108.85,177,9.00,21.00,-1061.00
2024-05-19 09:26:22.125872,0,-1,3,0,0,0,85,89,76,70,73,108.76,177,-6.00,65.00,-967.00
2024-05-19 09:26:22.141049,0,-1,4,0,0,0,85,89,77,70,73,108.87,177,54.00,32.00,-1038.00
2024-05-19 09:26:22.330663,0,-1,3,0,0,0,85,89,78,80,73,108.90,177,61.00,52.00,-1007.00
2024-05-19 09:26:22.344931,0,-2,3,0,0,-1,85,89,80,80,73,108.92,177,-82.00,87.00,-1105.00
2024-05-19 09:26:22.535467,0,-3,3,0,0,-2,85,89,84,80,73,109.15,177,43.00,44.00,-1117.00
2024-05-19 09:26:22.548966,0,-3,3,0,0,-4,85,88,89,80,73,108.93,178,28.00,55.00,-1136.00
2024-05-19 09:26:22.740302,0,-2,3,0,0,-4,85,88,95,90,73,109.28,178,0.00,72.00,-952.00
2024-05-19 09:26:22.752938,0,-2,3,0,0,-5,85,88,101,90,73,109.13,178,30.00,83.00,-1028.00
2024-05-19 09:26:22.945639,0,-3,3,0,0,-5,85,88,108,100,73,109.33,178,55.00,38.00,-1057.00
2024-05-19 09:26:22.956959,0,-4,4,0,0,-5,85,88,115,100,73,109.39,178,36.00,42.00,-978.00
2024-05-19 09:26:23.058927,0,-4,4,0,0,-6,85,88,122,110,73,109.38,178,41.00,72.00,-962.00
2024-05-19 09:26:23.252330,1,-3,3,1,0,-6,85,88,130,120,73,109.61,178,62.00,51.00,-1018.00
2024-05-19 09:26:23.262952,2,-3,3,1,0,-6,85,88,136,130,73,109.39,178,-5.00,26.00,-968.00
2024-05-19 09:26:23.313822,3,-3,3,0,0,-5,85,88,143,130,73,109.42,178,-39.00,60.00,-948.00
2024-05-19 09:26:23.457078,2,-2,3,1,0,-5,85,88,148,140,73,109.44,178,86.00,10.00,-997.00
2024-05-19 09:26:23.568940,3,-1,3,1,0,-4,85,88,156,140,73,109.68,179,85.00,-13.00,-927.00
2024-05-19 09:26:23.620963,4,0,3,1,0,-4,85,88,163,150,73,109.58,179,34.00,33.00,-929.00
2024-05-19 09:26:23.764246,4,0,3,1,0,-3,85,88,167,150,73,109.58,179,65.00,8.00,-1048.00
2024-05-19 09:26:23.824880,5,0,3,1,0,-3,85,88,171,160,73,109.84,179,92.00,25.00,-1003.00
2024-05-19 09:26:23.969119,5,0,3,0,0,-3,85,88,175,160,73,109.72,179,-2.00,42.00,-888.00
2024-05-19 09:26:24.028833,4,-1,3,0,0,-2,85,88,179,170,73,109.94,179,47.00,16.00,-883.00
2024-05-19 09:26:24.173964,3,0,3,0,0,-2,85,88,181,170,73,109.80,179,34.00,27.00,-889.00
2024-05-19 09:26:24.232996,2,0,3,0,0,-1,85,88,184,170,73,109.93,179,-6.00,98.00,-903.00
2024-05-19 09:26:24.378809,2,0,3,0,0,-1,85,88,185,180,73,110.01,179,66.00,29.00,-913.00
2024-05-19 09:26:24.438513,2,-1,3,0,0,0,85,88,186,180,73,110.09,179,8.00,57.00,-924.00
2024-05-19 09:26:24.539374,2,-2,3,0,0,0,86,89,187,180,73,109.89,180,54.00,52.00,-931.00
2024-05-19 09:26:24.641860,2,-3,3,0,0,0,86,89,188,180,73,109.98,180,100.00,-6.00,-1029.00
2024-05-19 09:26:24.788424,1,-2,3,0,0,0,86,89,188,180,73,109.80,180,38.00,53.00,-996.00
2024-05-19 09:26:24.848018,1,-3,3,0,0,0,86,89,188,180,73,110.00,180,7.00,70.00,-1024.00
2024-05-19 09:26:24.948537,1,-3,3,0,0,0,86,89,187,180,73,110.09,180,44.00,42.00,-972.00
2024-05-19 09:26:25.049576,1,-4,3,0,0,0,86,89,187,180,73,109.95,180,31.00,35.00,-929.00
2024-05-19 09:26:25.151746,1,-4,3,0,0,0,86,89,187,180,73,109.93,180,10.00,61.00,-961.00
2024-05-19 09:26:25.254453,1,-4,3,0,0,0,86,89,186,180,73,110.23,180,31.00,81.00,-977.00
2024-05-19 09:26:25.356450,1,-4,3,0,0,0,86,89,185,180,73,109.81,180,59.00,59.00,-1068.00
2024-05-19 09:26:25.458581,2,-4,3,0,0,0,86,89,185,180,73,109.87,180,114.00,48.00,-1069.00
2024-05-19 09:26:25.558901,1,-4,3,0,0,0,85,88,184,180,73,110.11,181,41.00,63.00,-1000.00
2024-05-19 09:26:25.710092,1,-4,3,0,0,0,85,88,185,180,73,109.64,181,-9.00,87.00,-987.00
2024-05-19 09:26:25.762865,1,-4,3,0,0,0,85,88,185,180,73,110.22,181,-36.00,114.00,-1030.00
2024-05-19 09:26:25.914825,0,-4,3,0,0,0,85,88,183,180,73,109.88,181,18.00,49.00,-997.00
2024-05-19 09:26:25.966912,0,-4,3,0,0,0,85,88,183,180,73,110.04,181,-34.00,71.00,-1000.00
2024-05-19 09:26:26.068758,0,-4,3,0,0,0,85,88,182,180,73,109.71,181,16.00,54.00,-973.00
2024-05-19 09:26:26.170726,0,-4,3,0,0,0,85,88,180,180,73,109.77,181,-70.00,115.00,-972.00
2024-05-19 09:26:26.324247,0,-4,3,0,0,0,85,88,179,180,73,109.99,181,44.00,80.00,-918.00
2024-05-19 09:26:26.374777,0,-4,3,0,0,0,85,88,178,180,73,109.98,181,58.00,61.00,-978.00
2024-05-19 09:26:26.476765,0,-4,3,0,0,1,85,88,176,180,73,110.02,181,106.00,62.00,-1033.00
2024-05-19 09:26:26.631417,0,-3,3,0,0,1,85,89,173,170,73,109.76,182,-2.00,67.00,-963.00
2024-05-19 09:26:26.680850,1,-3,4,0,0,1,85,89,170,170,73,110.05,182,57.00,49.00,-948.00
2024-05-19 09:26:26.782713,0,-4,4,0,0,2,85,89,168,170,73,109.66,182,3.00,69.00,-994.00
2024-05-19 09:26:26.884672,1,-4,4,0,0,2,85,89,165,170,73,109.51,182,135.00,10.00,-1131.00
2024-05-19 09:26:26.935525,2,-3,4,0,0,2,85,89,162,160,73,109.48,182,42.00,75.00,-991.00
2024-05-19 09:26:27.041009,3,-2,4,0,0,2,85,89,159,160,73,109.75,182,44.00,51.00,-1002.00
2024-05-19 09:26:27.139559,3,-2,4,0,0,2,85,89,156,160,73,109.59,182,55.00,56.00,-972.00
2024-05-19 09:26:27.245800,3,-2,3,0,0,2,85,89,153,150,73,109.84,182,22.00,78.00,-1009.00
2024-05-19 09:26:27.343518,3,-2,3,0,0,2,85,89,150,150,73,110.01,182,24.00,43.00,-948.00
2024-05-19 09:26:27.450632,2,-3,3,0,0,2,85,89,146,150,73,109.52,182,76.00,28.00,-973.00
2024-05-19 09:26:27.547883,2,-3,3,0,0,2,85,89,145,140,73,109.54,183,16.00,53.00,-986.00
2024-05-19 09:26:27.655398,3,-2,3,0,0,2,85,89,143,140,73,109.60,183,58.00,38.00,-1027.00
2024-05-19 09:26:27.751538,3,-2,3,0,0,2,85,89,141,140,73,109.43,183,63.00,50.00,-1085.00
2024-05-19 09:26:27.860212,1,-3,3,0,0,2,85,89,140,140,73,109.46,183,-15.00,104.00,-1010.00
2024-05-19 09:26:27.955639,0,-4,3,-1,0,1,85,89,139,140,73,109.35,183,-22.00,75.00,-1029.00
2024-05-19 09:26:28.065232,0,-3,3,0,0,1,85,89,140,130,73,109.33,183,43.00,86.00,-990.00
2024-05-19 09:26:28.159831,0,-4,3,0,0,0,85,89,140,130,73,109.19,183,13.00,90.00,-1037.00
2024-05-19 09:26:28.270184,1,-5,3,0,0,0,85,89,141,130,73,109.44,183,-14.00,62.00,-938.00
2024-05-19 09:26:28.363717,1,-4,3,0,0,0,85,89,142,130,73,109.31,183,98.00,35.00,-1017.00
2024-05-19 09:26:28.474732,0,-4,3,0,0,0,85,89,142,140,73,109.72,183,-46.00,64.00,-931.00
2024-05-19 09:26:28.567689,1,-3,3,0,0,0,84,88,143,140,73,109.73,184,47.00,35.00,-1071.00
2024-05-19 09:26:28.679827,2,-2,3,0,0,0,84,88,144,140,73,109.53,184,49.00,28.00,-1042.00
2024-05-19 09:26:28.771885,3,-1,3,0,0,0,84,88,145,140,73,109.32,184,20.00,64.00,-903.00
2024-05-19 09:26:28.884356,3,-1,3,0,0,0,84,88,146,140,73,109.41,184,121.00,45.00,-1084.00
2024-05-19 09:26:28.975837,3,-1,3,0,0,0,84,88,146,140,73,109.56,184,30.00,31.00,-967.00
2024-05-19 09:26:29.089132,3,-1,3,0,0,0,84,88,146,140,73,109.39,184,29.00,54.00,-1042.00
2024-05-19 09:26:29.179721,2,-2,3,0,0,0,84,88,144,140,73,109.53,184,6.00,80.00,-985.00
2024-05-19 09:26:29.299403,1,-3,3,0,0,0,84,88,145,140,73,109.59,184,56.00,58.00,-1073.00
2024-05-19 09:26:29.383693,0,-4,3,0,0,0,84,88,144,140,73,109.12,184,-63.00,95.00,-899.00
2024-05-19 09:26:29.498759,0,-4,3,0,0,0,84,88,143,140,73,109.38,185,55.00,55.00,-1048.00
2024-05-19 09:26:29.587874,0,-4,3,0,0,0,85,88,143,140,73,109.73,185,74.00,39.00,-1107.00
2024-05-19 09:26:29.703475,0,-4,3,0,0,0,85,88,143,140,73,109.55,185,35.00,60.00,-988.00
2024-05-19 09:26:29.791658,1,-3,4,0,0,0,85,88,142,140,73,109.30,185,-23.00,101.00,-1020.00
2024-05-19 09:26:29.908144,2,-3,3,0,0,0,85,88,143,140,73,109.33,185,-16.00,89.00,-955.00
2024-05-19 09:26:29.995342,2,-2,3,0,0,0,85,88,142,140,73,109.65,185,100.00,54.00,-1082.00
2024-05-19 09:26:30.114470,0,-2,4,0,0,0,85,88,142,140,73,109.25,185,36.00,41.00,-1006.00
2024-05-19 09:26:30.199450,-4,-1,4,1,0,0,85,88,143,140,73,109.58,185,123.00,3.00,-1007.00
2024-05-19 09:26:30.317787,-5,-2,4,3,0,0,85,88,142,140,73,109.18,185,63.00,6.00,-1014.00
2024-05-19 09:26:30.403848,-5,-1,4,4,0,0,85,88,142,140,73,109.44,185,70.00,13.00,-932.00
2024-05-19 09:26:30.522567,-4,0,4,5,0,0,85,88,141,140,73,109.22,186,53.00,25.00,-1035.00
2024-05-19 09:26:30.609208,-3,0,4,6,0,0,85,87,140,140,73,109.37,186,-22.00,67.00,-965.00
2024-05-19 09:26:30.709267,-2,0,4,7,0,0,85,87,139,140,73,109.53,186,57.00,0.00,-996.00
2024-05-19 09:26:30.813812,-1,0,4,7,0,0,85,87,138,140,73,109.45,186,-47.00,68.00,-776.00
2024-05-19 09:26:30.862389,0,-1,4,8,1,0,85,87,137,130,73,109.60,186,17.00,35.00,-1061.00
2024-05-19 09:26:31.034573,3,-1,4,7,1,0,85,87,137,130,73,109.54,186,56.00,-57.00,-904.00
2024-05-19 09:26:31.066660,5,-3,4,7,1,1,85,87,137,130,73,109.43,186,142.00,-33.00,-1055.00
2024-05-19 09:26:31.239379,7,-2,4,5,0,0,85,87,138,130,73,109.47,186,-88.00,118.00,-1127.00
2024-05-19 09:26:31.270429,5,-3,4,4,0,0,85,87,139,130,73,109.36,186,-37.00,83.00,-959.00
2024-05-19 09:26:31.444178,4,-4,4,4,0,0,85,87,140,130,73,109.53,186,83.00,-18.00,-1070.00
2024-05-19 09:26:31.474431,3,-3,4,3,0,0,85,87,142,130,73,109.57,187,44.00,76.00,-772.00
2024-05-19 09:26:31.649031,3,-2,4,3,0,0,86,88,146,140,73,109.24,187,2.00,19.00,-1051.00
2024-05-19 09:26:31.685179,3,-2,4,3,0,0,86,88,150,140,73,109.50,187,109.00,-24.00,-1069.00
2024-05-19 09:26:31.780954,4,-1,3,3,0,-1,86,88,153,140,73,109.66,187,37.00,7.00,-1009.00
2024-05-19 09:26:31.956175,5,0,3,2,0,0,86,88,156,140,73,109.51,187,39.00,32.00,-882.00
2024-05-19 09:26:31.984509,5,2,3,2,0,0,86,88,159,150,73,109.55,187,59.00,22.00,-1006.00
2024-05-19 09:26:32.160959,5,4,3,1,0,0,86,88,163,150,73,109.63,187,0.00,26.00,-908.00
2024-05-19 09:26:32.188365,5,3,3,1,0,0,86,88,164,150,73,109.90,187,38.00,0.00,-960.00
2024-05-19 09:26:32.365807,4,2,3,0,0,0,86,88,165,150,73,109.46,187,45.00,-9.00,-1011.00
2024-05-19 09:26:32.392282,3,1,3,0,1,0,86,88,165,150,73,109.77,187,94.00,-30.00,-1055.00
2024-05-19 09:26:32.570554,3,0,3,0,1,0,86,88,166,150,73,109.78,188,28.00,72.00,-904.00
2024-05-19 09:26:32.596339,3,-6,3,0,1,1,85,87,167,160,73,109.71,188,32.00,36.00,-1036.00
2024-05-19 09:26:32.775374,3,-4,3,0,0,0,85,87,166,160,73,109.67,188,9.00,33.00,-967.00
2024-05-19 09:26:32.801067,3,-2,3,0,0,1,85,87,165,160,73,109.67,188,49.00,13.00,-968.00
2024-05-19 09:26:32.980375,3,-2,3,0,0,1,85,87,165,160,73,109.66,188,21.00,65.00,-978.00
2024-05-19 09:26:33.005302,3,-2,3,0,0,1,85,87,163,160,73,109.60,188,66.00,-15.00,-1080.00
2024-05-19 09:26:33.185529,3,-2,3,0,0,1,85,87,160,150,73,109.54,188,-31.00,22.00,-937.00
2024-05-19 09:26:33.209262,3,-2,3,0,0,1,85,87,159,150,73,109.64,188,19.00,29.00,-987.00
2024-05-19 09:26:33.390507,2,-2,3,0,0,1,85,87,156,150,73,109.64,188,157.00,-3.00,-1073.00
2024-05-19 09:26:33.417167,3,-2,3,0,0,1,85,87,154,150,73,109.48,188,69.00,37.00,-1177.00
2024-05-19 09:26:33.515281,3,-2,3,0,0,0,85,87,152,150,73,109.44,189,40.00,13.00,-908.00
2024-05-19 09:26:33.617379,3,-2,3,0,0,1,85,88,148,150,73,109.48,189,67.00,63.00,-1048.00
2024-05-19 09:26:33.799492,3,-1,3,0,0,1,85,88,144,150,73,109.51,189,46.00,59.00,-918.00
2024-05-19 09:26:33.821285,2,-2,3,0,0,1,85,88,140,140,73,109.30,189,28.00,23.00,-1060.00
2024-05-19 09:26:34.004306,2,-2,3,0,0,1,85,88,137,140,73,109.17,189,84.00,12.00,-1072.00
2024-05-19 09:26:34.025208,2,-1,3,0,0,1,85,88,133,140,73,109.33,189,102.00,1.00,-985.00
2024-05-19 09:26:34.214794,2,-1,3,0,0,1,85,88,130,140,73,109.28,189,-28.00,21.00,-1038.00
2024-05-19 09:26:34.214919,2,-1,3,0,0,1,85,88,127,130,73,109.18,189,116.00,-13.00,-1037.00
2024-05-19 09:26:34.280431,1,-1,3,0,0,0,85,88,124,130,73,109.31,189,96.00,9.00,-993.00
2024-05-19 09:26:34.415827,3,-1,3,0,0,0,85,88,121,130,73,108.95,189,-18.00,86.00,-973.00
2024-05-19 09:26:34.484552,3,-1,3,0,0,0,85,88,119,130,73,109.28,190,83.00,19.00,-1066.00
2024-05-19 09:26:34.618701,2,-1,3,0,0,0,85,88,118,120,73,108.88,190,0.00,51.00,-1073.00
2024-05-19 09:26:34.688381,3,-1,3,0,0,0,85,88,117,120,73,109.29,190,27.00,25.00,-1076.00
2024-05-19 09:26:34.841187,3,-1,3,0,0,0,85,88,117,120,73,109.08,190,102.00,14.00,-1013.00
2024-05-19 09:26:35.028187,3,-1,3,0,0,0,85,88,116,120,73,109.13,190,56.00,24.00,-972.00
2024-05-19 09:26:35.028244,8,-2,3,0,0,0,85,88,118,120,73,109.31,190,-12.00,53.00,-1162.00
2024-05-19 09:26:35.096292,8,-1,3,-1,0,-1,85,88,118,120,73,109.25,190,21.00,39.00,-1060.00
2024-05-19 09:26:35.233040,8,-1,3,-2,0,-1,85,88,118,120,73,109.13,190,65.00,26.00,-1060.00
2024-05-19 09:26:35.300375,8,-1,3,-3,0,0,85,88,118,120,73,109.24,190,98.00,2.00,-1094.00
2024-05-19 09:26:35.437775,8,-1,3,-4,0,-1,85,88,119,120,73,109.15,190,13.00,33.00,-995.00
2024-05-19 09:26:35.504304,8,0,3,-5,0,-1,85,88,119,120,73,108.96,191,-55.00,69.00,-1033.00
2024-05-19 09:26:35.606430,8,0,3,-5,0,-1,85,87,119,120,73,109.25,191,102.00,23.00,-1011.00
2024-05-19 09:26:35.745037,8,0,3,-6,0,-1,85,87,119,120,73,109.01,191,158.00,-12.00,-1026.00
2024-05-19 09:26:35.810572,8,0,3,-6,0,0,85,87,119,120,73,109.53,191,112.00,6.00,-1027.00
2024-05-19 09:26:35.949796,7,0,3,-7,0,-1,85,87,119,120,73,109.26,191,55.00,70.00,-927.00
2024-05-19 09:26:36.018689,3,-1,3,-7,0,-1,85,87,118,120,73,109.05,191,7.00,66.00,-1081.00
2024-05-19 09:26:36.116296,0,-1,3,-7,0,-1,85,87,119,120,73,109.11,191,58.00,44.00,-1090.00
2024-05-19 09:26:36.257937,-1,-2,3,-6,0,-1,85,87,119,120,72,109.34,191,44.00,77.00,-908.00
2024-05-19 09:26:36.323021,-2,-2,3,-5,0,-1,85,87,120,120,72,109.02,191,109.00,15.00,-968.00
2024-05-19 09:26:36.422262,-1,-3,3,-4,0,0,85,87,120,120,72,109.22,191,108.00,20.00,-1009.00
2024-05-19 09:26:36.564221,0,-2,3,-3,0,-1,85,87,119,120,72,109.06,192,77.00,47.00,-1013.00
2024-05-19 09:26:36.626238,1,-2,3,-3,0,-1,84,87,119,120,72,108.97,192,21.00,76.00,-911.00
2024-05-19 09:26:36.769005,1,-2,3,-3,0,0,84,87,119,120,72,109.15,192,94.00,71.00,-1104.00
2024-05-19 09:26:36.830310,0,-3,3,-3,0,0,84,87,119,120,72,109.53,192,39.00,93.00,-1063.00
2024-05-19 09:26:36.973730,1,-4,3,-2,0,-1,84,87,119,120,72,109.43,192,44.00,83.00,-981.00
2024-05-19 09:26:37.034008,0,-6,3,-2,0,0,84,87,120,120,72,109.11,192,23.00,88.00,-1046.00
2024-05-19 09:26:37.178521,0,-8,3,-2,0,0,84,87,121,120,72,109.21,192,-4.00,53.00,-1054.00
2024-05-19 09:26:37.238143,0,-7,3,-2,0,-1,84,87,122,120,72,109.00,192,-4.00,45.00,-967.00
2024-05-19 09:26:37.383318,1,-2,3,-1,-1,-1,84,87,122,120,72,109.13,192,81.00,63.00,-1064.00
2024-05-19 09:26:37.442200,3,1,3,-1,-1,-1,84,87,123,120,72,109.10,192,63.00,18.00,-1050.00
2024-05-19 09:26:37.588389,0,0,3,-1,0,0,84,87,123,120,72,109.10,193,-3.00,74.00,-998.00
2024-05-19 09:26:37.646776,0,-1,3,0,0,0,85,88,123,120,72,109.15,193,20.00,55.00,-1031.00
2024-05-19 09:26:37.793460,0,-1,3,0,0,0,85,88,124,120,72,109.46,193,-27.00,82.00,-873.00
2024-05-19 09:26:37.851334,1,-1,3,0,0,0,85,88,124,120,72,109.33,193,-19.00,68.00,-1039.00
2024-05-19 09:26:37.997868,1,-1,3,0,0,0,85,88,124,120,72,109.25,193,44.00,30.00,-1033.00
2024-05-19 09:26:38.003056,2,-1,4,0,0,0,85,88,125,120,72,109.49,193,-1.00,39.00,-1012.00
2024-05-19 09:26:38.202713,1,-1,4,0,0,0,85,88,126,120,72,109.31,193,-39.00,71.00,-851.00
2024-05-19 09:26:38.207004,1,-1,4,0,0,0,85,88,126,120,72,109.39,193,21.00,32.00,-988.00
2024-05-19 09:26:38.409144,0,-2,4,0,0,0,85,88,127,120,72,109.54,193,35.00,20.00,-1054.00
2024-05-19 09:26:38.411738,0,-2,3,0,0,0,85,88,129,120,72,109.44,193,43.00,13.00,-996.00
2024-05-19 09:26:38.513265,1,-2,3,0,0,0,85,88,130,130,72,109.09,194,69.00,-4.00,-1161.00
2024-05-19 09:26:38.714678,0,-2,3,0,0,0,84,88,134,130,72,109.26,194,65.00,-8.00,-1176.00
2024-05-19 09:26:38.717125,0,-2,3,0,0,0,84,88,137,130,72,109.59,194,-10.00,56.00,-979.00
2024-05-19 09:26:38.819958,0,-2,3,0,0,-1,84,88,142,130,72,109.44,194,68.00,-25.00,-1059.00
2024-05-19 09:26:38.922179,0,-1,3,0,0,-1,84,88,147,130,72,109.79,194,-56.00,103.00,-913.00
2024-05-19 09:26:39.024134,0,-1,3,0,0,-1,84,88,151,140,72,109.46,194,83.00,52.00,-920.00
2024-05-19 09:26:39.126152,0,-3,3,0,0,-1,84,88,154,140,72,109.74,194,80.00,57.00,-928.00
2024-05-19 09:26:39.228047,1,-3,3,0,0,-1,84,88,157,140,72,109.63,194,-9.00,106.00,-921.00
2024-05-19 09:26:39.431493,2,-3,3,0,0,0,84,88,160,150,72,109.62,194,-15.00,65.00,-897.00
2024-05-19 09:26:39.431978,1,-4,3,0,0,0,84,88,161,150,72,109.61,194,9.00,56.00,-942.00
2024-05-19 09:26:39.534248,0,-4,3,0,0,0,84,88,162,150,72,109.81,195,53.00,-4.00,-890.00
2024-05-19 09:26:39.636572,0,-4,3,0,0,0,85,87,162,150,72,109.70,195,-32.00,33.00,-975.00
2024-05-19 09:26:39.738771,0,-3,3,0,0,0,85,87,163,150,72,109.76,195,0.00,46.00,-993.00
2024-05-19 09:26:39.840668,0,-4,3,0,0,0,85,87,164,150,72,109.54,195,-24.00,50.00,-949.00
2024-05-19 09:26:39.943334,1,-8,3,0,0,1,85,87,163,150,72,109.62,195,76.00,4.00,-960.00
2024-05-19 09:26:40.045752,1,-8,3,0,-2,1,85,87,162,150,72,109.75,195,17.00,12.00,-996.00
2024-05-19 09:26:40.146087,1,-7,3,0,-3,1,85,87,160,150,72,109.95,195,49.00,-17.00,-958.00
2024-05-19 09:26:40.248018,0,-4,3,0,-3,1,85,87,157,150,71,109.63,195,51.00,11.00,-984.00
2024-05-19 09:26:40.352900,0,-2,3,0,-4,1,85,87,155,150,71,109.82,195,-7.00,40.00,-1022.00
2024-05-19 09:26:40.451844,1,0,3,0,-3,1,85,87,153,150,71,109.46,195,-10.00,-8.00,-1033.00
2024-05-19 09:26:40.557766,0,0,3,0,-3,1,85,87,151,150,71,109.62,196,34.00,14.00,-965.00
2024-05-19 09:26:40.655896,0,0,3,0,-4,1,85,88,148,150,71,109.42,196,34.00,15.00,-1008.00
2024-05-19 09:26:40.762568,-1,0,3,0,-4,1,85,88,147,150,71,109.46,196,-1.00,-19.00,-987.00
2024-05-19 09:26:40.860086,-1,0,3,0,-4,1,85,88,144,140,71,109.53,196,-32.00,19.00,-1067.00
2024-05-19 09:26:40.969309,-1,1,3,0,-4,1,85,88,143,140,71,109.38,196,-22.00,-17.00,-950.00
2024-05-19 09:26:41.063825,-2,2,3,0,-3,0,85,88,141,140,71,109.44,196,-33.00,14.00,-964.00
2024-05-19 09:26:41.172024,-3,4,3,0,-3,0,85,88,140,140,71,109.45,196,26.00,-12.00,-1065.00
2024-05-19 09:26:41.267811,2,7,4,0,-2,1,85,88,139,140,71,109.25,196,21.00,-32.00,-1135.00
2024-05-19 09:26:41.376878,1,3,4,0,-1,0,85,88,137,140,71,109.48,196,23.00,-31.00,-1064.00
2024-05-19 09:26:41.471979,0,2,4,0,-1,0,85,88,135,140,71,109.23,196,-7.00,-16.00,-1107.00
2024-05-19 09:26:41.581768,0,1,4,0,-1,0,85,88,133,140,71,109.33,197,-1.00,19.00,-981.00
2024-05-19 09:26:41.676024,0,1,4,0,0,0,84,88,132,130,71,109.15,197,-37.00,25.00,-1067.00
2024-05-19 09:26:41.786608,0,0,3,0,0,0,84,88,130,130,71,109.26,197,-16.00,25.00,-1061.00
2024-05-19 09:26:41.880027,0,0,3,0,0,0,84,88,128,130,71,109.43,197,12.00,-4.00,-981.00
2024-05-19 09:26:41.991692,0,-1,3,0,0,0,84,88,126,130,71,109.72,197,-85.00,26.00,-1031.00
2024-05-19 09:26:42.034715,0,-1,3,-1,0,0,84,88,125,130,71,109.25,197,-3.00,2.00,-1081.00
2024-05-19 09:26:42.135271,-2,-2,3,-1,0,0,84,88,124,130,71,109.68,197,-89.00,53.00,-1054.00
2024-05-19 09:26:42.237400,-2,-2,3,-1,0,0,84,88,123,130,71,109.71,197,-26.00,-27.00,-1037.00
2024-05-19 09:26:42.339740,-2,-1,3,0,0,0,84,88,122,130,71,109.40,197,-109.00,13.00,-1138.00
2024-05-19 09:26:42.442151,-1,0,3,0,0,0,84,88,122,130,71,109.18,197,-15.00,-10.00,-1008.00
2024-05-19 09:26:42.542933,-1,0,3,0,0,0,84,88,121,120,71,109.42,198,-84.00,36.00,-1024.00
2024-05-19 09:26:42.710135,-1,0,3,0,0,0,85,88,121,120,71,109.76,198,-99.00,29.00,-1060.00
2024-05-19 09:26:42.746836,-2,0,3,0,0,0,85,88,122,120,71,109.51,198,5.00,-14.00,-1081.00
2024-05-19 09:26:42.913163,-2,0,3,0,0,0,85,88,123,120,71,109.63,198,-98.00,33.00,-1082.00
2024-05-19 09:26:42.950830,-1,1,3,0,0,0,85,88,124,120,71,109.47,198,-22.00,0.00,-1063.00
2024-05-19 09:26:43.117846,0,1,4,0,0,-1,85,88,126,120,71,109.64,198,-70.00,8.00,-1018.00
2024-05-19 09:26:43.154984,0,2,4,0,0,0,85,88,128,120,71,109.51,198,-57.00,2.00,-959.00
2024-05-19 09:26:43.322679,0,1,4,0,0,-1,85,88,130,120,71,109.38,198,-77.00,26.00,-1061.00
2024-05-19 09:26:43.359939,0,1,4,0,0,-1,85,88,131,130,71,109.71,198,-64.00,51.00,-998.00
2024-05-19 09:26:43.460647,0,1,4,0,0,0,85,88,132,130,71,109.47,198,-67.00,63.00,-954.00
2024-05-19 09:26:43.629652,0,0,4,0,0,0,85,88,134,130,71,109.47,199,39.00,-11.00,-1004.00
2024-05-19 09:26:43.664879,0,0,4,0,0,0,85,87,135,130,71,109.80,199,1.00,7.00,-1056.00
2024-05-19 09:26:43.834406,-1,5,3,0,1,0,85,87,138,130,71,109.63,199,2.00,-29.00,-1013.00
2024-05-19 09:26:43.868680,-1,4,3,0,2,0,85,87,139,130,71,109.69,199,11.00,10.00,-966.00
2024-05-19 09:26:44.039269,0,3,3,0,3,0,85,87,141,130,71,109.69,199,2.00,18.00,-978.00
2024-05-19 09:26:44.072577,0,1,3,0,3,-1,85,87,142,130,71,109.74,199,-33.00,19.00,-1002.00
2024-05-19 09:26:44.244036,0,-1,3,0,3,0,85,87,145,140,71,109.96,199,-57.00,76.00,-926.00
2024-05-19 09:26:44.276623,0,-1,4,0,3,0,85,87,145,140,70,109.80,199,47.00,-12.00,-958.00
2024-05-19 09:26:44.448869,0,-1,4,0,3,0,85,87,145,140,70,109.47,199,-84.00,80.00,-919.00
2024-05-19 09:26:44.480596,1,-1,4,0,3,0,85,87,145,140,70,109.62,199,37.00,17.00,-925.00
2024-05-19 09:26:44.653673,1,-2,4,0,3,0,85,87,144,140,70,109.70,200,-78.00,60.00,-866.00
2024-05-19 09:26:44.684678,-1,-2,4,0,3,1,85,88,143,140,70,109.64,200,33.00,2.00,-941.00
2024-05-19 09:26:44.796581,0,-2,4,0,2,1,85,88,142,140,70,109.48,200,-8.00,56.00,-1020.00
2024-05-19 09:26:44.888827,0,-2,4,0,2,0,85,88,141,140,70,109.75,200,64.00,-5.00,-1086.00
2024-05-19 09:26:45.063461,1,-2,4,0,2,0,85,88,139,140,70,109.41,200,35.00,-10.00,-969.00
2024-05-19 09:26:45.092669,4,-2,5,0,2,0,85,88,137,140,70,109.86,200,-43.00,76.00,-1079.00
2024-05-19 09:26:45.268082,5,-4,8,0,2,0,85,88,136,140,70,109.72,200,0.00,43.00,-986.00
2024-05-19 09:26:45.296496,0,-5,13,-1,1,0,85,88,133,130,70,109.50,200,-76.00,149.00,-857.00
2024-05-19 09:26:45.472792,0,-4,20,0,1,0,85,88,130,130,70,109.52,200,-31.00,72.00,-1014.00
2024-05-19 09:26:45.500734,0,-4,26,0,0,0,85,88,128,130,70,109.31,201,58.00,13.00,-978.00
2024-05-19 09:26:45.602671,0,-3,32,0,0,0,85,88,126,130,70,109.16,201,-6.00,12.00,-999.00
2024-05-19 09:26:45.780087,0,-3,39,0,0,0,85,87,123,130,70,109.55,201,12.00,-89.00,-1041.00
2024-05-19 09:26:45.806647,0,-1,48,0,0,0,85,87,121,130,70,109.36,201,-50.00,83.00,-1090.00
2024-05-19 09:26:45.857947,0,-1,57,-1,0,0,85,87,118,120,70,109.62,201,-15.00,119.00,-1031.00
2024-05-19 09:26:45.986780,0,-3,65,-1,0,0,85,87,117,120,70,109.49,201,47.00,-18.00,-963.00
2024-05-19 09:26:46.061788,0,-3,72,-1,0,0,85,87,114,120,70,109.72,201,-25.00,141.00,-1049.00
2024-05-19 09:26:46.189835,0,-3,79,0,0,0,85,87,112,120,70,109.31,201,110.00,55.00,-971.00
2024-05-19 09:26:46.266135,2,-3,84,0,1,0,85,87,110,120,70,109.78,201,38.00,81.00,-1004.00
2024-05-19 09:26:46.394620,3,-4,87,-1,1,0,85,87,108,120,70,109.14,201,55.00,100.00,-1009.00
2024-05-19 09:26:46.469827,4,-5,86,0,1,0,85,87,106,120,70,109.45,202,124.00,0.00,-1130.00
2024-05-19 09:26:46.599638,4,-5,80,0,1,-1,85,87,105,120,70,109.18,202,-1.00,164.00,-942.00
2024-05-19 09:26:46.674419,4,-5,67,0,1,-1,84,88,104,120,70,109.13,202,116.00,71.00,-882.00
2024-05-19 09:26:46.804091,2,-6,48,0,1,-1,84,88,103,120,70,109.23,202,55.00,116.00,-965.00
2024-05-19 09:26:46.879652,1,-7,31,0,1,-1,84,88,101,120,70,109.64,202,-35.00,151.00,-1003.00
2024-05-19 09:26:46.980176,0,-7,14,0,1,-1,84,88,99,120,70,109.21,202,-48.00,101.00,-1054.00
2024-05-19 09:26:47.111447,-1,-6,0,0,0,-1,84,88,97,120,70,109.21,202,34.00,5.00,-1060.00
2024-05-19 09:26:47.186667,-1,-6,-2,0,0,-1,84,88,97,120,70,109.46,202,-22.00,19.00,-1049.00
2024-05-19 09:26:47.285753,-2,-5,0,0,0,-1,84,88,96,120,70,108.93,202,-19.00,18.00,-1000.00
2024-05-19 09:26:47.418550,-3,-3,0,0,-1,-1,84,88,96,120,70,109.19,202,-112.00,89.00,-1011.00
2024-05-19 09:26:47.489596,-4,-1,1,-1,-1,-1,84,88,96,120,70,108.90,203,-63.00,58.00,-995.00
2024-05-19 09:26:47.591656,-6,0,1,-1,-1,-1,84,88,96,120,70,109.44,203,-10.00,-14.00,-997.00
2024-05-19 09:26:47.725627,-6,0,1,0,-1,-1,84,87,96,120,70,108.84,203,-35.00,-2.00,-1049.00
2024-05-19 09:26:47.795538,-6,0,2,0,-2,-1,84,87,96,120,70,108.73,203,-54.00,8.00,-1024.00
2024-05-19 09:26:47.897516,-6,1,3,0,-2,-1,84,87,96,120,70,108.91,203,-34.00,-19.00,-1051.00
2024-05-19 09:26:48.032834,-5,2,5,0,-1,-1,84,87,97,120,70,109.12,203,6.00,20.00,-922.00
2024-05-19 09:26:48.101483,-5,1,7,0,-1,-1,84,87,98,120,70,109.17,203,1.00,13.00,-999.00
2024-05-19 09:26:48.237616,-4,1,10,0,0,-1,84,87,98,120,70,109.42,203,-13.00,22.00,-959.00
2024-05-19 09:26:48.305609,-4,0,12,0,0,0,84,87,99,120,69,109.47,203,-26.00,61.00,-816.00
2024-05-19 09:26:48.442424,-3,0,15,1,0,-1,84,87,100,120,69,109.36,203,-19.00,28.00,-996.00
2024-05-19 09:26:48.509610,-2,-1,18,1,0,-1,84,87,99,120,69,109.30,204,-17.00,45.00,-942.00
2024-05-19 09:26:48.648519,-2,-1,21,1,0,0,84,87,100,120,69,109.14,204,-49.00,48.00,-914.00
2024-05-19 09:26:48.713551,-1,-1,24,1,0,0,84,87,102,120,69,108.87,204,23.00,23.00,-983.00
2024-05-19 09:26:48.852345,0,0,27,2,0,-1,84,87,103,120,69,109.30,204,28.00,6.00,-1050.00
2024-05-19 09:26:48.917501,1,0,30,2,0,-1,84,87,104,120,69,109.29,204,-53.00,50.00,-1060.00
2024-05-19 09:26:49.056820,1,0,33,2,0,-1,84,87,106,120,69,109.26,204,38.00,-16.00,-940.00
2024-05-19 09:26:49.121554,2,1,37,2,0,-1,84,87,108,130,69,109.74,204,0.00,-8.00,-948.00
2024-05-19 09:26:49.262001,2,2,40,2,0,-1,84,87,110,130,69,109.21,204,12.00,21.00,-971.00
2024-05-19 09:26:49.325514,1,1,43,1,0,0,84,87,111,130,69,109.56,204,16.00,0.00,-1038.00
2024-05-19 09:26:49.376281,1,1,45,1,0,0,84,87,112,130,69,109.49,204,23.00,2.00,-947.00
2024-05-19 09:26:49.568790,1,0,48,1,0,0,84,87,113,130,69,109.63,205,25.00,-4.00,-953.00
2024-05-19 09:26:49.580727,1,0,51,0,0,0,84,87,114,130,69,109.43,205,22.00,-52.00,-944.00
2024-05-19 09:26:49.773613,1,0,54,0,0,0,84,88,115,130,69,109.81,205,43.00,-30.00,-969.00
2024-05-19 09:26:49.784289,1,0,58,0,0,0,84,88,115,130,69,109.27,205,93.00,-86.00,-939.00
2024-05-19 09:26:49.886189,1,1,62,0,0,0,84,88,115,130,69,109.58,205,61.00,-52.00,-958.00
2024-05-19 09:26:50.080790,1,1,66,1,0,0,84,88,116,130,69,109.59,205,-6.00,43.00,-987.00
2024-05-19 09:26:50.090292,1,1,71,1,0,0,84,88,117,130,69,109.60,205,66.00,-34.00,-1017.00
2024-05-19 09:26:50.285614,1,2,76,0,0,0,84,88,117,130,69,109.25,205,78.00,-73.00,-1067.00
2024-05-19 09:26:50.294180,1,2,81,0,0,0,84,88,118,130,69,109.26,205,59.00,-21.00,-1044.00
2024-05-19 09:26:50.490334,1,2,87,0,0,0,84,88,119,140,69,109.24,205,30.00,-16.00,-938.00
2024-05-19 09:26:50.498213,1,1,92,0,0,0,84,88,120,140,69,109.05,206,101.00,-48.00,-1010.00
2024-05-19 09:26:50.660369,0,0,98,0,0,0,84,88,120,140,69,109.60,206,-69.00,37.00,-990.00
2024-05-19 09:26:50.702286,-1,0,104,0,0,0,84,88,121,140,69,109.38,206,-47.00,23.00,-972.00
2024-05-19 09:26:50.900072,-1,-1,109,0,0,0,84,88,122,140,69,109.47,206,52.00,-9.00,-1007.00
2024-05-19 09:26:50.906241,0,-1,115,0,0,0,84,88,123,140,69,109.74,206,10.00,20.00,-1005.00
2024-05-19 09:26:51.104786,0,0,121,0,0,0,84,88,124,140,69,109.80,206,42.00,39.00,-876.00
2024-05-19 09:26:51.110221,0,0,129,0,0,0,84,88,126,140,69,109.40,206,-39.00,86.00,-1010.00
2024-05-19 09:26:51.309687,1,0,136,0,0,0,84,88,127,140,69,109.51,206,15.00,30.00,-1002.00
2024-05-19 09:26:51.314194,2,-1,143,0,0,0,84,88,129,140,69,109.60,206,15.00,-10.00,-1008.00
2024-05-19 09:26:51.514299,1,-1,149,0,0,0,84,88,130,140,69,109.34,206,14.00,8.00,-933.00
2024-05-19 09:26:51.518178,2,0,157,0,0,0,84,88,131,140,69,109.40,207,125.00,-14.00,-996.00
2024-05-19 09:26:51.620161,2,0,164,0,0,0,84,88,133,140,69,109.52,207,-22.00,41.00,-1071.00
2024-05-19 09:26:51.722365,3,0,171,0,0,0,85,88,134,150,69,109.69,207,48.00,21.00,-968.00
2024-05-19 09:26:51.824193,2,0,179,0,0,0,85,88,134,150,69,109.81,207,70.00,5.00,-946.00
2024-05-19 09:26:51.926113,2,0,-173,0,0,1,85,88,133,150,69,109.79,207,100.00,-89.00,-1005.00
2024-05-19 09:26:52.028111,1,0,-166,0,0,1,85,88,132,150,69,109.28,207,-2.00,30.00,-918.00
2024-05-19 09:26:52.231192,1,0,-158,0,0,1,85,88,132,150,69,109.70,207,22.00,66.00,-1147.00
2024-05-19 09:26:52.232071,1,0,-151,0,0,1,85,88,131,150,69,109.84,207,-40.00,61.00,-988.00
2024-05-19 09:26:52.438331,1,0,-145,0,0,1,85,88,130,150,69,109.69,207,-35.00,48.00,-1011.00
2024-05-19 09:26:52.438415,0,1,-138,0,0,1,85,88,128,150,69,109.15,207,14.00,-11.00,-991.00
2024-05-19 09:26:52.538929,0,1,-132,0,0,0,85,88,127,150,69,109.65,208,26.00,25.00,-986.00
2024-05-19 09:26:52.641163,1,2,-126,0,0,0,85,88,125,140,69,109.50,208,76.00,-43.00,-989.00
2024-05-19 09:26:52.743103,1,2,-120,0,0,0,84,88,123,140,69,109.33,208,152.00,-55.00,-1079.00
2024-05-19 09:26:52.845877,1,1,-114,0,0,0,84,88,122,140,69,109.42,208,-67.00,46.00,-1021.00
2024-05-19 09:26:52.946104,2,2,-108,0,0,0,84,88,121,140,69,109.37,208,67.00,-33.00,-1037.00
2024-05-19 09:26:53.050375,2,3,-102,0,0,0,84,88,119,140,69,109.42,208,66.00,-50.00,-1018.00
2024-05-19 09:26:53.099367,1,3,-96,0,0,0,84,88,119,140,69,109.63,208,8.00,-55.00,-1051.00
2024-05-19 09:26:53.255159,1,4,-90,0,0,0,84,88,118,140,68,109.27,208,-19.00,-13.00,-942.00
2024-05-19 09:26:53.303412,0,5,-83,0,0,0,84,88,116,140,68,109.89,208,-8.00,-4.00,-974.00
2024-05-19 09:26:53.459902,0,3,-78,0,0,1,84,88,114,140,68,109.33,208,53.00,-54.00,-997.00
2024-05-19 09:26:53.508865,-2,2,-73,0,0,1,84,88,113,140,68,109.48,209,-13.00,-91.00,-1063.00
2024-05-19 09:26:53.611679,-2,3,-68,0,0,0,84,88,112,130,68,109.20,209,37.00,-94.00,-1040.00
2024-05-19 09:26:53.712157,-2,4,-64,0,0,0,85,87,111,130,68,109.29,209,72.00,-63.00,-1152.00
2024-05-19 09:26:53.813314,-2,3,-59,0,0,0,85,87,111,130,68,109.13,209,37.00,-60.00,-1151.00
2024-05-19 09:26:53.915318,-1,3,-54,0,0,0,85,87,111,130,68,109.32,209,10.00,-80.00,-991.00
2024-05-19 09:26:54.074346,0,4,-49,0,0,0,85,87,111,130,68,109.32,209,-45.00,-24.00,-958.00
2024-05-19 09:26:54.119498,-1,4,-44,0,0,0,85,87,111,130,68,109.25,209,14.00,-55.00,-1047.00
2024-05-19 09:26:54.279106,-2,3,-38,0,0,0,85,87,111,130,68,109.48,209,-14.00,-53.00,-1075.00
2024-05-19 09:26:54.323274,-2,3,-33,0,0,0,85,87,112,130,68,109.30,209,-38.00,-39.00,-945.00
2024-05-19 09:26:54.483962,-2,3,-27,0,0,0,85,87,112,130,68,109.15,209,37.00,-101.00,-1133.00
2024-05-19 09:26:54.527377,-3,2,-21,0,0,0,85,87,113,130,68,109.05,210,-68.00,0.00,-957.00
2024-05-19 09:26:54.688929,-4,2,-16,0,0,0,85,87,114,130,68,108.94,210,-66.00,34.00,-1016.00
2024-05-19 09:26:54.742610,-3,2,-12,0,0,0,84,88,115,130,68,109.30,210,-122.00,33.00,-967.00
2024-05-19 09:26:54.834671,-3,1,-10,0,0,0,84,88,115,130,68,109.11,210,-1.00,-20.00,-1065.00
2024-05-19 09:26:54.937833,-3,0,-8,0,0,0,84,88,115,130,68,109.05,210,-34.00,19.00,-1139.00
2024-05-19 09:26:55.037326,-3,0,-6,0,0,0,84,88,115,130,68,109.31,210,-39.00,-31.00,-935.00
2024-05-19 09:26:55.200746,-4,-1,-6,0,0,0,84,88,115,130,68,109.14,210,-66.00,-15.00,-949.00
2024-05-19 09:26:55.244189,-3,0,-5,0,0,0,84,88,115,130,68,109.24,210,-174.00,62.00,-980.00
2024-05-19 09:26:55.344653,-4,0,-4,0,0,0,84,88,114,130,68,109.30,210,-59.00,36.00,-998.00
2024-05-19 09:26:55.446726,-4,0,-3,0,0,0,84,88,115,130,68,109.47,210,-30.00,48.00,-950.00
2024-05-19 09:26:55.547329,-3,-1,-3,1,1,0,84,88,114,130,68,109.16,211,37.00,0.00,-981.00
2024-05-19 09:26:55.649466,-2,-2,-2,1,1,0,84,88,113,130,68,109.23,211,-8.00,19.00,-940.00
2024-05-19 09:26:55.815347,-2,-3,-1,0,0,0,85,89,113,130,68,109.34,211,-24.00,14.00,-963.00
2024-05-19 09:26:55.853264,-1,-2,-1,0,0,0,85,89,113,130,68,109.13,211,22.00,14.00,-1098.00
2024-05-19 09:26:56.023686,-1,-2,0,0,0,0,85,89,113,130,68,109.29,211,4.00,7.00,-1120.00
2024-05-19 09:26:56.058889,-1,-2,0,0,0,0,85,89,113,130,68,109.22,211,-25.00,28.00,-915.00
2024-05-19 09:26:56.230290,-1,-2,0,0,0,0,85,89,113,130,68,109.25,211,-31.00,44.00,-994.00
2024-05-19 09:26:56.262507,-1,-1,0,0,0,0,85,89,113,130,68,108.94,211,-43.00,35.00,-910.00
2024-05-19 09:26:56.429695,-1,-2,0,0,0,0,85,89,114,130,68,109.14,211,-62.00,38.00,-955.00
2024-05-19 09:26:56.466013,-2,-2,0,0,0,0,85,89,115,130,68,109.14,211,6.00,-4.00,-985.00
2024-05-19 09:26:56.517272,-2,-2,0,0,0,0,85,89,115,130,68,109.46,212,-49.00,30.00,-965.00
2024-05-19 09:26:56.634363,-2,-2,0,0,0,0,85,89,115,130,68,109.46,212,-51.00,45.00,-923.00
2024-05-19 09:26:56.772123,-2,-2,0,0,0,0,85,88,114,130,68,109.34,212,30.00,27.00,-939.00
2024-05-19 09:26:56.823223,-1,-1,0,0,0,0,85,88,113,130,68,109.33,212,-35.00,55.00,-943.00
2024-05-19 09:26:56.925800,-1,-2,0,0,0,0,85,88,113,130,68,109.32,212,43.00,27.00,-1081.00
2024-05-19 09:26:57.044150,0,-2,0,0,0,1,85,88,113,130,68,109.32,212,0.00,72.00,-1080.00
2024-05-19 09:26:57.129185,0,-4,0,0,0,1,85,88,114,130,68,109.60,212,46.00,-3.00,-1216.00
2024-05-19 09:26:57.248924,0,-3,0,0,0,1,85,88,115,130,68,109.80,212,-31.00,73.00,-1169.00
2024-05-19 09:26:57.334216,0,-3,0,1,0,0,85,88,118,130,68,109.49,212,83.00,-78.00,-994.00
2024-05-19 09:26:57.453709,1,-2,0,1,0,0,85,88,120,130,68,109.58,212,-152.00,207.00,-1181.00
2024-05-19 09:26:57.540443,1,-3,0,1,0,0,85,88,123,130,68,109.71,213,6.00,7.00,-974.00
2024-05-19 09:26:57.639313,1,-3,0,1,0,0,85,88,125,140,68,109.36,213,33.00,14.00,-997.00
2024-05-19 09:26:57.762579,2,-2,0,1,0,0,85,87,127,140,68,109.43,213,11.00,29.00,-967.00
2024-05-19 09:26:57.843026,2,-1,0,0,0,0,85,87,130,140,68,109.34,213,-15.00,52.00,-836.00
2024-05-19 09:26:57.945101,1,-1,0,0,0,0,85,87,131,140,68,109.49,213,60.00,39.00,-1009.00
2024-05-19 09:26:58.067964,2,-1,-3,0,0,0,85,87,134,140,68,109.37,213,-67.00,92.00,-932.00
2024-05-19 09:26:58.149061,2,-2,-9,0,0,0,85,87,136,140,68,109.63,213,60.00,100.00,-827.00
2024-05-19 09:26:58.272727,2,-3,-15,1,0,0,85,87,138,150,68,109.55,213,48.00,33.00,-966.00
2024-05-19 09:26:58.353093,3,-3,-22,1,0,0,85,87,139,150,68,109.84,213,42.00,13.00,-1044.00
2024-05-19 09:26:58.477494,4,-4,-28,1,0,0,85,87,143,150,68,109.75,213,58.00,52.00,-998.00
2024-05-19 09:26:58.556977,3,-4,-34,1,0,0,85,87,143,150,68,109.51,214,16.00,74.00,-1016.00
2024-05-19 09:26:58.682317,3,-4,-41,0,0,0,85,87,145,150,68,109.67,214,3.00,51.00,-1019.00
2024-05-19 09:26:58.760999,3,-3,-47,0,0,0,84,88,147,150,68,109.53,214,94.00,-2.00,-1021.00
2024-05-19 09:26:58.887071,3,-3,-53,0,0,0,84,88,148,150,68,109.68,214,30.00,33.00,-976.00
2024-05-19 09:26:58.965090,2,-3,-60,0,0,0,84,88,149,150,68,109.94,214,24.00,27.00,-912.00
2024-05-19 09:26:59.092361,2,-2,-66,-1,-1,0,84,88,150,150,68,109.35,214,63.00,-2.00,-944.00
2024-05-19 09:26:59.168991,2,0,-72,-1,-1,1,84,88,150,150,68,109.83,214,87.00,-3.00,-1003.00
2024-05-19 09:26:59.296706,3,0,-78,-1,-1,1,84,88,150,150,67,109.41,214,44.00,-1.00,-1088.00
2024-05-19 09:26:59.373058,3,0,-85,-1,0,1,84,88,152,150,67,109.57,214,6.00,43.00,-1023.00
2024-05-19 09:26:59.501820,3,0,-93,-1,0,0,84,88,151,150,67,109.71,214,-41.00,44.00,-1089.00
2024-05-19 09:26:59.577447,2,0,-100,-1,0,1,84,88,151,150,67,109.78,215,-3.00,25.00,-1020.00
2024-05-19 09:26:59.706350,1,1,-107,-1,0,1,84,88,150,150,67,109.84,215,91.00,-72.00,-1009.00
2024-05-19 09:26:59.781021,1,2,-115,-1,0,1,85,87,149,150,67,109.83,215,-25.00,3.00,-1022.00
2024-05-19 09:26:59.914028,1,2,-122,-1,0,1,85,87,149,150,67,109.65,215,-10.00,-3.00,-1046.00
2024-05-19 09:26:59.935597,2,2,-130,-1,0,1,85,87,147,150,67,109.48,215,34.00,-8.00,-1064.00
2024-05-19 09:27:00.036070,2,3,-137,-1,1,1,85,87,146,150,67,109.67,215,62.00,-38.00,-1019.00
2024-05-19 09:27:00.137715,2,4,-144,-1,0,1,85,87,144,150,67,109.89,215,-23.00,-28.00,-1035.00
2024-05-19 09:27:00.320707,3,4,-150,-1,0,1,85,87,144,150,67,109.65,215,9.00,5.00,-982.00
2024-05-19 09:27:00.341703,3,4,-155,0,0,1,85,87,142,150,67,109.96,215,0.00,41.00,-954.00
2024-05-19 09:27:00.525506,2,3,-159,0,0,1,85,87,142,140,67,109.92,215,78.00,-25.00,-1083.00
2024-05-19 09:27:00.545689,2,1,-163,0,0,1,85,87,141,140,67,109.68,216,56.00,24.00,-986.00
2024-05-19 09:27:00.730314,4,2,-168,-1,0,1,85,87,139,140,67,109.81,216,87.00,14.00,-1032.00
2024-05-19 09:27:00.749748,6,2,-173,-1,0,0,84,88,139,140,67,109.57,216,61.00,30.00,-975.00
2024-05-19 09:27:00.935165,7,1,-178,-1,0,0,84,88,139,140,67,109.69,216,136.00,-14.00,-1015.00
2024-05-19 09:27:00.953724,6,0,175,0,0,0,84,88,138,140,67,109.90,216,124.00,-40.00,-1022.00
2024-05-19 09:27:01.139834,6,0,169,0,0,0,84,88,138,140,67,109.60,216,118.00,-48.00,-1034.00
2024-05-19 09:27:01.157609,7,1,163,0,0,0,84,88,137,140,67,109.36,216,80.00,5.00,-1087.00
2024-05-19 09:27:01.344800,7,0,158,0,0,0,84,88,137,140,67,109.59,216,76.00,38.00,-859.00
2024-05-19 09:27:01.361740,7,-1,152,0,0,0,84,88,137,140,67,109.46,216,151.00,-7.00,-1076.00
2024-05-19 09:27:01.550117,7,-1,147,0,0,0,84,88,137,140,67,109.58,216,101.00,44.00,-981.00
2024-05-19 09:27:01.567020,7,0,141,0,0,0,84,88,136,140,67,109.23,217,143.00,-14.00,-1008.00
2024-05-19 09:27:01.667603,7,0,135,0,0,0,84,88,138,140,67,109.57,217,53.00,30.00,-1005.00
2024-05-19 09:27:01.856760,7,0,122,0,0,0,85,88,137,140,67,109.50,217,94.00,32.00,-1028.00
2024-05-19 09:27:01.871734,7,-1,116,0,0,0,85,88,139,140,67,109.54,217,38.00,64.00,-979.00
2024-05-19 09:27:02.061551,6,-1,110,1,0,0,85,88,139,140,67,109.51,217,81.00,69.00,-926.00
2024-05-19 09:27:02.076988,6,-1,104,1,0,0,85,88,138,140,67,109.54,217,94.00,60.00,-1108.00
2024-05-19 09:27:02.266360,5,-2,98,1,0,0,85,88,138,140,67,109.51,217,110.00,31.00,-1023.00
2024-05-19 09:27:02.280971,6,-2,92,1,0,0,85,88,138,140,67,109.49,217,104.00,53.00,-1062.00
2024-05-19 09:27:02.471144,5,-2,86,1,0,0,85,88,137,140,67,109.67,217,111.00,49.00,-977.00
2024-05-19 09:27:02.484812,5,-3,79,1,0,0,85,88,136,140,67,109.31,218,27.00,96.00,-953.00
2024-05-19 09:27:02.675946,5,-2,73,1,0,0,85,88,136,140,67,109.34,218,74.00,76.00,-1005.00
2024-05-19 09:27:02.688773,5,-3,67,1,0,0,85,88,136,140,67,109.15,218,135.00,38.00,-1005.00
2024-05-19 09:27:02.880804,6,-3,61,1,0,0,85,88,135,140,67,109.33,218,23.00,63.00,-995.00
2024-05-19 09:27:02.892776,5,-2,55,1,0,0,85,88,135,140,67,109.39,218,30.00,83.00,-994.00
2024-05-19 09:27:03.085562,4,-3,49,1,0,0,85,88,133,140,67,109.44,218,78.00,98.00,-1071.00
2024-05-19 09:27:03.096806,3,-4,43,0,0,0,85,88,132,140,67,109.57,218,38.00,27.00,-1191.00
2024-05-19 09:27:03.198941,3,-3,36,1,-1,0,85,88,132,140,67,109.22,218,-50.00,76.00,-1024.00
2024-05-19 09:27:03.392781,2,-2,29,0,-1,0,85,88,132,130,66,109.45,218,0.00,52.00,-1084.00
2024-05-19 09:27:03.402797,1,-2,22,0,-1,0,85,88,130,130,66,109.65,218,51.00,4.00,-1018.00
2024-05-19 09:27:03.597544,0,-1,16,0,-2,0,85,88,130,130,66,109.39,219,42.00,21.00,-1055.00
2024-05-19 09:27:03.597981,0,0,11,0,-1,0,85,88,129,130,66,109.56,219,63.00,49.00,-1082.00
2024-05-19 09:27:03.657510,1,0,8,0,-1,0,85,88,128,130,66,109.40,219,43.00,31.00,-984.00
2024-05-19 09:27:03.810845,2,0,5,0,-1,0,85,88,128,130,66,109.38,219,74.00,11.00,-1002.00
2024-05-19 09:27:03.861573,1,-1,3,0,-1,0,85,88,128,130,66,109.27,219,39.00,8.00,-1004.00
2024-05-19 09:27:03.963546,1,-1,2,0,0,0,85,88,127,130,66,109.24,219,109.00,-8.00,-1062.00
2024-05-19 09:27:04.110111,1,-1,1,0,0,0,85,88,127,130,66,109.02,219,-14.00,46.00,-1022.00
2024-05-19 09:27:04.167987,1,-1,0,0,0,0,85,88,127,130,66,109.54,219,21.00,29.00,-975.00
2024-05-19 09:27:04.271279,0,-1,0,0,-1,0,85,88,127,130,66,109.33,219,26.00,36.00,-1033.00
2024-05-19 09:27:04.372257,0,0,-1,0,-1,0,85,88,126,130,66,109.10,219,27.00,-19.00,-965.00
2024-05-19 09:27:04.519242,0,0,-2,0,-1,0,85,88,126,130,66,109.17,220,-9.00,-3.00,-1033.00
2024-05-19 09:27:04.577562,0,0,-3,0,-1,0,85,88,126,130,66,109.25,220,49.00,-27.00,-946.00
2024-05-19 09:27:04.677939,0,0,-3,0,-1,0,85,88,126,130,66,109.30,220,40.00,-32.00,-953.00
2024-05-19 09:27:04.780042,0,0,-4,0,0,0,85,88,125,130,66,109.59,220,2.00,-13.00,-968.00
2024-05-19 09:27:04.884747,0,0,-4,0,0,0,85,88,124,130,66,109.06,220,-61.00,20.00,-1020.00
2024-05-19 09:27:04.985230,0,0,-5,0,0,0,85,88,124,130,66,109.37,220,-35.00,-34.00,-1054.00
2024-05-19 09:27:05.087355,0,0,-5,0,0,0,85,88,123,130,66,109.40,220,13.00,-58.00,-1041.00
2024-05-19 09:27:05.189734,0,1,-5,0,0,0,85,88,123,130,66,109.37,220,61.00,-12.00,-1017.00
2024-05-19 09:27:05.289595,0,1,-5,0,0,0,85,88,122,130,66,109.42,220,-17.00,-5.00,-962.00
2024-05-19 09:27:05.440859,-1,0,-5,-1,0,0,85,88,122,130,66,109.18,220,-62.00,54.00,-954.00
2024-05-19 09:27:05.493617,-2,0,-5,0,0,0,85,88,122,130,66,109.21,221,-123.00,42.00,-1178.00
2024-05-19 09:27:05.595536,-2,0,-5,0,0,0,85,88,122,130,66,109.28,221,-11.00,0.00,-1063.00
2024-05-19 09:27:05.748039,-1,0,-5,0,0,0,85,88,122,130,66,109.48,221,-55.00,51.00,-935.00
2024-05-19 09:27:05.799750,-1,0,-5,0,0,0,84,88,122,130,66,109.41,221,-36.00,1.00,-1003.00
2024-05-19 09:27:05.953484,0,0,-5,0,0,0,84,88,122,130,66,109.36,221,-12.00,38.00,-995.00
2024-05-19 09:27:06.011177,0,0,-5,0,0,-1,84,88,122,130,66,109.48,221,-38.00,19.00,-932.00
2024-05-19 09:27:06.105737,0,0,-5,0,0,-1,84,88,122,130,66,109.34,221,58.00,-44.00,-948.00
2024-05-19 09:27:06.207459,0,0,-5,0,0,0,84,88,120,130,66,109.21,221,-14.00,1.00,-963.00
2024-05-19 09:27:06.362247,0,0,-5,0,0,-2,84,88,121,130,66,109.11,221,1.00,58.00,-1600.00
2024-05-19 09:27:06.412438,0,-1,-5,0,0,-9,84,88,128,130,66,109.50,221,64.00,79.00,-1484.00
2024-05-19 09:27:06.567011,1,-57,-5,0,-2,-12,84,88,353,140,66,109.64,222,-42.00,526.00,-1074.00
2024-05-19 09:27:06.616142,0,177,-7,0,-9,-2,84,88,489,150,66,109.44,222,-27.00,716.00,-1021.00
2024-05-19 09:27:06.771840,-1,54,-3,0,-6,10,84,88,193,150,66,109.76,222,59.00,506.00,-1302.00
2024-05-19 09:27:06.820243,2,-5,2,0,-2,10,85,88,121,140,66,109.07,222,31.00,-174.00,-1517.00
2024-05-19 09:27:06.976972,1,1,14,0,-2,9,85,88,108,130,66,109.81,222,215.00,-106.00,-1409.00
2024-05-19 09:27:07.023342,-2,2,33,0,-1,4,85,88,100,120,66,109.21,222,12.00,70.00,-1402.00
2024-05-19 09:27:07.148629,-1,0,52,0,0,1,85,88,96,120,66,109.30,222,27.00,123.00,-1214.00
2024-05-19 09:27:07.227305,0,-2,65,-1,0,0,85,88,94,120,66,109.04,222,1.00,110.00,-1181.00
2024-05-19 09:27:07.278658,1,-3,72,0,0,-2,85,88,95,120,66,109.16,222,14.00,82.00,-1056.00
2024-05-19 09:27:07.386314,1,-3,70,-1,0,-2,85,88,96,120,66,109.31,222,27.00,112.00,-1031.00
2024-05-19 09:27:07.482667,0,-2,59,0,0,-3,85,88,98,120,66,108.99,223,27.00,111.00,-1038.00
2024-05-19 09:27:07.591571,0,-3,45,0,1,-3,85,88,99,120,66,109.60,223,-32.00,71.00,-1008.00
2024-05-19 09:27:07.693547,0,-3,32,0,1,-2,85,88,101,130,66,109.54,223,-24.00,41.00,-972.00
2024-05-19 09:27:07.788572,0,-3,19,0,1,-2,85,88,102,130,66,109.44,223,83.00,-8.00,-1003.00
2024-05-19 09:27:07.893216,0,-3,7,0,0,-2,85,88,103,130,66,109.07,223,19.00,12.00,-984.00
2024-05-19 09:27:07.992497,0,-3,-4,0,0,-2,85,88,103,130,66,109.46,223,-23.00,4.00,-848.00
2024-05-19 09:27:08.103117,0,-3,-6,0,0,-1,85,88,104,130,66,109.26,223,17.00,-5.00,-944.00
2024-05-19 09:27:08.196541,0,-2,-6,0,0,-1,85,88,104,130,66,109.50,223,63.00,-17.00,-968.00
2024-05-19 09:27:08.307856,1,0,-6,0,-1,-1,85,88,104,130,66,109.32,223,-17.00,55.00,-1037.00
2024-05-19 09:27:08.400493,2,0,-6,0,-1,-1,85,88,104,140,66,109.61,223,-43.00,51.00,-903.00
2024-05-19 09:27:08.512686,1,0,-6,0,-1,-1,85,88,105,140,66,109.36,224,67.00,-7.00,-1071.00
2024-05-19 09:27:08.604864,1,0,-6,0,0,-1,85,88,104,140,66,109.40,224,30.00,20.00,-965.00
2024-05-19 09:27:08.718415,1,0,-6,0,0,-1,85,88,104,140,66,109.54,224,72.00,-11.00,-1094.00
2024-05-19 09:27:08.808484,0,0,-6,0,0,-1,86,88,103,140,66,109.15,224,-11.00,30.00,-975.00
2024-05-19 09:27:08.922700,0,0,-6,0,0,0,86,88,102,140,66,109.69,224,-34.00,42.00,-983.00
2024-05-19 09:27:09.012573,0,0,-6,0,0,0,86,88,101,140,66,109.32,224,-13.00,18.00,-910.00
2024-05-19 09:27:09.127091,0,0,-6,0,0,0,86,88,100,140,66,109.37,224,18.00,10.00,-949.00
2024-05-19 09:27:09.216542,0,0,-6,0,0,0,86,88,99,140,65,109.67,224,35.00,33.00,-1063.00
2024-05-19 09:27:09.331951,0,0,-6,0,0,0,86,88,98,130,65,109.31,224,24.00,4.00,-966.00
2024-05-19 09:27:09.420524,0,0,-6,0,0,0,86,88,97,130,65,109.47,224,36.00,-21.00,-979.00
2024-05-19 09:27:09.536684,0,0,-6,0,0,0,86,88,96,130,65,109.31,225,-14.00,31.00,-1026.00
2024-05-19 09:27:09.624428,0,0,-6,0,0,0,86,88,95,130,65,108.93,225,18.00,37.00,-1036.00
2024-05-19 09:27:09.726421,0,0,-6,0,0,0,86,88,95,130,65,109.24,225,-17.00,36.00,-1018.00
2024-05-19 09:27:09.843971,0,0,-6,0,0,0,84,88,94,130,65,109.54,225,50.00,16.00,-1017.00
2024-05-19 09:27:09.930755,0,0,-5,0,0,0,84,88,94,130,65,109.35,225,-63.00,47.00,-1022.00
2024-05-19 09:27:10.048748,1,-1,-5,0,0,0,84,88,94,130,65,109.32,225,20.00,37.00,-1078.00
2024-05-19 09:27:10.134983,1,-1,-5,0,0,0,84,88,94,130,65,109.10,225,3.00,48.00,-1150.00
2024-05-19 09:27:10.236646,1,-1,-5,0,0,0,84,88,94,130,65,109.58,225,-59.00,66.00,-838.00
2024-05-19 09:27:10.355916,1,0,-5,0,0,0,84,88,95,130,65,109.21,225,10.00,32.00,-1113.00
2024-05-19 09:27:10.441871,1,-1,-5,0,0,0,84,88,96,130,65,109.26,225,-75.00,78.00,-1000.00
2024-05-19 09:27:10.560759,1,0,-6,0,0,0,84,88,97,130,65,109.43,226,0.00,4.00,-999.00
2024-05-19 09:27:10.644487,0,-1,-6,0,0,0,84,88,97,130,65,109.33,226,71.00,-13.00,-1004.00
2024-05-19 09:27:10.695227,0,-1,-6,0,0,0,84,88,99,130,65,109.03,226,-67.00,45.00,-1048.00
2024-05-19 09:27:10.867958,0,-1,-6,0,0,0,84,88,101,130,65,109.68,226,74.00,-22.00,-1012.00
2024-05-19 09:27:10.899524,0,-1,-5,0,0,-1,84,88,103,130,65,109.39,226,-9.00,50.00,-916.00
2024-05-19 09:27:11.072690,0,0,-5,0,0,-1,84,88,105,130,65,109.20,226,-40.00,44.00,-1025.00
2024-05-19 09:27:11.103327,0,0,-5,0,0,-1,84,88,106,130,65,109.37,226,-3.00,17.00,-938.00
2024-05-19 09:27:11.277552,0,0,-5,0,0,-1,84,88,107,130,65,109.26,226,-23.00,37.00,-906.00
2024-05-19 09:27:11.307182,1,0,-5,0,0,0,84,88,108,140,65,109.22,226,39.00,23.00,-999.00
2024-05-19 09:27:11.482433,0,0,-5,0,0,0,84,88,109,140,65,109.28,226,-2.00,38.00,-1052.00
2024-05-19 09:27:11.511242,0,0,-5,0,0,0,84,88,110,140,65,109.32,227,31.00,26.00,-987.00
2024-05-19 09:27:11.613262,0,0,-5,0,0,0,84,88,111,140,65,109.53,227,2.00,18.00,-1020.00
2024-05-19 09:27:11.789543,1,0,-5,0,0,0,84,88,112,140,65,109.34,227,-27.00,47.00,-934.00
2024-05-19 09:27:11.817114,0,0,-5,0,0,0,85,88,112,140,65,109.37,227,62.00,10.00,-996.00
2024-05-19 09:27:11.994774,1,0,-5,0,0,0,85,88,113,140,65,109.67,227,62.00,-19.00,-964.00
2024-05-19 09:27:12.021101,1,0,-5,0,0,0,85,88,113,140,65,109.24,227,-18.00,9.00,-901.00
2024-05-19 09:27:12.199392,2,0,-5,0,0,0,85,88,113,140,65,109.17,227,-54.00,62.00,-815.00
2024-05-19 09:27:12.225071,1,0,-5,0,0,0,85,88,112,140,65,109.51,227,16.00,-1.00,-993.00
2024-05-19 09:27:12.403967,0,0,-5,0,0,0,85,88,111,140,65,109.48,227,-20.00,63.00,-963.00
2024-05-19 09:27:12.429077,0,0,-5,0,0,0,85,88,111,140,65,109.30,227,5.00,5.00,-936.00
2024-05-19 09:27:12.608799,0,0,-5,0,0,0,85,88,109,140,65,109.48,228,34.00,0.00,-1060.00
2024-05-19 09:27:12.633149,0,-1,-5,0,0,0,85,88,109,140,65,109.44,228,-16.00,23.00,-934.00
2024-05-19 09:27:12.735022,0,-1,-5,0,0,0,85,88,108,140,65,109.28,228,-13.00,20.00,-966.00
2024-05-19 09:27:12.915744,0,0,-5,0,0,0,85,89,107,140,65,109.13,228,83.00,4.00,-1691.00
2024-05-19 09:27:12.939535,0,1,-5,0,0,-3,85,89,109,140,65,109.39,228,24.00,44.00,-1632.00
2024-05-19 09:27:13.120654,0,5,-5,0,1,-9,85,89,118,150,65,109.99,228,42.00,-8.00,-1722.00
2024-05-19 09:27:13.143002,-2,78,-4,1,6,-12,85,89,364,160,65,109.68,228,63.00,841.00,-1186.00
2024-05-19 09:27:13.245059,1,-156,-10,1,12,1,85,89,593,160,64,109.57,228,96.00,792.00,-804.00
2024-05-19 09:27:13.427711,4,-37,0,1,6,11,85,89,137,160,64,109.86,228,76.00,540.00,-941.00
2024-05-19 09:27:13.448951,0,20,0,0,7,11,85,89,115,140,64,108.92,228,137.00,0.00,-1366.00
2024-05-19 09:27:13.632583,0,0,-6,1,10,9,85,89,94,140,64,109.74,229,110.00,-4.00,-1450.00
2024-05-19 09:27:13.653119,0,-7,-14,2,9,5,85,89,87,130,64,109.59,229,23.00,-10.00,-1504.00
2024-05-19 09:27:13.837774,0,-9,-22,1,6,1,85,89,84,120,64,109.67,229,88.00,-68.00,-1386.00
2024-05-19 09:27:13.857001,0,-7,-26,1,4,-1,85,88,85,120,64,109.25,229,56.00,-30.00,-1218.00
2024-05-19 09:27:13.959005,0,-3,-22,0,3,-3,85,88,88,130,64,109.36,229,36.00,14.00,-1034.00
2024-05-19 09:27:14.144562,0,-1,-12,0,2,-3,85,88,92,130,64,109.23,229,38.00,-4.00,-1025.00
2024-05-19 09:27:14.172657,1,-1,-5,0,2,-3,85,88,95,130,64,109.37,229,74.00,-41.00,-955.00
2024-05-19 09:27:14.265026,1,0,-4,0,2,-2,85,88,98,140,64,109.19,229,3.00,5.00,-966.00
2024-05-19 09:27:14.451735,0,0,-5,0,1,-2,85,88,101,140,64,109.25,229,31.00,-4.00,-1067.00
2024-05-19 09:27:14.471864,0,0,-5,0,1,-2,85,88,103,140,64,109.51,229,71.00,-23.00,-953.00
2024-05-19 09:27:14.520294,1,-2,-5,0,1,-2,85,88,105,140,64,109.46,230,-20.00,9.00,-980.00
2024-05-19 09:27:14.659123,2,-3,-5,0,0,-1,85,88,106,150,64,109.09,230,-42.00,27.00,-928.00
2024-05-19 09:27:14.724102,2,-3,-5,0,0,-1,85,88,105,150,64,109.19,230,-10.00,31.00,-921.00
2024-05-19 09:27:14.861776,1,-2,-5,0,0,0,85,88,104,150,64,109.47,230,68.00,-19.00,-986.00
2024-05-19 09:27:14.928396,1,-2,-5,0,0,0,85,88,103,150,64,109.11,230,54.00,-16.00,-1036.00
2024-05-19 09:27:15.066226,0,-2,-5,0,0,0,85,88,102,150,64,109.24,230,20.00,32.00,-1016.00
2024-05-19 09:27:15.132076,0,-2,-5,0,0,0,85,88,101,150,64,109.39,230,11.00,32.00,-965.00
2024-05-19 09:27:15.236578,0,-2,-5,0,0,0,85,88,100,150,64,109.52,230,-33.00,51.00,-946.00
2024-05-19 09:27:15.336343,0,-2,-5,0,0,0,85,88,99,150,64,109.18,230,26.00,-16.00,-1100.00
2024-05-19 09:27:15.475832,0,-1,-5,0,0,0,85,88,99,150,64,109.00,230,41.00,1.00,-1010.00
2024-05-19 09:27:15.540209,0,0,-5,0,0,0,85,88,98,150,64,109.08,231,89.00,-36.00,-1014.00
2024-05-19 09:27:15.680625,1,0,-5,0,-1,0,85,88,97,150,64,109.13,231,-9.00,32.00,-969.00
2024-05-19 09:27:15.744135,2,0,-5,0,0,0,85,88,96,140,64,109.25,231,-88.00,71.00,-938.00
2024-05-19 09:27:15.885708,0,0,-5,0,0,0,84,88,95,140,64,109.28,231,-8.00,4.00,-1107.00
2024-05-19 09:27:15.948426,0,-1,-5,0,0,0,84,88,94,140,64,109.12,231,1.00,16.00,-1025.00
2024-05-19 09:27:16.090201,0,-1,-5,0,0,0,84,88,93,140,64,109.29,231,-58.00,64.00,-1046.00
2024-05-19 09:27:16.152136,0,-1,-4,0,0,0,84,88,92,140,64,109.29,231,41.00,14.00,-994.00
2024-05-19 09:27:16.254075,1,-1,-5,0,0,0,84,88,92,140,64,109.13,231,-23.00,46.00,-899.00
2024-05-19 09:27:16.397400,1,-1,-5,0,0,0,84,88,91,140,64,109.13,231,-40.00,35.00,-969.00
2024-05-19 09:27:16.458355,1,-1,-5,0,0,0,84,88,91,140,64,109.26,231,0.00,8.00,-1044.00
2024-05-19 09:27:16.602320,1,-1,-5,0,0,0,84,88,90,140,64,109.47,232,-11.00,0.00,-1002.00
2024-05-19 09:27:16.662136,1,-1,-5,0,0,0,84,88,90,140,64,109.18,232,2.00,24.00,-1068.00
2024-05-19 09:27:16.807547,0,-1,-5,0,0,0,84,88,90,140,64,109.30,232,44.00,4.00,-979.00
2024-05-19 09:27:16.866125,0,-2,-5,0,0,0,84,88,90,140,64,109.12,232,-20.00,33.00,-1030.00
2024-05-19 09:27:16.970865,1,-2,-5,0,0,0,84,88,90,140,64,109.34,232,76.00,10.00,-1008.00
2024-05-19 09:27:17.070901,1,-1,-5,0,0,0,84,88,90,140,64,109.36,232,-26.00,30.00,-978.00
2024-05-19 09:27:17.216727,0,-1,-5,0,0,0,84,88,91,140,64,109.47,232,-11.00,72.00,-854.00
2024-05-19 09:27:17.275778,0,-1,-5,0,0,0,84,88,93,140,64,109.16,232,28.00,10.00,-1054.00
2024-05-19 09:27:17.376404,1,-1,-5,0,0,-1,84,88,94,140,64,109.29,232,-7.00,26.00,-1027.00
2024-05-19 09:27:17.524302,1,-1,-5,0,0,0,84,88,96,140,64,109.33,232,-18.00,40.00,-1064.00
2024-05-19 09:27:17.582574,1,-1,-5,0,0,-1,84,88,97,140,64,109.49,233,34.00,7.00,-1048.00
2024-05-19 09:27:17.683409,1,-1,-5,0,0,-1,84,88,98,140,64,109.12,233,53.00,2.00,-1052.00
2024-05-19 09:27:17.784823,1,-2,-5,0,0,-1,84,88,98,140,64,109.40,233,65.00,-25.00,-1006.00
2024-05-19 09:27:17.887720,1,-2,-5,0,0,0,84,88,98,140,64,109.46,233,-12.00,55.00,-929.00
2024-05-19 09:27:17.991970,0,-2,-5,0,0,0,84,88,99,140,64,109.42,233,-59.00,71.00,-954.00
2024-05-19 09:27:18.038891,0,-2,-5,0,0,0,84,88,99,140,64,109.15,233,4.00,9.00,-1007.00
2024-05-19 09:27:18.140893,1,-2,-5,0,0,0,84,88,98,140,64,109.39,233,-23.00,75.00,-959.00
2024-05-19 09:27:18.242906,1,-2,-5,0,0,0,84,88,98,140,64,109.36,233,16.00,26.00,-999.00
