TS,pitch,roll,yaw,vgx,vgy,vgz,templ,temph,tof,h,bat,baro,time,agx,agy,agz
2024-05-19 09:28:01.761021,0,0,5,0,0,0,86,88,10,0,60,108.14,252,3.00,6.00,-1000.00
2024-05-19 09:28:01.798606,0,0,5,0,0,0,86,88,10,0,60,108.18,252,2.00,8.00,-1002.00
2024-05-19 09:28:01.965463,0,0,5,0,0,0,86,88,10,0,60,108.25,252,3.00,6.00,-998.00
2024-05-19 09:28:02.003479,0,0,5,0,0,0,86,88,10,0,60,108.22,252,2.00,9.00,-999.00
2024-05-19 09:28:02.104729,0,0,5,0,0,0,86,88,10,0,60,108.16,252,2.00,8.00,-1000.00
2024-05-19 09:28:02.272038,0,0,5,0,0,0,86,88,10,0,60,108.35,252,4.00,7.00,-1000.00
2024-05-19 09:28:02.308222,0,0,5,0,0,0,86,88,10,0,60,108.14,252,1.00,6.00,-1001.00
2024-05-19 09:28:02.477045,0,0,5,0,0,0,86,88,10,0,60,108.10,252,2.00,6.00,-1000.00
2024-05-19 09:28:02.512412,0,0,5,0,0,0,86,88,10,0,60,108.26,252,2.00,8.00,-1002.00
2024-05-19 09:28:02.681923,0,0,5,0,0,0,86,88,10,0,60,108.16,252,2.00,7.00,-999.00
2024-05-19 09:28:02.716356,0,0,5,0,0,0,86,88,10,0,60,108.45,252,3.00,7.00,-998.00
2024-05-19 09:28:02.886645,0,0,5,0,0,0,86,88,10,0,60,108.04,252,3.00,6.00,-1001.00
2024-05-19 09:28:02.920422,0,0,5,0,0,0,86,88,10,0,60,108.21,252,3.00,6.00,-1001.00
2024-05-19 09:28:02.971233,0,0,5,0,0,0,86,88,10,0,60,108.32,252,2.00,8.00,-1000.00
2024-05-19 09:28:03.124300,0,0,5,0,0,0,87,88,10,0,60,108.40,252,2.00,7.00,-1001.00
2024-05-19 09:28:03.175612,0,0,5,0,0,0,87,88,10,0,60,108.24,252,3.00,6.00,-997.00
2024-05-19 09:28:03.296147,0,0,5,0,0,0,87,88,10,0,60,108.16,252,0.00,8.00,-997.00
2024-05-19 09:28:03.379686,0,0,5,0,0,0,87,88,10,0,60,108.28,252,2.00,6.00,-998.00
2024-05-19 09:28:03.501132,0,0,5,0,0,0,87,88,10,0,60,108.23,252,2.00,8.00,-998.00
2024-05-19 09:28:03.583307,0,0,5,0,0,0,87,88,10,0,60,108.19,252,2.00,7.00,-1001.00
2024-05-19 09:28:03.705901,0,0,5,0,0,0,87,88,10,0,60,108.21,252,1.00,8.00,-1000.00
2024-05-19 09:28:03.787352,0,0,5,0,0,0,87,88,10,0,60,108.15,252,1.00,8.00,-1002.00
2024-05-19 09:28:03.910630,0,0,5,0,0,0,87,88,10,0,60,108.25,252,2.00,7.00,-1000.00
2024-05-19 09:28:03.991357,0,0,5,0,0,0,87,88,10,0,60,108.13,252,1.00,6.00,-1001.00
2024-05-19 09:28:04.093306,0,0,5,0,0,0,87,88,10,0,60,108.35,252,2.00,7.00,-999.00
2024-05-19 09:28:04.195609,0,0,5,0,0,0,87,88,10,0,60,108.26,252,2.00,8.00,-1000.00
2024-05-19 09:28:04.320186,0,0,5,0,0,0,87,88,10,0,60,108.30,252,-19.00,-12.00,-994.00
2024-05-19 09:28:04.399213,0,0,5,0,0,0,87,88,10,0,60,108.26,252,-10.00,6.00,-999.00
2024-05-19 09:28:04.524934,0,0,5,0,0,0,87,88,10,0,60,108.26,252,37.00,20.00,-1006.00
2024-05-19 09:28:04.603202,0,0,6,0,0,0,87,88,10,0,60,108.26,252,44.00,-1.00,-1057.00
2024-05-19 09:28:04.729752,0,0,7,0,0,0,87,88,10,0,60,108.26,252,66.00,47.00,-987.00
2024-05-19 09:28:04.807187,0,0,8,0,0,0,87,88,10,0,60,108.26,253,41.00,6.00,-1047.00
2024-05-19 09:28:04.934556,0,1,9,0,0,-1,87,88,10,0,60,108.26,253,0.00,29.00,-1080.00
2024-05-19 09:28:05.011544,1,1,9,0,1,-3,87,88,10,0,60,108.26,253,21.00,65.00,-993.00
2024-05-19 09:28:05.113120,3,-2,9,0,1,-5,88,90,12,0,60,108.38,253,-25.00,42.00,-1178.00
2024-05-19 09:28:05.241781,2,-2,9,0,0,-7,88,90,21,10,60,108.34,253,-26.00,46.00,-1011.00
2024-05-19 09:28:05.317075,1,-2,9,0,0,-8,88,90,30,20,60,108.65,253,-78.00,68.00,-901.00
2024-05-19 09:28:05.446496,0,-2,9,0,0,-8,88,90,38,30,60,108.53,253,50.00,18.00,-1047.00
2024-05-19 09:28:05.522089,0,-3,9,0,0,-8,88,90,42,40,60,108.85,253,24.00,41.00,-888.00
2024-05-19 09:28:05.623585,0,-2,9,0,0,-7,88,90,49,40,60,108.61,253,59.00,-6.00,-1034.00
2024-05-19 09:28:05.753702,0,-2,9,0,0,-5,88,90,56,50,60,109.16,253,64.00,-9.00,-896.00
2024-05-19 09:28:05.829183,0,-1,9,0,0,-4,88,90,61,50,60,109.02,254,0.00,37.00,-806.00
2024-05-19 09:28:05.929737,0,-1,9,0,0,-3,88,90,65,60,60,109.02,254,-43.00,60.00,-873.00
2024-05-19 09:28:06.031811,0,-2,9,0,0,-2,88,90,65,60,60,109.16,254,39.00,-14.00,-957.00
2024-05-19 09:28:06.133023,0,-1,9,0,0,-1,87,89,68,60,60,108.96,254,-67.00,52.00,-938.00
2024-05-19 09:28:06.265659,0,0,8,0,0,0,87,89,71,60,60,109.27,254,51.00,-3.00,-919.00
2024-05-19 09:28:06.337032,0,0,8,0,0,0,87,89,72,60,60,109.16,254,7.00,39.00,-977.00
2024-05-19 09:28:06.470500,0,-1,8,0,0,0,87,89,74,60,60,109.15,254,13.00,29.00,-1093.00
2024-05-19 09:28:06.541051,0,-1,9,0,0,-1,87,89,76,60,60,109.21,254,0.00,38.00,-927.00
2024-05-19 09:28:06.675253,0,-1,9,0,0,0,87,89,78,70,60,109.10,254,78.00,-4.00,-1028.00
2024-05-19 09:28:06.694300,0,-1,9,0,0,0,87,89,80,70,60,109.41,254,66.00,-10.00,-1064.00
2024-05-19 09:28:06.880078,0,0,9,0,0,-1,87,89,82,70,60,109.32,255,32.00,22.00,-1000.00
2024-05-19 09:28:06.898078,1,0,9,0,0,-1,87,89,84,70,60,109.33,255,-14.00,7.00,-1034.00
2024-05-19 09:28:07.084841,1,0,9,0,0,-1,87,89,85,70,60,109.20,255,-40.00,50.00,-926.00
2024-05-19 09:28:07.102013,0,0,9,0,0,0,87,89,86,70,60,109.03,255,-1.00,29.00,-1010.00
2024-05-19 09:28:07.289643,0,-1,9,0,0,0,87,89,86,70,60,109.27,255,79.00,-36.00,-984.00
2024-05-19 09:28:07.305974,0,0,9,0,0,0,87,89,87,80,60,108.97,255,54.00,-4.00,-913.00
2024-05-19 09:28:07.494394,0,0,9,0,0,0,87,89,87,80,60,109.25,255,52.00,4.00,-1188.00
2024-05-19 09:28:07.510005,0,0,9,0,0,0,87,89,87,80,60,109.36,255,-23.00,29.00,-931.00
2024-05-19 09:28:07.612038,0,0,9,0,0,0,87,89,88,80,60,109.38,255,-10.00,-3.00,-998.00
2024-05-19 09:28:07.801748,0,0,9,0,0,0,87,89,88,80,60,109.19,255,69.00,-35.00,-976.00
2024-05-19 09:28:07.816031,1,1,9,0,0,0,87,89,88,80,60,109.50,256,50.00,-8.00,-945.00
2024-05-19 09:28:08.006540,1,1,9,0,0,0,87,89,87,80,60,109.15,256,-89.00,46.00,-1092.00
2024-05-19 09:28:08.019871,1,1,9,0,0,0,87,89,87,80,60,109.16,256,41.00,-5.00,-982.00
2024-05-19 09:28:08.122028,0,0,9,0,0,0,87,89,85,80,60,109.14,256,-14.00,3.00,-961.00
2024-05-19 09:28:08.313652,0,1,9,0,0,0,87,89,84,80,60,109.16,256,-16.00,-6.00,-938.00
2024-05-19 09:28:08.325784,-1,1,9,0,0,0,87,89,83,80,60,109.31,256,-3.00,-11.00,-1008.00
2024-05-19 09:28:08.518427,0,1,9,0,0,0,87,89,82,80,60,109.29,256,-35.00,10.00,-1032.00
2024-05-19 09:28:08.529971,0,0,9,0,0,0,87,89,82,70,60,109.19,256,68.00,-8.00,-966.00
2024-05-19 09:28:08.723226,0,0,9,0,0,0,87,89,80,70,60,109.45,256,-29.00,-12.00,-987.00
2024-05-19 09:28:08.733889,0,1,9,0,0,0,87,89,79,70,60,109.17,256,27.00,9.00,-916.00
2024-05-19 09:28:08.928056,0,1,9,0,0,0,87,89,79,70,60,109.23,257,-2.00,-18.00,-1095.00
2024-05-19 09:28:08.937906,0,0,9,0,0,0,87,89,78,70,60,109.20,257,80.00,-24.00,-978.00
2024-05-19 09:28:09.132843,1,0,9,0,0,0,87,89,78,70,60,109.06,257,-1.00,-30.00,-1032.00
2024-05-19 09:28:09.141897,1,0,9,0,0,0,87,89,78,70,60,109.09,257,35.00,-5.00,-1049.00
2024-05-19 09:28:09.255825,1,0,9,0,0,0,87,89,79,70,60,109.17,257,50.00,-19.00,-1031.00
2024-05-19 09:28:09.345839,1,0,9,0,0,0,87,89,79,70,60,109.19,257,3.00,-22.00,-958.00
2024-05-19 09:28:09.542411,1,0,9,0,0,0,87,89,80,70,60,109.18,257,12.00,-2.00,-1074.00
2024-05-19 09:28:09.549919,1,0,9,0,0,0,87,89,80,70,60,109.12,257,50.00,7.00,-961.00
2024-05-19 09:28:09.747209,1,0,9,0,0,0,87,89,81,70,60,109.55,257,-6.00,-25.00,-1079.00
2024-05-19 09:28:09.754903,1,0,9,0,0,0,87,89,82,70,60,109.27,257,38.00,-20.00,-956.00
2024-05-19 09:28:09.952350,1,0,9,0,0,0,87,89,82,70,60,109.12,258,30.00,3.00,-951.00
2024-05-19 09:28:09.959113,2,1,9,0,0,0,87,89,82,70,60,109.35,258,2.00,0.00,-990.00
2024-05-19 09:28:10.156801,2,0,9,0,0,0,87,89,82,70,60,108.99,258,-8.00,7.00,-1070.00
2024-05-19 09:28:10.163775,2,0,9,0,0,0,87,90,82,70,60,109.16,258,64.00,-30.00,-1020.00
2024-05-19 09:28:10.276732,1,0,9,0,0,0,87,90,81,70,60,109.26,258,33.00,0.00,-1011.00
2024-05-19 09:28:10.366997,2,0,9,0,0,0,87,90,81,70,60,109.03,258,47.00,7.00,-1151.00
2024-05-19 09:28:10.420995,2,0,9,0,0,0,87,90,81,70,60,109.28,258,71.00,-25.00,-1112.00
2024-05-19 09:28:10.521354,2,0,9,0,0,0,87,90,81,70,60,109.01,258,83.00,2.00,-1030.00
2024-05-19 09:28:10.623024,2,0,9,0,0,0,87,90,81,70,60,108.86,258,37.00,-12.00,-975.00
2024-05-19 09:28:10.725293,2,0,9,0,0,0,87,90,82,70,60,109.24,258,53.00,24.00,-968.00
2024-05-19 09:28:10.827979,2,0,9,0,0,0,87,90,81,70,60,108.96,259,7.00,34.00,-1050.00
2024-05-19 09:28:10.927994,2,0,9,0,0,0,87,90,81,70,60,108.91,259,39.00,26.00,-909.00
2024-05-19 09:28:11.078591,2,0,9,0,0,0,87,90,81,70,60,109.05,259,71.00,-11.00,-1004.00
2024-05-19 09:28:11.131981,2,0,9,0,0,0,87,89,80,70,60,108.99,259,66.00,8.00,-1019.00
2024-05-19 09:28:11.283336,3,0,9,0,0,0,87,89,80,70,60,109.10,259,58.00,14.00,-971.00
2024-05-19 09:28:11.335938,2,0,9,0,0,0,87,89,80,70,60,109.11,259,79.00,-19.00,-1002.00
2024-05-19 09:28:11.488546,2,0,9,0,0,0,87,89,80,70,60,109.06,259,42.00,-24.00,-889.00
2024-05-19 09:28:11.539981,2,0,9,0,0,0,87,89,80,70,60,109.10,259,39.00,2.00,-1008.00
2024-05-19 09:28:11.693008,3,0,9,0,0,0,87,89,80,70,60,109.13,259,72.00,-42.00,-1033.00
2024-05-19 09:28:11.744632,3,0,9,0,0,0,87,89,81,70,60,109.16,259,-3.00,12.00,-1018.00
2024-05-19 09:28:11.897858,3,1,9,0,0,0,87,89,81,70,60,109.04,260,58.00,-23.00,-1043.00
2024-05-19 09:28:11.947896,2,2,9,0,0,0,87,89,81,70,60,109.15,260,54.00,-9.00,-957.00
2024-05-19 09:28:12.102624,3,2,9,0,0,0,87,89,81,70,60,109.03,260,72.00,-34.00,-1011.00
2024-05-19 09:28:12.152921,3,2,9,0,0,0,87,89,81,70,60,109.23,260,26.00,-50.00,-935.00
2024-05-19 09:28:12.255539,3,2,9,0,0,0,87,89,81,70,60,108.86,260,46.00,-21.00,-1065.00
2024-05-19 09:28:12.357906,2,1,9,0,0,0,87,89,82,70,60,109.38,260,85.00,-55.00,-1109.00
2024-05-19 09:28:12.458865,2,1,9,0,0,0,87,89,83,70,60,109.25,260,53.00,-12.00,-1068.00
2024-05-19 09:28:12.561530,3,2,9,0,0,-1,87,89,85,70,60,109.33,260,107.00,-63.00,-1129.00
2024-05-19 09:28:12.663891,3,1,9,0,0,-2,87,89,89,70,60,108.96,260,38.00,-31.00,-1111.00
2024-05-19 09:28:12.763771,4,2,9,0,0,-3,87,89,93,80,60,108.90,260,49.00,-68.00,-1037.00
2024-05-19 09:28:12.921545,3,2,9,0,0,-4,87,89,98,80,60,109.04,261,36.00,-24.00,-1057.00
2024-05-19 09:28:12.967784,3,2,9,0,0,-4,87,89,103,90,60,109.38,261,19.00,-25.00,-1042.00
2024-05-19 09:28:13.126715,3,2,9,0,0,-5,87,89,109,90,60,109.66,261,89.00,-64.00,-1024.00
2024-05-19 09:28:13.171843,3,2,9,0,0,-5,87,89,115,100,60,109.55,261,114.00,-44.00,-1083.00
2024-05-19 09:28:13.274209,2,1,9,0,0,-6,87,89,120,100,60,109.26,261,-24.00,59.00,-915.00
2024-05-19 09:28:13.433657,3,1,9,0,0,-6,87,89,125,110,60,109.31,261,136.00,-41.00,-1055.00
2024-05-19 09:28:13.477991,3,1,9,0,0,-5,87,89,131,120,60,109.51,261,57.00,-11.00,-972.00
2024-05-19 09:28:13.579925,3,0,9,0,0,-5,87,89,135,120,60,109.52,261,88.00,-20.00,-1122.00
2024-05-19 09:28:13.740878,3,1,9,0,0,-4,87,89,140,130,60,109.41,261,25.00,-37.00,-927.00
2024-05-19 09:28:13.784341,3,1,9,0,0,-4,87,89,143,130,60,109.72,261,-33.00,2.00,-1083.00
2024-05-19 09:28:13.945594,4,2,9,0,0,-3,87,89,147,140,60,109.77,262,149.00,-72.00,-990.00
2024-05-19 09:28:13.945646,4,2,9,0,0,-3,87,89,151,140,60,109.63,262,28.00,-21.00,-1011.00
2024-05-19 09:28:14.038658,4,1,9,0,0,-3,87,89,155,140,60,109.82,262,42.00,2.00,-886.00
2024-05-19 09:28:14.192776,4,2,9,0,0,-3,86,90,159,150,60,109.80,262,0.00,-20.00,-1040.00
2024-05-19 09:28:14.294812,4,2,9,0,0,-3,86,90,163,150,60,109.76,262,128.00,-106.00,-991.00
2024-05-19 09:28:14.396970,4,3,9,0,0,-2,86,90,166,160,60,109.88,262,107.00,-83.00,-1016.00
2024-05-19 09:28:14.499227,3,4,9,0,0,-2,86,90,169,160,60,109.91,262,-42.00,-16.00,-937.00
2024-05-19 09:28:14.599584,2,4,9,0,0,-2,86,90,171,160,60,109.50,262,50.00,-53.00,-1010.00
2024-05-19 09:28:14.650742,2,4,9,0,0,-1,86,90,171,160,60,110.26,262,105.00,-58.00,-846.00
2024-05-19 09:28:14.764838,2,3,9,0,0,-1,86,90,174,160,60,109.99,263,57.00,-29.00,-985.00
2024-05-19 09:28:14.854752,3,3,9,0,0,-1,86,90,174,170,60,109.66,263,126.00,-71.00,-971.00
2024-05-19 09:28:14.956722,3,3,9,0,0,0,86,90,176,170,60,110.35,263,35.00,-57.00,-1048.00
2024-05-19 09:28:15.072168,2,2,9,0,0,0,86,90,175,170,60,109.83,263,102.00,-44.00,-867.00
2024-05-19 09:28:15.160701,3,3,9,0,0,0,86,90,176,170,60,110.01,263,70.00,-37.00,-999.00
2024-05-19 09:28:15.277009,3,3,9,0,0,0,86,90,175,170,60,109.91,263,18.00,-48.00,-1055.00
2024-05-19 09:28:15.364756,4,3,9,0,0,0,86,90,175,170,60,109.99,263,9.00,-21.00,-936.00
2024-05-19 09:28:15.481755,3,3,9,0,0,0,86,90,174,170,60,109.61,263,69.00,-72.00,-1085.00
2024-05-19 09:28:15.569232,3,3,9,0,0,0,86,90,173,170,60,109.89,263,-7.00,-18.00,-957.00
2024-05-19 09:28:15.686863,3,3,9,0,0,0,86,90,172,170,60,109.89,263,28.00,-66.00,-1013.00
2024-05-19 09:28:15.772904,3,2,9,0,0,0,86,90,171,160,60,109.85,264,22.00,-59.00,-1016.00
2024-05-19 09:28:15.891307,2,2,9,0,0,0,86,90,170,160,60,109.70,264,31.00,-12.00,-972.00
2024-05-19 09:28:15.977401,2,2,9,0,0,0,86,90,170,160,60,109.69,264,68.00,-67.00,-1061.00
2024-05-19 09:28:16.096049,2,2,9,0,0,0,86,90,169,160,60,109.63,264,18.00,-33.00,-1045.00
2024-05-19 09:28:16.185330,2,2,9,0,0,0,86,89,170,160,60,109.56,264,32.00,-48.00,-1002.00
2024-05-19 09:28:16.282733,2,2,9,0,0,0,86,89,170,160,60,109.90,264,-7.00,-25.00,-1071.00
2024-05-19 09:28:16.403385,2,1,9,0,0,0,86,89,170,160,60,109.87,264,-16.00,-11.00,-1085.00
2024-05-19 09:28:16.486546,2,1,9,0,0,0,86,89,171,160,60,109.38,264,-19.00,-2.00,-974.00
2024-05-19 09:28:16.608109,1,1,9,0,0,0,86,89,172,160,60,109.88,264,-27.00,-59.00,-1021.00
2024-05-19 09:28:16.690536,1,1,9,0,0,0,86,89,172,160,60,109.65,264,45.00,-19.00,-952.00
2024-05-19 09:28:16.813173,1,1,9,0,0,0,86,89,173,160,60,109.93,265,41.00,-4.00,-933.00
2024-05-19 09:28:16.894715,1,1,9,0,0,0,86,89,173,160,60,109.81,265,-30.00,-20.00,-1037.00
2024-05-19 09:28:16.996515,1,1,9,0,0,0,86,89,174,160,60,109.65,265,1.00,2.00,-861.00
2024-05-19 09:28:17.119984,0,1,9,0,0,0,86,89,175,160,60,109.91,265,43.00,-53.00,-978.00
2024-05-19 09:28:17.200604,1,1,9,0,0,0,86,89,175,170,60,110.04,265,27.00,-17.00,-940.00
2024-05-19 09:28:17.324796,1,1,9,0,0,0,86,89,175,160,60,110.08,265,59.00,-52.00,-935.00
2024-05-19 09:28:17.404464,1,2,9,0,0,1,86,89,173,160,60,109.85,265,16.00,-14.00,-846.00
2024-05-19 09:28:17.529564,1,1,9,0,0,1,86,89,171,160,60,109.84,265,-36.00,0.00,-911.00
2024-05-19 09:28:17.608368,1,1,9,0,0,2,86,89,169,160,60,109.65,265,8.00,-31.00,-868.00
2024-05-19 09:28:17.735545,2,1,9,0,0,2,86,89,167,160,60,110.04,265,-40.00,-3.00,-1013.00
2024-05-19 09:28:17.812387,1,2,9,0,0,2,86,89,164,160,60,109.71,266,-9.00,-21.00,-968.00
2024-05-19 09:28:17.939174,2,2,9,0,0,2,86,89,162,150,60,109.59,266,14.00,-7.00,-858.00
2024-05-19 09:28:18.016382,2,2,9,0,0,2,86,89,159,150,60,109.51,266,-10.00,-2.00,-913.00
2024-05-19 09:28:18.067499,2,2,9,0,0,2,86,89,155,150,60,109.59,266,-7.00,-36.00,-923.00
2024-05-19 09:28:18.246328,2,2,9,0,0,2,87,90,153,150,60,109.60,266,111.00,-95.00,-1032.00
2024-05-19 09:28:18.272922,2,2,9,0,0,2,87,90,149,140,60,109.44,266,75.00,-97.00,-1081.00
2024-05-19 09:28:18.373423,3,3,9,0,0,2,87,90,146,140,60,109.82,266,56.00,-79.00,-1045.00
2024-05-19 09:28:18.553568,3,4,9,0,0,2,87,90,143,140,60,109.55,266,139.00,-85.00,-933.00
2024-05-19 09:28:18.577376,4,4,9,0,0,2,87,90,141,130,60,109.72,266,109.00,-93.00,-984.00
2024-05-19 09:28:18.758338,5,4,9,0,0,1,87,90,138,130,60,109.64,266,109.00,-80.00,-987.00
2024-05-19 09:28:18.781484,4,4,9,0,0,1,87,90,135,130,60,109.64,267,86.00,-66.00,-890.00
2024-05-19 09:28:18.963219,4,3,9,0,0,2,87,90,132,130,60,109.84,267,155.00,-105.00,-1046.00
2024-05-19 09:28:18.985472,5,4,9,0,0,1,87,90,129,120,60,109.49,267,177.00,-89.00,-1028.00
2024-05-19 09:28:19.168045,5,4,9,0,0,1,87,90,126,120,60,109.59,267,87.00,-75.00,-978.00
2024-05-19 09:28:19.189557,5,3,9,0,0,1,86,90,124,120,60,109.66,267,53.00,-92.00,-1031.00
2024-05-19 09:28:19.291390,4,4,9,0,0,1,86,90,121,120,60,109.46,267,103.00,-117.00,-1079.00
2024-05-19 09:28:19.475701,3,4,9,0,0,1,86,90,120,110,60,109.44,267,113.00,-74.00,-1028.00
2024-05-19 09:28:19.495624,3,4,9,0,0,0,86,90,117,110,60,109.31,267,4.00,-27.00,-1090.00
2024-05-19 09:28:19.597589,3,4,9,0,0,0,86,90,116,110,60,109.31,267,37.00,-74.00,-1034.00
2024-05-19 09:28:19.783827,3,4,9,0,0,0,86,90,116,110,60,109.49,267,42.00,-73.00,-890.00
2024-05-19 09:28:19.801396,4,4,9,0,0,0,86,90,114,110,60,109.47,268,97.00,-74.00,-1075.00
2024-05-19 09:28:19.987153,4,4,9,0,0,0,86,90,113,110,60,109.31,268,89.00,-56.00,-991.00
2024-05-19 09:28:20.005447,4,4,9,0,0,0,86,90,112,110,60,109.36,268,132.00,-89.00,-1044.00
2024-05-19 09:28:20.192153,5,4,9,0,0,0,86,90,112,110,60,109.41,268,90.00,-73.00,-1065.00
2024-05-19 09:28:20.209481,5,3,9,0,0,0,87,90,111,100,60,109.55,268,135.00,-84.00,-1044.00
2024-05-19 09:28:20.396988,4,3,9,0,0,0,87,90,112,100,60,109.11,268,47.00,-18.00,-934.00
2024-05-19 09:28:20.413383,4,3,9,0,0,0,87,90,113,100,60,109.12,268,58.00,-51.00,-1036.00
2024-05-19 09:28:20.602085,4,3,9,0,0,0,87,90,114,100,60,109.33,268,120.00,-87.00,-1031.00
2024-05-19 09:28:20.617383,3,3,9,0,0,-1,87,90,114,110,60,109.25,268,111.00,-57.00,-1085.00
2024-05-19 09:28:20.806437,3,2,9,0,0,0,87,90,115,110,60,109.27,268,97.00,-51.00,-1098.00
2024-05-19 09:28:20.821345,5,3,9,0,0,-1,87,90,117,110,60,109.34,269,173.00,-102.00,-1058.00
2024-05-19 09:28:21.011253,5,3,9,0,0,0,87,90,117,110,60,109.32,269,76.00,-34.00,-1000.00
2024-05-19 09:28:21.025266,5,3,9,0,0,0,87,90,118,110,60,109.08,269,91.00,-47.00,-939.00
2024-05-19 09:28:21.192595,5,3,9,0,0,0,87,90,119,110,60,109.28,269,70.00,-50.00,-1011.00
2024-05-19 09:28:21.229320,6,3,9,0,0,0,87,90,120,110,60,109.32,269,66.00,-66.00,-981.00
2024-05-19 09:28:21.420796,6,2,9,0,0,0,87,90,121,110,60,108.77,269,16.00,0.00,-959.00
2024-05-19 09:28:21.433391,0,2,9,0,0,0,87,90,121,110,60,109.21,269,86.00,-43.00,-1074.00
2024-05-19 09:28:21.625540,-2,2,9,2,0,0,87,90,121,110,60,109.30,269,96.00,-50.00,-1070.00
2024-05-19 09:28:21.637295,-3,2,9,3,0,0,87,90,122,110,60,109.08,269,109.00,-78.00,-995.00
2024-05-19 09:28:21.830403,-2,2,9,4,0,0,87,90,121,110,60,109.42,269,31.00,-54.00,-975.00
2024-05-19 09:28:21.841254,-2,2,9,5,0,0,87,90,122,110,60,109.62,270,54.00,-59.00,-1029.00
2024-05-19 09:28:21.892232,-2,2,9,6,0,0,87,90,120,110,60,109.30,270,46.00,-77.00,-928.00
2024-05-19 09:28:22.035197,0,3,9,7,0,0,87,90,119,110,60,109.05,270,19.00,-70.00,-1017.00
2024-05-19 09:28:22.096140,0,4,9,7,0,0,87,90,118,110,60,109.63,270,78.00,-97.00,-997.00
2024-05-19 09:28:22.198384,2,4,9,8,0,0,86,89,116,110,60,109.40,270,-3.00,-69.00,-1026.00
2024-05-19 09:28:22.300091,5,4,9,8,0,0,86,89,114,110,60,109.48,270,66.00,-72.00,-934.00
2024-05-19 09:28:22.444797,7,4,9,7,0,0,86,89,112,110,60,109.21,270,77.00,-90.00,-998.00
2024-05-19 09:28:22.504477,7,3,9,6,0,0,86,89,110,110,60,109.25,270,-19.00,-54.00,-1057.00
2024-05-19 09:28:22.649493,7,3,9,5,0,0,86,89,109,110,60,109.22,270,32.00,-65.00,-1005.00
2024-05-19 09:28:22.708021,6,4,9,4,0,0,86,89,107,100,60,109.34,270,6.00,-50.00,-1094.00
2024-05-19 09:28:22.854353,6,5,9,3,0,0,86,89,106,100,60,109.25,271,45.00,-86.00,-1056.00
2024-05-19 09:28:22.912728,6,3,9,3,0,0,86,89,105,100,60,109.22,271,27.00,-78.00,-1025.00
2024-05-19 09:28:23.059196,4,2,9,2,0,0,86,89,104,100,60,109.39,271,51.00,-50.00,-1047.00
2024-05-19 09:28:23.117716,3,3,9,2,0,0,86,89,104,100,60,109.30,271,26.00,-13.00,-947.00
2024-05-19 09:28:23.218486,4,2,9,2,0,0,86,90,104,100,60,109.25,271,63.00,-57.00,-1032.00
2024-05-19 09:28:23.320317,4,2,9,2,0,0,86,90,103,100,60,108.88,271,45.00,-78.00,-1058.00
2024-05-19 09:28:23.422864,8,2,9,1,0,0,86,90,104,100,60,109.13,271,-15.00,-47.00,-1004.00
2024-05-19 09:28:23.527373,7,2,9,0,0,0,86,90,103,100,60,108.93,271,-23.00,-26.00,-961.00
2024-05-19 09:28:23.629655,3,2,9,0,0,0,86,90,102,100,60,109.35,271,3.00,-58.00,-1079.00
2024-05-19 09:28:23.730072,1,2,9,0,0,0,86,90,102,100,60,109.34,271,21.00,-85.00,-1012.00
2024-05-19 09:28:23.830427,1,3,8,0,0,0,86,90,103,100,60,108.98,272,101.00,-107.00,-1082.00
2024-05-19 09:28:23.981696,1,3,9,0,0,0,86,90,103,100,60,109.05,272,66.00,-83.00,-1127.00
2024-05-19 09:28:24.034376,1,3,9,0,0,0,86,90,104,100,60,109.09,272,14.00,-37.00,-979.00
2024-05-19 09:28:24.186116,1,2,9,-1,0,0,86,90,105,100,60,108.94,272,-31.00,-32.00,-989.00
2024-05-19 09:28:24.238316,0,2,9,-1,0,0,87,89,106,100,60,108.99,272,50.00,-10.00,-1009.00
2024-05-19 09:28:24.390679,0,1,9,-1,0,0,87,89,108,100,60,109.27,272,44.00,-64.00,-971.00
2024-05-19 09:28:24.442279,0,1,9,-1,0,0,87,89,109,110,60,109.05,272,-69.00,7.00,-943.00
2024-05-19 09:28:24.595770,0,1,9,-1,0,0,87,89,110,110,60,109.23,272,13.00,-50.00,-949.00
2024-05-19 09:28:24.646542,0,1,9,0,0,0,87,89,111,110,60,108.96,272,1.00,-19.00,-1036.00
2024-05-19 09:28:24.800086,0,1,9,0,0,0,87,89,112,110,60,109.10,272,34.00,-33.00,-1041.00
2024-05-19 09:28:24.850139,0,0,9,0,0,0,87,89,115,110,60,109.36,273,-74.00,21.00,-1051.00
2024-05-19 09:28:25.004920,0,0,9,0,0,0,87,89,117,110,60,109.09,273,-22.00,2.00,-963.00
2024-05-19 09:28:25.055037,0,0,9,0,0,-1,87,89,120,110,60,109.26,273,149.00,-88.00,-1026.00
2024-05-19 09:28:25.209986,0,0,9,0,0,-1,87,89,122,110,60,109.17,273,76.00,-36.00,-981.00
2024-05-19 09:28:25.260184,1,0,9,0,0,-1,87,90,125,120,60,109.38,273,90.00,-41.00,-947.00
2024-05-19 09:28:25.363484,2,0,9,0,0,0,87,90,126,120,60,109.62,273,-19.00,-2.00,-948.00
2024-05-19 09:28:25.463742,2,1,9,0,0,0,87,90,125,120,60,109.37,273,11.00,22.00,-917.00
2024-05-19 09:28:25.567913,3,1,9,0,0,0,87,90,125,120,60,109.47,273,82.00,-55.00,-1017.00
2024-05-19 09:28:25.668563,2,1,9,0,0,0,87,90,125,120,60,109.52,273,32.00,-18.00,-916.00
2024-05-19 09:28:25.716995,5,1,9,0,0,0,87,90,126,120,60,109.36,273,-42.00,3.00,-979.00
2024-05-19 09:28:25.823998,8,1,9,0,0,0,87,90,125,120,60,109.18,274,7.00,-30.00,-991.00
2024-05-19 09:28:25.921075,8,1,9,-2,0,0,87,90,124,120,60,109.38,274,40.00,-26.00,-1064.00
2024-05-19 09:28:26.028749,8,1,9,-3,0,0,87,90,122,120,60,108.98,274,3.00,-31.00,-994.00
2024-05-19 09:28:26.125278,9,1,9,-4,0,0,87,90,120,120,60,109.20,274,49.00,-42.00,-1001.00
2024-05-19 09:28:26.233525,8,1,9,-5,0,0,86,90,120,120,60,109.43,274,112.00,-67.00,-1107.00
2024-05-19 09:28:26.329100,8,1,9,-6,0,0,86,90,119,120,60,108.83,274,112.00,-53.00,-1095.00
2024-05-19 09:28:26.438285,7,1,9,-7,0,0,86,90,117,120,60,109.41,274,19.00,0.00,-1031.00
2024-05-19 09:28:26.533026,6,0,9,-8,-1,0,86,90,116,120,60,109.33,274,102.00,-48.00,-1040.00
2024-05-19 09:28:26.643464,3,0,9,-8,-1,0,86,90,115,120,60,109.19,274,56.00,-37.00,-1072.00
2024-05-19 09:28:26.736948,0,0,9,-8,-1,0,86,90,114,110,60,109.15,274,30.00,-22.00,-983.00
2024-05-19 09:28:26.847892,-2,0,9,-7,-1,0,86,90,113,110,60,109.15,275,112.00,-48.00,-1035.00
2024-05-19 09:28:26.941024,-4,0,9,-6,-1,0,86,90,112,110,60,108.94,275,134.00,-59.00,-1038.00
2024-05-19 09:28:27.052653,-3,1,9,-5,-1,0,86,90,110,110,60,109.14,275,80.00,-49.00,-1054.00
2024-05-19 09:28:27.145296,-2,1,9,-4,-1,0,86,90,109,110,60,109.34,275,51.00,-29.00,-1016.00
2024-05-19 09:28:27.257571,-1,1,9,-4,-1,0,86,90,108,110,60,109.14,275,-44.00,-10.00,-962.00
2024-05-19 09:28:27.348918,-1,3,9,-3,-1,0,86,90,107,110,60,108.99,275,20.00,-7.00,-966.00
2024-05-19 09:28:27.451292,-3,2,9,-3,0,0,86,90,107,110,60,108.97,275,63.00,-54.00,-1131.00
2024-05-19 09:28:27.564705,-5,1,9,-2,0,0,86,90,107,110,60,109.30,275,23.00,-56.00,-1035.00
2024-05-19 09:28:27.655229,-2,1,9,-2,0,0,86,90,107,110,60,109.17,275,-35.00,8.00,-844.00
2024-05-19 09:28:27.757003,-2,1,9,-2,0,0,86,90,106,110,60,109.26,275,-75.00,-45.00,-1009.00
2024-05-19 09:28:27.872056,-2,1,9,-1,0,0,86,90,106,110,60,109.22,276,55.00,-75.00,-1002.00
2024-05-19 09:28:27.961128,-2,1,9,-1,0,0,86,90,106,110,60,109.36,276,-1.00,-11.00,-1021.00
2024-05-19 09:28:28.077005,-1,2,9,0,0,0,86,90,107,110,60,109.43,276,-11.00,-54.00,-1064.00
2024-05-19 09:28:28.165276,0,2,8,0,0,0,86,90,107,110,60,109.10,276,-12.00,-14.00,-976.00
2024-05-19 09:28:28.269166,0,2,8,0,0,0,86,90,108,110,60,109.65,276,-28.00,-30.00,-1062.00
2024-05-19 09:28:28.369131,0,2,9,0,0,0,86,90,109,110,60,109.27,276,82.00,-66.00,-1067.00
2024-05-19 09:28:28.486646,0,3,9,0,0,0,86,90,109,110,60,109.41,276,14.00,-74.00,-1017.00
2024-05-19 09:28:28.573291,0,2,9,0,0,0,86,90,110,110,60,109.52,276,9.00,-57.00,-979.00
2024-05-19 09:28:28.691736,0,2,9,0,0,0,86,90,110,110,60,109.15,276,-33.00,-21.00,-916.00
2024-05-19 09:28:28.777187,0,2,9,0,0,0,86,90,111,110,60,109.55,276,7.00,-51.00,-993.00
2024-05-19 09:28:28.896042,0,2,9,0,0,0,86,90,112,110,60,109.56,277,99.00,-113.00,-1034.00
2024-05-19 09:28:28.980927,0,2,9,0,0,0,86,90,112,110,60,109.59,277,41.00,-70.00,-1017.00
2024-05-19 09:28:29.031778,0,2,9,0,0,0,86,90,114,110,60,109.45,277,69.00,-30.00,-856.00
2024-05-19 09:28:29.203797,0,2,9,0,0,0,86,90,115,110,60,109.53,277,18.00,-23.00,-936.00
2024-05-19 09:28:29.235965,1,2,9,0,0,0,86,89,116,110,60,109.26,277,54.00,-68.00,-1043.00
2024-05-19 09:28:29.408041,1,2,9,0,0,0,86,89,117,110,60,109.44,277,82.00,-84.00,-1052.00
2024-05-19 09:28:29.439879,1,2,9,0,0,0,86,89,118,110,60,109.38,277,60.00,-59.00,-1004.00
2024-05-19 09:28:29.613186,2,2,9,0,0,0,86,89,120,110,60,109.23,277,20.00,-75.00,-989.00
2024-05-19 09:28:29.695331,2,4,9,0,0,0,86,89,121,110,60,109.32,277,134.00,-119.00,-1027.00
2024-05-19 09:28:29.745796,2,4,9,0,0,0,86,89,123,120,60,109.60,278,70.00,-59.00,-1002.00
2024-05-19 09:28:29.919817,3,0,9,0,0,0,86,89,123,120,60,109.56,278,30.00,-49.00,-1022.00
2024-05-19 09:28:29.949770,3,-4,9,1,-1,0,86,89,124,120,60,109.42,278,96.00,-83.00,-949.00
2024-05-19 09:28:30.124736,4,-2,9,1,-2,0,86,89,125,120,60,109.68,278,35.00,-70.00,-966.00
2024-05-19 09:28:30.154210,4,0,9,1,-3,0,86,89,125,120,60,109.58,278,51.00,-45.00,-1008.00
2024-05-19 09:28:30.329445,4,1,9,0,-3,0,86,90,125,120,59,109.43,278,-13.00,-29.00,-970.00
2024-05-19 09:28:30.357830,3,3,9,0,-3,0,86,90,125,120,59,109.56,278,74.00,-31.00,-942.00
2024-05-19 09:28:30.534250,3,3,9,0,-3,0,86,90,125,120,59,109.49,278,-11.00,10.00,-1030.00
2024-05-19 09:28:30.561815,3,2,9,0,-3,0,86,90,125,120,59,109.70,278,71.00,-80.00,-1013.00
2024-05-19 09:28:30.739089,3,3,9,0,-3,0,86,90,125,120,59,109.18,278,103.00,-80.00,-962.00
2024-05-19 09:28:30.765783,2,3,9,0,-3,0,86,90,124,120,59,109.67,279,125.00,-79.00,-1023.00
2024-05-19 09:28:30.943913,2,3,9,0,-3,0,86,90,124,120,59,109.38,279,23.00,-43.00,-1074.00
2024-05-19 09:28:30.969791,2,3,9,0,-3,0,86,90,124,120,59,109.59,279,96.00,-84.00,-1031.00
2024-05-19 09:28:31.148632,2,3,9,0,-3,0,86,90,124,120,59,109.50,279,62.00,-55.00,-994.00
2024-05-19 09:28:31.174497,2,3,9,0,-3,0,86,90,123,120,59,109.49,279,23.00,-12.00,-914.00
2024-05-19 09:28:31.276718,3,5,9,0,-2,0,87,90,121,120,59,109.21,279,41.00,-42.00,-891.00
2024-05-19 09:28:31.455943,3,7,9,0,-2,0,87,90,120,120,59,109.24,279,74.00,-62.00,-961.00
2024-05-19 09:28:31.480860,3,7,9,0,-1,0,87,90,119,120,59,109.79,279,103.00,-62.00,-1074.00
2024-05-19 09:28:31.582678,3,4,9,0,0,0,87,90,116,120,59,109.74,279,64.00,-91.00,-977.00
2024-05-19 09:28:31.763555,2,4,9,0,0,0,87,90,113,110,59,109.49,279,11.00,-23.00,-869.00
2024-05-19 09:28:31.786751,2,3,9,0,0,0,87,90,111,110,59,109.39,280,33.00,-67.00,-935.00
2024-05-19 09:28:31.968050,3,4,9,0,0,0,87,90,109,110,59,109.50,280,45.00,-48.00,-1065.00
2024-05-19 09:28:31.990731,4,4,9,0,0,0,87,90,107,110,59,109.51,280,3.00,-35.00,-972.00
2024-05-19 09:28:32.172801,4,4,9,0,0,0,87,90,105,110,59,109.43,280,1.00,-26.00,-1111.00
2024-05-19 09:28:32.195001,3,3,9,0,0,0,87,90,103,110,59,109.32,280,36.00,-71.00,-990.00
2024-05-19 09:28:32.377692,3,3,9,0,0,0,86,90,102,100,59,109.53,280,25.00,-6.00,-885.00
2024-05-19 09:28:32.398756,3,3,9,0,0,0,86,90,101,100,59,109.63,280,82.00,-58.00,-1031.00
2024-05-19 09:28:32.582484,3,3,9,0,0,0,86,90,100,100,59,109.54,280,-68.00,-28.00,-1015.00
2024-05-19 09:28:32.602724,2,3,9,0,0,0,86,90,99,100,59,109.15,280,50.00,-54.00,-965.00
2024-05-19 09:28:32.787652,2,3,9,0,0,0,86,90,98,100,59,109.43,280,31.00,-71.00,-1048.00
2024-05-19 09:28:32.806611,3,4,9,0,0,0,86,90,97,100,59,109.59,281,-16.00,-16.00,-1065.00
2024-05-19 09:28:32.857633,3,4,9,0,0,0,86,90,97,100,59,109.05,281,13.00,-48.00,-1002.00
2024-05-19 09:28:32.991919,3,3,9,0,0,0,86,90,97,100,59,109.30,281,75.00,-50.00,-1022.00
2024-05-19 09:28:33.061641,3,3,9,0,0,0,86,90,97,100,59,109.21,281,-15.00,-50.00,-1060.00
2024-05-19 09:28:33.197116,2,3,9,0,0,0,86,90,97,100,59,109.23,281,29.00,-41.00,-926.00
2024-05-19 09:28:33.266766,1,3,9,-1,0,0,86,89,99,100,59,109.33,281,68.00,-92.00,-1100.00
2024-05-19 09:28:33.401934,0,3,9,0,0,0,86,89,100,100,59,109.02,281,-12.00,-62.00,-1006.00
2024-05-19 09:28:33.470724,0,3,9,0,0,-1,86,89,101,100,59,109.14,281,37.00,-72.00,-1014.00
2024-05-19 09:28:33.585012,0,2,9,-1,0,0,86,89,103,100,59,109.26,281,92.00,-85.00,-1052.00
2024-05-19 09:28:33.674582,0,2,9,0,0,-1,86,89,105,100,59,109.22,281,39.00,-72.00,-1052.00
2024-05-19 09:28:33.811057,0,8,9,0,0,-1,86,89,107,100,59,109.07,282,20.00,-28.00,-960.00
2024-05-19 09:28:33.878587,0,8,9,0,1,-1,86,89,109,100,59,109.23,282,6.00,-14.00,-947.00
2024-05-19 09:28:34.015874,0,8,9,0,2,-1,86,89,111,110,59,109.10,282,23.00,-58.00,-942.00
2024-05-19 09:28:34.082537,0,7,9,0,3,-1,86,89,112,110,59,109.32,282,47.00,-76.00,-904.00
2024-05-19 09:28:34.222369,0,4,9,0,3,0,86,89,113,110,59,109.43,282,65.00,-111.00,-964.00
2024-05-19 09:28:34.286478,1,3,9,0,3,0,86,89,116,110,58,109.35,282,64.00,-107.00,-982.00
2024-05-19 09:28:34.425724,2,3,9,0,2,0,86,89,116,110,58,109.33,282,42.00,-49.00,-940.00
2024-05-19 09:28:34.490462,2,3,9,0,2,0,86,89,117,110,58,109.32,282,122.00,-125.00,-1004.00
2024-05-19 09:28:34.630209,2,3,9,0,2,0,86,89,118,110,58,109.26,282,95.00,-114.00,-914.00
2024-05-19 09:28:34.694633,2,3,9,0,2,0,86,89,119,110,58,109.39,282,-30.00,-55.00,-1011.00
2024-05-19 09:28:34.835072,1,3,9,0,2,0,86,89,119,110,58,109.40,283,87.00,-91.00,-971.00
2024-05-19 09:28:34.898547,1,3,9,0,2,0,86,89,119,110,58,109.27,283,6.00,-59.00,-1045.00
2024-05-19 09:28:35.039874,2,3,9,0,2,0,86,89,119,120,58,109.55,283,21.00,-40.00,-889.00
2024-05-19 09:28:35.102566,2,4,9,0,2,0,86,89,119,120,58,109.44,283,112.00,-83.00,-936.00
2024-05-19 09:28:35.204839,2,4,9,0,2,0,86,89,119,120,58,109.77,283,69.00,-103.00,-1054.00
2024-05-19 09:28:35.347108,3,4,9,0,1,0,86,90,118,120,58,109.71,283,-10.00,-26.00,-973.00
2024-05-19 09:28:35.408590,5,3,9,0,1,0,86,90,118,120,58,109.36,283,7.00,-39.00,-1063.00
2024-05-19 09:28:35.551845,6,3,9,0,2,0,86,90,118,110,58,109.40,283,97.00,-56.00,-987.00
2024-05-19 09:28:35.612484,6,2,9,0,1,0,86,90,116,110,58,109.55,283,85.00,-60.00,-1016.00
2024-05-19 09:28:35.756715,6,0,9,0,1,0,86,90,115,110,58,109.33,283,72.00,-67.00,-1144.00
2024-05-19 09:28:35.816488,0,0,9,0,0,0,86,90,114,110,58,109.11,284,124.00,-79.00,-924.00
2024-05-19 09:28:35.962582,2,2,9,0,0,0,86,90,114,110,58,109.37,284,16.00,-46.00,-973.00
2024-05-19 09:28:36.020730,3,3,9,0,0,0,86,90,112,110,58,109.19,284,14.00,-5.00,-979.00
2024-05-19 09:28:36.166648,3,2,9,0,0,0,86,90,112,110,58,109.34,284,48.00,-40.00,-1055.00
2024-05-19 09:28:36.224848,3,2,9,0,0,0,86,90,111,110,58,109.25,284,28.00,-28.00,-920.00
2024-05-19 09:28:36.371721,3,2,9,0,0,0,86,89,111,110,58,109.25,284,116.00,-78.00,-1206.00
2024-05-19 09:28:36.429498,3,2,9,0,0,0,86,89,112,110,58,109.42,284,134.00,-62.00,-1033.00
2024-05-19 09:28:36.575936,2,2,9,0,0,0,86,89,112,110,58,109.50,284,-11.00,-41.00,-1036.00
2024-05-19 09:28:36.634628,2,3,9,0,0,0,86,89,112,110,58,109.11,284,143.00,-113.00,-1060.00
2024-05-19 09:28:36.735056,2,4,9,0,0,0,86,89,112,110,58,109.29,284,81.00,-117.00,-1028.00
2024-05-19 09:28:36.785543,3,4,9,0,0,0,86,89,112,110,58,109.45,285,135.00,-57.00,-976.00
2024-05-19 09:28:36.985885,4,4,9,0,0,0,86,89,112,110,58,109.54,285,11.00,-16.00,-999.00
2024-05-19 09:28:36.989479,4,4,9,0,0,0,86,89,112,110,58,109.60,285,4.00,-39.00,-1023.00
2024-05-19 09:28:37.190300,3,4,9,0,0,0,86,89,111,110,58,109.23,285,48.00,-83.00,-925.00
2024-05-19 09:28:37.193977,3,3,9,0,0,0,86,89,111,110,57,109.25,285,36.00,-75.00,-986.00
2024-05-19 09:28:37.295455,3,3,9,0,0,0,87,89,111,110,57,109.47,285,77.00,-56.00,-962.00
2024-05-19 09:28:37.397595,2,3,9,0,0,0,87,89,110,110,57,109.07,285,-11.00,-11.00,-968.00
2024-05-19 09:28:37.499476,2,3,9,0,0,0,87,89,109,110,57,109.20,285,-4.00,-49.00,-995.00
2024-05-19 09:28:37.601501,2,2,9,0,0,0,87,89,109,110,57,109.24,285,84.00,-46.00,-1028.00
2024-05-19 09:28:37.804773,1,1,9,0,0,0,87,89,109,110,57,109.28,285,10.00,-31.00,-1024.00
2024-05-19 09:28:37.805435,1,1,9,0,0,0,87,89,110,110,57,109.10,286,68.00,-65.00,-941.00
2024-05-19 09:28:37.907454,1,1,9,0,0,0,87,89,110,110,57,109.22,286,-12.00,-18.00,-1002.00
2024-05-19 09:28:38.009336,2,1,9,0,0,0,87,89,111,110,57,108.91,286,27.00,-18.00,-977.00
2024-05-19 09:28:38.112720,1,1,10,0,0,0,87,89,111,110,57,109.48,286,123.00,-42.00,-1026.00
2024-05-19 09:28:38.214321,1,1,16,0,0,0,87,89,113,110,57,109.09,286,-5.00,-27.00,-996.00
2024-05-19 09:28:38.316610,2,2,22,0,0,0,86,90,114,110,57,109.45,286,31.00,-24.00,-1014.00
2024-05-19 09:28:38.419029,1,3,28,0,0,0,86,90,116,110,57,109.22,286,112.00,-80.00,-955.00
2024-05-19 09:28:38.519367,1,2,34,0,0,0,86,90,118,110,57,109.39,286,96.00,-87.00,-1004.00
2024-05-19 09:28:38.621308,0,2,40,0,0,0,86,90,119,110,57,109.32,286,-3.00,-59.00,-1015.00
2024-05-19 09:28:38.726249,0,1,46,0,0,0,86,90,121,110,57,109.56,286,52.00,-54.00,-1101.00
2024-05-19 09:28:38.825303,0,1,52,0,0,0,86,90,123,110,57,109.31,287,-15.00,-31.00,-915.00
2024-05-19 09:28:38.931058,0,1,58,0,0,0,86,90,125,120,57,109.68,287,-33.00,-21.00,-982.00
2024-05-19 09:28:39.031162,0,1,64,0,0,0,86,90,126,120,57,109.52,287,31.00,-68.00,-933.00
2024-05-19 09:28:39.133228,0,1,70,0,0,0,86,90,127,120,57,109.32,287,-49.00,-7.00,-1022.00
2024-05-19 09:28:39.233483,0,1,76,0,0,0,86,90,127,120,57,109.32,287,32.00,-55.00,-1052.00
2024-05-19 09:28:39.340627,-1,1,82,0,0,0,86,89,127,120,57,109.38,287,60.00,-58.00,-982.00
2024-05-19 09:28:39.437230,-1,1,88,0,0,0,86,89,127,120,57,109.12,287,-49.00,5.00,-1116.00
2024-05-19 09:28:39.545382,-1,0,94,0,0,0,86,89,127,120,57,109.41,287,35.00,-7.00,-1051.00
2024-05-19 09:28:39.641294,-1,0,100,0,0,0,86,89,127,120,57,109.49,287,-128.00,60.00,-881.00
2024-05-19 09:28:39.750233,-1,1,106,0,0,0,86,89,127,120,57,109.48,287,46.00,-34.00,-1015.00
2024-05-19 09:28:39.845282,-1,1,113,0,0,0,86,89,127,120,57,109.34,288,-89.00,44.00,-959.00
2024-05-19 09:28:39.955028,-1,0,119,0,0,1,86,89,127,120,57,109.21,288,-93.00,60.00,-973.00
2024-05-19 09:28:40.049346,-1,0,124,0,0,0,86,89,127,120,57,109.34,288,-39.00,47.00,-951.00
2024-05-19 09:28:40.160139,-1,0,130,0,0,0,86,89,127,120,57,109.21,288,-31.00,36.00,-1020.00
2024-05-19 09:28:40.253599,-1,-1,137,0,0,0,86,89,128,120,57,109.19,288,-22.00,42.00,-1050.00
2024-05-19 09:28:40.355135,-1,-1,142,0,0,0,86,90,128,120,57,109.36,288,-35.00,66.00,-952.00
2024-05-19 09:28:40.466950,0,-1,148,0,0,0,86,90,129,120,57,109.41,288,40.00,-3.00,-1138.00
2024-05-19 09:28:40.559129,0,0,154,0,0,0,86,90,129,120,57,109.46,288,-22.00,63.00,-1007.00
2024-05-19 09:28:40.672026,0,0,160,0,0,0,86,90,129,120,57,109.53,288,-3.00,62.00,-937.00
2024-05-19 09:28:40.712083,0,-1,166,0,0,0,86,90,129,120,57,109.40,288,30.00,45.00,-1047.00
2024-05-19 09:28:40.818212,1,0,172,0,0,0,86,90,129,120,57,109.18,289,29.00,55.00,-1008.00
2024-05-19 09:28:40.916146,1,-1,178,0,0,0,86,90,129,120,57,109.54,289,14.00,49.00,-1090.00
2024-05-19 09:28:41.081691,1,-1,-175,0,0,0,86,90,129,120,57,109.49,289,-45.00,113.00,-927.00
2024-05-19 09:28:41.120065,1,-2,-170,0,-1,0,86,90,128,120,57,109.90,289,16.00,69.00,-1105.00
2024-05-19 09:28:41.222111,0,-2,-164,0,-1,0,86,90,127,120,57,109.28,289,-4.00,37.00,-1065.00
2024-05-19 09:28:41.388536,0,-2,-158,0,-1,1,85,89,127,120,57,109.27,289,44.00,83.00,-1105.00
2024-05-19 09:28:41.426078,1,-1,-152,0,-1,0,85,89,126,120,57,109.87,289,54.00,68.00,-1026.00
2024-05-19 09:28:41.593456,2,-1,-146,0,-1,0,85,89,125,120,57,109.66,289,95.00,11.00,-1036.00
2024-05-19 09:28:41.644234,2,-1,-141,0,-1,0,85,89,124,120,57,109.38,289,46.00,58.00,-974.00
2024-05-19 09:28:41.733328,2,-1,-135,0,-1,0,85,89,123,120,57,109.34,289,31.00,65.00,-1006.00
2024-05-19 09:28:41.900590,2,0,-129,0,-1,0,85,89,121,120,57,109.58,290,146.00,54.00,-1037.00
2024-05-19 09:28:41.936012,2,0,-123,0,-1,0,85,89,119,120,57,109.43,290,-13.00,73.00,-950.00
2024-05-19 09:28:42.105394,2,0,-117,0,-1,0,85,89,118,120,57,109.49,290,58.00,53.00,-995.00
2024-05-19 09:28:42.139966,2,0,-111,0,-1,1,85,89,115,120,57,109.12,290,139.00,5.00,-1079.00
2024-05-19 09:28:42.242130,2,0,-105,0,0,0,85,89,113,120,57,109.15,290,15.00,72.00,-963.00
2024-05-19 09:28:42.344062,2,-1,-99,1,0,0,87,89,112,110,57,109.18,290,119.00,44.00,-1026.00
2024-05-19 09:28:42.514944,2,-1,-93,1,0,0,87,89,110,110,57,109.38,290,69.00,40.00,-1021.00
2024-05-19 09:28:42.548054,2,-1,-87,0,-1,0,87,89,109,110,57,109.30,290,18.00,68.00,-990.00
2024-05-19 09:28:42.720068,3,0,-81,1,-1,0,87,89,107,110,57,109.31,290,79.00,45.00,-950.00
2024-05-19 09:28:42.752126,3,0,-75,1,0,0,87,89,106,110,57,109.09,290,58.00,38.00,-949.00
2024-05-19 09:28:42.924604,3,0,-69,1,0,0,87,89,105,110,57,109.14,291,89.00,43.00,-1071.00
2024-05-19 09:28:42.955983,3,0,-63,1,-1,0,87,89,103,110,57,109.17,291,19.00,82.00,-1004.00
2024-05-19 09:28:43.129416,3,0,-57,1,0,0,87,89,103,100,57,108.87,291,106.00,55.00,-1011.00
2024-05-19 09:28:43.159988,3,0,-51,1,0,0,87,89,103,100,57,109.09,291,143.00,6.00,-1117.00
2024-05-19 09:28:43.262066,4,0,-44,1,0,0,87,89,104,100,57,109.28,291,63.00,24.00,-980.00
2024-05-19 09:28:43.363987,4,1,-38,1,-1,0,86,89,105,100,57,109.30,291,38.00,-4.00,-1080.00
2024-05-19 09:28:43.538974,4,2,-32,1,-1,-1,86,89,107,100,57,109.40,291,182.00,-19.00,-898.00
2024-05-19 09:28:43.568058,4,3,-26,1,0,0,86,89,107,100,57,109.15,291,58.00,-30.00,-931.00
2024-05-19 09:28:43.743712,4,3,-20,1,0,0,86,89,107,100,57,109.27,291,110.00,-37.00,-1047.00
2024-05-19 09:28:43.773255,3,3,-14,1,0,0,86,89,109,110,57,109.63,291,34.00,-26.00,-1001.00
2024-05-19 09:28:43.948511,3,2,-9,1,0,-1,86,89,109,110,57,109.44,292,67.00,-8.00,-927.00
2024-05-19 09:28:43.948699,2,2,-4,1,0,0,86,89,109,110,57,109.32,292,5.00,20.00,-913.00
2024-05-19 09:28:44.027825,2,2,-1,1,0,0,86,89,109,110,57,109.31,292,171.00,-132.00,-1045.00
2024-05-19 09:28:44.153374,2,2,1,1,0,0,86,89,109,110,57,109.41,292,87.00,-28.00,-1022.00
2024-05-19 09:28:44.231809,3,2,3,1,0,0,86,89,109,110,56,109.42,292,-53.00,37.00,-983.00
2024-05-19 09:28:44.358192,3,2,5,0,0,0,86,89,109,110,56,108.97,292,91.00,0.00,-997.00
2024-05-19 09:28:44.436009,3,1,6,0,0,0,86,89,109,110,56,109.13,292,35.00,-18.00,-1061.00
2024-05-19 09:28:44.538107,2,1,7,0,0,0,86,89,110,110,56,109.15,292,26.00,-12.00,-1031.00
2024-05-19 09:28:44.666140,2,1,7,0,0,0,86,89,111,110,56,109.11,292,-14.00,13.00,-933.00
2024-05-19 09:28:44.742126,3,1,7,0,0,0,86,89,111,110,56,109.29,292,29.00,-18.00,-970.00
2024-05-19 09:28:44.870105,3,1,7,0,0,0,86,89,112,110,56,109.31,293,-14.00,8.00,-1054.00
2024-05-19 09:28:44.946404,2,1,7,0,0,0,86,89,113,110,56,109.53,293,10.00,-7.00,-1019.00
2024-05-19 09:28:45.075077,2,1,7,0,0,0,86,89,114,110,56,109.30,293,-8.00,24.00,-1052.00
2024-05-19 09:28:45.153135,2,1,7,0,0,0,86,89,116,110,56,109.40,293,4.00,-35.00,-980.00
2024-05-19 09:28:45.253279,2,1,7,0,0,0,86,89,116,110,56,109.15,293,-12.00,-6.00,-974.00
2024-05-19 09:28:45.382322,2,1,7,0,0,0,85,90,118,110,56,109.52,293,96.00,-49.00,-1022.00
2024-05-19 09:28:45.458873,2,1,7,0,0,0,85,90,118,110,56,109.28,293,59.00,-29.00,-842.00
2024-05-19 09:28:45.560562,3,2,7,0,0,0,85,90,119,110,56,109.19,293,89.00,-81.00,-1047.00
2024-05-19 09:28:45.660092,3,2,7,0,0,0,85,90,119,120,56,109.43,293,70.00,-39.00,-967.00
2024-05-19 09:28:45.792342,2,1,7,0,0,0,85,90,120,120,56,109.21,294,124.00,-60.00,-1035.00
2024-05-19 09:28:45.864016,3,1,7,0,0,0,85,90,120,120,56,109.46,294,14.00,-24.00,-987.00
2024-05-19 09:28:45.996642,2,1,7,0,0,0,85,90,119,120,56,109.24,294,64.00,-19.00,-979.00
2024-05-19 09:28:46.068131,3,1,7,0,0,0,85,90,119,120,56,109.41,294,47.00,-30.00,-1008.00
2024-05-19 09:28:46.201557,3,1,7,0,0,0,85,90,119,120,56,109.46,294,-23.00,4.00,-949.00
2024-05-19 09:28:46.272517,3,1,7,0,0,0,85,90,118,120,56,109.45,294,18.00,10.00,-974.00
2024-05-19 09:28:46.373960,3,1,7,0,0,0,86,90,118,110,56,109.28,294,-45.00,3.00,-1007.00
2024-05-19 09:28:46.488908,2,1,7,0,0,0,86,90,117,110,56,109.41,294,-26.00,23.00,-970.00
2024-05-19 09:28:46.577931,2,2,7,0,0,0,86,90,117,110,56,109.50,294,-27.00,15.00,-1000.00
2024-05-19 09:28:46.713382,3,2,1,0,0,0,86,90,117,110,56,109.44,294,88.00,-54.00,-1062.00
2024-05-19 09:28:46.789626,3,1,-4,0,0,0,86,90,117,110,56,109.36,295,26.00,-16.00,-954.00
2024-05-19 09:28:46.883741,3,1,-10,0,0,0,86,90,116,110,56,109.43,295,25.00,-22.00,-1046.00
2024-05-19 09:28:47.020568,4,1,-17,0,0,0,86,90,116,110,56,109.14,295,59.00,-16.00,-912.00
2024-05-19 09:28:47.087728,4,1,-23,0,0,0,86,90,116,110,56,109.01,295,117.00,-36.00,-1065.00
2024-05-19 09:28:47.225382,4,0,-30,0,0,0,86,90,116,110,56,109.44,295,136.00,-66.00,-974.00
2024-05-19 09:28:47.292146,4,0,-36,0,0,0,86,90,116,110,56,109.59,295,99.00,10.00,-915.00
2024-05-19 09:28:47.434825,4,0,-42,0,0,0,86,90,116,110,56,109.27,295,191.00,-13.00,-1061.00
2024-05-19 09:28:47.495766,4,0,-48,0,0,0,86,90,116,110,56,109.36,295,107.00,9.00,-1003.00
2024-05-19 09:28:47.598149,4,-1,-55,0,0,0,86,90,117,110,56,109.24,295,54.00,32.00,-936.00
2024-05-19 09:28:47.737382,4,0,-61,0,0,0,86,90,117,110,56,109.18,295,137.00,5.00,-999.00
2024-05-19 09:28:47.801875,4,0,-67,0,0,0,86,90,117,110,56,109.31,296,121.00,22.00,-960.00
2024-05-19 09:28:47.942158,4,-1,-74,0,0,0,86,90,118,110,56,109.24,296,158.00,-8.00,-914.00
2024-05-19 09:28:47.954797,4,0,-80,0,0,0,86,90,118,110,56,109.09,296,91.00,35.00,-1050.00
2024-05-19 09:28:48.146975,4,0,-86,0,0,0,86,90,117,110,56,109.43,296,91.00,34.00,-1003.00
2024-05-19 09:28:48.158647,4,-1,-92,0,0,0,86,90,117,110,56,109.14,296,101.00,9.00,-1034.00
2024-05-19 09:28:48.260676,4,-1,-98,0,0,0,86,90,117,110,55,109.47,296,55.00,43.00,-1172.00
2024-05-19 09:28:48.455212,4,-1,-104,0,0,0,86,88,115,110,55,109.35,296,94.00,28.00,-911.00
2024-05-19 09:28:48.464787,4,-1,-110,0,0,0,86,88,115,110,55,109.50,296,40.00,94.00,-1001.00
2024-05-19 09:28:48.658975,4,-1,-116,0,0,0,86,88,114,110,55,109.16,296,13.00,69.00,-1102.00
2024-05-19 09:28:48.668845,4,-1,-122,0,0,0,86,88,112,110,55,109.45,296,81.00,30.00,-1044.00
2024-05-19 09:28:48.863916,4,-1,-128,0,0,0,86,88,112,110,55,109.49,297,61.00,64.00,-1013.00
2024-05-19 09:28:48.873016,4,-1,-134,0,0,0,86,88,111,110,55,109.38,297,118.00,6.00,-1154.00
2024-05-19 09:28:49.068532,3,-1,-140,0,0,0,86,88,110,110,55,109.32,297,17.00,64.00,-1064.00
2024-05-19 09:28:49.076784,2,-2,-146,0,0,0,86,88,110,110,55,109.22,297,2.00,35.00,-1103.00
2024-05-19 09:28:49.273297,2,-2,-152,0,0,0,86,88,109,110,55,109.32,297,58.00,59.00,-1033.00
2024-05-19 09:28:49.280698,2,-1,-158,0,0,0,86,88,110,110,55,109.15,297,77.00,57.00,-978.00
2024-05-19 09:28:49.478165,2,-1,-164,0,0,0,85,89,110,110,55,109.40,297,-10.00,93.00,-1068.00
2024-05-19 09:28:49.484693,3,-1,-169,0,0,0,85,89,110,110,55,109.21,297,5.00,71.00,-938.00
2024-05-19 09:28:49.586611,3,-1,-175,0,0,0,85,89,111,110,55,109.49,297,83.00,42.00,-1113.00
2024-05-19 09:28:49.785186,3,-1,178,0,0,0,85,89,112,110,55,109.36,297,5.00,76.00,-1031.00
2024-05-19 09:28:49.790610,2,-2,172,0,0,0,85,89,113,110,55,109.42,298,96.00,24.00,-1060.00
2024-05-19 09:28:49.990070,2,-2,166,0,0,0,85,89,115,110,55,109.28,298,23.00,49.00,-988.00
2024-05-19 09:28:49.995566,2,-2,159,0,0,0,85,89,116,110,55,109.52,298,4.00,71.00,-1019.00
2024-05-19 09:28:50.194864,2,-3,153,0,0,-1,85,89,118,110,55,109.43,298,-83.00,140.00,-823.00
2024-05-19 09:28:50.198697,2,-2,146,0,0,0,85,89,119,110,55,109.43,298,11.00,49.00,-1015.00
2024-05-19 09:28:50.300738,2,-1,140,0,0,0,85,89,121,110,55,109.46,298,5.00,51.00,-911.00
2024-05-19 09:28:50.403736,1,-1,133,0,0,0,86,88,121,120,55,109.43,298,-39.00,69.00,-969.00
2024-05-19 09:28:50.504644,1,-2,127,0,0,0,86,88,122,120,55,109.35,298,38.00,43.00,-945.00
2024-05-19 09:28:50.606766,1,-2,120,1,0,0,86,88,122,120,55,109.55,298,14.00,-9.00,-902.00
2024-05-19 09:28:50.708642,0,-1,113,1,0,0,86,88,122,120,55,109.32,298,8.00,-13.00,-904.00
2024-05-19 09:28:50.911526,1,0,107,1,0,0,86,88,120,120,55,109.24,299,-23.00,39.00,-976.00
2024-05-19 09:28:50.912841,0,0,101,1,0,0,86,88,120,120,55,109.51,299,-81.00,19.00,-866.00
2024-05-19 09:28:51.116788,0,1,95,1,0,0,86,88,119,120,55,109.49,299,10.00,20.00,-926.00
2024-05-19 09:28:51.116846,0,1,88,1,0,0,86,88,118,120,55,109.45,299,54.00,-8.00,-1047.00
2024-05-19 09:28:51.219215,2,1,82,1,0,0,86,88,117,120,55,109.77,299,-43.00,27.00,-994.00
2024-05-19 09:28:51.321608,2,1,76,1,0,0,86,88,116,110,55,109.69,299,21.00,-12.00,-1009.00
2024-05-19 09:28:51.423926,2,2,70,1,0,0,86,89,115,110,55,109.59,299,9.00,-20.00,-1031.00
2024-05-19 09:28:51.525764,3,2,65,1,0,0,86,89,114,110,55,109.29,299,49.00,-48.00,-1066.00
2024-05-19 09:28:51.631493,4,2,59,1,0,0,86,89,113,110,55,109.42,299,38.00,-44.00,-974.00
2024-05-19 09:28:51.728722,4,1,53,1,0,0,86,89,112,110,55,109.51,299,27.00,-41.00,-996.00
2024-05-19 09:28:51.833257,4,2,47,1,0,0,86,89,111,110,55,109.53,300,97.00,-71.00,-991.00
2024-05-19 09:28:51.932799,5,2,40,1,0,0,86,89,110,110,55,109.52,300,34.00,-33.00,-1033.00
2024-05-19 09:28:52.038129,6,2,34,1,0,0,86,89,110,110,55,109.54,300,65.00,-55.00,-1017.00
2024-05-19 09:28:52.136631,6,2,27,1,0,0,86,89,109,110,55,109.46,300,65.00,-30.00,-1051.00
2024-05-19 09:28:52.187551,6,2,22,1,-1,0,86,89,109,110,55,109.41,300,82.00,32.00,-993.00
2024-05-19 09:28:52.289551,6,2,18,0,-1,0,86,89,109,110,55,109.37,300,105.00,-19.00,-989.00
2024-05-19 09:28:52.447701,6,2,15,1,-1,0,85,89,109,110,55,109.12,300,85.00,-40.00,-971.00
2024-05-19 09:28:52.493743,7,2,13,0,-1,0,85,89,108,110,55,109.54,300,109.00,-23.00,-1119.00
2024-05-19 09:28:52.652522,6,2,12,0,-1,0,85,89,107,110,55,109.30,300,138.00,-45.00,-1030.00
2024-05-19 09:28:52.697769,6,2,11,0,-1,0,85,89,106,110,55,109.07,300,70.00,-30.00,-1085.00
2024-05-19 09:28:52.857322,5,2,10,0,-1,0,85,89,105,110,55,109.47,301,78.00,-48.00,-913.00
2024-05-19 09:28:52.901606,5,2,10,0,-1,0,85,89,103,110,55,109.38,301,128.00,-65.00,-1053.00
2024-05-19 09:28:53.062055,4,2,10,0,-1,0,85,89,102,100,55,109.29,301,85.00,-38.00,-1043.00
2024-05-19 09:28:53.106119,3,2,9,0,0,0,85,89,101,100,55,109.41,301,157.00,-91.00,-1110.00
2024-05-19 09:28:53.266826,3,2,9,0,0,0,85,89,101,100,55,109.38,301,16.00,-16.00,-977.00
2024-05-19 09:28:53.310481,3,2,9,0,0,0,85,89,101,100,55,109.10,301,53.00,-50.00,-1048.00
2024-05-19 09:28:53.471665,2,2,9,0,0,0,85,89,101,100,55,109.34,301,68.00,-42.00,-1070.00
2024-05-19 09:28:53.515548,2,2,9,0,0,0,85,89,101,100,55,109.06,301,125.00,-49.00,-1033.00
2024-05-19 09:28:53.617734,2,2,9,0,0,0,85,89,101,100,55,108.92,301,146.00,-68.00,-1039.00
2024-05-19 09:28:53.718292,3,2,9,0,0,0,85,89,101,100,55,109.46,301,81.00,-60.00,-1103.00
2024-05-19 09:28:53.820805,3,2,9,0,0,0,85,89,102,100,55,109.21,302,83.00,2.00,-983.00
2024-05-19 09:28:53.923485,3,2,9,0,0,-1,85,89,103,100,55,109.49,302,85.00,-33.00,-1047.00
2024-05-19 09:28:54.023478,3,2,9,0,0,-1,85,89,105,100,55,109.54,302,29.00,-19.00,-1006.00
2024-05-19 09:28:54.188719,5,3,9,0,0,-1,85,89,106,100,55,109.16,302,87.00,-28.00,-1037.00
2024-05-19 09:28:54.227560,5,3,9,0,0,-1,85,89,108,100,54,109.48,302,107.00,-74.00,-1004.00
2024-05-19 09:28:54.393367,4,2,9,0,0,-1,85,89,109,110,54,109.33,302,81.00,-44.00,-960.00
2024-05-19 09:28:54.431623,4,2,9,0,0,0,85,90,110,110,54,109.52,302,82.00,-45.00,-967.00
2024-05-19 09:28:54.598620,3,3,9,0,0,0,85,90,111,110,54,109.32,302,114.00,-70.00,-1017.00
2024-05-19 09:28:54.635543,3,3,9,0,0,-1,85,90,113,110,54,109.32,302,37.00,-39.00,-946.00
2024-05-19 09:28:54.804575,4,3,9,0,0,0,85,90,112,110,54,109.38,302,1.00,-4.00,-866.00
2024-05-19 09:28:54.855010,3,3,9,0,0,0,85,90,113,110,54,109.29,303,80.00,-41.00,-964.00
2024-05-19 09:28:54.942735,3,3,9,0,0,0,85,90,112,110,54,109.24,303,49.00,-37.00,-997.00
2024-05-19 09:28:55.110522,2,2,9,0,0,0,85,90,111,110,54,109.22,303,18.00,-19.00,-950.00
2024-05-19 09:28:55.145862,2,2,9,0,0,0,85,90,111,110,54,109.54,303,50.00,-55.00,-1014.00
2024-05-19 09:28:55.315097,3,3,9,0,0,0,85,90,110,110,54,109.37,303,65.00,-8.00,-950.00
2024-05-19 09:28:55.349518,3,2,9,0,0,0,85,90,110,110,54,109.39,303,38.00,-19.00,-1000.00
2024-05-19 09:28:55.519895,2,2,9,0,0,0,86,90,109,110,54,109.35,303,39.00,-3.00,-987.00
2024-05-19 09:28:55.553878,2,1,9,0,0,0,86,90,108,110,54,109.24,303,30.00,-48.00,-1020.00
2024-05-19 09:28:55.655378,1,1,9,0,0,0,86,90,108,110,54,109.38,303,12.00,-45.00,-953.00
2024-05-19 09:28:55.826848,1,2,9,0,0,0,86,90,109,110,54,109.41,303,34.00,-25.00,-1093.00
2024-05-19 09:28:55.859402,0,0,11,0,0,-1,86,90,109,110,54,109.32,304,70.00,-78.00,-1508.00
2024-05-19 09:28:55.910757,0,-1,16,0,0,-7,86,90,115,110,54,109.43,304,81.00,41.00,-1243.00
2024-05-19 09:28:56.031646,6,-28,21,0,-2,-11,86,90,155,120,54,109.59,304,72.00,571.00,-865.00
2024-05-19 09:28:56.114304,12,-135,0,2,-10,-7,86,90,611,130,54,109.58,304,181.00,906.00,-981.00
2024-05-19 09:28:56.237087,-14,94,8,2,-10,8,86,90,312,130,54,109.59,304,186.00,395.00,-1482.00
2024-05-19 09:28:56.320501,0,-1,26,1,-4,12,86,90,119,120,54,109.61,304,-33.00,-165.00,-1512.00
2024-05-19 09:28:56.441235,3,-6,33,2,-7,10,85,89,102,110,54,109.69,304,100.00,-13.00,-1401.00
2024-05-19 09:28:56.523319,-3,5,42,2,-7,6,85,89,96,100,54,109.05,304,46.00,16.00,-1533.00
2024-05-19 09:28:56.646832,-4,6,48,1,-5,2,85,89,95,100,54,109.34,304,42.00,24.00,-1286.00
2024-05-19 09:28:56.727289,-2,3,48,1,-3,0,85,89,96,100,54,109.36,304,11.00,56.00,-1142.00
2024-05-19 09:28:56.850814,0,1,42,1,-2,-2,85,89,98,100,54,109.52,305,2.00,63.00,-1071.00
2024-05-19 09:28:56.931384,0,1,30,0,-2,-2,85,89,100,100,54,109.20,305,24.00,-10.00,-1011.00
2024-05-19 09:28:57.055652,0,1,17,1,-1,-2,85,89,102,100,54,109.11,305,6.00,-28.00,-950.00
2024-05-19 09:28:57.135415,1,0,8,2,-1,-2,85,89,104,100,54,108.98,305,38.00,-37.00,-1018.00
2024-05-19 09:28:57.260571,2,0,8,1,-1,-2,85,89,106,110,54,109.22,305,-65.00,7.00,-803.00
2024-05-19 09:28:57.339282,2,1,8,1,-1,-1,85,89,107,110,54,109.31,305,-53.00,12.00,-989.00
2024-05-19 09:28:57.465248,3,4,8,1,-1,-1,86,90,108,110,54,109.31,305,-53.00,24.00,-931.00
2024-05-19 09:28:57.543308,2,3,8,0,0,0,86,90,108,110,54,109.65,305,-83.00,19.00,-1001.00
2024-05-19 09:28:57.670047,2,3,8,0,0,0,86,90,108,110,54,109.68,305,47.00,-39.00,-997.00
2024-05-19 09:28:57.747256,1,3,8,0,0,0,86,90,108,110,54,109.30,305,38.00,-5.00,-940.00
2024-05-19 09:28:57.874857,1,3,8,0,0,0,86,90,108,110,54,109.38,306,-4.00,-28.00,-1008.00
2024-05-19 09:28:57.951354,1,3,8,0,0,0,86,90,108,110,54,109.40,306,7.00,-14.00,-1013.00
2024-05-19 09:28:58.079587,1,3,8,0,0,0,86,90,107,110,54,109.03,306,57.00,-28.00,-1069.00
2024-05-19 09:28:58.155231,2,3,8,0,0,0,86,90,108,110,54,109.30,306,88.00,-18.00,-1050.00
2024-05-19 09:28:58.284981,2,3,8,0,0,0,86,90,107,110,53,109.23,306,26.00,4.00,-921.00
2024-05-19 09:28:58.361236,2,3,8,0,0,0,86,90,107,110,53,109.43,306,72.00,-36.00,-1083.00
2024-05-19 09:28:58.461251,2,3,8,0,0,0,85,89,106,110,53,109.47,306,-65.00,44.00,-1056.00
2024-05-19 09:28:58.591635,2,3,8,0,0,0,85,89,106,110,53,109.20,306,21.00,-41.00,-944.00
2024-05-19 09:28:58.666053,2,3,8,0,0,0,85,89,106,110,53,109.21,306,22.00,-26.00,-982.00
2024-05-19 09:28:58.796412,2,2,8,0,0,0,85,89,105,110,53,109.24,306,0.00,-16.00,-1024.00
2024-05-19 09:28:58.869327,1,2,8,0,0,0,85,89,106,110,53,109.50,307,69.00,-51.00,-1015.00
2024-05-19 09:28:59.001223,1,2,8,0,0,0,85,89,106,110,53,109.34,307,74.00,-60.00,-957.00
2024-05-19 09:28:59.073173,1,2,9,0,0,0,85,89,107,110,53,109.26,307,48.00,-40.00,-1075.00
2024-05-19 09:28:59.206082,0,2,9,0,0,0,85,89,107,110,53,109.58,307,-18.00,-14.00,-998.00
2024-05-19 09:28:59.226184,0,2,8,0,0,0,85,89,108,110,53,109.45,307,108.00,-67.00,-955.00
2024-05-19 09:28:59.411313,0,2,8,0,0,0,85,89,109,110,53,109.51,307,29.00,-73.00,-972.00
2024-05-19 09:28:59.430200,0,2,9,0,0,0,85,89,110,110,53,109.34,307,41.00,-48.00,-1039.00
2024-05-19 09:28:59.616239,0,2,9,0,0,0,85,89,111,110,53,109.24,307,42.00,-40.00,-1086.00
2024-05-19 09:28:59.634222,0,2,9,0,0,0,85,89,112,110,53,109.55,307,-20.00,-1.00,-948.00
2024-05-19 09:28:59.820492,0,2,9,0,0,0,85,89,112,110,53,109.33,307,7.00,-35.00,-1010.00
2024-05-19 09:28:59.838241,0,2,9,0,0,0,85,89,112,110,53,109.49,308,-2.00,-24.00,-962.00
2024-05-19 09:29:00.025614,0,1,9,0,0,0,85,89,113,110,53,109.34,308,84.00,-60.00,-985.00
2024-05-19 09:29:00.042158,0,1,9,0,0,0,85,89,113,110,53,109.37,308,58.00,-14.00,-1045.00
2024-05-19 09:29:00.230055,0,1,9,0,0,0,85,89,114,110,53,109.47,308,41.00,-8.00,-956.00
2024-05-19 09:29:00.246242,1,2,9,0,0,0,85,89,114,110,53,109.49,308,39.00,-24.00,-1002.00
2024-05-19 09:29:00.435247,1,2,9,0,0,0,85,89,115,110,53,109.36,308,48.00,-13.00,-1053.00
2024-05-19 09:29:00.450276,1,2,9,0,0,0,85,89,115,110,53,109.32,308,-35.00,39.00,-996.00
2024-05-19 09:29:00.639824,2,2,9,0,0,0,85,89,116,110,53,109.01,308,128.00,-37.00,-1023.00
2024-05-19 09:29:00.654142,2,2,9,0,0,0,85,89,117,110,53,109.37,308,-21.00,-17.00,-983.00
2024-05-19 09:29:00.844579,3,2,9,0,0,0,85,89,118,110,53,109.56,308,-2.00,10.00,-928.00
2024-05-19 09:29:00.858138,3,2,9,0,0,0,85,89,120,120,53,109.27,309,96.00,-14.00,-1053.00
2024-05-19 09:29:01.049643,3,2,9,0,0,0,85,89,120,120,53,109.49,309,44.00,-55.00,-1014.00
2024-05-19 09:29:01.062143,3,2,9,0,0,0,85,89,120,120,53,109.57,309,83.00,-60.00,-965.00
2024-05-19 09:29:01.254472,3,2,9,0,0,0,85,89,120,120,53,109.49,309,70.00,-191.00,-1045.00
2024-05-19 09:29:01.266242,3,3,9,0,0,0,85,89,120,120,53,109.37,309,47.00,-31.00,-1106.00
2024-05-19 09:29:01.459384,3,3,9,0,0,0,85,89,119,120,53,109.60,309,67.00,-45.00,-864.00
2024-05-19 09:29:01.470091,4,2,9,0,0,0,86,89,118,120,53,109.37,309,123.00,-110.00,-998.00
2024-05-19 09:29:01.664256,3,2,9,0,0,0,86,89,116,120,53,109.01,309,13.00,-7.00,-972.00
2024-05-19 09:29:01.674082,3,1,9,0,0,1,86,89,114,120,53,109.53,309,77.00,-6.00,-1028.00
2024-05-19 09:29:01.868549,3,1,9,0,0,0,86,89,112,120,53,109.39,310,133.00,-76.00,-1146.00
2024-05-19 09:29:01.878539,3,1,9,0,0,0,86,89,109,110,53,109.15,310,48.00,-11.00,-1001.00
2024-05-19 09:29:02.076091,3,1,9,0,0,0,86,89,107,110,53,109.34,310,72.00,0.00,-970.00
2024-05-19 09:29:02.082144,3,0,9,0,1,1,86,89,104,110,53,109.04,310,52.00,-11.00,-1002.00
2024-05-19 09:29:02.208924,3,0,9,0,0,1,86,89,102,110,53,109.41,310,126.00,-78.00,-1162.00
2024-05-19 09:29:02.285964,3,0,9,0,0,0,86,89,100,110,53,109.41,310,24.00,-7.00,-983.00
2024-05-19 09:29:02.483150,1,2,9,0,0,0,86,89,99,100,53,109.41,310,76.00,-30.00,-1537.00
2024-05-19 09:29:02.489963,0,2,10,0,1,-7,85,89,102,110,53,109.33,310,109.00,-54.00,-1675.00
2024-05-19 09:29:02.687593,-1,32,10,1,2,-12,85,89,112,120,53,109.47,310,133.00,-23.00,-1593.00
2024-05-19 09:29:02.693946,-4,140,4,1,10,-7,85,89,353,130,53,109.53,310,171.00,794.00,-1191.00
2024-05-19 09:29:02.892406,11,-86,10,2,8,7,85,89,569,130,53,109.44,311,228.00,941.00,-1058.00
2024-05-19 09:29:02.897942,-2,6,26,3,3,10,85,89,119,120,53,109.88,311,215.00,355.00,-867.00
2024-05-19 09:29:02.949209,-1,7,30,2,6,9,85,89,102,110,53,108.89,311,90.00,6.00,-1340.00
2024-05-19 09:29:03.097238,3,-5,36,2,6,5,85,89,87,100,53,109.25,311,73.00,-106.00,-1622.00
2024-05-19 09:29:03.156055,5,-6,38,2,4,1,85,89,82,100,53,108.95,311,64.00,-104.00,-1396.00
2024-05-19 09:29:03.255278,3,-2,34,3,3,-1,85,89,79,100,53,109.21,311,-133.00,130.00,-1161.00
2024-05-19 09:29:03.404393,2,-1,23,2,2,-3,85,89,79,100,53,109.35,311,57.00,-60.00,-1066.00
2024-05-19 09:29:03.458944,2,0,12,3,2,-4,86,89,80,100,53,109.31,311,89.00,-57.00,-976.00
2024-05-19 09:29:03.609559,3,0,8,3,1,-3,86,89,82,110,53,109.03,311,2.00,-1.00,-987.00
2024-05-19 09:29:03.662974,4,0,8,3,1,-3,86,89,83,110,53,109.07,311,28.00,-29.00,-902.00
2024-05-19 09:29:03.814005,4,0,8,2,1,-2,86,89,84,110,53,109.19,312,64.00,-15.00,-886.00
2024-05-19 09:29:03.876748,4,0,8,2,0,-2,86,89,84,110,53,108.85,312,33.00,-16.00,-954.00
2024-05-19 09:29:03.969061,4,0,8,2,0,-1,86,89,84,110,53,109.10,312,1.00,19.00,-871.00
2024-05-19 09:29:04.121223,3,0,8,1,0,-1,86,89,83,120,53,109.13,312,29.00,-17.00,-981.00
2024-05-19 09:29:04.173112,2,0,8,1,0,0,86,89,82,120,53,109.10,312,99.00,-24.00,-1042.00
2024-05-19 09:29:04.326637,3,0,8,1,0,-1,86,89,81,120,52,109.02,312,102.00,-50.00,-958.00
2024-05-19 09:29:04.376857,4,-1,8,1,0,-1,86,89,80,120,52,109.33,312,64.00,10.00,-1031.00
2024-05-19 09:29:04.531080,4,-1,9,1,0,-1,86,90,79,120,52,108.94,312,13.00,0.00,-1013.00
2024-05-19 09:29:04.582422,3,-1,9,0,0,-1,86,90,78,120,52,109.18,312,27.00,7.00,-1013.00
2024-05-19 09:29:04.683059,3,0,9,0,0,-1,86,90,77,120,52,108.80,312,4.00,37.00,-937.00
2024-05-19 09:29:04.838012,2,0,9,0,0,-1,86,90,76,120,52,109.27,313,84.00,-23.00,-1063.00
2024-05-19 09:29:04.887136,2,0,9,0,0,-1,86,90,76,120,52,109.12,313,112.00,-39.00,-1003.00
2024-05-19 09:29:05.043102,2,0,9,0,0,-1,86,90,76,120,52,109.21,313,90.00,-50.00,-1006.00
2024-05-19 09:29:05.093580,2,0,9,0,0,0,86,90,75,120,52,109.09,313,-2.00,36.00,-778.00
2024-05-19 09:29:05.193051,2,0,9,0,0,0,86,90,74,120,52,108.94,313,66.00,-16.00,-1077.00
2024-05-19 09:29:05.294834,2,0,9,0,0,0,86,90,73,120,52,109.06,313,42.00,16.00,-881.00
2024-05-19 09:29:05.452380,2,0,9,0,0,0,86,90,72,120,52,108.85,313,12.00,37.00,-1039.00
2024-05-19 09:29:05.498722,2,0,9,0,0,0,85,89,71,120,52,109.06,313,46.00,2.00,-1001.00
2024-05-19 09:29:05.601143,1,0,9,0,0,0,85,89,71,120,52,108.96,313,64.00,7.00,-989.00
2024-05-19 09:29:05.759598,1,0,9,0,0,0,85,89,71,110,52,108.99,313,112.00,-17.00,-998.00
2024-05-19 09:29:05.805143,2,0,9,0,0,0,85,89,71,110,52,109.16,314,30.00,3.00,-1162.00
2024-05-19 09:29:05.964553,2,0,9,0,0,0,85,89,71,110,52,109.05,314,45.00,7.00,-1027.00
2024-05-19 09:29:06.008891,1,0,9,0,0,0,85,89,71,110,52,109.17,314,71.00,3.00,-1053.00
2024-05-19 09:29:06.169275,1,0,9,0,0,0,85,89,70,110,52,108.90,314,14.00,-189.00,-1051.00
2024-05-19 09:29:06.216669,2,1,9,0,0,0,85,89,70,110,52,108.94,314,35.00,-84.00,-1067.00
2024-05-19 09:29:06.315341,2,1,9,0,0,0,85,89,70,110,51,108.98,314,101.00,0.00,-991.00
2024-05-19 09:29:06.476551,2,0,9,0,0,0,85,89,69,110,51,109.08,314,109.00,-155.00,-1052.00
2024-05-19 09:29:06.521072,1,0,9,0,0,0,86,89,70,110,51,108.73,314,106.00,-47.00,-1030.00
2024-05-19 09:29:06.621452,2,0,9,0,0,0,86,89,70,110,51,109.16,314,-11.00,13.00,-930.00
2024-05-19 09:29:06.723495,2,0,9,0,0,0,86,89,69,110,51,109.16,314,-3.00,39.00,-892.00
2024-05-19 09:29:06.773836,1,0,9,0,0,0,86,89,70,110,51,108.99,315,64.00,0.00,-1023.00
2024-05-19 09:29:06.886128,1,-1,9,0,0,0,86,89,71,110,51,108.95,315,-13.00,34.00,-1007.00
2024-05-19 09:29:06.977854,1,-1,9,0,0,0,86,89,72,110,51,108.57,315,32.00,11.00,-1049.00
2024-05-19 09:29:07.091549,2,-1,9,0,0,0,86,89,73,110,51,109.21,315,61.00,20.00,-978.00
2024-05-19 09:29:07.181799,2,-1,9,0,0,0,86,89,75,110,51,108.80,315,22.00,16.00,-943.00
2024-05-19 09:29:07.296045,2,-1,9,0,0,0,86,89,76,110,51,109.27,315,144.00,-19.00,-1043.00
2024-05-19 09:29:07.385896,2,-1,9,0,0,0,86,89,78,120,51,109.42,315,25.00,24.00,-957.00
2024-05-19 09:29:07.500476,2,-1,9,0,0,0,86,89,79,120,51,109.29,315,30.00,17.00,-993.00
2024-05-19 09:29:07.589744,2,-1,9,0,0,0,86,89,81,120,51,109.11,315,64.00,28.00,-978.00
2024-05-19 09:29:07.705253,1,-1,9,0,0,0,86,89,83,120,51,109.45,315,76.00,19.00,-953.00
2024-05-19 09:29:07.793772,2,-1,9,0,0,0,86,89,84,120,51,109.33,316,59.00,14.00,-989.00
2024-05-19 09:29:07.910086,2,-1,9,0,0,0,86,89,86,120,51,109.20,316,20.00,8.00,-987.00
2024-05-19 09:29:07.998292,2,0,9,0,0,0,86,89,88,120,51,109.24,316,50.00,-4.00,-1015.00
2024-05-19 09:29:08.118651,2,0,9,0,0,0,86,89,90,120,51,109.23,316,66.00,9.00,-979.00
2024-05-19 09:29:08.203552,2,0,9,0,0,0,86,89,91,120,51,109.16,316,49.00,-1.00,-937.00
2024-05-19 09:29:08.305090,2,0,9,0,0,0,86,89,93,130,51,109.20,316,62.00,5.00,-977.00
2024-05-19 09:29:08.422080,2,0,9,0,0,0,86,89,93,130,51,109.39,316,21.00,-1.00,-1034.00
2024-05-19 09:29:08.510599,2,0,9,0,0,0,86,88,94,130,51,109.02,316,120.00,-1.00,-1045.00
2024-05-19 09:29:08.609805,1,0,9,0,0,0,86,88,95,130,51,109.36,316,78.00,-8.00,-954.00
2024-05-19 09:29:08.729452,2,0,9,0,0,0,86,88,95,130,51,109.21,316,49.00,9.00,-990.00
2024-05-19 09:29:08.813667,1,-1,9,0,0,0,86,88,95,130,51,109.25,317,1.00,-12.00,-1042.00
