TS,pitch,roll,yaw,vgx,vgy,vgz,templ,temph,tof,h,bat,baro,time,agx,agy,agz
2025-08-06T19:49:54.673550,0,-2,-16,0,0,0,83,85,10,0,8,144.06,0,9.00,49.00,-995.00
2025-08-06T19:49:54.762821,0,-2,-16,0,0,0,83,85,10,0,8,144.11,0,11.00,53.00,-1000.00
2025-08-06T19:49:54.941797,0,-2,-16,0,0,0,83,85,10,0,8,143.88,0,10.00,50.00,-1003.00
2025-08-06T19:49:54.966183,0,-2,-16,0,0,0,83,85,10,0,8,143.88,0,9.00,50.00,-998.00
2025-08-06T19:49:55.146622,0,-2,-16,0,0,0,83,85,10,0,8,143.93,0,12.00,51.00,-998.00
2025-08-06T19:49:55.170162,0,-2,-16,0,0,0,83,85,10,0,8,144.21,0,10.00,47.00,-983.00
2025-08-06T19:49:55.351997,0,-2,-16,0,0,0,83,85,10,0,8,143.89,0,13.00,47.00,-990.00
2025-08-06T19:49:55.374217,0,-2,-16,0,0,0,83,85,10,0,8,144.01,0,10.00,51.00,-1001.00
2025-08-06T19:49:55.556394,0,-2,-16,0,0,0,83,85,10,0,8,143.92,0,10.00,52.00,-997.00
2025-08-06T19:49:55.578725,0,-2,-16,0,0,0,83,85,10,0,8,143.65,0,9.00,48.00,-993.00
2025-08-06T19:49:55.760825,0,-2,-16,0,0,0,83,85,10,0,8,143.65,0,11.00,50.00,-994.00
2025-08-06T19:49:55.782092,0,-2,-16,0,0,0,83,85,10,0,8,143.89,0,12.00,51.00,-1000.00
2025-08-06T19:49:55.965386,0,-2,-16,0,0,0,83,85,10,0,8,144.21,0,9.00,51.00,-996.00
2025-08-06T19:49:55.986004,0,-2,-16,0,0,0,83,85,10,0,8,143.92,0,10.00,49.00,-997.00
2025-08-06T19:49:56.170083,0,-2,-16,0,0,0,83,85,10,0,8,144.03,0,10.00,54.00,-998.00
2025-08-06T19:49:56.190036,0,-2,-16,0,0,0,83,85,10,0,8,144.02,0,10.00,50.00,-997.00
2025-08-06T19:49:56.375169,0,-2,-16,0,0,0,83,85,10,0,8,143.83,0,11.00,50.00,-1001.00
2025-08-06T19:49:56.394860,0,-2,-16,0,0,0,83,85,10,0,8,143.69,0,10.00,52.00,-1002.00
2025-08-06T19:49:56.579893,0,-2,-16,0,0,0,83,85,10,0,8,144.05,0,10.00,52.00,-998.00
2025-08-06T19:49:56.599037,0,-2,-16,0,0,0,83,85,10,0,8,143.81,0,11.00,50.00,-994.00
2025-08-06T19:49:56.786612,0,-2,-16,0,0,0,83,85,10,0,8,143.93,0,12.00,51.00,-998.00
2025-08-06T19:49:56.801863,0,-2,-16,0,0,0,83,85,10,0,8,143.91,0,13.00,49.00,-1020.00
2025-08-06T19:49:56.989355,0,-2,-16,0,0,0,83,85,10,0,8,144.15,0,9.00,50.00,-1010.00
2025-08-06T19:49:57.005939,0,-2,-16,0,0,0,83,85,10,0,8,144.02,0,10.00,49.00,-987.00
2025-08-06T19:49:57.194221,0,-2,-16,0,0,0,83,85,10,0,8,144.10,0,11.00,52.00,-986.00
2025-08-06T19:49:57.194331,0,-2,-16,0,0,0,83,85,10,0,8,143.89,0,10.00,52.00,-999.00
2025-08-06T19:49:57.260906,0,-2,-15,0,0,0,83,85,10,0,8,143.90,0,-29.00,137.00,-957.00
2025-08-06T19:49:57.376623,0,0,-17,0,-1,0,83,85,10,0,8,143.78,0,-36.00,90.00,-1017.00
2025-08-06T19:49:57.464884,0,0,-18,0,0,0,83,85,10,0,8,144.21,0,84.00,-159.00,-932.00
2025-08-06T19:49:57.566889,-2,-4,-14,0,-1,-3,83,85,10,0,8,144.14,0,158.00,522.00,-1211.00
2025-08-06T19:49:57.706865,-3,-7,-21,0,-6,-3,83,85,10,0,8,144.16,0,88.00,-35.00,-771.00
2025-08-06T19:49:57.771069,-6,-4,-15,0,-8,-1,83,85,86,0,8,144.09,0,-199.00,401.00,-705.00
2025-08-06T19:49:57.911288,-6,0,-18,0,-5,0,83,85,10,0,8,144.16,0,-223.00,314.00,-1061.00
2025-08-06T19:49:57.974795,-3,0,-13,0,-2,1,83,85,10,0,8,144.28,0,-274.00,233.00,-1183.00
2025-08-06T19:49:58.076722,-4,-1,-12,-1,0,0,83,85,10,0,8,143.99,0,21.00,100.00,-1076.00
2025-08-06T19:49:58.178424,-2,-2,-11,0,0,-1,83,85,10,0,8,144.08,0,-43.00,40.00,-889.00
2025-08-06T19:49:58.321314,0,-3,-12,0,1,0,83,85,10,0,8,143.97,0,38.00,41.00,-935.00
2025-08-06T19:49:58.382514,1,-3,-13,0,1,0,83,85,10,0,8,144.23,0,20.00,33.00,-972.00
2025-08-06T19:49:58.526197,0,-2,-14,0,0,0,83,85,10,0,8,143.96,0,81.00,-40.00,-1013.00
2025-08-06T19:49:58.586370,0,-2,-15,0,0,0,83,85,10,0,8,144.31,0,131.00,10.00,-950.00
2025-08-06T19:49:58.730962,1,-2,-17,0,0,0,83,85,10,0,8,144.43,0,-11.00,54.00,-1001.00
2025-08-06T19:49:58.790378,2,-1,-19,0,0,0,83,85,34,0,8,144.13,0,-16.00,137.00,-1067.00
2025-08-06T19:49:58.935325,2,0,-22,0,0,0,83,85,32,0,8,143.96,0,50.00,14.00,-934.00
2025-08-06T19:49:58.994455,3,0,-28,0,1,0,83,85,35,0,8,144.01,0,144.00,51.00,-833.00
2025-08-06T19:49:59.096403,3,3,-34,1,0,1,83,85,33,0,8,143.98,0,182.00,-56.00,-820.00
2025-08-06T19:49:59.242220,5,5,-39,2,0,3,83,85,57,0,8,143.90,0,-25.00,-175.00,-893.00
2025-08-06T19:49:59.301350,4,6,-42,1,0,3,83,85,75,0,8,143.87,0,-18.00,-153.00,-957.00
2025-08-06T19:49:59.448724,4,8,-45,0,0,4,83,85,71,0,8,144.06,0,35.00,-143.00,-936.00
2025-08-06T19:49:59.505344,4,10,-49,0,0,3,83,85,67,0,8,143.91,0,159.00,-200.00,-941.00
2025-08-06T19:49:59.651910,3,13,-54,0,0,4,83,85,62,0,8,143.79,0,-17.00,-396.00,-1034.00
2025-08-06T19:49:59.709414,4,11,-55,0,0,3,83,85,57,0,8,143.80,0,25.00,-275.00,-1033.00
2025-08-06T19:49:59.856032,4,13,-61,-2,0,2,83,85,51,0,8,143.41,0,154.00,-177.00,-1169.00
2025-08-06T19:49:59.913356,6,13,-69,-1,0,0,83,85,50,0,8,143.68,0,149.00,-288.00,-1227.00
2025-08-06T19:50:00.060992,6,12,-70,-2,0,-1,83,85,51,0,8,143.69,0,56.00,-241.00,-1279.00
2025-08-06T19:50:00.117348,6,13,-69,-2,0,-4,83,85,55,0,8,143.85,0,193.00,-311.00,-1200.00
2025-08-06T19:50:00.265858,6,11,-67,-2,0,-6,83,85,61,0,8,143.67,0,191.00,-296.00,-1144.00
2025-08-06T19:50:00.321732,6,10,-66,-1,0,-8,83,85,68,0,8,143.86,0,174.00,-271.00,-1005.00
2025-08-06T19:50:00.472971,5,9,-63,-1,-1,-8,83,85,76,10,8,144.27,0,79.00,-145.00,-915.00
2025-08-06T19:50:00.525288,3,7,-61,-1,-1,-7,83,85,82,20,8,144.02,0,-1.00,-152.00,-854.00
2025-08-06T19:50:00.576279,2,2,-58,-1,-1,-6,83,85,87,20,8,144.27,0,7.00,-85.00,-774.00
2025-08-06T19:50:00.729195,1,0,-55,-1,-1,-4,83,85,90,30,8,144.26,0,-43.00,46.00,-806.00
2025-08-06T19:50:00.880163,0,-1,-51,-2,-1,-2,83,85,81,30,8,144.21,0,2.00,139.00,-770.00
2025-08-06T19:50:00.933269,0,0,-49,-1,0,0,83,85,58,30,8,144.07,0,46.00,267.00,-795.00
2025-08-06T19:50:01.084926,1,0,-52,0,0,1,83,85,75,30,8,144.05,0,40.00,78.00,-861.00
2025-08-06T19:50:01.086180,3,1,-54,1,1,3,83,85,78,30,8,143.79,0,-26.00,25.00,-923.00
2025-08-06T19:50:01.188095,3,3,-58,1,2,4,83,85,80,0,8,144.07,0,122.00,-70.00,-921.00
2025-08-06T19:50:01.394697,3,3,-61,2,2,5,83,85,75,0,8,144.29,0,55.00,-196.00,-899.00
2025-08-06T19:50:01.394937,2,2,-61,1,1,5,83,85,69,0,8,143.81,0,-26.00,-158.00,-893.00
2025-08-06T19:50:01.496636,0,5,-64,0,1,6,83,85,63,-10,8,143.86,0,74.00,-112.00,-1003.00
2025-08-06T19:50:01.596486,0,9,-70,0,0,6,83,85,57,-20,8,143.78,0,129.00,-184.00,-954.00
2025-08-06T19:50:01.699622,1,11,-78,0,0,6,83,86,52,-20,8,143.54,0,-18.00,-169.00,-1142.00
2025-08-06T19:50:01.801187,1,12,-81,0,0,4,83,86,47,-30,8,143.85,0,143.00,-259.00,-1105.00
2025-08-06T19:50:01.904050,2,10,-84,0,-1,3,83,86,45,-30,8,143.83,0,-49.00,-272.00,-1294.00
2025-08-06T19:50:02.004254,3,10,-83,0,0,0,83,86,46,-40,8,143.65,0,1.00,-364.00,-1269.00
2025-08-06T19:50:02.109448,3,12,-82,0,0,-2,83,86,50,-40,8,143.67,0,84.00,-299.00,-1173.00
2025-08-06T19:50:02.208040,2,14,-78,0,0,-4,83,86,56,-30,8,143.83,0,182.00,-358.00,-1101.00
2025-08-06T19:50:02.314540,2,15,-76,0,0,-6,83,86,64,-30,8,143.92,0,114.00,-250.00,-1024.00
2025-08-06T19:50:02.412109,1,14,-72,0,0,-7,83,86,72,-20,8,143.80,0,7.00,-241.00,-961.00
2025-08-06T19:50:02.514380,0,12,-68,0,0,-7,83,86,68,-10,8,144.08,0,-22.00,-216.00,-910.00
2025-08-06T19:50:02.620859,-2,10,-64,-1,0,-6,83,86,55,0,8,144.37,0,-40.00,-153.00,-885.00
2025-08-06T19:50:02.718133,-4,7,-59,-1,0,-5,83,86,67,0,8,144.37,0,-79.00,-123.00,-853.00
2025-08-06T19:50:02.825840,-6,2,-55,-1,0,-4,83,86,67,0,8,144.10,0,-83.00,-121.00,-839.00
2025-08-06T19:50:02.921958,-6,0,-51,-2,-1,-3,83,86,57,0,8,144.13,0,-73.00,93.00,-795.00
2025-08-06T19:50:03.032099,-5,-2,-47,-1,-1,-1,83,86,55,10,8,144.05,0,-69.00,197.00,-860.00
2025-08-06T19:50:03.127876,-4,-4,-45,-1,0,0,83,86,56,10,8,144.21,0,-44.00,232.00,-840.00
2025-08-06T19:50:03.227929,-4,-4,-46,0,0,1,83,86,80,10,8,144.24,0,10.00,195.00,-879.00
2025-08-06T19:50:03.339400,-3,-6,-49,0,1,2,83,86,95,0,8,143.82,0,-101.00,131.00,-780.00
2025-08-06T19:50:03.432199,0,-5,-53,1,1,4,83,86,91,0,8,144.09,0,-55.00,144.00,-952.00
2025-08-06T19:50:03.542312,0,0,-56,1,2,5,83,86,85,0,8,144.17,0,61.00,69.00,-843.00
2025-08-06T19:50:03.636064,0,2,-60,2,2,6,83,86,78,0,8,143.67,0,103.00,-237.00,-856.00
2025-08-06T19:50:03.749721,0,0,-62,1,1,7,84,86,70,-10,8,143.95,0,-103.00,-134.00,-1138.00
2025-08-06T19:50:03.840947,0,6,-63,0,0,7,84,86,63,-20,8,143.77,0,75.00,-180.00,-1047.00
2025-08-06T19:50:03.943219,0,10,-67,0,0,6,84,86,58,-30,8,143.58,0,42.00,-189.00,-1052.00
2025-08-06T19:50:04.054382,1,13,-69,0,0,5,84,86,53,-30,8,143.76,0,63.00,-307.00,-1061.00
2025-08-06T19:50:04.095901,1,13,-71,0,0,4,84,86,49,-40,8,143.70,0,117.00,-237.00,-1143.00
2025-08-06T19:50:04.197909,2,11,-72,0,0,2,84,86,47,-40,8,143.69,0,-41.00,-190.00,-1304.00
2025-08-06T19:50:04.361695,3,10,-71,0,0,0,84,86,49,-40,8,143.67,0,110.00,-247.00,-1254.00
2025-08-06T19:50:04.401961,1,11,-73,0,0,-2,84,86,53,-40,8,143.73,0,3.00,-173.00,-1240.00
2025-08-06T19:50:04.566778,0,11,-72,1,0,-5,84,86,59,-40,8,143.99,0,38.00,-311.00,-1214.00
2025-08-06T19:50:04.605993,-1,10,-72,0,0,-7,84,86,67,-30,8,143.73,0,-15.00,-302.00,-1060.00
2025-08-06T19:50:04.773264,-3,9,-72,0,-1,-8,83,85,76,-20,8,143.78,0,-76.00,-234.00,-955.00
2025-08-06T19:50:04.809928,-6,6,-70,0,-1,-8,83,85,84,-10,8,144.14,0,-59.00,-186.00,-846.00
2025-08-06T19:50:04.976297,-8,4,-67,-1,-2,-6,83,85,91,-10,8,144.25,0,-118.00,-62.00,-857.00
2025-08-06T19:50:05.013825,-9,4,-65,-1,-2,-5,83,85,92,0,8,144.25,0,-143.00,-14.00,-793.00
2025-08-06T19:50:05.180819,-10,3,-62,-1,-2,-3,83,85,88,0,8,144.20,0,-122.00,-52.00,-840.00
2025-08-06T19:50:05.217861,-9,0,-60,-1,-2,-2,83,85,94,0,8,144.15,0,-200.00,-87.00,-1060.00
2025-08-06T19:50:05.389496,-7,-5,-54,-3,-2,-2,83,85,99,0,8,144.23,0,-127.00,134.00,-819.00
2025-08-06T19:50:05.421761,-7,-10,-49,-3,-2,-1,83,85,72,0,8,144.34,0,-64.00,420.00,-740.00
2025-08-06T19:50:05.590490,-6,-11,-44,-2,-1,0,83,85,57,0,8,144.05,0,-33.00,615.00,-807.00
2025-08-06T19:50:05.625824,-5,-10,-43,0,0,1,83,85,73,0,8,144.30,0,-145.00,385.00,-893.00
2025-08-06T19:50:05.795252,-7,-11,-48,2,3,0,83,86,105,0,8,144.57,0,-188.00,186.00,-1096.00
2025-08-06T19:50:05.829749,-9,-8,-52,2,3,1,83,86,103,0,8,144.18,0,-175.00,169.00,-818.00
2025-08-06T19:50:06.000718,-8,-5,-56,2,3,5,83,86,102,0,8,144.22,0,51.00,67.00,-648.00
2025-08-06T19:50:06.033772,-5,0,-61,2,2,7,83,86,92,0,8,144.15,0,50.00,33.00,-789.00
2025-08-06T19:50:06.204677,-4,2,-64,1,2,9,83,86,83,-10,8,143.86,0,-55.00,-194.00,-919.00
2025-08-06T19:50:06.238798,-4,9,-68,0,0,9,83,86,73,-20,8,143.88,0,-103.00,-293.00,-1059.00
2025-08-06T19:50:06.409409,-2,13,-75,0,0,7,83,86,66,-30,8,143.78,0,-115.00,-246.00,-1069.00
2025-08-06T19:50:06.442765,-2,14,-75,0,0,6,83,86,58,-40,8,143.74,0,6.00,-431.00,-1075.00
2025-08-06T19:50:06.614249,-1,15,-77,0,0,4,83,86,52,-40,8,143.61,0,-103.00,-251.00,-1172.00
2025-08-06T19:50:06.646759,-1,14,-79,0,0,3,83,86,47,-50,8,143.62,0,101.00,-245.00,-1141.00
2025-08-06T19:50:06.819288,0,13,-77,0,0,1,84,86,44,-50,8,143.96,0,-81.00,-214.00,-1100.00
2025-08-06T19:50:06.850802,-1,16,-76,0,0,-2,84,86,44,-50,8,143.46,0,121.00,-273.00,-1166.00
2025-08-06T19:50:07.024945,-4,18,-74,0,0,-5,84,86,49,-40,8,143.83,0,-91.00,-287.00,-1329.00
2025-08-06T19:50:07.054688,-6,17,-72,0,0,-7,84,86,57,-40,8,143.72,0,-53.00,-374.00,-1356.00
2025-08-06T19:50:07.228640,-7,16,-71,0,0,-8,84,86,66,-30,8,143.63,0,-88.00,-372.00,-1234.00
2025-08-06T19:50:07.258654,-7,13,-70,0,-1,-8,84,86,74,-20,8,143.77,0,-91.00,-387.00,-1126.00
2025-08-06T19:50:07.435516,-8,12,-68,0,-1,-8,84,86,83,-10,8,144.16,0,-73.00,-400.00,-985.00
2025-08-06T19:50:07.435713,-10,10,-65,-1,-1,-6,84,86,89,0,8,144.08,0,-125.00,-314.00,-905.00
2025-08-06T19:50:07.514220,-12,9,-61,-2,-1,-3,84,86,66,0,8,144.41,0,-119.00,-235.00,-808.00
2025-08-06T19:50:07.638705,-14,11,-56,-3,-1,0,84,86,49,0,8,144.12,0,-167.00,-182.00,-699.00
2025-08-06T19:50:07.719271,-11,7,-47,-3,-1,1,84,86,39,0,8,144.20,0,-223.00,2.00,-1033.00
2025-08-06T19:50:07.847031,-10,6,-42,-2,0,0,84,86,39,0,8,144.33,0,-130.00,243.00,-1127.00
2025-08-06T19:50:07.922578,-10,7,-42,0,1,0,84,86,37,0,8,144.03,0,-80.00,225.00,-949.00
2025-08-06T19:50:08.051748,-9,8,-47,3,2,2,84,86,36,0,8,144.16,0,-128.00,18.00,-739.00
2025-08-06T19:50:08.127070,-8,11,-55,4,2,5,84,86,33,0,8,144.08,0,-32.00,-123.00,-664.00
2025-08-06T19:50:08.252763,-4,11,-61,4,1,7,84,86,33,0,8,144.09,0,56.00,-449.00,-900.00
2025-08-06T19:50:08.330563,0,12,-65,2,0,6,84,86,74,-10,8,143.83,0,43.00,-610.00,-1037.00
2025-08-06T19:50:08.457582,3,15,-67,0,0,5,84,86,68,-20,8,143.90,0,-26.00,-352.00,-1057.00
2025-08-06T19:50:08.534595,4,18,-70,0,0,4,84,86,63,-20,8,143.51,0,30.00,-316.00,-1145.00
2025-08-06T19:50:08.664565,3,18,-71,0,0,2,84,86,60,-20,8,143.59,0,-63.00,-380.00,-1154.00
2025-08-06T19:50:08.738556,0,18,-72,0,1,1,84,85,58,-30,8,144.06,0,-92.00,-293.00,-1052.00
2025-08-06T19:50:08.867738,-2,17,-74,0,2,1,84,85,57,-30,8,143.89,0,-9.00,-224.00,-841.00
2025-08-06T19:50:08.942578,-6,12,-74,0,1,3,84,85,54,-30,8,143.69,0,164.00,-329.00,-817.00
2025-08-06T19:50:09.071806,-5,8,-72,0,0,3,84,85,50,0,8,143.76,0,-113.00,-265.00,-1136.00
2025-08-06T19:50:09.146505,-3,10,-73,0,0,1,84,85,47,0,8,143.77,0,-113.00,-204.00,-1217.00
2025-08-06T19:50:09.276991,-4,12,-73,0,0,0,84,85,47,0,8,143.85,0,-139.00,-249.00,-1225.00
2025-08-06T19:50:09.350400,-6,14,-72,0,0,-3,84,85,50,0,8,143.32,0,-161.00,-225.00,-1138.00
2025-08-06T19:50:09.481407,-8,15,-73,0,0,-4,84,85,55,0,8,144.07,0,-96.00,-295.00,-1126.00
2025-08-06T19:50:09.554450,-10,16,-73,0,0,-6,84,85,61,0,8,143.81,0,-208.00,-313.00,-1127.00
2025-08-06T19:50:09.686314,-13,15,-72,0,0,-7,84,85,69,10,8,143.84,0,-148.00,-344.00,-964.00
2025-08-06T19:50:09.760873,-15,11,-70,0,-1,-7,84,86,83,20,8,144.14,0,-198.00,-251.00,-932.00
2025-08-06T19:50:09.861284,-15,9,-67,0,-1,-7,84,86,91,20,8,143.94,0,-298.00,-188.00,-906.00
2025-08-06T19:50:09.962439,-16,6,-66,0,-1,-6,84,86,98,30,8,143.82,0,-257.00,-201.00,-801.00
2025-08-06T19:50:10.095742,-17,2,-64,-1,-1,-4,84,86,104,40,8,143.81,0,-255.00,-252.00,-735.00
2025-08-06T19:50:10.166576,-17,0,-61,-3,-2,-2,84,86,108,40,8,144.47,0,-245.00,-106.00,-729.00
2025-08-06T19:50:10.268443,-15,-3,-56,-3,-3,0,84,86,90,40,8,144.22,0,-215.00,76.00,-830.00
2025-08-06T19:50:10.370715,-13,-5,-50,-3,-2,0,84,86,55,40,8,144.13,0,-272.00,287.00,-871.00
2025-08-06T19:50:10.505232,-12,-4,-47,-1,0,0,84,86,48,40,8,144.12,0,-228.00,471.00,-853.00
2025-08-06T19:50:10.575538,-9,-2,-47,1,2,2,84,86,43,0,8,144.15,0,-294.00,167.00,-722.00
2025-08-06T19:50:10.712288,-8,0,-41,0,4,3,84,86,42,0,8,144.11,0,-540.00,47.00,-1084.00
2025-08-06T19:50:10.778339,-10,-2,-32,-1,7,1,84,86,71,0,8,144.16,0,-444.00,14.00,-987.00
2025-08-06T19:50:10.915541,-13,-4,-23,-2,7,2,84,86,94,0,8,144.07,0,-233.00,-47.00,-863.00
2025-08-06T19:50:10.982374,-11,-2,-12,-3,6,2,84,86,83,0,8,143.81,0,-194.00,-158.00,-942.00
2025-08-06T19:50:11.033322,-7,-3,0,-3,4,2,84,86,10,0,8,143.90,0,-132.00,48.00,-1033.00
2025-08-06T19:50:11.236292,-7,-5,4,-2,3,2,84,86,10,0,8,143.92,0,6.00,-18.00,-1043.00
2025-08-06T19:50:11.238282,-4,-2,5,-1,2,1,84,86,10,0,8,143.52,0,-85.00,-74.00,-1200.00
2025-08-06T19:50:11.426773,0,1,6,-1,1,0,84,86,10,0,8,144.10,0,-7.00,-306.00,-962.00
2025-08-06T19:50:11.442254,0,1,7,0,1,0,84,86,10,0,8,144.10,0,4.00,-10.00,-990.00
2025-08-06T19:50:11.631623,0,1,7,0,1,0,84,86,10,0,8,143.83,0,3.00,-12.00,-988.00
2025-08-06T19:50:11.646277,0,1,7,0,1,0,84,86,10,0,8,144.15,0,4.00,-11.00,-997.00
2025-08-06T19:50:11.837097,0,1,7,0,1,0,83,85,10,0,8,143.68,0,4.00,-11.00,-1013.00
2025-08-06T19:50:11.850207,0,1,7,0,1,0,83,85,10,0,8,143.88,0,4.00,-11.00,-987.00
2025-08-06T19:50:12.041684,0,1,7,0,1,0,83,85,10,0,8,143.97,0,4.00,-11.00,-993.00
2025-08-06T19:50:12.054088,0,1,7,0,1,0,83,85,10,0,8,144.13,0,3.00,-11.00,-1004.00
2025-08-06T19:50:12.246644,0,1,7,0,1,0,83,85,10,0,8,143.85,0,4.00,-10.00,-998.00
2025-08-06T19:50:12.258223,0,1,7,0,1,0,83,85,10,0,8,144.11,0,4.00,-11.00,-993.00
2025-08-06T19:50:12.452772,0,1,7,0,0,0,83,85,10,0,8,143.55,0,1.00,-9.00,-1002.00
2025-08-06T19:50:12.462144,0,1,7,0,0,0,83,85,10,0,8,144.02,0,4.00,-10.00,-1005.00
2025-08-06T19:50:12.657654,0,1,7,0,0,0,83,85,10,0,8,143.86,0,3.00,-11.00,-995.00
2025-08-06T19:50:12.666162,0,1,7,0,0,0,83,85,10,0,8,143.78,0,4.00,-10.00,-1002.00
2025-08-06T19:50:12.861185,0,1,7,0,0,0,84,85,10,0,8,144.10,0,4.00,-10.00,-1002.00
2025-08-06T19:50:12.870126,0,0,7,0,0,0,84,85,10,0,8,143.92,0,4.00,-11.00,-1002.00
2025-08-06T19:50:13.065164,0,0,7,0,0,0,84,85,10,0,8,144.05,0,2.00,-10.00,-998.00
2025-08-06T19:50:13.074019,0,0,7,0,0,0,84,85,10,0,8,144.00,0,3.00,-8.00,-1001.00
2025-08-06T19:50:13.272330,0,0,7,0,0,0,84,85,10,0,8,144.03,0,3.00,-10.00,-997.00
2025-08-06T19:50:13.280092,0,0,7,0,0,0,84,85,10,0,8,143.60,0,2.00,-9.00,-1001.00
2025-08-06T19:50:13.380767,0,0,7,0,0,0,84,85,10,0,8,143.78,0,2.00,-10.00,-1000.00
2025-08-06T19:50:13.482810,0,0,7,0,0,0,84,85,10,0,8,143.91,0,4.00,-12.00,-1005.00
2025-08-06T19:50:13.585212,0,0,7,0,0,0,84,85,10,0,8,143.94,0,5.00,-11.00,-1002.00
2025-08-06T19:50:13.687640,0,0,7,0,0,0,84,85,10,0,8,144.43,0,3.00,-9.00,-1000.00
2025-08-06T19:50:13.790125,0,0,7,0,0,0,84,85,10,0,8,143.76,0,5.00,-10.00,-1003.00
2025-08-06T19:50:13.894619,0,0,7,0,0,0,84,85,10,0,8,143.87,0,1.00,-10.00,-996.00
2025-08-06T19:50:13.991978,0,0,7,0,0,0,84,85,10,0,8,144.00,0,4.00,-10.00,-998.00
2025-08-06T19:50:14.192737,0,0,7,0,0,0,84,85,10,0,8,143.92,0,6.00,-9.00,-1000.00
2025-08-06T19:50:14.193715,0,0,7,0,0,0,84,85,10,0,8,143.86,0,5.00,-10.00,-998.00
2025-08-06T19:50:14.246934,0,0,7,0,0,0,84,85,10,0,8,143.87,0,3.00,-12.00,-991.00
2025-08-06T19:50:14.396703,0,0,7,0,0,0,84,85,10,0,8,144.03,0,5.00,-9.00,-991.00
2025-08-06T19:50:14.451281,0,0,7,0,0,0,84,85,10,0,8,143.87,0,5.00,-11.00,-989.00
2025-08-06T19:50:14.601679,0,0,7,0,0,0,84,85,10,0,8,143.64,0,4.00,-10.00,-988.00
