TS,pitch,roll,yaw,vgx,vgy,vgz,templ,temph,tof,h,bat,baro,time,agx,agy,agz
2025-08-06T19:45:34.311409,0,2,-33,0,0,0,71,73,10,0,13,143.79,0,-13.00,-42.00,-995.00
2025-08-06T19:45:34.413635,0,2,-33,0,0,0,71,73,10,0,13,143.97,0,-15.00,-32.00,-1002.00
2025-08-06T19:45:34.549963,0,2,-33,0,0,0,71,74,10,0,13,144.02,0,-16.00,-35.00,-1001.00
2025-08-06T19:45:34.617369,0,2,-33,0,0,0,71,74,10,0,13,144.01,0,-15.00,-38.00,-1001.00
2025-08-06T19:45:34.754832,0,2,-33,0,0,0,71,74,10,0,13,144.08,0,-14.00,-36.00,-1001.00
2025-08-06T19:45:34.821355,0,2,-33,0,0,0,71,74,10,0,13,144.15,0,-13.00,-36.00,-992.00
2025-08-06T19:45:34.959792,0,2,-33,0,0,0,71,74,10,0,13,144.43,0,-74.00,-20.00,-978.00
2025-08-06T19:45:34.974983,0,2,-33,0,0,0,71,74,10,0,13,144.17,0,-59.00,-8.00,-983.00
2025-08-06T19:45:35.164402,0,3,-31,0,0,0,71,74,10,0,13,144.34,0,291.00,-57.00,-1166.00
2025-08-06T19:45:35.178573,0,0,-33,0,0,-2,71,74,10,0,13,144.34,0,201.00,-266.00,-1370.00
2025-08-06T19:45:35.369963,-8,-3,-29,0,0,-2,71,74,10,0,13,144.33,0,172.00,-169.00,-779.00
2025-08-06T19:45:35.382285,-12,-3,-28,0,0,0,71,74,87,0,13,144.15,0,-59.00,147.00,-619.00
2025-08-06T19:45:35.573867,-9,-2,-31,0,0,1,71,73,86,0,13,144.36,0,-218.00,106.00,-821.00
2025-08-06T19:45:35.586288,-7,0,-36,0,0,3,71,73,82,0,13,144.18,0,-215.00,98.00,-965.00
2025-08-06T19:45:35.780316,-4,1,-41,0,0,2,71,73,79,0,13,144.07,0,-251.00,-16.00,-1049.00
2025-08-06T19:45:35.790269,-3,4,-46,0,0,1,71,73,77,0,13,144.09,0,-167.00,-56.00,-1023.00
2025-08-06T19:45:35.984715,-2,6,-49,0,0,1,71,73,75,0,13,143.91,0,-68.00,-132.00,-982.00
2025-08-06T19:45:35.994785,0,7,-51,0,0,1,71,73,73,0,13,144.13,0,-132.00,-126.00,-1057.00
2025-08-06T19:45:36.188818,0,8,-52,0,0,1,71,73,72,0,13,144.22,0,-20.00,-149.00,-1006.00
2025-08-06T19:45:36.198083,0,9,-53,0,0,1,71,73,71,0,13,144.22,0,51.00,-169.00,-996.00
2025-08-06T19:45:36.393270,2,10,-53,0,0,1,71,73,69,0,13,143.80,0,13.00,-176.00,-1024.00
2025-08-06T19:45:36.402964,2,10,-53,0,0,0,71,73,68,0,13,143.76,0,53.00,-175.00,-1057.00
2025-08-06T19:45:36.598132,3,10,-53,0,0,0,71,74,68,0,13,143.96,0,63.00,-196.00,-1027.00
2025-08-06T19:45:36.606846,3,10,-52,0,0,1,71,74,67,0,13,143.92,0,61.00,-197.00,-1026.00
2025-08-06T19:45:36.802545,4,11,-52,0,0,1,71,74,65,0,13,143.74,0,46.00,-173.00,-902.00
2025-08-06T19:45:36.810026,4,11,-52,0,0,0,71,74,65,0,13,143.97,0,18.00,-137.00,-976.00
2025-08-06T19:45:36.913563,5,11,-51,0,0,0,71,74,64,0,13,144.20,0,44.00,-215.00,-1063.00
2025-08-06T19:45:37.014595,4,12,-52,0,0,1,71,74,63,0,13,143.85,0,140.00,-157.00,-961.00
2025-08-06T19:45:37.117477,-3,13,-51,0,0,3,71,74,60,0,13,143.74,0,195.00,-233.00,-864.00
2025-08-06T19:45:37.221353,-3,14,-56,0,0,4,71,74,57,0,13,143.91,0,19.00,-361.00,-787.00
2025-08-06T19:45:37.324741,0,16,-61,0,0,4,71,74,54,0,13,143.94,0,-198.00,0.00,-886.00
2025-08-06T19:45:37.421909,2,16,-64,0,0,3,71,74,50,0,13,143.67,0,-66.00,-117.00,-1032.00
2025-08-06T19:45:37.526504,5,14,-67,0,0,4,71,73,45,0,13,143.68,0,194.00,-371.00,-1151.00
2025-08-06T19:45:37.725253,9,15,-67,0,0,2,71,73,42,0,13,143.80,0,257.00,-333.00,-1308.00
2025-08-06T19:45:37.728354,10,15,-68,0,0,0,71,73,42,0,13,143.73,0,150.00,-336.00,-1222.00
2025-08-06T19:45:37.929212,10,14,-68,0,0,-3,71,73,46,0,13,143.63,0,192.00,-384.00,-1177.00
2025-08-06T19:45:37.932350,7,14,-69,-1,0,-5,71,73,51,0,13,143.85,0,209.00,-186.00,-1093.00
2025-08-06T19:45:38.033973,5,13,-72,0,0,-6,71,73,57,0,13,143.68,0,139.00,-159.00,-959.00
2025-08-06T19:45:38.136164,5,10,-73,0,0,-6,71,73,64,10,13,143.91,0,64.00,-133.00,-969.00
2025-08-06T19:45:38.237640,4,5,-74,0,0,-6,71,73,70,20,13,144.31,0,83.00,-173.00,-861.00
2025-08-06T19:45:38.288767,2,2,-73,-1,0,-5,71,73,76,20,13,143.58,0,55.00,-57.00,-854.00
2025-08-06T19:45:38.440805,0,2,-72,-2,0,-3,71,73,80,30,13,144.34,0,-53.00,24.00,-867.00
2025-08-06T19:45:38.492535,-1,0,-70,-1,0,-2,72,74,83,30,13,144.06,0,32.00,136.00,-748.00
2025-08-06T19:45:38.646176,-1,0,-70,0,0,0,72,74,83,30,13,144.12,0,51.00,168.00,-773.00
2025-08-06T19:45:38.696483,0,-1,-71,1,0,1,72,74,82,30,13,144.07,0,-5.00,60.00,-808.00
2025-08-06T19:45:38.850211,5,-2,-72,1,0,3,72,74,79,0,13,143.92,0,17.00,99.00,-984.00
2025-08-06T19:45:38.903148,7,0,-74,1,0,4,72,74,75,0,13,143.93,0,200.00,32.00,-800.00
2025-08-06T19:45:39.002505,7,1,-77,1,0,5,72,74,69,0,13,143.91,0,198.00,-201.00,-1080.00
2025-08-06T19:45:39.157399,6,4,-75,0,0,5,72,74,64,0,13,143.92,0,174.00,-231.00,-1176.00
2025-08-06T19:45:39.206567,5,10,-75,0,0,4,72,74,59,-10,13,143.63,0,96.00,-59.00,-1095.00
2025-08-06T19:45:39.363275,3,11,-79,0,0,3,72,74,55,-10,13,143.65,0,161.00,-307.00,-1035.00
2025-08-06T19:45:39.410525,5,10,-76,0,-1,2,72,74,53,-20,13,143.22,0,-26.00,-94.00,-1384.00
2025-08-06T19:45:39.571016,8,12,-76,0,0,0,72,73,53,-20,13,143.84,0,159.00,-242.00,-909.00
2025-08-06T19:45:39.614557,9,12,-76,0,0,0,72,73,53,-20,13,143.81,0,149.00,-211.00,-1116.00
2025-08-06T19:45:39.771756,8,12,-72,0,0,0,72,73,54,0,13,143.66,0,115.00,-345.00,-1158.00
2025-08-06T19:45:39.818496,5,12,-67,0,0,-2,72,73,56,0,13,144.31,0,-33.00,-225.00,-1246.00
2025-08-06T19:45:39.920922,0,9,-69,-1,0,-4,72,73,60,0,13,143.89,0,51.00,-153.00,-1122.00
2025-08-06T19:45:40.078946,-1,10,-74,0,0,-6,72,73,66,0,13,144.02,0,-40.00,-176.00,-1129.00
2025-08-06T19:45:40.124445,-5,8,-75,0,0,-7,72,73,74,10,13,144.32,0,-27.00,-181.00,-906.00
2025-08-06T19:45:40.283747,-8,5,-75,-1,0,-6,72,73,82,20,13,144.15,0,-75.00,-79.00,-739.00
2025-08-06T19:45:40.328428,-8,1,-73,-1,-1,-4,72,73,87,20,13,144.31,0,-145.00,76.00,-660.00
2025-08-06T19:45:40.430378,-8,0,-70,0,0,-1,72,73,89,30,13,143.96,0,-103.00,83.00,-597.00
2025-08-06T19:45:40.590920,-7,1,-70,0,0,2,72,74,84,30,13,143.97,0,65.00,52.00,-613.00
2025-08-06T19:45:40.634388,-5,3,-70,0,0,5,72,74,77,20,13,143.88,0,-40.00,42.00,-962.00
2025-08-06T19:45:40.796115,-1,8,-74,1,0,6,72,74,70,20,13,143.92,0,3.00,-153.00,-968.00
2025-08-06T19:45:40.838432,2,7,-79,2,0,6,72,74,64,10,13,144.25,0,96.00,-203.00,-1075.00
2025-08-06T19:45:41.000674,3,7,-80,1,0,5,72,74,59,0,13,143.80,0,184.00,-184.00,-1140.00
2025-08-06T19:45:41.043314,4,9,-82,0,0,3,72,74,56,0,13,143.97,0,123.00,-325.00,-1190.00
2025-08-06T19:45:41.145047,6,9,-82,0,0,1,72,74,56,0,13,143.97,0,50.00,-195.00,-1242.00
2025-08-06T19:45:41.308085,8,11,-81,0,0,0,72,74,56,0,13,143.63,0,199.00,-121.00,-913.00
2025-08-06T19:45:41.348399,7,8,-81,0,0,0,72,74,57,0,13,144.01,0,98.00,-74.00,-1027.00
2025-08-06T19:45:41.450244,7,7,-80,0,0,0,72,74,57,0,13,143.91,0,148.00,-70.00,-931.00
2025-08-06T19:45:41.614825,4,6,-75,0,0,0,72,75,57,0,13,143.82,0,67.00,-144.00,-925.00
2025-08-06T19:45:41.654241,3,8,-70,0,0,0,72,75,57,0,13,143.76,0,53.00,-117.00,-981.00
2025-08-06T19:45:41.819837,0,10,-64,0,0,0,72,75,58,0,13,143.75,0,-41.00,-172.00,-1006.00
2025-08-06T19:45:41.859355,-1,13,-59,0,0,0,72,75,58,0,13,144.07,0,-53.00,-167.00,-806.00
2025-08-06T19:45:41.910228,0,16,-58,0,0,1,72,75,57,0,13,143.77,0,-6.00,-164.00,-933.00
2025-08-06T19:45:42.024340,0,17,-58,0,0,1,72,75,55,0,13,143.92,0,53.00,-369.00,-1024.00
2025-08-06T19:45:42.114184,3,16,-67,0,0,1,72,75,53,0,13,143.89,0,53.00,-365.00,-977.00
2025-08-06T19:45:42.230881,4,13,-74,0,0,0,72,75,52,0,13,143.85,0,7.00,-251.00,-1023.00
2025-08-06T19:45:42.318205,3,12,-79,0,0,0,72,75,52,0,13,143.73,0,78.00,-227.00,-999.00
2025-08-06T19:45:42.420752,3,11,-82,0,0,0,72,75,52,0,13,143.67,0,73.00,-232.00,-981.00
2025-08-06T19:45:42.536283,3,10,-82,0,0,0,72,74,52,0,13,143.86,0,59.00,-170.00,-960.00
2025-08-06T19:45:42.624259,3,11,-82,0,0,0,72,74,51,0,13,143.80,0,56.00,-207.00,-1010.00
2025-08-06T19:45:42.726280,3,10,-83,0,0,0,72,74,52,0,13,143.59,0,81.00,-206.00,-1031.00
2025-08-06T19:45:42.846685,4,10,-84,0,0,0,72,74,53,0,13,143.89,0,20.00,-240.00,-1301.00
2025-08-06T19:45:42.930319,2,9,-82,0,0,-3,72,74,57,0,13,143.90,0,36.00,-290.00,-1230.00
2025-08-06T19:45:43.051511,-3,9,-80,0,0,-5,72,74,63,0,13,144.05,0,-44.00,-210.00,-1047.00
2025-08-06T19:45:43.134171,-4,12,-81,-1,0,-6,72,74,72,0,13,143.63,0,-92.00,-227.00,-1098.00
2025-08-06T19:45:43.255145,-8,11,-78,-1,0,-7,72,74,79,10,13,144.03,0,-97.00,-251.00,-890.00
2025-08-06T19:45:43.338067,-12,8,-73,-1,0,-6,72,74,86,20,13,144.13,0,-181.00,-101.00,-809.00
2025-08-06T19:45:43.440107,-13,5,-69,-1,-1,-5,72,74,91,20,13,144.28,0,-175.00,-15.00,-811.00
2025-08-06T19:45:43.561333,-14,1,-66,-1,-1,-3,72,74,94,30,13,144.31,0,-193.00,96.00,-709.00
2025-08-06T19:45:43.644176,-14,1,-66,0,0,-1,72,74,87,30,13,144.13,0,-154.00,154.00,-595.00
2025-08-06T19:45:43.867689,-11,3,-68,0,0,2,72,74,87,30,13,144.27,0,-253.00,35.00,-772.00
2025-08-06T19:45:43.868202,-7,3,-71,1,0,4,72,74,83,30,13,144.17,0,-134.00,-6.00,-867.00
2025-08-06T19:45:43.950092,-6,5,-75,2,0,5,72,74,77,20,13,144.16,0,-71.00,-154.00,-1038.00
2025-08-06T19:45:44.072362,-2,9,-80,1,0,5,72,74,72,20,13,144.14,0,-21.00,-258.00,-915.00
2025-08-06T19:45:44.154003,-2,9,-77,0,0,5,72,74,66,10,13,144.04,0,61.00,-202.00,-1093.00
2025-08-06T19:45:44.277275,-2,10,-81,0,0,4,72,74,61,10,13,143.80,0,-18.00,-278.00,-1113.00
2025-08-06T19:45:44.358048,0,15,-84,0,0,3,72,74,60,0,13,143.86,0,195.00,-228.00,-946.00
2025-08-06T19:45:44.460533,2,20,-87,0,-1,2,72,74,58,0,13,143.68,0,-44.00,-546.00,-940.00
2025-08-06T19:45:44.584894,7,19,-86,0,0,1,72,75,56,0,13,143.78,0,77.00,-225.00,-964.00
2025-08-06T19:45:44.664085,7,19,-86,0,0,2,72,75,54,0,13,144.03,0,81.00,-379.00,-1111.00
2025-08-06T19:45:44.789230,8,20,-86,0,0,0,72,75,53,0,13,144.08,0,231.00,-573.00,-948.00
2025-08-06T19:45:44.868380,5,24,-91,0,0,0,72,75,54,0,13,143.84,0,123.00,-373.00,-858.00
2025-08-06T19:45:44.994743,2,26,-94,0,0,0,72,75,56,0,13,144.04,0,57.00,-510.00,-917.00
2025-08-06T19:45:45.020955,2,30,-95,0,0,-1,72,75,57,0,13,144.00,0,-53.00,-580.00,-1054.00
2025-08-06T19:45:45.199669,0,32,-95,0,0,-2,72,75,56,0,13,143.91,0,23.00,-600.00,-903.00
2025-08-06T19:45:45.225133,-1,29,-93,0,0,-3,72,75,44,0,13,144.13,0,61.00,-711.00,-745.00
2025-08-06T19:45:45.404345,-3,29,-89,0,0,-4,72,75,10,0,13,144.21,0,-247.00,-355.00,-893.00
2025-08-06T19:45:45.428961,-3,22,-80,0,0,-4,72,75,41,0,13,143.79,0,-149.00,-285.00,-975.00
2025-08-06T19:45:45.608152,-3,12,-76,0,0,-5,72,75,79,0,13,143.99,0,-99.00,-162.00,-942.00
2025-08-06T19:45:45.632855,-4,-1,-66,-1,0,-4,72,75,85,10,13,144.13,0,-4.00,-183.00,-859.00
2025-08-06T19:45:45.814069,-5,-4,-63,-1,0,-3,72,75,88,10,13,144.09,0,-96.00,-23.00,-952.00
2025-08-06T19:45:45.836922,-7,-7,-61,-1,0,-3,72,75,93,20,13,144.11,0,-111.00,103.00,-951.00
2025-08-06T19:45:46.018239,-10,-8,-62,0,0,-1,72,75,98,20,13,144.08,0,-108.00,185.00,-729.00
2025-08-06T19:45:46.045901,-9,-8,-62,0,0,1,72,75,99,0,13,144.18,0,-150.00,232.00,-609.00
2025-08-06T19:45:46.142822,-4,-7,-62,0,0,4,72,75,96,0,13,144.04,0,-137.00,166.00,-686.00
2025-08-06T19:45:46.328044,-1,-2,-65,1,0,6,72,75,88,0,13,144.01,0,86.00,123.00,-842.00
2025-08-06T19:45:46.346992,1,2,-68,0,0,7,72,75,80,-10,13,144.03,0,114.00,-121.00,-957.00
2025-08-06T19:45:46.448749,4,7,-70,1,0,6,72,75,73,-10,13,144.10,0,3.00,-149.00,-981.00
2025-08-06T19:45:46.632259,4,9,-71,0,0,5,72,74,67,-20,13,144.01,0,119.00,-22.00,-1027.00
2025-08-06T19:45:46.652752,5,9,-72,0,0,4,72,74,61,-30,13,144.24,0,250.00,-232.00,-1121.00
2025-08-06T19:45:46.837978,5,8,-72,0,0,3,72,74,57,-30,13,144.00,0,57.00,-209.00,-1078.00
2025-08-06T19:45:46.856806,5,9,-78,1,0,2,72,74,52,-30,13,143.94,0,84.00,-145.00,-1042.00
2025-08-06T19:45:47.044732,8,11,-80,0,0,1,72,74,51,-40,13,144.06,0,106.00,-130.00,-1110.00
2025-08-06T19:45:47.060872,9,9,-77,0,0,0,72,74,51,-40,13,143.75,0,98.00,-243.00,-1087.00
2025-08-06T19:45:47.247493,9,9,-77,0,1,-1,72,74,52,0,13,143.76,0,70.00,-303.00,-1154.00
2025-08-06T19:45:47.264769,6,10,-76,0,1,-3,72,74,53,0,13,143.93,0,51.00,-336.00,-1065.00
2025-08-06T19:45:47.452086,2,13,-74,0,1,-4,72,74,57,0,13,143.93,0,152.00,-219.00,-1082.00
2025-08-06T19:45:47.468845,0,12,-76,-1,1,-5,72,74,62,0,13,143.75,0,163.00,-172.00,-1152.00
2025-08-06T19:45:47.656262,-1,12,-70,0,0,-5,73,75,69,0,13,143.90,0,-13.00,-214.00,-953.00
2025-08-06T19:45:47.672751,-8,5,-66,0,0,-5,73,75,74,10,13,144.07,0,-23.00,-53.00,-908.00
2025-08-06T19:45:47.862114,-8,1,-63,0,0,-5,73,75,79,10,13,144.20,0,-164.00,-66.00,-963.00
2025-08-06T19:45:47.876764,-8,1,-57,0,0,-4,73,75,85,20,13,144.01,0,-144.00,-18.00,-918.00
2025-08-06T19:45:48.080562,-4,-1,-49,0,0,-3,73,75,89,20,13,144.05,0,-89.00,80.00,-711.00
2025-08-06T19:45:48.080866,2,-3,-49,0,0,0,73,75,92,30,13,144.15,0,158.00,123.00,-727.00
2025-08-06T19:45:48.271414,-7,0,-53,0,0,2,73,75,92,30,13,144.35,0,-169.00,6.00,-815.00
2025-08-06T19:45:48.284691,-6,-1,-51,0,0,3,73,75,88,20,13,144.19,0,-52.00,99.00,-792.00
2025-08-06T19:45:48.476250,-5,-3,-54,0,0,5,73,75,85,0,13,144.27,0,32.00,-22.00,-883.00
2025-08-06T19:45:48.476542,-2,0,-58,0,0,7,73,75,78,0,13,143.90,0,-67.00,-66.00,-874.00
2025-08-06T19:45:48.680321,2,2,-60,0,-1,7,73,74,70,-10,13,143.97,0,-28.00,-139.00,-1167.00
2025-08-06T19:45:48.680571,1,2,-63,1,0,6,73,74,63,-20,13,143.98,0,94.00,14.00,-1166.00
2025-08-06T19:45:48.743664,0,0,-66,0,0,4,73,74,58,-20,13,143.96,0,65.00,-107.00,-1094.00
2025-08-06T19:45:48.887745,0,0,-67,0,0,3,73,74,54,-30,13,143.83,0,147.00,-115.00,-1013.00
2025-08-06T19:45:48.947672,8,8,-70,0,0,0,73,74,51,-30,13,143.66,0,-145.00,382.00,-1303.00
2025-08-06T19:45:49.089725,6,3,-70,0,0,0,73,74,51,-30,13,143.73,0,88.00,-163.00,-890.00
2025-08-06T19:45:49.151568,7,4,-69,0,0,1,73,74,50,-30,13,144.00,0,66.00,53.00,-978.00
2025-08-06T19:45:49.294506,7,5,-72,0,0,2,73,74,49,0,13,143.72,0,150.00,-163.00,-1037.00
2025-08-06T19:45:49.355634,8,6,-72,0,0,0,73,74,47,0,13,143.55,0,72.00,-135.00,-1339.00
2025-08-06T19:45:49.457579,7,7,-72,0,1,-3,73,74,48,0,13,143.93,0,13.00,-118.00,-1588.00
2025-08-06T19:45:49.601678,2,5,-76,-1,1,-6,73,75,53,0,13,143.87,0,97.00,-377.00,-1205.00
2025-08-06T19:45:49.661808,-1,3,-76,-3,0,-8,73,75,60,10,13,144.02,0,186.00,-295.00,-900.00
2025-08-06T19:45:49.807661,-5,1,-69,-5,0,-8,73,75,70,20,13,144.06,0,125.00,-196.00,-795.00
2025-08-06T19:45:49.865659,-5,0,-59,-6,-1,-6,73,75,74,20,13,144.27,0,27.00,-200.00,-755.00
2025-08-06T19:45:50.114116,-4,1,-43,-7,-1,-3,73,75,10,30,13,144.15,0,-46.00,72.00,-767.00
2025-08-06T19:45:50.114329,-6,2,-31,-7,0,0,73,75,10,30,13,144.32,0,116.00,261.00,-663.00
2025-08-06T19:45:50.172636,-3,0,-22,-5,0,1,73,75,10,30,13,144.51,0,57.00,47.00,-1066.00
2025-08-06T19:45:50.319257,-2,0,-20,-4,0,0,73,75,10,30,13,144.17,0,97.00,-24.00,-1066.00
2025-08-06T19:45:50.375489,-2,0,-20,-2,0,0,73,75,10,30,13,144.23,0,223.00,37.00,-965.00
2025-08-06T19:45:50.477359,0,-1,-19,-1,0,0,73,75,10,0,13,143.98,0,186.00,67.00,-1102.00
2025-08-06T19:45:50.626144,1,-2,-19,-1,0,0,72,75,10,0,13,144.32,0,121.00,18.00,-1006.00
2025-08-06T19:45:50.681526,3,-2,-20,0,0,0,72,75,10,0,13,143.98,0,49.00,16.00,-991.00
2025-08-06T19:45:50.833467,4,0,-20,-1,0,0,72,75,10,0,13,144.08,0,132.00,-37.00,-1006.00
2025-08-06T19:45:50.885322,4,0,-19,-1,0,-1,72,75,10,0,13,144.18,0,208.00,-23.00,-1045.00
2025-08-06T19:45:51.036150,3,0,-20,0,-1,-1,72,75,10,0,13,143.99,0,285.00,2.00,-964.00
2025-08-06T19:45:51.089509,2,-2,-21,2,-1,-1,72,75,10,0,13,143.89,0,234.00,56.00,-1016.00
2025-08-06T19:45:51.240381,2,-3,-24,3,-1,-1,72,75,10,0,13,144.32,0,137.00,169.00,-917.00
2025-08-06T19:45:51.293514,3,-5,-28,4,0,0,72,75,10,0,13,144.24,0,29.00,181.00,-960.00
2025-08-06T19:45:51.395663,4,-5,-35,4,0,0,72,75,10,0,13,144.16,0,-14.00,154.00,-916.00
2025-08-06T19:45:51.547910,4,-5,-44,4,0,1,72,75,10,0,13,144.04,0,101.00,75.00,-928.00
2025-08-06T19:45:51.600364,4,-4,-53,4,0,2,72,75,66,0,13,144.04,0,18.00,36.00,-764.00
2025-08-06T19:45:51.752786,4,-4,-62,3,0,5,72,75,75,0,13,144.04,0,112.00,-231.00,-783.00
2025-08-06T19:45:51.752993,5,0,-67,2,-1,6,72,75,69,0,13,144.14,0,-13.00,-69.00,-969.00
2025-08-06T19:45:51.854530,7,3,-70,1,-2,7,72,75,61,-10,13,144.05,0,163.00,-294.00,-915.00
2025-08-06T19:45:51.956885,9,3,-74,-1,-2,5,72,75,55,-20,13,143.96,0,20.00,-158.00,-1250.00
2025-08-06T19:45:52.058682,11,8,-75,-2,-2,4,72,75,52,-20,13,143.82,0,74.00,-362.00,-1322.00
2025-08-06T19:45:52.161740,15,5,-70,0,0,2,72,75,50,-30,13,143.75,0,119.00,-442.00,-1078.00
2025-08-06T19:45:52.264874,8,1,-70,0,0,1,72,75,47,-30,13,143.65,0,174.00,-42.00,-1040.00
2025-08-06T19:45:52.366504,8,1,-68,0,0,1,72,75,46,-30,13,144.04,0,236.00,-7.00,-968.00
2025-08-06T19:45:52.466369,9,2,-64,0,0,0,72,75,46,-30,13,143.79,0,223.00,-27.00,-1073.00
2025-08-06T19:45:52.568420,7,6,-66,0,0,0,73,74,45,0,13,144.04,0,96.00,-31.00,-1065.00
2025-08-06T19:45:52.673729,9,9,-67,0,0,0,73,74,46,0,13,143.66,0,128.00,-408.00,-1085.00
2025-08-06T19:45:52.772225,7,12,-62,0,0,-2,73,74,48,0,13,143.73,0,82.00,-435.00,-1188.00
2025-08-06T19:45:52.878414,8,8,-61,-1,2,-5,73,74,53,0,13,143.79,0,53.00,-391.00,-1170.00
2025-08-06T19:45:52.976818,11,11,-62,-2,1,-7,73,74,60,0,13,144.22,0,153.00,-136.00,-1376.00
2025-08-06T19:45:53.085207,6,15,-62,0,2,-10,73,74,69,10,13,144.15,0,126.00,-133.00,-1207.00
2025-08-06T19:45:53.180186,2,8,-60,0,2,-12,73,74,82,20,13,144.40,0,58.00,-235.00,-906.00
2025-08-06T19:45:53.289172,-3,0,-59,0,1,-10,73,74,94,30,13,144.37,0,122.00,-194.00,-621.00
2025-08-06T19:45:53.384829,-6,-4,-56,-1,0,-7,73,74,101,40,13,144.06,0,-40.00,48.00,-878.00
2025-08-06T19:45:53.487743,-6,-6,-54,-1,0,-6,73,74,110,50,13,144.07,0,-108.00,101.00,-958.00
2025-08-06T19:45:53.588217,-7,-8,-53,-1,0,-6,73,74,117,60,13,144.22,0,-79.00,148.00,-964.00
2025-08-06T19:45:53.698858,-8,-7,-55,-1,0,-6,73,74,124,60,13,144.31,0,-139.00,203.00,-1107.00
2025-08-06T19:45:53.792418,-10,-5,-57,0,0,-7,73,74,132,70,13,144.25,0,-129.00,30.00,-1135.00
2025-08-06T19:45:53.902576,-12,-6,-59,0,-1,-8,73,74,141,80,13,144.46,0,-126.00,64.00,-995.00
2025-08-06T19:45:53.996135,-13,-9,-59,0,-2,-8,73,74,152,90,13,144.82,0,-104.00,-12.00,-834.00
2025-08-06T19:45:54.110039,-8,-18,-58,-1,-4,-7,73,74,157,100,13,144.59,0,-210.00,202.00,-958.00
2025-08-06T19:45:54.200213,-13,-31,-62,-1,-5,-6,73,74,199,100,13,144.79,0,-258.00,315.00,-865.00
2025-08-06T19:45:54.312723,-17,-45,-60,-3,-5,-6,73,74,177,110,13,144.74,0,-205.00,479.00,-628.00
2025-08-06T19:45:54.407863,-19,-56,-63,-3,-6,-3,73,74,213,110,13,144.79,0,-279.00,699.00,-484.00
2025-08-06T19:45:54.507759,-19,-64,-66,-4,-6,-2,73,74,270,110,13,145.06,0,-380.00,775.00,-364.00
2025-08-06T19:45:54.608115,-21,-74,-68,-4,-5,-1,74,76,561,120,13,144.86,0,-337.00,789.00,-36.00
2025-08-06T19:45:54.717440,-24,-78,-69,-2,-3,0,74,76,774,120,13,144.86,0,-524.00,631.00,207.00
2025-08-06T19:45:54.818435,-24,-74,-69,0,0,1,74,76,609,110,13,145.05,0,-543.00,875.00,-161.00
2025-08-06T19:45:54.914145,-28,-77,-62,0,1,1,74,76,6553,0,13,145.08,0,-630.00,745.00,37.00
2025-08-06T19:45:55.032443,-44,-87,-34,1,4,3,74,76,754,0,13,144.91,0,-478.00,707.00,-42.00
2025-08-06T19:45:55.118023,-60,-110,13,1,4,4,74,76,511,0,13,144.90,0,-688.00,345.00,52.00
2025-08-06T19:45:55.168950,-61,-141,62,3,3,6,74,76,473,0,13,144.80,0,-772.00,89.00,205.00
2025-08-06T19:45:55.336393,-44,-178,113,2,3,9,74,76,287,-10,13,145.07,0,-447.00,73.00,388.00
2025-08-06T19:45:55.373023,-4,166,144,2,3,12,74,76,235,-20,13,144.58,0,114.00,150.00,854.00
2025-08-06T19:45:55.474927,18,171,163,0,2,14,74,76,262,-30,13,144.65,0,567.00,-276.00,760.00
2025-08-06T19:45:55.644130,37,-175,-174,-2,1,14,74,75,304,-40,13,144.10,0,962.00,-426.00,708.00
2025-08-06T19:45:55.678906,41,-156,-151,-5,0,11,74,75,370,-60,13,144.27,0,1461.00,270.00,875.00
2025-08-06T19:45:55.780978,27,-146,-140,-8,-3,6,74,75,352,-60,13,144.54,0,705.00,631.00,946.00
2025-08-06T19:45:55.953337,8,-138,-132,-8,-4,3,74,75,374,-70,13,144.32,0,129.00,762.00,1096.00
2025-08-06T19:45:55.998539,-8,-132,-126,-7,-5,1,74,75,334,-70,13,144.45,0,-102.00,867.00,943.00
2025-08-06T19:45:56.086897,-27,-127,-135,-7,-5,-1,74,75,273,-70,13,144.24,0,-465.00,855.00,877.00
2025-08-06T19:45:56.257816,-49,-114,-168,-7,-5,-2,74,75,264,-70,13,143.89,0,-844.00,643.00,239.00
2025-08-06T19:45:56.290980,-66,-68,132,0,0,-3,74,75,10,-60,13,144.28,0,-740.00,318.00,-250.00
2025-08-06T19:45:56.462270,-58,-6,63,0,0,-1,74,75,10,0,13,144.42,0,-545.00,189.00,-532.00
2025-08-06T19:45:56.495039,-25,18,31,0,0,0,74,75,41,0,13,143.95,0,-113.00,-123.00,-961.00
2025-08-06T19:45:56.666942,18,23,6,0,0,2,73,75,62,0,13,144.24,0,1218.00,-347.00,-997.00
2025-08-06T19:45:56.699970,54,-1,-23,0,0,-2,73,75,88,0,13,144.09,0,854.00,41.00,-969.00
2025-08-06T19:45:56.872558,53,-34,-59,0,0,-4,73,75,142,0,13,144.43,0,1086.00,169.00,-444.00
2025-08-06T19:45:56.902854,41,-59,-77,0,0,-4,73,75,293,0,13,144.15,0,725.00,505.00,-659.00
2025-08-06T19:45:57.080778,18,-71,-76,0,0,-4,73,75,303,0,13,144.28,0,421.00,549.00,-652.00
2025-08-06T19:45:57.114190,0,-75,-74,0,0,-1,73,75,148,0,13,144.28,0,200.00,516.00,-165.00
2025-08-06T19:45:57.211913,0,-69,-80,0,0,0,73,75,277,0,13,143.99,0,-34.00,1110.00,-322.00
2025-08-06T19:45:57.310938,-10,-59,-85,0,0,0,73,75,213,0,13,144.36,0,-333.00,1536.00,-619.00
2025-08-06T19:45:57.486187,-45,-51,-80,0,0,-4,73,75,149,0,13,144.43,0,-434.00,873.00,-556.00
2025-08-06T19:45:57.515602,-72,-29,-91,0,0,-5,73,75,120,0,13,144.57,0,-833.00,442.00,-301.00
2025-08-06T19:45:57.692944,-74,109,141,0,0,-5,74,75,589,0,13,144.69,0,-916.00,202.00,-149.00
2025-08-06T19:45:57.718689,-30,135,128,0,0,-4,74,75,327,10,13,144.47,0,-239.00,-645.00,677.00
2025-08-06T19:45:57.821352,-5,155,137,0,0,-4,74,75,263,10,13,144.58,0,-42.00,-491.00,761.00
2025-08-06T19:45:57.999130,7,165,145,0,0,-2,74,75,247,20,13,144.52,0,200.00,-80.00,812.00
2025-08-06T19:45:58.025768,14,172,154,0,0,-1,74,75,247,20,13,144.42,0,305.00,-58.00,896.00
2025-08-06T19:45:58.202902,18,176,158,0,0,0,74,75,250,20,13,144.54,0,304.00,-14.00,960.00
2025-08-06T19:45:58.203179,20,176,161,0,0,0,74,75,253,20,13,144.26,0,323.00,-5.00,991.00
2025-08-06T19:45:58.283177,26,175,165,0,0,-1,74,75,266,0,13,144.59,0,548.00,-127.00,941.00
2025-08-06T19:45:58.381630,27,171,159,0,0,-1,74,75,266,0,13,144.31,0,519.00,-140.00,890.00
2025-08-06T19:45:58.483625,17,167,147,0,0,-1,74,75,247,0,13,144.67,0,426.00,-215.00,837.00
2025-08-06T19:45:58.613472,3,168,123,0,0,0,73,75,236,0,13,144.78,0,504.00,-112.00,909.00
2025-08-06T19:45:58.690650,-12,170,96,0,0,0,73,75,238,0,13,144.85,0,97.00,-37.00,839.00
2025-08-06T19:45:58.791085,-19,-177,77,0,0,0,73,75,242,0,13,144.64,0,-116.00,-43.00,878.00
2025-08-06T19:45:58.891730,-27,-150,38,0,0,2,73,75,297,0,13,144.67,0,-473.00,-168.00,817.00
2025-08-06T19:45:59.022724,-31,-107,-3,0,0,6,73,75,541,0,13,144.43,0,-50.00,96.00,771.00
2025-08-06T19:45:59.097891,-5,-67,-16,0,0,10,73,75,102,0,13,144.51,0,-357.00,83.00,476.00
2025-08-06T19:45:59.197737,-3,-24,-17,0,0,11,73,75,112,-20,13,144.45,0,-182.00,477.00,-267.00
2025-08-06T19:45:59.332267,0,0,-24,0,0,8,73,75,105,-30,13,144.37,0,33.00,943.00,-993.00
2025-08-06T19:45:59.401622,0,18,-26,0,0,6,73,75,44,-30,13,144.29,0,-346.00,353.00,-1508.00
2025-08-06T19:45:59.503564,0,13,-22,0,0,4,73,75,46,-40,13,144.02,0,-43.00,246.00,-1374.00
2025-08-06T19:45:59.637832,4,3,-12,0,0,4,74,76,89,-40,13,144.27,0,222.00,-166.00,-988.00
2025-08-06T19:45:59.707939,5,-1,1,0,0,3,74,76,10,-50,13,144.01,0,337.00,-117.00,-1167.00
2025-08-06T19:45:59.809928,12,2,14,0,0,2,74,76,10,-50,13,143.79,0,188.00,-120.00,-1160.00
2025-08-06T19:45:59.944401,9,6,20,0,0,1,74,76,10,-50,13,143.94,0,168.00,-153.00,-936.00
2025-08-06T19:46:00.013527,0,2,13,0,0,1,74,76,10,0,13,144.21,0,105.00,-121.00,-945.00
2025-08-06T19:46:00.148674,0,1,11,0,0,0,74,76,10,0,13,144.03,0,8.00,2.00,-995.00
2025-08-06T19:46:00.217510,0,1,11,0,0,0,74,76,10,0,13,144.27,0,9.00,2.00,-993.00
2025-08-06T19:46:00.353575,0,1,11,0,0,0,74,76,10,0,13,143.98,0,6.00,3.00,-997.00
2025-08-06T19:46:00.422884,0,1,11,0,0,0,74,76,10,0,13,144.10,0,8.00,3.00,-993.00
2025-08-06T19:46:00.523894,0,1,11,0,0,0,74,76,10,0,13,144.15,0,7.00,3.00,-1012.00
2025-08-06T19:46:00.662507,0,0,11,0,0,0,73,76,10,0,13,143.98,0,7.00,4.00,-994.00
2025-08-06T19:46:00.727652,0,0,11,0,0,0,73,76,10,0,13,144.16,0,7.00,3.00,-994.00
2025-08-06T19:46:00.865526,0,0,11,0,0,0,73,76,10,0,13,144.03,0,7.00,3.00,-995.00
2025-08-06T19:46:00.931418,0,0,11,0,0,0,73,76,10,0,13,143.88,0,7.00,2.00,-998.00
2025-08-06T19:46:01.070982,0,0,11,0,0,0,73,76,10,0,13,144.05,0,7.00,3.00,-992.00
2025-08-06T19:46:01.135492,0,0,11,0,0,0,73,76,10,0,13,144.09,0,9.00,5.00,-999.00
2025-08-06T19:46:01.275681,0,0,11,0,0,0,73,76,10,0,13,143.85,0,7.00,4.00,-999.00
2025-08-06T19:46:01.339431,0,0,11,0,0,0,73,76,10,0,13,144.31,0,5.00,2.00,-990.00
2025-08-06T19:46:01.481519,0,0,11,0,0,0,73,76,10,0,13,143.88,0,8.00,4.00,-980.00
2025-08-06T19:46:01.492982,0,0,11,0,0,0,73,76,10,0,13,144.22,0,8.00,5.00,-1000.00
2025-08-06T19:46:01.685056,0,0,11,0,0,0,73,75,10,0,13,144.05,0,7.00,3.00,-1004.00
2025-08-06T19:46:01.696771,0,0,11,0,0,0,73,75,10,0,13,143.97,0,7.00,4.00,-989.00
2025-08-06T19:46:01.798758,0,0,11,0,0,0,73,75,10,0,13,143.91,0,8.00,4.00,-1001.00
