TS,pitch,roll,yaw,vgx,vgy,vgz,templ,temph,tof,h,bat,baro,time,agx,agy,agz
2025-08-06T19:47:37.576001,0,0,21,0,0,0,79,81,10,0,9,143.72,0,0.00,-10.00,-1000.00
2025-08-06T19:47:37.627255,0,0,21,0,0,0,79,81,10,0,9,143.72,0,0.00,-10.00,-1005.00
2025-08-06T19:47:37.732969,0,0,21,0,0,0,79,81,10,0,9,144.18,0,1.00,-10.00,-1003.00
2025-08-06T19:47:37.831646,0,0,21,0,0,0,79,81,10,0,9,143.69,0,0.00,-12.00,-996.00
2025-08-06T19:47:37.932893,0,0,21,0,0,0,79,81,10,0,9,144.14,0,0.00,-11.00,-997.00
2025-08-06T19:47:38.042838,0,0,21,0,0,0,79,81,10,0,9,143.96,0,0.00,-10.00,-1001.00
2025-08-06T19:47:38.136927,0,0,21,0,0,0,79,81,10,0,9,144.06,0,0.00,-10.00,-1003.00
2025-08-06T19:47:38.245075,0,0,21,0,0,0,79,81,10,0,9,144.05,0,2.00,-9.00,-1001.00
2025-08-06T19:47:38.341516,0,0,21,0,0,0,79,81,10,0,9,143.96,0,2.00,-10.00,-1002.00
2025-08-06T19:47:38.443704,0,0,21,0,0,0,79,81,10,0,9,144.24,0,-1.00,-9.00,-999.00
2025-08-06T19:47:38.552254,0,0,21,0,0,0,79,81,10,0,9,144.07,0,0.00,-11.00,-997.00
2025-08-06T19:47:38.651232,0,0,21,0,0,0,79,81,10,0,9,143.99,0,2.00,-9.00,-1002.00
2025-08-06T19:47:38.753254,0,0,21,0,0,0,79,81,10,0,9,143.83,0,0.00,-10.00,-1001.00
2025-08-06T19:47:38.851327,0,0,21,0,0,0,79,81,10,0,9,144.19,0,0.00,-11.00,-990.00
2025-08-06T19:47:38.961797,0,0,21,0,0,0,79,81,10,0,9,144.18,0,2.00,-11.00,-998.00
2025-08-06T19:47:39.054854,0,0,21,0,0,0,79,81,10,0,9,144.08,0,1.00,-11.00,-1004.00
2025-08-06T19:47:39.166145,0,0,21,0,0,0,79,81,10,0,9,144.11,0,-1.00,-13.00,-997.00
2025-08-06T19:47:39.259595,0,0,21,0,0,0,79,81,10,0,9,144.09,0,0.00,-10.00,-996.00
2025-08-06T19:47:39.371545,0,0,21,0,0,0,79,81,10,0,9,143.76,0,2.00,-8.00,-1014.00
2025-08-06T19:47:39.462599,0,0,21,0,0,0,79,81,10,0,9,144.00,0,0.00,-11.00,-1014.00
2025-08-06T19:47:39.575087,0,0,21,0,0,0,79,81,10,0,9,143.90,0,0.00,-10.00,-1002.00
2025-08-06T19:47:39.666651,0,0,21,0,0,0,79,81,10,0,9,143.84,0,2.00,-11.00,-989.00
2025-08-06T19:47:39.770395,0,0,21,0,0,0,79,81,10,0,9,144.19,0,1.00,-10.00,-991.00
2025-08-06T19:47:39.882072,0,0,21,0,0,0,79,81,10,0,9,143.86,0,2.00,-9.00,-998.00
2025-08-06T19:47:39.973005,0,0,21,0,0,0,79,81,10,0,9,143.89,0,93.00,46.00,-1005.00
2025-08-06T19:47:40.086803,0,0,22,0,0,0,78,81,10,0,9,144.12,0,-15.00,0.00,-1002.00
2025-08-06T19:47:40.176952,4,0,26,0,-1,-1,78,81,10,0,9,144.19,0,-336.00,21.00,-1454.00
2025-08-06T19:47:40.293742,-5,0,22,-3,-4,-4,78,81,10,0,9,144.02,0,-139.00,-153.00,-1005.00
2025-08-06T19:47:40.382688,-12,0,23,-3,-5,-3,78,81,10,0,9,143.95,0,-20.00,81.00,-830.00
2025-08-06T19:47:40.484509,-14,-1,29,-2,-3,-1,78,81,10,0,9,144.24,0,11.00,236.00,-909.00
2025-08-06T19:47:40.598985,-12,-3,32,-1,-1,0,78,81,10,0,9,144.18,0,-70.00,115.00,-995.00
2025-08-06T19:47:40.686744,-11,-4,35,0,0,0,78,81,10,0,9,144.00,0,-46.00,95.00,-951.00
2025-08-06T19:47:40.788525,-9,-4,36,0,0,0,78,81,10,0,9,143.75,0,-190.00,58.00,-904.00
2025-08-06T19:47:40.908945,-7,-4,37,0,0,0,78,81,10,0,9,144.05,0,-241.00,201.00,-1096.00
2025-08-06T19:47:40.941312,-5,-6,39,0,0,0,78,81,10,0,9,143.80,0,-89.00,24.00,-1103.00
2025-08-06T19:47:41.112156,-5,-7,40,0,0,0,79,82,10,0,9,144.26,0,125.00,71.00,-923.00
2025-08-06T19:47:41.145376,0,-9,42,2,0,0,79,82,10,0,9,144.05,0,106.00,-91.00,-930.00
2025-08-06T19:47:41.247409,1,-7,40,5,0,1,79,82,10,0,9,144.02,0,246.00,28.00,-888.00
2025-08-06T19:47:41.418891,3,-5,32,7,0,2,79,82,10,0,9,144.02,0,84.00,29.00,-943.00
2025-08-06T19:47:41.451266,2,-5,25,6,0,2,79,82,10,0,9,144.26,0,-122.00,210.00,-1026.00
2025-08-06T19:47:41.625967,0,-4,18,4,0,2,79,82,10,0,9,144.29,0,-80.00,0.00,-884.00
2025-08-06T19:47:41.655493,0,-1,11,4,0,3,79,82,32,0,9,143.86,0,61.00,88.00,-873.00
2025-08-06T19:47:41.757446,-1,3,3,4,0,5,79,82,36,0,9,144.09,0,-14.00,7.00,-729.00
2025-08-06T19:47:41.859288,0,4,-3,3,0,6,79,82,74,0,9,144.10,0,-174.00,-117.00,-1112.00
2025-08-06T19:47:41.961182,-4,5,-11,0,0,5,79,82,69,-10,9,144.07,0,-101.00,-128.00,-928.00
2025-08-06T19:47:42.135176,-4,4,-20,0,0,4,78,81,67,-10,9,143.81,0,-128.00,14.00,-1004.00
2025-08-06T19:47:42.165130,-7,5,-27,0,0,4,78,81,62,-20,9,143.50,0,-277.00,116.00,-1184.00
2025-08-06T19:47:42.339493,-9,7,-34,0,0,4,78,81,59,-20,9,143.71,0,-243.00,-24.00,-986.00
2025-08-06T19:47:42.369272,-9,10,-39,0,0,3,78,81,57,-20,9,143.98,0,-311.00,-210.00,-1087.00
2025-08-06T19:47:42.544262,-6,9,-43,0,1,3,78,81,53,-20,9,143.86,0,-58.00,-588.00,-618.00
2025-08-06T19:47:42.573188,-2,14,-42,0,0,5,78,81,49,-30,9,143.76,0,-78.00,-195.00,-1112.00
2025-08-06T19:47:42.752096,2,15,-39,0,0,3,78,81,45,-30,9,143.93,0,18.00,-366.00,-1043.00
2025-08-06T19:47:42.777260,6,17,-36,0,0,0,78,81,43,-30,9,143.64,0,-102.00,-400.00,-1404.00
2025-08-06T19:47:42.953966,5,17,-39,0,0,-3,78,81,46,-30,9,143.87,0,237.00,-411.00,-1262.00
2025-08-06T19:47:42.981198,7,18,-47,0,0,-5,78,81,52,-30,9,143.49,0,217.00,-339.00,-1111.00
2025-08-06T19:47:43.158547,4,18,-48,0,0,-6,79,81,58,-20,9,143.45,0,176.00,-369.00,-906.00
2025-08-06T19:47:43.185192,5,19,-48,0,-1,-6,79,81,10,-20,9,143.86,0,83.00,-362.00,-869.00
2025-08-06T19:47:43.364998,1,14,-41,-1,-1,-6,79,81,10,-10,9,143.77,0,-214.00,-484.00,-998.00
2025-08-06T19:47:43.391317,-3,4,-26,-4,-1,-6,79,81,32,0,9,143.99,0,-311.00,-311.00,-801.00
2025-08-06T19:47:43.491653,-2,-2,-12,0,0,-4,79,81,10,0,9,144.10,0,-261.00,-142.00,-745.00
2025-08-06T19:47:43.593202,3,-3,1,0,0,-3,79,81,30,0,9,144.06,0,187.00,181.00,-1109.00
2025-08-06T19:47:43.773510,0,-10,13,0,0,-3,79,81,84,0,9,144.05,0,162.00,16.00,-793.00
2025-08-06T19:47:43.797085,1,-13,28,0,0,0,79,81,69,0,9,144.16,0,-153.00,362.00,-1192.00
2025-08-06T19:47:43.899076,0,-9,34,0,0,0,79,81,10,10,9,143.85,0,-26.00,267.00,-974.00
2025-08-06T19:47:43.949935,8,-5,44,0,0,-1,79,81,10,0,9,144.18,0,29.00,154.00,-1097.00
2025-08-06T19:47:44.103008,14,-7,52,0,0,-2,79,81,10,0,9,144.09,0,89.00,222.00,-895.00
2025-08-06T19:47:44.285007,14,-6,65,0,0,-1,79,81,10,0,9,144.20,0,-72.00,228.00,-1060.00
2025-08-06T19:47:44.307069,13,-9,79,0,0,-1,79,81,81,0,9,144.12,0,54.00,172.00,-1056.00
2025-08-06T19:47:44.357929,14,-8,90,0,0,-1,79,81,91,0,9,143.99,0,26.00,81.00,-857.00
2025-08-06T19:47:44.489788,9,-9,102,0,0,0,79,81,80,0,9,143.77,0,10.00,67.00,-927.00
2025-08-06T19:47:44.561956,6,-10,118,0,0,1,79,81,43,0,9,144.27,0,166.00,-79.00,-925.00
2025-08-06T19:47:44.694262,7,-10,135,0,0,2,79,81,41,0,9,144.03,0,243.00,-145.00,-971.00
2025-08-06T19:47:44.765950,5,-14,145,0,0,1,79,81,39,0,9,144.28,0,-156.00,361.00,-1167.00
2025-08-06T19:47:44.899183,10,-9,154,0,0,0,79,81,38,0,9,144.01,0,188.00,-92.00,-1133.00
2025-08-06T19:47:44.969932,12,-11,153,0,0,0,79,81,39,0,9,144.15,0,233.00,166.00,-1050.00
2025-08-06T19:47:45.103713,11,-15,146,0,0,0,79,81,40,0,9,144.14,0,292.00,319.00,-953.00
2025-08-06T19:47:45.173875,17,-9,143,0,0,-1,79,81,40,0,9,143.97,0,284.00,147.00,-870.00
2025-08-06T19:47:45.308614,17,-4,145,0,0,0,79,81,39,0,9,144.22,0,297.00,-13.00,-939.00
2025-08-06T19:47:45.377968,15,-4,144,0,0,0,79,81,39,0,9,144.08,0,379.00,118.00,-961.00
2025-08-06T19:47:45.516280,16,-3,142,0,0,0,79,81,39,0,9,144.28,0,360.00,44.00,-922.00
2025-08-06T19:47:45.581934,20,3,139,0,0,0,79,81,40,0,9,144.31,0,276.00,-10.00,-898.00
2025-08-06T19:47:45.718662,20,7,136,0,0,0,79,81,40,0,9,143.99,0,288.00,-26.00,-881.00
2025-08-06T19:47:45.785758,12,1,130,0,0,0,79,81,38,0,9,143.97,0,229.00,25.00,-1070.00
2025-08-06T19:47:45.946742,10,1,128,0,0,0,79,81,38,0,9,144.03,0,164.00,-21.00,-996.00
2025-08-06T19:47:45.989787,9,2,126,0,0,0,79,81,34,0,9,144.26,0,148.00,2.00,-930.00
2025-08-06T19:47:46.091741,7,0,126,0,0,0,79,80,10,0,9,144.21,0,199.00,-63.00,-1088.00
2025-08-06T19:47:46.193980,9,1,124,0,0,-1,79,80,10,0,9,144.01,0,133.00,-53.00,-924.00
2025-08-06T19:47:46.295871,7,0,119,0,0,0,79,80,10,0,9,143.94,0,188.00,-156.00,-1044.00
2025-08-06T19:47:46.397891,6,0,110,0,0,0,79,80,32,0,9,144.01,0,65.00,12.00,-954.00
2025-08-06T19:47:46.537574,4,-1,102,0,0,0,79,80,57,0,9,143.91,0,78.00,97.00,-988.00
2025-08-06T19:47:46.601705,3,-1,99,0,0,0,79,80,57,0,9,144.17,0,23.00,21.00,-976.00
2025-08-06T19:47:46.742121,3,0,95,0,0,0,79,80,60,0,9,144.06,0,42.00,41.00,-1016.00
2025-08-06T19:47:46.805832,1,-2,90,0,0,0,79,80,64,0,9,144.36,0,28.00,0.00,-931.00
2025-08-06T19:47:46.948107,-4,-6,80,0,0,1,79,80,51,0,9,144.02,0,-72.00,62.00,-1018.00
2025-08-06T19:47:47.015821,-5,-4,71,1,0,0,79,80,46,0,9,144.13,0,-112.00,241.00,-1030.00
2025-08-06T19:47:47.112280,-7,-4,68,0,0,0,79,81,44,0,9,144.05,0,-133.00,-8.00,-958.00
2025-08-06T19:47:47.257567,-8,-4,60,1,0,0,79,81,32,0,9,144.20,0,-193.00,259.00,-1066.00
2025-08-06T19:47:47.316159,-4,-2,60,0,0,0,79,81,30,0,9,143.97,0,-261.00,191.00,-892.00
2025-08-06T19:47:47.459068,-6,-3,67,0,0,0,79,81,34,0,9,144.19,0,-187.00,133.00,-1035.00
2025-08-06T19:47:47.468668,-5,-4,75,-3,-1,0,79,81,54,0,9,144.19,0,-147.00,146.00,-961.00
2025-08-06T19:47:47.663824,-6,-7,87,-3,-1,0,79,81,43,0,9,143.90,0,-115.00,142.00,-979.00
2025-08-06T19:47:47.672741,-6,-9,101,-3,-1,0,79,81,10,0,9,143.68,0,-111.00,159.00,-990.00
2025-08-06T19:47:47.776683,-6,-10,113,-2,-1,0,79,81,10,0,9,144.01,0,-116.00,43.00,-1032.00
2025-08-06T19:47:48.074257,-4,-9,119,-1,-1,0,79,81,10,0,9,143.91,0,-41.00,183.00,-1026.00
2025-08-06T19:47:48.074455,0,-8,126,0,0,0,79,81,41,0,9,144.21,0,-11.00,-19.00,-913.00
2025-08-06T19:47:48.081610,0,-6,128,0,0,0,79,81,41,0,9,143.79,0,-43.00,156.00,-954.00
2025-08-06T19:47:48.279685,0,-6,129,0,0,0,79,81,41,0,9,144.22,0,-16.00,26.00,-996.00
2025-08-06T19:47:48.285858,0,-6,127,0,0,0,79,81,40,0,9,144.38,0,50.00,51.00,-1104.00
2025-08-06T19:47:48.387530,1,-6,125,0,0,0,79,81,40,0,9,144.19,0,43.00,-9.00,-1002.00
2025-08-06T19:47:48.585411,1,-6,125,0,0,0,79,81,39,0,9,144.13,0,32.00,190.00,-1026.00
2025-08-06T19:47:48.591660,1,-5,122,0,0,0,79,81,10,0,9,144.07,0,-19.00,107.00,-915.00
2025-08-06T19:47:48.790403,3,-2,118,0,0,0,79,81,10,0,9,144.15,0,30.00,107.00,-1054.00
2025-08-06T19:47:48.795999,3,-1,112,1,1,0,79,81,10,0,9,144.00,0,36.00,16.00,-978.00
2025-08-06T19:47:48.996212,2,-1,106,0,0,0,79,81,10,0,9,144.05,0,47.00,-11.00,-992.00
2025-08-06T19:47:48.999492,0,-2,101,0,0,0,79,81,54,0,9,144.19,0,37.00,61.00,-997.00
2025-08-06T19:47:49.199690,-3,-6,91,0,0,0,79,82,38,0,9,144.02,0,-97.00,187.00,-1012.00
2025-08-06T19:47:49.203484,-5,-5,82,0,0,0,79,82,55,0,9,143.90,0,-126.00,221.00,-1074.00
2025-08-06T19:47:49.406548,-6,-6,80,0,0,0,79,82,60,0,9,143.83,0,-137.00,58.00,-960.00
2025-08-06T19:47:49.407349,-5,-7,78,0,0,0,79,82,59,0,9,144.15,0,-91.00,110.00,-983.00
2025-08-06T19:47:49.509699,-5,-6,75,0,0,0,79,82,69,0,9,143.89,0,-149.00,155.00,-986.00
2025-08-06T19:47:49.611673,-4,-6,73,0,0,0,79,82,78,0,9,144.16,0,-98.00,208.00,-977.00
2025-08-06T19:47:49.713483,-3,-7,73,0,0,0,79,82,77,0,9,144.19,0,-28.00,188.00,-1051.00
2025-08-06T19:47:49.815475,-2,-8,74,0,0,0,79,82,78,0,9,144.16,0,-143.00,222.00,-888.00
2025-08-06T19:47:50.019648,-2,-9,79,-1,0,0,79,82,62,0,9,144.10,0,-36.00,254.00,-961.00
2025-08-06T19:47:50.021012,-3,-10,86,-2,0,0,79,82,37,0,9,144.00,0,-154.00,171.00,-922.00
2025-08-06T19:47:50.121431,-2,-9,94,-2,-1,0,79,82,10,0,9,144.15,0,-96.00,210.00,-927.00
2025-08-06T19:47:50.223718,-4,-10,105,-2,-2,0,79,82,10,0,9,144.28,0,-151.00,135.00,-997.00
2025-08-06T19:47:50.325580,-5,-11,116,-2,-2,0,79,82,10,0,9,144.28,0,-126.00,139.00,-985.00
2025-08-06T19:47:50.429941,-5,-12,123,0,0,0,79,82,41,0,9,144.18,0,-53.00,162.00,-1033.00
2025-08-06T19:47:50.532264,-4,-11,128,0,0,0,79,82,41,0,9,143.97,0,-76.00,169.00,-977.00
2025-08-06T19:47:50.634660,-3,-10,130,0,0,0,79,82,41,0,9,144.06,0,41.00,52.00,-1058.00
2025-08-06T19:47:50.733470,-1,-9,132,0,0,0,79,82,41,0,9,144.31,0,-39.00,32.00,-984.00
2025-08-06T19:47:50.784511,-1,-9,129,0,0,0,79,82,40,0,9,143.76,0,-44.00,230.00,-949.00
2025-08-06T19:47:50.942441,-1,-9,127,0,0,0,79,82,40,0,9,144.03,0,-32.00,148.00,-979.00
2025-08-06T19:47:50.988625,-1,-9,125,0,0,0,79,82,40,0,9,143.98,0,-39.00,223.00,-994.00
2025-08-06T19:47:51.145258,0,-8,121,0,0,0,79,81,10,0,9,143.90,0,77.00,56.00,-1025.00
2025-08-06T19:47:51.192624,2,-5,115,1,1,0,79,81,10,0,9,143.90,0,-28.00,64.00,-961.00
2025-08-06T19:47:51.350079,2,-5,108,1,1,0,79,81,10,0,9,143.72,0,26.00,149.00,-993.00
2025-08-06T19:47:51.396346,2,-5,103,0,0,0,79,81,10,0,9,143.76,0,0.00,121.00,-972.00
2025-08-06T19:47:51.556143,2,-5,100,0,0,0,79,81,37,0,9,143.83,0,3.00,103.00,-976.00
2025-08-06T19:47:51.600417,1,-5,95,0,0,0,79,81,54,0,9,144.17,0,28.00,166.00,-1022.00
2025-08-06T19:47:51.702410,1,-5,92,0,0,0,79,81,63,0,9,144.10,0,-63.00,166.00,-967.00
2025-08-06T19:47:51.804369,0,-6,91,0,0,0,79,81,60,0,9,144.18,0,50.00,137.00,-983.00
2025-08-06T19:47:51.906255,0,-7,91,0,0,0,79,81,61,0,9,144.24,0,-29.00,77.00,-968.00
2025-08-06T19:47:52.067186,0,-7,89,0,0,0,79,81,67,0,9,144.27,0,-32.00,245.00,-977.00
2025-08-06T19:47:52.110334,0,-6,89,-1,0,0,80,82,55,0,9,144.15,0,-60.00,124.00,-960.00
2025-08-06T19:47:52.273188,0,-6,92,-1,0,0,80,82,35,0,9,144.23,0,-36.00,175.00,-992.00
2025-08-06T19:47:52.314416,0,-6,96,-1,-1,0,80,82,10,0,9,144.35,0,-7.00,131.00,-971.00
2025-08-06T19:47:52.476334,-1,-6,104,-2,-1,0,80,82,10,0,9,144.09,0,-102.00,116.00,-966.00
2025-08-06T19:47:52.518383,-2,-7,111,-1,-1,0,80,82,10,0,9,144.21,0,-36.00,176.00,-1032.00
2025-08-06T19:47:52.682918,-3,-9,118,0,0,0,80,82,39,0,9,144.36,0,-57.00,102.00,-1027.00
2025-08-06T19:47:52.722346,-3,-9,124,0,0,0,80,82,39,0,9,143.83,0,-10.00,209.00,-993.00
2025-08-06T19:47:52.824317,-2,-8,130,0,0,0,80,82,38,0,9,144.23,0,0.00,0.00,-962.00
2025-08-06T19:47:52.988283,-1,-6,133,0,0,0,80,82,37,0,9,144.09,0,-32.00,111.00,-948.00
2025-08-06T19:47:53.028290,-2,-4,134,0,0,1,80,82,35,0,9,144.01,0,-7.00,-23.00,-1035.00
2025-08-06T19:47:53.193070,-3,-2,134,0,0,1,79,82,34,0,9,144.34,0,-99.00,-21.00,-1121.00
2025-08-06T19:47:53.232270,-2,0,131,0,0,0,79,82,34,0,9,144.20,0,-6.00,-19.00,-1106.00
2025-08-06T19:47:53.398337,-1,0,130,0,0,0,79,82,35,0,9,144.09,0,-83.00,-30.00,-999.00
2025-08-06T19:47:53.436283,0,0,127,0,0,0,79,82,36,0,9,143.96,0,-31.00,21.00,-1041.00
2025-08-06T19:47:53.602592,0,0,124,1,0,-1,79,82,36,0,9,144.18,0,42.00,-81.00,-988.00
2025-08-06T19:47:53.640162,3,0,120,1,1,-1,79,82,10,0,9,143.96,0,59.00,-20.00,-979.00
2025-08-06T19:47:53.742129,5,-1,113,2,1,-1,79,82,10,0,9,143.97,0,109.00,115.00,-952.00
2025-08-06T19:47:53.911311,7,-1,109,1,0,-1,79,82,10,0,9,144.07,0,38.00,40.00,-945.00
2025-08-06T19:47:53.946241,5,-4,107,0,0,0,79,82,10,0,9,144.28,0,110.00,102.00,-1023.00
2025-08-06T19:47:54.115305,6,-6,103,0,0,-1,79,82,10,0,9,144.16,0,84.00,45.00,-953.00
2025-08-06T19:47:54.152132,5,-8,100,0,0,0,79,81,33,0,9,144.07,0,83.00,102.00,-980.00
2025-08-06T19:47:54.252245,4,-9,94,0,0,0,79,81,52,0,9,144.13,0,93.00,194.00,-922.00
2025-08-06T19:47:54.304402,3,-9,86,0,0,0,79,81,59,0,9,144.05,0,-38.00,164.00,-918.00
2025-08-06T19:47:54.423300,-1,-12,78,0,0,0,79,81,67,0,9,144.06,0,-10.00,325.00,-1039.00
2025-08-06T19:47:54.507021,-3,-12,71,0,0,0,79,81,81,0,9,143.99,0,-178.00,172.00,-847.00
2025-08-06T19:47:54.627065,-6,-11,67,0,0,1,79,81,80,0,9,143.91,0,-256.00,281.00,-993.00
2025-08-06T19:47:54.710940,-6,-8,64,0,0,0,79,81,81,0,9,143.89,0,-233.00,283.00,-947.00
2025-08-06T19:47:54.812911,-6,-5,70,0,0,0,79,81,73,0,9,144.16,0,-217.00,104.00,-944.00
2025-08-06T19:47:54.935481,-7,-5,79,-4,-1,0,79,81,51,0,9,144.13,0,-145.00,91.00,-951.00
2025-08-06T19:47:55.016934,-8,-5,91,-4,-2,1,79,81,10,0,9,143.75,0,-141.00,-52.00,-1039.00
2025-08-06T19:47:55.158372,-10,-6,101,-2,-1,0,79,81,10,0,9,143.95,0,-165.00,71.00,-1009.00
2025-08-06T19:47:55.220947,-9,-6,108,-2,-1,0,79,81,10,0,9,143.80,0,-184.00,78.00,-964.00
2025-08-06T19:47:55.344028,-9,-5,114,0,0,0,79,81,10,0,9,143.94,0,-163.00,130.00,-991.00
2025-08-06T19:47:55.424960,-8,-5,121,0,0,0,79,81,35,0,9,143.95,0,-113.00,41.00,-1038.00
2025-08-06T19:47:55.548202,-6,-5,126,0,0,0,79,81,38,0,9,144.09,0,-69.00,7.00,-1041.00
2025-08-06T19:47:55.628942,-3,-4,130,0,0,0,79,81,38,0,9,143.97,0,-19.00,-46.00,-1019.00
2025-08-06T19:47:55.752968,-1,-3,131,0,0,0,79,81,38,0,9,143.91,0,22.00,-7.00,-1028.00
2025-08-06T19:47:55.832854,0,-3,129,0,0,0,79,81,38,0,9,143.95,0,73.00,61.00,-981.00
2025-08-06T19:47:55.959119,2,0,128,0,0,0,79,81,32,0,9,143.94,0,157.00,-197.00,-885.00
2025-08-06T19:47:56.037712,2,1,126,0,2,0,79,81,10,0,9,143.74,0,127.00,-115.00,-1025.00
2025-08-06T19:47:56.162440,2,2,121,0,3,0,79,82,10,0,9,143.83,0,-2.00,-28.00,-999.00
2025-08-06T19:47:56.242837,2,5,117,0,3,0,79,82,78,0,9,143.90,0,8.00,0.00,-1018.00
2025-08-06T19:47:56.342878,3,6,113,0,0,0,79,82,80,0,9,143.89,0,40.00,-29.00,-1049.00
2025-08-06T19:47:56.469881,3,6,112,0,0,0,79,82,80,0,9,143.94,0,44.00,-79.00,-1109.00
2025-08-06T19:47:56.546799,4,6,110,0,0,0,79,82,81,0,9,144.06,0,61.00,-95.00,-1060.00
2025-08-06T19:47:56.676352,3,0,107,0,0,-1,79,82,81,0,9,143.95,0,39.00,-4.00,-1078.00
2025-08-06T19:47:56.750870,7,2,107,0,0,-1,79,82,86,0,9,143.68,0,91.00,-52.00,-891.00
2025-08-06T19:47:56.880585,9,3,108,0,0,-1,79,82,87,0,9,144.07,0,143.00,-48.00,-884.00
2025-08-06T19:47:56.954917,9,1,109,0,0,0,79,82,88,0,9,143.98,0,141.00,9.00,-962.00
2025-08-06T19:47:57.084286,9,0,109,0,0,0,79,82,88,0,9,144.07,0,189.00,-13.00,-1025.00
2025-08-06T19:47:57.158821,11,1,109,0,0,-1,79,81,89,0,9,144.34,0,216.00,-52.00,-1010.00
2025-08-06T19:47:57.289059,9,0,106,1,1,0,79,81,91,0,9,143.85,0,233.00,-138.00,-943.00
2025-08-06T19:47:57.362677,7,0,99,2,3,-1,79,81,90,0,9,143.99,0,272.00,-207.00,-1032.00
2025-08-06T19:47:57.493644,7,0,92,3,3,-1,79,81,92,0,9,144.29,0,166.00,-48.00,-1013.00
2025-08-06T19:47:57.516166,7,-1,84,3,3,-1,79,81,93,0,9,144.19,0,44.00,21.00,-964.00
2025-08-06T19:47:57.699387,6,-2,79,2,2,0,79,81,93,0,9,144.41,0,36.00,52.00,-934.00
2025-08-06T19:47:57.720250,6,-1,74,2,2,0,79,81,93,0,9,144.22,0,86.00,95.00,-954.00
2025-08-06T19:47:57.821869,5,-1,70,1,1,0,79,81,33,0,9,143.85,0,69.00,92.00,-997.00
2025-08-06T19:47:58.007192,4,-2,67,0,1,0,79,81,10,0,9,144.08,0,2.00,97.00,-981.00
2025-08-06T19:47:58.025724,3,-2,67,0,0,0,79,81,10,0,9,144.12,0,-49.00,122.00,-1045.00
2025-08-06T19:47:58.128007,3,-3,69,0,0,0,80,82,10,0,9,144.16,0,-25.00,101.00,-1007.00
2025-08-06T19:47:58.313003,2,-3,73,0,0,0,80,82,88,0,9,144.09,0,-53.00,109.00,-1025.00
2025-08-06T19:47:58.331695,2,-3,78,-2,-2,0,80,82,94,0,9,143.81,0,-18.00,97.00,-1012.00
2025-08-06T19:47:58.517695,1,-4,84,-2,-2,0,80,82,93,0,9,144.18,0,6.00,40.00,-933.00
2025-08-06T19:47:58.535793,0,-3,89,-1,-2,0,80,82,92,0,9,143.69,0,14.00,42.00,-949.00
2025-08-06T19:47:58.637666,0,-2,95,-1,-2,1,80,82,91,0,9,143.89,0,9.00,36.00,-925.00
2025-08-06T19:47:58.739643,1,-1,101,-1,-2,2,80,82,89,0,9,144.37,0,43.00,24.00,-949.00
2025-08-06T19:47:58.841867,0,-1,107,-1,-2,3,80,82,86,0,9,143.92,0,76.00,-16.00,-1005.00
2025-08-06T19:47:59.029565,0,0,111,-1,-1,3,80,82,72,0,9,143.96,0,84.00,-43.00,-979.00
2025-08-06T19:47:59.046224,0,2,115,0,0,3,80,82,67,0,9,143.68,0,73.00,-126.00,-953.00
2025-08-06T19:47:59.234441,0,4,115,0,1,3,80,82,74,0,9,143.97,0,110.00,-261.00,-942.00
2025-08-06T19:47:59.249801,0,4,112,1,2,3,80,82,74,0,9,143.94,0,29.00,-200.00,-955.00
2025-08-06T19:47:59.439259,0,2,106,2,3,3,80,82,71,0,9,144.00,0,20.00,-28.00,-1104.00
2025-08-06T19:47:59.454166,0,1,102,2,2,3,80,82,68,0,9,143.83,0,13.00,44.00,-1012.00
2025-08-06T19:47:59.643950,0,4,99,2,2,3,80,82,65,0,9,143.84,0,-4.00,-55.00,-1026.00
2025-08-06T19:47:59.657700,-2,7,97,2,1,3,80,82,61,0,9,143.93,0,-38.00,-113.00,-1004.00
2025-08-06T19:47:59.850038,-4,7,94,1,1,3,80,82,58,0,9,143.67,0,-110.00,-122.00,-987.00
2025-08-06T19:47:59.862442,-6,10,93,0,0,3,80,82,55,0,9,143.68,0,-174.00,-138.00,-1027.00
2025-08-06T19:48:00.053372,-7,12,93,0,0,2,80,82,52,0,9,143.45,0,-194.00,-157.00,-1030.00
2025-08-06T19:48:00.066442,-9,13,93,0,0,1,80,82,50,0,9,143.66,0,-196.00,-277.00,-1010.00
2025-08-06T19:48:00.258294,-10,14,93,0,0,0,80,82,49,0,9,143.68,0,-175.00,-267.00,-1113.00
2025-08-06T19:48:00.270444,-9,13,93,0,0,0,80,82,50,0,9,143.72,0,-172.00,-230.00,-1064.00
2025-08-06T19:48:00.463179,-8,11,93,0,0,-1,80,82,50,0,9,143.62,0,-185.00,-175.00,-1046.00
2025-08-06T19:48:00.474539,-6,9,94,0,0,-2,80,82,52,0,9,143.77,0,-157.00,-211.00,-1057.00
2025-08-06T19:48:00.669270,-2,8,96,0,0,-3,80,82,55,0,9,143.67,0,-72.00,-160.00,-1056.00
2025-08-06T19:48:00.678436,0,6,97,0,-1,-4,80,82,59,0,9,143.78,0,-18.00,-137.00,-1065.00
2025-08-06T19:48:00.729587,3,2,97,0,-1,-4,80,82,63,0,9,143.63,0,22.00,-83.00,-979.00
2025-08-06T19:48:00.831514,6,0,98,0,-1,-5,80,82,68,0,9,143.62,0,100.00,19.00,-972.00
2025-08-06T19:48:00.974982,7,-4,99,0,-1,-4,80,82,74,0,9,143.85,0,178.00,59.00,-960.00
2025-08-06T19:48:01.035587,10,-7,100,0,-1,-4,80,82,79,10,9,144.00,0,295.00,49.00,-890.00
2025-08-06T19:48:01.180156,12,-7,98,0,1,-3,80,82,84,10,9,143.78,0,688.00,-187.00,-958.00
2025-08-06T19:48:01.239531,17,-4,84,6,7,-3,80,82,89,10,9,143.64,0,684.00,-698.00,-612.00
2025-08-06T19:48:01.385012,21,0,59,13,9,0,80,82,10,20,9,143.69,0,291.00,-281.00,-696.00
2025-08-06T19:48:01.443587,16,-2,37,13,9,0,80,82,10,0,9,144.01,0,92.00,478.00,-1122.00
2025-08-06T19:48:01.589455,5,-7,26,8,11,1,80,82,10,0,9,143.93,0,-321.00,436.00,-729.00
2025-08-06T19:48:01.647575,-8,-10,25,3,10,3,80,82,10,0,9,144.10,0,-668.00,-705.00,-927.00
2025-08-06T19:48:01.794782,-1,0,27,2,3,1,80,82,10,0,9,144.19,0,-343.00,160.00,-2612.00
2025-08-06T19:48:01.851519,-1,0,27,1,0,0,80,82,10,0,9,144.01,0,17.00,40.00,-1015.00
2025-08-06T19:48:01.998960,-1,0,27,2,0,0,80,82,10,0,9,144.02,0,0.00,-10.00,-1011.00
2025-08-06T19:48:02.055366,-1,0,27,2,0,0,80,82,6553,0,9,143.89,0,0.00,-10.00,-997.00
2025-08-06T19:48:02.157430,-1,0,27,2,0,0,79,81,6553,0,9,144.10,0,-1.00,-10.00,-994.00
2025-08-06T19:48:02.259503,-1,0,27,2,0,0,79,81,6553,0,9,143.74,0,0.00,-9.00,-996.00
2025-08-06T19:48:02.411044,-1,0,27,2,0,0,79,81,10,0,9,144.05,0,1.00,-10.00,-988.00
2025-08-06T19:48:02.463404,-1,0,27,3,0,0,79,81,6553,0,9,143.92,0,-2.00,-10.00,-1006.00
2025-08-06T19:48:02.614906,-1,0,27,3,0,0,79,81,10,0,9,143.96,0,0.00,-8.00,-1017.00
2025-08-06T19:48:02.668100,0,0,27,3,0,0,79,81,6553,0,9,143.91,0,0.00,-9.00,-1009.00
2025-08-06T19:48:02.785129,0,0,27,3,0,0,79,81,10,0,9,143.91,0,0.00,-11.00,-1000.00
2025-08-06T19:48:02.871393,0,0,27,0,0,0,79,81,10,0,9,143.82,0,-1.00,-9.00,-991.00
2025-08-06T19:48:03.023373,0,0,27,0,0,0,79,81,6553,0,9,144.19,0,0.00,-8.00,-1002.00
2025-08-06T19:48:03.075477,0,0,27,0,0,0,79,81,10,0,9,143.91,0,0.00,-10.00,-1001.00
2025-08-06T19:48:03.229653,0,0,27,0,0,0,80,81,10,0,9,143.97,0,0.00,-9.00,-995.00
2025-08-06T19:48:03.280006,0,0,27,0,0,0,80,81,10,0,9,143.74,0,0.00,-8.00,-996.00
2025-08-06T19:48:03.434485,0,0,27,0,0,0,80,81,6553,0,9,143.90,0,0.00,-10.00,-984.00
2025-08-06T19:48:03.483653,0,0,27,0,0,0,80,81,10,0,9,143.94,0,-2.00,-10.00,-996.00
2025-08-06T19:48:03.637826,0,0,27,0,0,0,80,81,6553,0,9,143.71,0,0.00,-10.00,-1003.00
2025-08-06T19:48:03.687789,0,0,27,0,0,0,80,81,10,0,9,143.93,0,0.00,-8.00,-1003.00
2025-08-06T19:48:03.789553,0,0,27,0,0,0,80,81,6553,0,9,144.00,0,0.00,-10.00,-1000.00
