TS,pitch,roll,yaw,vgx,vgy,vgz,templ,temph,tof,h,bat,baro,time,agx,agy,agz
2025-08-06T12:07:43.113751,0,0,-6,0,0,0,61,63,10,0,90,153.03,0,-12.00,-1.00,-993.00
2025-08-06T12:07:43.216062,0,0,-6,0,0,0,61,63,10,0,90,152.97,0,-12.00,-2.00,-998.00
2025-08-06T12:07:43.317762,0,0,-6,0,0,0,61,63,10,0,90,152.97,0,-13.00,-3.00,-998.00
2025-08-06T12:07:43.420467,0,0,-6,0,0,0,61,63,10,0,90,152.70,0,-14.00,-2.00,-1000.00
2025-08-06T12:07:43.521894,0,0,-6,0,0,0,62,63,10,0,90,152.74,0,-12.00,-2.00,-1001.00
2025-08-06T12:07:43.623950,0,0,-6,0,0,0,62,63,10,0,90,152.51,0,-14.00,-2.00,-1001.00
2025-08-06T12:07:43.727087,0,0,-6,0,0,0,62,63,10,0,90,152.68,0,-13.00,-1.00,-1001.00
2025-08-06T12:07:43.828066,0,0,-6,0,0,0,62,63,10,0,90,152.93,0,-13.00,-1.00,-998.00
2025-08-06T12:07:43.929890,0,0,-6,0,0,0,62,63,10,0,90,153.08,0,-13.00,-2.00,-997.00
2025-08-06T12:07:44.031705,0,0,-6,0,0,0,62,63,10,0,90,152.79,0,-14.00,-2.00,-997.00
2025-08-06T12:07:44.134690,0,0,-6,0,0,0,62,63,10,0,90,152.67,0,-14.00,0.00,-998.00
2025-08-06T12:07:44.235701,0,0,-6,0,0,0,62,63,10,0,90,152.96,0,-14.00,-1.00,-997.00
2025-08-06T12:07:44.337970,0,0,-6,0,0,0,62,63,10,0,90,153.17,0,-12.00,-1.00,-996.00
2025-08-06T12:07:44.440344,0,0,-6,0,0,0,62,63,10,0,90,152.86,0,-15.00,-5.00,-994.00
2025-08-06T12:07:44.543125,0,0,-6,0,0,0,62,64,10,0,90,152.70,0,-14.00,-2.00,-998.00
2025-08-06T12:07:44.645520,0,0,-6,0,0,0,62,64,10,0,90,152.54,0,-12.00,-1.00,-1003.00
2025-08-06T12:07:44.747949,0,0,-6,0,0,0,62,64,10,0,89,152.70,0,-12.00,-3.00,-1000.00
2025-08-06T12:07:44.850235,0,0,-6,0,0,0,62,64,10,0,89,152.82,0,-12.00,-3.00,-990.00
2025-08-06T12:07:44.952254,0,0,-6,0,0,0,62,64,10,0,89,152.82,0,-12.00,-1.00,-994.00
2025-08-06T12:07:45.051467,0,0,-6,0,0,0,62,64,10,0,89,153.04,0,-14.00,-2.00,-996.00
2025-08-06T12:07:45.153464,0,0,-6,0,0,0,62,64,10,0,89,152.73,0,-11.00,-2.00,-1000.00
2025-08-06T12:07:45.255612,0,0,-6,0,0,0,62,64,10,0,89,152.87,0,-13.00,-1.00,-1009.00
2025-08-06T12:07:45.358498,0,0,-6,0,0,0,62,64,10,0,89,152.99,0,-14.00,3.00,-1047.00
2025-08-06T12:07:45.459480,0,0,-6,0,0,0,62,64,10,0,89,152.92,0,-11.00,-2.00,-1001.00
2025-08-06T12:07:45.561468,0,0,-6,0,0,0,62,64,10,0,89,152.93,0,-13.00,-3.00,-998.00
2025-08-06T12:07:45.612502,0,0,-6,0,0,0,62,64,10,0,89,152.80,0,-14.00,0.00,-999.00
2025-08-06T12:07:45.714463,0,0,-6,0,0,0,62,64,10,0,89,153.14,0,-20.00,-5.00,-1012.00
2025-08-06T12:07:45.816416,-1,0,-4,0,0,0,62,64,10,0,89,152.56,0,-140.00,-46.00,-1155.00
2025-08-06T12:07:45.918437,-4,-1,-7,-1,-1,-2,62,64,10,0,89,152.72,0,-43.00,-49.00,-1094.00
2025-08-06T12:07:46.020424,-1,-1,-8,-2,-2,-2,62,64,10,0,89,153.01,0,-111.00,-34.00,-1006.00
2025-08-06T12:07:46.122505,0,-1,-8,-3,-2,-2,62,64,10,0,89,153.16,0,-142.00,-32.00,-900.00
2025-08-06T12:07:46.224398,0,-1,-7,-4,-2,-1,62,64,10,0,89,152.83,0,-71.00,-11.00,-949.00
2025-08-06T12:07:46.326416,0,0,-3,-3,-2,0,62,64,10,0,89,152.84,0,-28.00,-17.00,-960.00
2025-08-06T12:07:46.428375,-1,0,0,-3,-2,0,62,64,10,0,89,152.96,0,-44.00,-3.00,-986.00
2025-08-06T12:07:46.530475,-3,0,4,-3,-2,0,62,64,10,0,89,153.19,0,0.00,-32.00,-1001.00
2025-08-06T12:07:46.632421,-3,0,8,-2,-2,0,62,64,10,0,89,152.82,0,19.00,66.00,-1009.00
2025-08-06T12:07:46.734597,-3,0,11,-1,-1,0,62,64,10,0,89,152.94,0,36.00,24.00,-984.00
2025-08-06T12:07:46.836507,-3,0,12,-1,-1,0,62,64,10,0,89,153.09,0,-1.00,0.00,-976.00
2025-08-06T12:07:46.938687,-4,0,14,0,-1,0,62,64,10,0,89,152.76,0,-62.00,17.00,-1005.00
2025-08-06T12:07:47.041460,-8,-3,16,0,0,0,62,64,43,0,89,153.06,0,-101.00,101.00,-1048.00
2025-08-06T12:07:47.142426,-10,-5,19,0,0,0,62,64,79,0,89,152.76,0,-151.00,163.00,-992.00
2025-08-06T12:07:47.245673,-8,-1,19,0,0,0,62,64,77,0,89,152.66,0,-186.00,47.00,-987.00
2025-08-06T12:07:47.346420,-4,2,22,0,0,0,62,64,72,0,89,152.84,0,-71.00,-31.00,-977.00
2025-08-06T12:07:47.449040,3,7,28,0,0,0,62,64,65,0,89,152.98,0,0.00,-86.00,-1025.00
2025-08-06T12:07:47.550424,2,6,28,0,0,0,62,65,67,0,89,153.18,0,26.00,-90.00,-976.00
2025-08-06T12:07:47.652829,0,0,24,0,0,0,62,65,34,0,89,153.01,0,29.00,28.00,-1034.00
2025-08-06T12:07:47.755540,-2,-3,23,0,0,0,62,65,38,0,89,152.87,0,-26.00,43.00,-994.00
2025-08-06T12:07:47.856451,-3,-2,27,0,0,0,62,65,74,0,89,153.15,0,-74.00,70.00,-1017.00
2025-08-06T12:07:47.959166,-4,-3,27,0,0,0,62,65,87,0,89,153.10,0,-91.00,113.00,-1013.00
2025-08-06T12:07:48.060830,-3,-2,23,0,0,0,62,65,78,0,89,152.98,0,-41.00,19.00,-1020.00
2025-08-06T12:07:48.163223,-2,-2,26,0,0,0,62,65,75,0,89,152.92,0,-53.00,38.00,-1015.00
2025-08-06T12:07:48.213517,-2,-1,27,0,0,0,62,65,77,0,89,152.91,0,-75.00,53.00,-997.00
2025-08-06T12:07:48.316224,-2,-2,26,0,0,0,62,65,78,0,89,152.94,0,-53.00,16.00,-996.00
2025-08-06T12:07:48.417569,-2,-2,26,0,0,0,62,65,78,0,89,152.83,0,-71.00,77.00,-994.00
2025-08-06T12:07:48.519791,-3,-3,23,0,0,0,63,65,81,0,89,152.69,0,-68.00,55.00,-977.00
2025-08-06T12:07:48.630838,-4,-4,20,0,0,0,63,65,83,0,89,152.95,0,-44.00,64.00,-1007.00
2025-08-06T12:07:48.723379,-4,-4,19,0,0,0,63,65,83,0,89,153.04,0,-92.00,86.00,-989.00
2025-08-06T12:07:48.825053,-4,-4,16,0,0,0,63,65,77,0,89,152.96,0,-140.00,90.00,-976.00
2025-08-06T12:07:48.927287,-3,-4,9,0,0,0,63,65,58,0,89,152.73,0,-75.00,65.00,-996.00
2025-08-06T12:07:49.029080,-3,-3,4,0,0,0,63,65,50,0,89,153.20,0,-35.00,48.00,-1026.00
2025-08-06T12:07:49.131018,-2,-1,0,0,0,0,63,65,53,0,89,153.05,0,-56.00,50.00,-1028.00
2025-08-06T12:07:49.233528,-2,0,-2,0,0,0,63,65,64,0,89,152.88,0,-34.00,-11.00,-988.00
2025-08-06T12:07:49.334983,-2,0,0,0,0,0,63,65,64,0,89,152.94,0,-62.00,7.00,-968.00
2025-08-06T12:07:49.438992,-3,1,9,0,0,0,63,65,76,0,89,153.01,0,57.00,-69.00,-982.00
2025-08-06T12:07:49.539394,-1,0,26,0,0,0,63,64,80,0,89,153.21,0,-116.00,106.00,-1013.00
2025-08-06T12:07:49.645629,-3,-1,11,0,0,0,63,64,65,0,89,152.90,0,-49.00,120.00,-1025.00
2025-08-06T12:07:49.745324,-6,-3,11,0,0,0,63,64,85,0,89,152.80,0,46.00,-183.00,-1109.00
2025-08-06T12:07:49.844931,-5,-2,23,0,0,0,63,64,87,0,89,152.87,0,-286.00,372.00,-1028.00
2025-08-06T12:07:49.946952,-7,-4,5,0,0,0,63,64,84,0,89,152.96,0,172.00,-272.00,-987.00
2025-08-06T12:07:50.049007,-5,-3,27,0,0,0,63,64,86,0,89,153.10,0,-350.00,322.00,-994.00
2025-08-06T12:07:50.150930,-6,-3,10,0,0,0,63,64,82,0,89,153.13,0,11.00,-130.00,-1083.00
2025-08-06T12:07:50.253006,-4,-2,21,0,0,0,63,64,86,0,89,152.77,0,-176.00,122.00,-1015.00
2025-08-06T12:07:50.354937,-5,-2,16,0,0,0,63,64,87,0,89,152.87,0,-22.00,55.00,-1047.00
2025-08-06T12:07:50.456947,-4,-1,25,0,0,0,63,64,89,0,89,153.02,0,-114.00,40.00,-943.00
2025-08-06T12:07:50.558879,-3,0,28,-1,0,0,63,65,89,0,89,152.87,0,-175.00,142.00,-960.00
2025-08-06T12:07:50.661236,-3,-1,27,-2,0,0,63,65,90,0,89,152.66,0,-102.00,-47.00,-940.00
2025-08-06T12:07:50.762994,-2,-1,38,-2,-1,0,63,65,89,0,89,152.98,0,-156.00,106.00,-905.00
2025-08-06T12:07:50.864958,-5,-2,33,-2,-1,1,63,65,87,0,89,152.97,0,77.00,-96.00,-934.00
2025-08-06T12:07:50.918201,-4,-1,43,-1,-1,2,63,65,84,0,89,152.91,0,-185.00,150.00,-1015.00
2025-08-06T12:07:51.017999,-6,-2,30,-1,0,2,63,65,81,0,89,152.92,0,13.00,-8.00,-986.00
2025-08-06T12:07:51.119840,-5,-2,39,-1,0,2,63,65,79,0,89,152.75,0,-199.00,105.00,-875.00
2025-08-06T12:07:51.221975,-4,0,34,-1,0,3,63,65,75,0,89,152.92,0,67.00,-36.00,-977.00
2025-08-06T12:07:51.324064,-2,-1,48,-1,0,4,63,65,72,0,89,153.03,0,-63.00,210.00,-953.00
2025-08-06T12:07:51.426021,8,0,51,-1,0,3,63,65,68,0,89,152.86,0,104.00,-70.00,-901.00
2025-08-06T12:07:51.528264,9,-1,50,-1,0,4,63,65,64,0,89,152.61,0,319.00,-44.00,-993.00
2025-08-06T12:07:51.629920,12,4,60,0,0,3,63,65,60,0,89,152.67,0,239.00,12.00,-996.00
2025-08-06T12:07:51.732098,13,11,72,0,0,3,63,65,57,0,89,152.65,0,244.00,-141.00,-900.00
2025-08-06T12:07:51.834111,13,13,68,-1,0,4,63,65,52,0,89,152.54,0,204.00,-159.00,-844.00
2025-08-06T12:07:51.935993,11,8,74,-1,0,4,63,65,46,0,89,152.42,0,268.00,-218.00,-1076.00
2025-08-06T12:07:52.039703,5,18,97,-1,0,4,63,65,41,0,89,152.58,0,-68.00,-187.00,-971.00
2025-08-06T12:07:52.140210,0,18,100,-1,-1,4,63,65,36,0,89,152.29,0,46.00,-366.00,-1060.00
2025-08-06T12:07:52.241955,0,16,98,-1,-1,3,63,65,32,0,89,152.30,0,108.00,-408.00,-998.00
2025-08-06T12:07:52.343955,0,18,103,0,0,2,63,65,10,0,89,152.47,0,15.00,-263.00,-935.00
2025-08-06T12:07:52.445892,-1,14,108,-1,0,2,63,65,10,0,89,152.29,0,-11.00,-269.00,-1080.00
2025-08-06T12:07:52.547830,-1,13,112,-1,0,2,63,66,10,0,89,152.58,0,64.00,-210.00,-926.00
2025-08-06T12:07:52.649882,-3,12,115,0,0,2,63,66,10,0,89,152.60,0,-23.00,-295.00,-951.00
2025-08-06T12:07:52.751855,-4,11,118,0,0,2,63,66,10,0,89,152.30,0,-54.00,-240.00,-964.00
2025-08-06T12:07:52.854033,-5,11,119,0,0,3,63,66,10,0,89,152.21,0,-42.00,-124.00,-1039.00
2025-08-06T12:07:52.955849,-5,10,123,0,0,3,63,66,10,0,89,152.15,0,-112.00,-130.00,-920.00
2025-08-06T12:07:53.057920,-5,10,126,0,0,2,63,66,10,0,89,152.06,0,-125.00,-135.00,-942.00
2025-08-06T12:07:53.159795,-8,7,132,0,0,2,63,66,10,0,89,152.25,0,-105.00,-239.00,-1024.00
2025-08-06T12:07:53.261754,-8,3,137,0,0,2,63,66,10,0,89,152.10,0,-121.00,-229.00,-1035.00
2025-08-06T12:07:53.363763,-5,3,142,0,0,1,63,66,10,0,89,152.30,0,-120.00,-8.00,-1078.00
2025-08-06T12:07:53.465955,-2,3,146,0,0,1,63,66,10,0,89,152.05,0,-145.00,-74.00,-1076.00
2025-08-06T12:07:53.567819,0,4,146,0,0,0,63,65,10,0,89,152.22,0,63.00,-16.00,-1100.00
2025-08-06T12:07:53.669865,0,0,146,0,0,0,63,65,10,0,89,152.38,0,3.00,2.00,-999.00
2025-08-06T12:07:53.771948,0,0,146,0,0,0,63,65,10,0,89,152.50,0,6.00,2.00,-999.00
2025-08-06T12:07:53.873810,0,0,146,0,0,0,63,65,10,0,89,152.17,0,-331.00,46.00,-1166.00
2025-08-06T12:07:53.976157,0,3,143,0,0,-1,63,65,10,0,89,152.09,0,86.00,-52.00,-1080.00
2025-08-06T12:07:54.077771,0,5,143,0,0,-2,63,65,10,0,89,152.18,0,129.00,-211.00,-1164.00
2025-08-06T12:07:54.180114,-1,9,136,0,0,-3,63,65,10,0,89,152.45,0,135.00,-128.00,-1063.00
2025-08-06T12:07:54.230832,-2,9,127,0,0,-4,63,65,10,0,89,152.33,0,101.00,-237.00,-1061.00
2025-08-06T12:07:54.332781,-1,9,121,0,0,-5,63,65,10,0,89,152.36,0,-36.00,-212.00,-1052.00
2025-08-06T12:07:54.435214,0,9,117,0,0,-6,63,65,10,10,89,152.21,0,-188.00,-279.00,-1016.00
2025-08-06T12:07:54.537047,-1,12,112,0,0,-7,63,65,10,10,89,152.60,0,-217.00,-201.00,-962.00
2025-08-06T12:07:54.638896,-6,15,105,0,0,-7,63,65,36,20,89,152.41,0,-208.00,-205.00,-1038.00
2025-08-06T12:07:54.740802,-4,14,98,0,0,-8,63,65,43,30,89,152.63,0,-88.00,-295.00,-886.00
2025-08-06T12:07:54.843015,-2,13,90,0,0,-8,63,65,52,30,89,152.73,0,0.00,-313.00,-865.00
2025-08-06T12:07:54.947683,-1,10,86,0,0,-8,63,65,60,40,89,152.97,0,8.00,-171.00,-942.00
2025-08-06T12:07:55.046805,5,6,86,0,0,-9,63,65,70,50,89,153.20,0,39.00,-66.00,-975.00
2025-08-06T12:07:55.150267,6,4,85,0,0,-9,63,65,79,60,89,152.95,0,62.00,41.00,-1048.00
2025-08-06T12:07:55.250713,4,-2,81,0,0,-9,63,65,90,70,89,153.12,0,119.00,52.00,-907.00
2025-08-06T12:07:55.352878,6,-4,79,0,0,-9,63,65,99,80,89,153.07,0,83.00,97.00,-928.00
2025-08-06T12:07:55.454801,13,-3,77,0,0,-8,63,65,110,90,89,153.16,0,200.00,82.00,-877.00
2025-08-06T12:07:55.556635,17,-4,78,0,0,-6,64,66,125,90,89,153.09,0,225.00,61.00,-637.00
2025-08-06T12:07:55.658922,17,-14,77,0,0,-3,64,66,120,100,89,152.89,0,273.00,13.00,-378.00
2025-08-06T12:07:55.760889,15,-16,77,0,0,2,64,66,116,100,89,153.67,0,150.00,136.00,-511.00
2025-08-06T12:07:55.862768,17,-11,74,0,0,7,64,66,118,90,89,153.11,0,260.00,71.00,-759.00
2025-08-06T12:07:55.965666,11,-11,73,0,0,9,64,66,93,80,89,153.04,0,15.00,164.00,-909.00
2025-08-06T12:07:56.066821,5,-6,72,0,0,10,64,66,91,70,89,153.10,0,7.00,65.00,-1141.00
2025-08-06T12:07:56.169037,2,-2,72,0,0,9,64,66,81,60,89,152.56,0,69.00,-7.00,-1086.00
2025-08-06T12:07:56.270776,-1,1,73,0,0,8,64,66,72,50,89,153.04,0,-42.00,-17.00,-968.00
2025-08-06T12:07:56.372932,-5,4,75,0,0,8,64,66,63,40,89,152.82,0,-122.00,-68.00,-1035.00
2025-08-06T12:07:56.474809,-7,3,75,0,0,8,64,66,55,40,89,152.61,0,-314.00,-142.00,-1088.00
2025-08-06T12:07:56.576730,-9,6,77,0,0,7,64,66,44,30,89,152.54,0,-290.00,-124.00,-1047.00
2025-08-06T12:07:56.678690,-9,5,82,0,0,7,64,66,37,20,89,152.45,0,-153.00,-86.00,-983.00
2025-08-06T12:07:56.780846,-6,5,88,0,0,6,64,66,31,10,89,152.25,0,-209.00,-29.00,-1071.00
2025-08-06T12:07:56.882684,-6,7,90,0,0,5,64,66,10,10,89,152.15,0,-149.00,-110.00,-1126.00
2025-08-06T12:07:56.984975,-6,6,92,0,0,4,64,66,10,0,89,152.50,0,-161.00,-150.00,-1036.00
2025-08-06T12:07:57.087088,-5,7,97,0,0,4,64,66,10,0,89,152.10,0,-96.00,-133.00,-1180.00
2025-08-06T12:07:57.188800,-4,8,99,0,0,3,64,66,10,0,89,152.37,0,-134.00,-160.00,-1032.00
2025-08-06T12:07:57.290594,-3,8,103,0,0,2,64,66,10,0,89,152.08,0,-38.00,-186.00,-1047.00
2025-08-06T12:07:57.342345,-1,8,104,0,0,2,64,66,10,0,89,152.36,0,-32.00,-140.00,-1094.00
2025-08-06T12:07:57.444850,0,10,105,0,0,1,64,66,10,0,89,152.39,0,-76.00,-204.00,-1129.00
2025-08-06T12:07:57.596719,-1,10,107,0,0,0,65,66,10,0,89,152.22,0,70.00,-197.00,-1155.00
2025-08-06T12:07:57.702955,-2,10,105,0,0,-2,65,66,10,0,89,151.97,0,-6.00,-198.00,-1094.00
2025-08-06T12:07:57.800979,-3,11,100,0,0,-3,65,66,10,0,89,152.19,0,-62.00,-243.00,-1064.00
2025-08-06T12:07:57.854485,-5,13,95,0,0,-4,65,66,10,0,89,152.28,0,-230.00,-151.00,-1041.00
2025-08-06T12:07:57.953597,-11,7,90,0,0,-5,65,66,30,0,89,152.56,0,-270.00,19.00,-867.00
2025-08-06T12:07:58.060050,-15,5,90,0,0,-5,65,66,35,10,89,152.52,0,-297.00,28.00,-980.00
2025-08-06T12:07:58.157755,-14,2,92,0,0,-4,65,66,40,10,89,152.55,0,-100.00,72.00,-964.00
2025-08-06T12:07:58.259542,-10,-3,91,0,0,-4,65,66,44,20,89,152.76,0,-11.00,63.00,-887.00
2025-08-06T12:07:58.361809,-6,-14,91,0,0,-4,65,66,51,20,89,152.45,0,-26.00,75.00,-1026.00
2025-08-06T12:07:58.463572,-2,-23,88,0,0,-3,65,66,50,30,89,152.65,0,-119.00,181.00,-1058.00
2025-08-06T12:07:58.565877,2,-21,94,0,0,-3,64,66,56,0,89,152.60,0,247.00,429.00,-931.00
2025-08-06T12:07:58.667607,8,-8,97,0,0,-4,64,66,61,0,89,152.73,0,169.00,-92.00,-885.00
2025-08-06T12:07:58.769848,11,-2,99,0,0,-4,64,66,67,0,89,152.95,0,200.00,-48.00,-1130.00
2025-08-06T12:07:58.871591,13,0,98,0,0,-6,64,66,75,10,89,152.78,0,202.00,-57.00,-1086.00
2025-08-06T12:07:58.974918,14,0,91,0,0,-8,64,66,85,10,89,153.07,0,290.00,39.00,-1042.00
2025-08-06T12:07:59.075526,17,0,84,0,0,-8,64,66,96,20,89,152.92,0,192.00,53.00,-824.00
2025-08-06T12:07:59.178070,19,-2,77,0,0,-7,64,66,106,30,89,152.78,0,259.00,102.00,-873.00
2025-08-06T12:07:59.279798,18,-12,68,0,0,-6,64,66,116,40,89,153.21,0,258.00,166.00,-762.00
2025-08-06T12:07:59.381639,17,-14,65,0,0,-4,64,66,116,40,89,152.84,0,242.00,250.00,-670.00
2025-08-06T12:07:59.484722,17,-10,64,0,0,-1,64,66,113,50,89,152.82,0,318.00,201.00,-525.00
2025-08-06T12:07:59.586299,17,-9,64,0,0,2,65,67,108,40,89,152.89,0,221.00,142.00,-558.00
2025-08-06T12:07:59.697437,15,-6,65,0,0,5,65,67,99,40,89,152.96,0,232.00,100.00,-742.00
2025-08-06T12:07:59.791033,11,-2,67,0,0,8,65,67,88,30,89,152.90,0,111.00,-3.00,-1030.00
2025-08-06T12:07:59.891960,6,-2,66,0,0,8,65,67,78,20,89,153.02,0,67.00,-54.00,-1010.00
2025-08-06T12:07:59.993694,3,2,69,0,0,8,65,67,70,20,89,152.88,0,52.00,-111.00,-1051.00
2025-08-06T12:08:00.095635,2,6,74,0,0,8,65,67,61,10,89,152.52,0,32.00,-106.00,-1032.00
2025-08-06T12:08:00.197556,0,5,75,0,0,8,65,67,53,0,89,152.86,0,-24.00,-128.00,-1029.00
2025-08-06T12:08:00.299551,-3,4,77,0,0,8,65,67,44,0,89,152.41,0,-146.00,-60.00,-1088.00
2025-08-06T12:08:00.401610,-7,5,78,0,0,7,65,67,37,-10,89,152.47,0,-241.00,-103.00,-1116.00
2025-08-06T12:08:00.503544,-9,8,80,0,0,6,65,67,31,-20,89,152.31,0,-269.00,-173.00,-987.00
2025-08-06T12:08:00.605492,-10,6,84,0,0,6,65,67,10,-20,89,152.20,0,-243.00,-130.00,-1158.00
2025-08-06T12:08:00.707509,-9,8,89,0,0,4,65,67,10,-30,89,152.28,0,-193.00,-141.00,-1077.00
2025-08-06T12:08:00.809597,-9,9,94,0,0,3,65,67,10,-30,89,152.43,0,-158.00,-211.00,-1007.00
2025-08-06T12:08:00.860582,-9,9,99,0,0,3,65,67,10,-40,89,152.05,0,-203.00,-159.00,-1159.00
2025-08-06T12:08:00.962820,-9,9,104,0,0,1,65,67,10,-40,89,151.87,0,-198.00,-172.00,-1125.00
2025-08-06T12:08:01.064631,-9,9,108,0,0,0,65,67,10,-40,89,152.19,0,-147.00,-166.00,-1163.00
2025-08-06T12:08:01.166480,-10,9,109,0,0,-1,65,67,10,0,89,152.37,0,-116.00,-195.00,-1192.00
2025-08-06T12:08:01.274770,-10,10,105,0,0,-3,65,67,10,0,89,152.31,0,-189.00,-204.00,-1217.00
2025-08-06T12:08:01.370571,-12,12,97,0,0,-5,65,67,10,0,89,152.33,0,-264.00,-261.00,-1034.00
2025-08-06T12:08:01.472437,-11,13,95,0,0,-6,65,67,35,0,89,152.54,0,-352.00,-107.00,-971.00
2025-08-06T12:08:01.575314,-12,12,95,0,0,-7,65,66,42,10,89,152.36,0,-360.00,-143.00,-981.00
2025-08-06T12:08:01.676523,-11,9,95,0,0,-7,65,66,50,20,89,152.88,0,-285.00,-180.00,-1019.00
2025-08-06T12:08:01.778992,-7,9,96,0,0,-8,65,66,58,30,89,152.86,0,-141.00,-219.00,-972.00
2025-08-06T12:08:01.880374,2,3,95,0,0,-9,65,66,67,40,89,153.18,0,120.00,-146.00,-1040.00
2025-08-06T12:08:01.982563,5,-2,90,0,0,-9,65,66,78,50,89,152.78,0,38.00,-103.00,-920.00
2025-08-06T12:08:02.084306,7,-3,87,0,0,-9,65,66,87,60,89,152.80,0,111.00,80.00,-823.00
2025-08-06T12:08:02.186536,9,-3,85,0,0,-7,65,66,97,60,89,153.31,0,191.00,144.00,-875.00
2025-08-06T12:08:02.288517,10,-4,84,0,0,-6,65,66,103,70,89,152.80,0,154.00,115.00,-826.00
2025-08-06T12:08:02.390810,12,-7,84,0,0,-5,65,66,103,80,89,152.95,0,111.00,126.00,-678.00
2025-08-06T12:08:02.497908,15,-12,85,0,0,-2,65,66,97,80,89,152.89,0,223.00,72.00,-574.00
2025-08-06T12:08:02.595401,13,-8,86,0,0,5,65,67,105,80,89,153.07,0,202.00,92.00,-561.00
2025-08-06T12:08:02.697957,8,-4,86,0,0,8,65,67,100,70,89,153.05,0,182.00,142.00,-557.00
2025-08-06T12:08:02.798508,3,0,87,0,0,9,65,67,88,60,89,152.88,0,193.00,165.00,-627.00
2025-08-06T12:08:02.904847,-1,1,87,0,0,9,65,67,79,50,89,152.46,0,121.00,89.00,-798.00
2025-08-06T12:08:03.005031,-5,3,86,0,0,8,65,67,70,40,89,152.68,0,-56.00,1.00,-996.00
2025-08-06T12:08:03.104581,-10,6,86,0,0,7,65,67,62,30,89,152.40,0,-38.00,-63.00,-1092.00
2025-08-06T12:08:03.206440,-10,5,89,0,0,6,65,67,56,30,89,152.46,0,30.00,-82.00,-1152.00
2025-08-06T12:08:03.309220,-12,7,94,0,0,6,65,67,50,20,89,152.47,0,-112.00,-101.00,-989.00
2025-08-06T12:08:03.410339,-11,8,95,0,0,6,65,67,44,10,89,152.59,0,-116.00,-157.00,-1088.00
2025-08-06T12:08:03.512510,-11,9,96,0,0,6,65,67,38,10,89,152.25,0,-158.00,-105.00,-1024.00
2025-08-06T12:08:03.614918,-14,12,95,0,0,5,65,67,32,0,89,152.03,0,-288.00,-226.00,-926.00
2025-08-06T12:08:03.716287,-16,15,98,0,0,5,65,67,10,0,89,152.28,0,-313.00,-209.00,-1016.00
2025-08-06T12:08:03.818452,-14,15,102,0,0,4,65,67,10,0,89,152.12,0,-302.00,-237.00,-1066.00
2025-08-06T12:08:03.920286,-14,14,104,0,0,2,65,67,10,0,89,152.17,0,-228.00,-260.00,-1087.00
2025-08-06T12:08:04.022458,-15,13,106,0,0,1,65,67,10,-10,89,152.30,0,-194.00,-245.00,-1110.00
2025-08-06T12:08:04.124398,-15,13,107,0,0,0,65,67,10,-10,89,152.41,0,-237.00,-230.00,-1122.00
2025-08-06T12:08:04.226339,-15,13,106,0,0,-2,65,67,10,0,89,152.05,0,-239.00,-326.00,-1153.00
2025-08-06T12:08:04.277348,-17,15,105,0,0,-3,65,67,10,0,89,152.34,0,-340.00,-201.00,-1025.00
2025-08-06T12:08:04.379245,-19,16,106,0,0,-4,65,67,10,0,89,152.11,0,-401.00,-236.00,-1021.00
2025-08-06T12:08:04.481523,-19,17,106,0,0,-5,65,67,33,0,89,152.37,0,-386.00,-260.00,-1009.00
2025-08-06T12:08:04.583718,-16,18,105,-1,0,-6,66,67,40,0,89,152.63,0,-341.00,-303.00,-1010.00
2025-08-06T12:08:04.685984,-13,17,103,-1,0,-8,66,67,48,10,89,152.67,0,-246.00,-268.00,-1023.00
2025-08-06T12:08:04.788958,-8,14,102,-1,0,-8,66,67,57,20,89,152.52,0,-193.00,-288.00,-974.00
2025-08-06T12:08:04.889225,-5,9,100,0,-1,-9,66,67,64,30,89,152.67,0,-112.00,-209.00,-950.00
2025-08-06T12:08:04.991360,-2,3,100,0,-1,-8,66,67,74,40,89,152.76,0,-74.00,-117.00,-944.00
2025-08-06T12:08:05.093763,0,-1,101,0,-1,-8,66,67,83,50,89,152.83,0,71.00,-36.00,-1002.00
2025-08-06T12:08:05.195160,3,-5,103,0,0,-8,66,67,92,60,89,152.87,0,63.00,53.00,-990.00
2025-08-06T12:08:05.297329,7,-8,103,0,0,-8,66,67,94,70,89,152.99,0,105.00,31.00,-880.00
2025-08-06T12:08:05.399298,11,-7,104,1,0,-6,66,67,80,80,89,153.23,0,136.00,53.00,-611.00
2025-08-06T12:08:05.501235,13,-5,103,1,0,-2,66,67,91,90,89,153.09,0,243.00,52.00,-528.00
2025-08-06T12:08:05.603641,12,-2,103,0,0,1,66,67,117,90,89,153.28,0,206.00,138.00,-569.00
2025-08-06T12:08:05.705630,10,-2,101,0,1,4,66,67,119,80,89,152.85,0,145.00,87.00,-728.00
2025-08-06T12:08:05.810045,7,-1,101,-1,1,6,66,67,111,80,89,152.98,0,136.00,53.00,-897.00
2025-08-06T12:08:05.909620,3,0,101,-1,1,8,66,67,103,70,89,152.98,0,82.00,26.00,-877.00
2025-08-06T12:08:06.011920,0,-1,99,-1,1,8,66,67,95,60,89,153.06,0,-31.00,11.00,-986.00
2025-08-06T12:08:06.113303,-3,-3,96,0,1,8,66,67,86,50,89,152.77,0,-26.00,-119.00,-977.00
2025-08-06T12:08:06.215224,-7,0,92,1,1,9,66,67,76,40,89,152.98,0,-49.00,-69.00,-915.00
2025-08-06T12:08:06.317533,-9,4,90,1,1,9,66,67,68,30,89,152.43,0,-171.00,-7.00,-979.00
2025-08-06T12:08:06.419201,-10,6,90,1,1,8,66,67,60,20,89,152.63,0,-172.00,-55.00,-1126.00
2025-08-06T12:08:06.522463,-11,6,90,0,1,7,66,67,51,20,89,152.39,0,-275.00,-85.00,-1130.00
2025-08-06T12:08:06.623107,-9,7,90,0,1,6,66,68,41,10,89,152.50,0,-184.00,-195.00,-1021.00
2025-08-06T12:08:06.725056,-9,5,90,0,0,5,66,68,35,0,89,152.41,0,-147.00,-34.00,-1059.00
2025-08-06T12:08:06.828983,-9,6,90,0,0,5,66,68,10,0,89,152.44,0,-254.00,-89.00,-977.00
2025-08-06T12:08:06.929138,-10,6,90,0,-1,4,66,68,10,0,89,152.24,0,-240.00,-154.00,-1081.00
2025-08-06T12:08:07.031252,-11,7,92,0,0,2,66,68,10,0,89,152.33,0,-235.00,-201.00,-1154.00
2025-08-06T12:08:07.133174,-12,9,94,0,0,1,66,68,10,0,89,152.14,0,-174.00,-131.00,-1075.00
2025-08-06T12:08:07.235362,-13,9,94,0,0,0,66,68,10,0,89,152.55,0,-206.00,-189.00,-1088.00
2025-08-06T12:08:07.337458,-13,10,93,0,0,-1,66,68,10,0,89,152.55,0,-211.00,-163.00,-1178.00
2025-08-06T12:08:07.439344,-14,9,92,0,0,-3,66,68,10,0,89,152.34,0,-306.00,-143.00,-1137.00
2025-08-06T12:08:07.541419,-14,10,89,0,0,-5,66,68,30,0,89,152.51,0,-385.00,-77.00,-1053.00
2025-08-06T12:08:07.643131,-16,5,85,0,0,-5,66,68,36,0,89,152.58,0,-314.00,-36.00,-1046.00
2025-08-06T12:08:07.694001,-15,1,82,-2,0,-6,66,68,42,10,89,152.30,0,-234.00,29.00,-1078.00
2025-08-06T12:08:07.796127,-14,-6,80,-1,0,-7,66,68,49,10,89,152.13,0,-298.00,11.00,-926.00
2025-08-06T12:08:07.898190,-13,-12,85,-1,-1,-6,66,68,56,20,89,152.53,0,-296.00,59.00,-859.00
2025-08-06T12:08:08.000287,-13,-16,90,0,-1,-6,66,68,59,30,89,152.69,0,-125.00,302.00,-1023.00
2025-08-06T12:08:08.102790,-8,-17,94,0,0,-6,66,68,68,30,89,152.81,0,-218.00,228.00,-924.00
2025-08-06T12:08:08.204225,-4,-17,97,0,0,-5,66,68,70,40,89,152.75,0,-31.00,256.00,-949.00
2025-08-06T12:08:08.306088,-1,-19,97,0,0,-4,66,68,50,40,89,152.97,0,-20.00,318.00,-933.00
2025-08-06T12:08:08.408262,1,-20,97,0,0,-4,66,68,41,50,89,152.98,0,67.00,293.00,-867.00
2025-08-06T12:08:08.509979,3,-20,97,0,0,-3,66,68,44,50,89,153.18,0,83.00,250.00,-704.00
2025-08-06T12:08:08.612086,4,-20,96,0,0,-1,67,68,46,50,89,153.10,0,78.00,281.00,-766.00
2025-08-06T12:08:08.714022,4,-17,96,0,0,0,67,68,52,50,89,152.88,0,103.00,245.00,-703.00
2025-08-06T12:08:08.816258,3,-14,97,0,0,3,67,68,78,0,89,152.80,0,60.00,205.00,-700.00
2025-08-06T12:08:08.917977,0,-12,97,0,0,5,67,68,78,0,89,153.23,0,-7.00,196.00,-821.00
2025-08-06T12:08:09.020178,-4,-7,99,0,0,6,67,68,71,0,89,152.77,0,-62.00,86.00,-924.00
2025-08-06T12:08:09.121963,-9,-3,100,0,0,7,67,68,65,-10,89,152.66,0,-115.00,40.00,-1060.00
2025-08-06T12:08:09.224240,-11,2,103,0,1,6,67,68,58,-20,89,152.40,0,-154.00,-40.00,-1116.00
2025-08-06T12:08:09.326042,-13,7,108,0,1,5,67,68,54,-20,89,152.44,0,-215.00,-13.00,-971.00
2025-08-06T12:08:09.428160,-13,10,110,-1,1,5,67,68,48,-30,89,152.26,0,-326.00,-166.00,-957.00
2025-08-06T12:08:09.530087,-14,11,116,-1,0,4,67,68,43,-30,89,152.29,0,-363.00,-139.00,-964.00
2025-08-06T12:08:09.632131,-14,9,120,0,0,4,66,69,38,-40,89,152.35,0,-341.00,-201.00,-1002.00
2025-08-06T12:08:09.734016,-11,6,123,0,0,4,66,69,33,-40,89,152.24,0,-233.00,-241.00,-1137.00
2025-08-06T12:08:09.836117,-9,9,127,0,0,2,66,69,30,-50,89,152.00,0,-98.00,-185.00,-1038.00
2025-08-06T12:08:09.938044,-6,10,127,0,0,1,66,69,10,-50,89,152.28,0,-138.00,-155.00,-1066.00
2025-08-06T12:08:10.040027,-6,8,126,0,0,2,66,69,10,0,89,152.18,0,-257.00,-100.00,-879.00
2025-08-06T12:08:10.142549,-8,6,120,0,0,3,66,69,10,0,89,152.23,0,-222.00,-136.00,-892.00
2025-08-06T12:08:10.245128,-8,11,110,0,0,2,66,69,10,0,89,152.40,0,-98.00,-235.00,-1096.00
2025-08-06T12:08:10.347134,-5,23,108,0,0,1,66,69,10,0,89,152.08,0,18.00,-576.00,-1079.00
2025-08-06T12:08:10.449605,-8,17,100,0,0,0,66,69,10,0,89,152.18,0,29.00,16.00,-1288.00
2025-08-06T12:08:10.550110,-9,16,101,0,0,-2,66,69,10,0,89,152.14,0,-42.00,-350.00,-1103.00
2025-08-06T12:08:10.654300,-9,15,103,0,0,-3,67,68,30,0,89,152.32,0,-232.00,-329.00,-1044.00
2025-08-06T12:08:10.753866,-10,12,99,0,0,-4,67,68,35,0,89,152.50,0,-240.00,-293.00,-946.00
2025-08-06T12:08:10.804901,-11,8,96,0,0,-4,67,68,40,0,89,152.52,0,-366.00,-271.00,-782.00
2025-08-06T12:08:10.907021,-13,7,95,0,0,-4,67,68,45,0,89,152.28,0,-350.00,-48.00,-976.00
2025-08-06T12:08:11.009092,-14,5,95,0,0,-4,67,68,50,0,89,152.60,0,-442.00,-79.00,-1089.00
2025-08-06T12:08:11.111607,-14,4,94,0,0,-6,67,68,56,0,89,152.74,0,-428.00,6.00,-1221.00
2025-08-06T12:08:11.213417,-12,2,93,0,0,-7,67,68,63,10,89,152.66,0,-292.00,38.00,-1159.00
2025-08-06T12:08:11.314897,-9,1,94,0,0,-8,67,68,70,20,89,152.94,0,-225.00,-7.00,-1207.00
2025-08-06T12:08:11.416916,-4,0,95,0,0,-10,67,68,81,30,89,153.01,0,-78.00,-65.00,-1073.00
2025-08-06T12:08:11.518823,0,-2,94,0,0,-9,67,68,91,40,89,152.81,0,22.00,-1.00,-854.00
2025-08-06T12:08:11.621008,4,-4,94,0,0,-8,67,68,101,50,89,152.87,0,105.00,60.00,-753.00
2025-08-06T12:08:11.724208,8,-5,93,0,0,-5,67,68,108,50,89,153.13,0,120.00,61.00,-577.00
2025-08-06T12:08:11.824958,9,-4,92,0,0,0,67,68,108,60,89,152.71,0,171.00,81.00,-560.00
2025-08-06T12:08:11.926893,8,-3,92,0,1,3,67,68,107,50,89,153.11,0,170.00,104.00,-628.00
2025-08-06T12:08:12.028922,6,0,92,-1,1,6,67,68,99,50,89,153.11,0,103.00,83.00,-774.00
2025-08-06T12:08:12.130884,2,0,91,-1,1,7,67,68,91,40,89,153.00,0,77.00,-3.00,-906.00
2025-08-06T12:08:12.233024,0,0,90,0,1,8,67,68,83,30,89,152.70,0,-7.00,-114.00,-1043.00
2025-08-06T12:08:12.334943,-1,3,90,0,1,7,67,68,75,30,89,152.73,0,-149.00,-123.00,-1108.00
2025-08-06T12:08:12.438563,-2,5,87,0,1,7,67,68,68,20,89,152.71,0,-104.00,-108.00,-1076.00
2025-08-06T12:08:12.538927,-3,7,89,0,0,6,67,68,61,10,89,152.80,0,-104.00,-78.00,-1061.00
2025-08-06T12:08:12.640825,-5,8,93,0,0,6,67,68,55,10,89,152.82,0,-63.00,-125.00,-1139.00
2025-08-06T12:08:12.742770,-6,9,94,0,1,4,67,68,50,0,89,152.32,0,-63.00,-190.00,-1105.00
2025-08-06T12:08:12.845118,-5,10,96,0,0,4,67,68,46,0,89,152.18,0,-190.00,-166.00,-1023.00
2025-08-06T12:08:12.946827,-6,12,99,0,0,4,67,68,41,0,89,152.43,0,-124.00,-105.00,-999.00
2025-08-06T12:08:13.049579,-8,13,102,0,0,4,67,68,37,0,89,152.55,0,-124.00,-216.00,-961.00
2025-08-06T12:08:13.150762,-11,10,105,0,0,3,67,68,33,-10,89,152.41,0,-213.00,-233.00,-1113.00
2025-08-06T12:08:13.252777,-13,8,105,0,0,1,67,68,31,0,89,152.36,0,-209.00,-132.00,-1222.00
2025-08-06T12:08:13.355117,-13,7,106,0,0,0,67,68,31,0,89,152.46,0,-278.00,-159.00,-1160.00
2025-08-06T12:08:13.456796,-12,7,105,0,0,-1,67,68,32,0,89,152.37,0,-279.00,-129.00,-1097.00
2025-08-06T12:08:13.559066,-11,6,104,0,0,-3,67,68,36,0,89,152.36,0,-303.00,-224.00,-1064.00
2025-08-06T12:08:13.660696,-11,7,105,0,0,-4,67,69,40,0,89,152.53,0,-229.00,-249.00,-1075.00
2025-08-06T12:08:13.763014,-11,8,102,1,0,-5,67,69,46,0,89,152.51,0,-264.00,-189.00,-1124.00
2025-08-06T12:08:13.864937,-10,7,97,1,0,-6,67,69,53,0,89,152.57,0,-173.00,-180.00,-1192.00
2025-08-06T12:08:13.967030,-9,5,91,0,0,-8,67,69,60,10,89,152.56,0,-105.00,-104.00,-1233.00
2025-08-06T12:08:14.017770,-7,1,86,0,0,-9,67,69,69,20,89,152.73,0,-100.00,-29.00,-1182.00
2025-08-06T12:08:14.119694,-3,-3,83,0,0,-10,67,69,80,30,89,153.03,0,-98.00,43.00,-1015.00
2025-08-06T12:08:14.222276,0,-6,80,0,0,-11,67,69,93,40,89,153.00,0,167.00,60.00,-925.00
2025-08-06T12:08:14.323824,4,-9,78,0,0,-9,67,69,103,50,89,153.24,0,49.00,83.00,-655.00
2025-08-06T12:08:14.425683,5,-14,76,0,0,-6,67,69,97,60,89,152.98,0,120.00,78.00,-719.00
2025-08-06T12:08:14.531033,8,-15,76,1,0,-3,67,69,106,70,89,153.30,0,30.00,184.00,-752.00
2025-08-06T12:08:14.630369,8,-13,75,0,0,0,67,69,116,70,89,152.83,0,211.00,157.00,-683.00
2025-08-06T12:08:14.733119,6,-12,75,0,0,2,67,69,116,70,89,153.15,0,156.00,176.00,-497.00
2025-08-06T12:08:14.833837,4,-8,75,-1,0,5,67,69,109,70,89,153.10,0,79.00,219.00,-571.00
2025-08-06T12:08:14.935829,2,-7,75,-1,0,6,67,69,99,60,89,152.90,0,11.00,268.00,-708.00
2025-08-06T12:08:15.037778,0,-4,76,-1,0,7,67,69,91,50,89,153.02,0,8.00,137.00,-852.00
2025-08-06T12:08:15.139936,0,-3,75,0,0,8,67,69,81,40,89,152.85,0,42.00,61.00,-992.00
2025-08-06T12:08:15.241668,-2,-1,75,0,0,8,67,69,71,30,89,152.78,0,27.00,-19.00,-833.00
2025-08-06T12:08:15.343885,-5,0,75,0,0,7,67,69,63,30,89,152.64,0,-116.00,-25.00,-1139.00
2025-08-06T12:08:15.445629,-6,0,75,0,0,5,67,69,57,20,89,152.44,0,-97.00,73.00,-1192.00
2025-08-06T12:08:15.548569,-5,1,76,0,0,4,67,69,51,10,89,152.23,0,-156.00,53.00,-1167.00
2025-08-06T12:08:15.651536,-5,1,78,0,0,4,67,69,46,10,89,152.51,0,-70.00,-86.00,-1043.00
2025-08-06T12:08:15.753356,-6,1,80,0,0,3,67,69,42,0,89,152.58,0,-156.00,-33.00,-1076.00
2025-08-06T12:08:15.853673,-8,2,83,0,0,3,67,69,40,0,89,152.39,0,-245.00,-54.00,-1053.00
2025-08-06T12:08:15.956211,-10,3,87,0,0,2,67,69,38,0,89,152.73,0,-252.00,-17.00,-1044.00
2025-08-06T12:08:16.057675,-12,4,90,0,0,1,67,69,37,0,89,152.22,0,-233.00,-55.00,-1050.00
2025-08-06T12:08:16.159549,-13,4,90,0,0,0,67,69,37,0,89,152.35,0,-235.00,-86.00,-1062.00
2025-08-06T12:08:16.261716,-13,4,90,0,0,0,67,69,37,0,89,152.41,0,-197.00,-83.00,-1069.00
2025-08-06T12:08:16.363605,-12,4,91,0,0,-1,67,69,39,0,89,152.35,0,-203.00,-73.00,-1094.00
2025-08-06T12:08:16.465810,-11,3,91,0,0,-2,67,69,41,0,89,152.44,0,-225.00,-98.00,-1037.00
2025-08-06T12:08:16.567791,-10,3,90,0,0,-3,67,69,45,0,89,152.50,0,-222.00,-98.00,-998.00
2025-08-06T12:08:16.669579,-9,3,90,0,0,-4,67,70,49,0,89,152.50,0,-214.00,-80.00,-1027.00
2025-08-06T12:08:16.771649,-8,2,90,0,0,-4,67,70,53,0,89,152.68,0,-190.00,-27.00,-1068.00
2025-08-06T12:08:16.873722,-7,2,90,0,0,-5,67,70,58,0,89,152.65,0,-139.00,-19.00,-1064.00
2025-08-06T12:08:16.975605,-6,2,90,0,0,-6,67,70,65,0,89,152.72,0,-97.00,-46.00,-1067.00
2025-08-06T12:08:17.077652,-5,0,89,0,0,-6,67,70,72,10,89,152.52,0,-43.00,-32.00,-1055.00
2025-08-06T12:08:17.180098,-3,-3,90,0,0,-7,67,70,79,20,89,152.38,0,-6.00,35.00,-904.00
2025-08-06T12:08:17.281511,1,-3,92,0,0,-6,67,70,87,20,89,153.06,0,35.00,131.00,-827.00
2025-08-06T12:08:17.384178,4,-4,93,0,0,-5,67,70,92,30,89,153.03,0,93.00,27.00,-1043.00
2025-08-06T12:08:17.434649,6,-6,93,0,0,-5,67,70,99,30,89,152.95,0,136.00,78.00,-932.00
2025-08-06T12:08:17.536573,8,-5,92,0,0,-4,67,70,105,40,89,152.92,0,130.00,78.00,-663.00
2025-08-06T12:08:17.638626,9,-4,92,0,0,-1,68,70,108,40,89,153.28,0,137.00,115.00,-657.00
2025-08-06T12:08:17.740540,8,-5,90,0,0,0,68,70,106,50,89,153.03,0,62.00,86.00,-682.00
2025-08-06T12:08:17.842674,5,-4,89,0,0,3,68,70,102,40,89,153.20,0,60.00,86.00,-816.00
2025-08-06T12:08:17.944525,2,-3,89,0,0,5,68,70,96,40,89,153.05,0,24.00,8.00,-830.00
2025-08-06T12:08:18.046893,0,-2,88,0,0,7,68,70,87,30,89,152.90,0,-3.00,21.00,-897.00
2025-08-06T12:08:18.148609,-3,0,89,0,0,8,68,70,78,20,89,152.60,0,-35.00,-25.00,-1080.00
2025-08-06T12:08:18.250701,-5,1,87,0,0,7,68,70,69,20,89,152.77,0,-153.00,-9.00,-1067.00
2025-08-06T12:08:18.352741,-5,1,87,0,0,6,68,70,63,10,89,152.36,0,-201.00,-105.00,-1191.00
2025-08-06T12:08:18.454477,-7,3,88,0,0,4,68,70,58,0,89,152.47,0,-301.00,-110.00,-1134.00
2025-08-06T12:08:18.556548,-10,5,87,0,0,2,68,70,55,0,89,152.63,0,-202.00,-62.00,-1093.00
2025-08-06T12:08:18.658394,-14,6,87,0,0,2,68,70,52,0,89,152.96,0,-142.00,-58.00,-1024.00
2025-08-06T12:08:18.760459,-15,6,87,0,0,2,68,70,49,0,89,152.19,0,-200.00,-133.00,-895.00
2025-08-06T12:08:18.862674,-15,5,86,0,0,2,68,70,46,0,89,152.37,0,-162.00,-40.00,-913.00
2025-08-06T12:08:18.964426,-16,4,88,0,0,3,68,70,44,0,89,152.44,0,-312.00,-39.00,-915.00
2025-08-06T12:08:19.066542,-15,4,91,-1,0,3,68,70,40,0,89,152.38,0,-464.00,-76.00,-948.00
2025-08-06T12:08:19.168808,-17,2,93,-1,0,3,68,70,37,0,89,152.64,0,-486.00,-202.00,-1107.00
2025-08-06T12:08:19.270733,-19,3,94,0,-1,1,68,70,36,0,89,152.14,0,-338.00,-91.00,-1066.00
2025-08-06T12:08:19.372465,-22,4,91,0,0,0,68,70,35,0,89,152.44,0,-240.00,-124.00,-995.00
2025-08-06T12:08:19.474545,-22,5,90,0,0,0,68,70,36,0,89,152.45,0,-478.00,41.00,-983.00
2025-08-06T12:08:19.576510,-22,5,89,0,0,0,68,70,36,0,89,152.60,0,-393.00,-75.00,-895.00
2025-08-06T12:08:19.678361,-22,3,88,0,0,0,68,70,37,0,89,152.61,0,-471.00,-88.00,-1041.00
2025-08-06T12:08:19.780364,-22,3,88,0,0,-2,68,70,40,0,89,152.48,0,-455.00,-105.00,-1188.00
2025-08-06T12:08:19.882801,-21,3,85,0,0,-4,68,70,45,0,89,152.32,0,-528.00,-98.00,-1159.00
2025-08-06T12:08:19.984512,-17,4,85,1,0,-6,68,70,53,0,89,152.52,0,-368.00,5.00,-985.00
2025-08-06T12:08:20.086474,-12,5,87,0,0,-6,68,70,60,10,89,152.74,0,-216.00,-29.00,-1034.00
2025-08-06T12:08:20.188409,-7,4,89,0,-1,-7,68,70,67,10,89,152.50,0,-24.00,-111.00,-1050.00
2025-08-06T12:08:20.290868,-3,3,90,0,-1,-7,68,70,75,20,89,152.64,0,49.00,-139.00,-1009.00
2025-08-06T12:08:20.392368,1,1,90,0,0,-7,68,70,83,30,89,152.85,0,98.00,-61.00,-900.00
2025-08-06T12:08:20.496047,5,0,89,0,0,-7,68,70,91,40,89,152.67,0,91.00,12.00,-794.00
2025-08-06T12:08:20.596463,8,-1,90,0,0,-6,68,70,98,40,89,153.09,0,96.00,-28.00,-760.00
2025-08-06T12:08:20.698290,10,-2,90,0,0,-4,68,70,101,50,89,153.29,0,136.00,76.00,-765.00
2025-08-06T12:08:20.801286,12,-1,92,0,0,-2,68,70,105,50,88,152.85,0,200.00,38.00,-645.00
2025-08-06T12:08:20.902642,12,-1,94,0,0,0,68,70,100,60,88,153.12,0,151.00,12.00,-603.00
2025-08-06T12:08:20.953272,8,0,95,0,1,4,68,70,93,60,88,152.96,0,72.00,-14.00,-780.00
2025-08-06T12:08:21.055854,4,1,96,0,1,6,68,70,85,50,88,153.08,0,74.00,-51.00,-940.00
2025-08-06T12:08:21.157284,0,3,96,0,1,7,68,70,77,40,88,153.04,0,-34.00,-86.00,-949.00
2025-08-06T12:08:21.259708,0,5,97,0,0,7,68,70,68,30,88,152.98,0,-2.00,-166.00,-1037.00
2025-08-06T12:08:21.361373,0,7,98,0,0,7,68,70,60,30,88,152.80,0,-6.00,-102.00,-1122.00
2025-08-06T12:08:21.463697,-2,6,98,0,0,6,68,70,54,20,88,152.78,0,40.00,-89.00,-1102.00
2025-08-06T12:08:21.565317,-4,4,97,0,0,4,68,70,48,10,88,152.88,0,-43.00,-30.00,-997.00
2025-08-06T12:08:21.667849,-5,1,94,0,0,4,67,70,43,10,88,152.56,0,-9.00,-73.00,-948.00
2025-08-06T12:08:21.769394,-4,0,95,0,0,4,67,70,38,0,88,152.48,0,-157.00,-68.00,-899.00
2025-08-06T12:08:21.871469,-7,0,97,0,-1,4,67,70,33,0,88,152.14,0,25.00,-93.00,-994.00
2025-08-06T12:08:21.973264,-9,1,98,0,0,4,67,70,10,0,88,152.50,0,-92.00,-64.00,-1042.00
2025-08-06T12:08:22.075423,-9,2,101,0,0,3,67,70,10,0,88,152.21,0,-172.00,-51.00,-960.00
2025-08-06T12:08:22.177298,-10,1,105,0,0,3,67,70,10,0,88,152.12,0,-114.00,-33.00,-1041.00
2025-08-06T12:08:22.279420,-9,2,108,0,0,2,67,70,10,0,88,152.20,0,-132.00,-86.00,-1021.00
2025-08-06T12:08:22.381203,-7,4,109,0,0,2,67,70,10,0,88,152.26,0,-116.00,-77.00,-1048.00
2025-08-06T12:08:22.483377,-6,4,112,1,0,2,67,70,10,0,88,152.01,0,-123.00,-104.00,-1038.00
2025-08-06T12:08:22.585420,-9,7,117,1,0,2,67,70,10,0,88,152.30,0,-152.00,-140.00,-1027.00
2025-08-06T12:08:22.687361,-9,10,114,1,0,1,68,70,10,0,88,152.37,0,-87.00,-235.00,-1070.00
2025-08-06T12:08:22.789193,-9,10,114,1,0,0,68,70,10,0,88,152.12,0,-106.00,-110.00,-1083.00
2025-08-06T12:08:22.891331,-9,10,115,0,0,0,68,70,10,0,88,152.15,0,-145.00,-123.00,-1071.00
2025-08-06T12:08:22.993220,-8,9,114,0,0,-1,68,70,10,0,88,152.26,0,-188.00,-154.00,-1070.00
2025-08-06T12:08:23.095444,-7,7,112,0,0,-2,68,70,10,0,88,152.35,0,-167.00,-131.00,-1097.00
2025-08-06T12:08:23.197201,-8,8,109,0,0,-3,68,70,10,0,88,152.41,0,-183.00,-174.00,-1021.00
2025-08-06T12:08:23.299169,-7,7,106,0,0,-3,68,70,10,0,88,152.13,0,-209.00,-183.00,-1010.00
2025-08-06T12:08:23.401417,-6,8,104,1,0,-3,68,70,10,0,88,152.46,0,-171.00,-193.00,-995.00
2025-08-06T12:08:23.503329,-5,9,102,1,-1,-3,68,70,31,0,88,152.24,0,5.00,-192.00,-1042.00
2025-08-06T12:08:23.605304,-3,11,103,1,0,-4,68,70,36,0,88,152.34,0,25.00,-185.00,-1100.00
2025-08-06T12:08:23.707194,0,12,104,1,0,-5,68,71,44,0,88,152.25,0,-16.00,-250.00,-1155.00
2025-08-06T12:08:23.809127,-1,12,101,1,0,-7,68,71,52,0,88,152.64,0,-15.00,-172.00,-1054.00
2025-08-06T12:08:23.911203,-5,12,96,1,0,-8,68,71,61,10,88,152.61,0,-91.00,-137.00,-1040.00
2025-08-06T12:08:23.962180,-5,7,90,0,0,-8,68,71,70,20,88,152.74,0,-49.00,-60.00,-1050.00
2025-08-06T12:08:24.064891,-3,2,90,0,0,-9,68,71,80,30,88,152.80,0,-2.00,-33.00,-903.00
2025-08-06T12:08:24.166419,1,-1,90,0,0,-8,68,71,87,40,88,152.73,0,11.00,53.00,-895.00
2025-08-06T12:08:24.269010,1,0,90,0,0,-6,68,71,94,50,88,153.12,0,-33.00,99.00,-704.00
2025-08-06T12:08:24.373129,2,-3,90,0,0,-4,68,71,97,50,88,153.17,0,66.00,-16.00,-737.00
2025-08-06T12:08:24.472408,6,-4,91,0,0,-1,68,71,98,60,88,152.98,0,110.00,-48.00,-648.00
2025-08-06T12:08:24.574207,6,-4,89,0,0,1,68,71,96,60,88,153.01,0,96.00,11.00,-590.00
2025-08-06T12:08:24.676214,0,0,86,0,0,9,68,71,87,50,88,152.97,0,74.00,-30.00,-500.00
2025-08-06T12:08:24.778043,-1,6,86,1,0,9,68,71,78,40,88,152.92,0,42.00,-12.00,-539.00
2025-08-06T12:08:24.880185,-6,9,89,0,0,7,68,71,69,30,88,152.61,0,8.00,-111.00,-829.00
2025-08-06T12:08:24.982118,-10,11,90,0,0,5,68,71,64,20,88,152.46,0,-79.00,-33.00,-1165.00
2025-08-06T12:08:25.085524,-13,10,90,0,0,3,68,71,59,20,88,152.53,0,-106.00,-163.00,-1244.00
2025-08-06T12:08:25.187120,-12,8,91,0,0,2,68,71,56,20,88,152.45,0,-186.00,-253.00,-1139.00
2025-08-06T12:08:25.289079,-12,7,91,0,0,1,68,71,52,10,88,152.75,0,-185.00,-206.00,-1073.00
2025-08-06T12:08:25.391357,-13,6,92,0,0,1,68,71,50,10,88,152.73,0,-221.00,-159.00,-1004.00
2025-08-06T12:08:25.493121,-12,6,92,0,0,0,68,71,49,0,88,152.72,0,-229.00,-145.00,-1036.00
2025-08-06T12:08:25.595660,-11,6,92,0,0,0,68,71,48,0,88,152.47,0,-235.00,-125.00,-1039.00
2025-08-06T12:08:25.697113,-11,6,92,1,0,0,69,71,47,0,88,152.31,0,-208.00,-116.00,-991.00
2025-08-06T12:08:25.799557,-11,7,92,1,0,0,69,71,47,0,88,152.25,0,-222.00,-127.00,-1006.00
2025-08-06T12:08:25.902447,-11,8,92,0,0,0,69,71,47,0,88,152.76,0,-165.00,-135.00,-985.00
2025-08-06T12:08:26.004073,-10,8,92,0,0,0,69,71,47,0,88,152.48,0,-180.00,-132.00,-969.00
2025-08-06T12:08:26.105183,-11,8,93,0,0,0,69,71,47,0,88,152.79,0,-184.00,-158.00,-964.00
2025-08-06T12:08:26.207277,-11,8,93,0,0,0,69,71,47,0,88,152.61,0,-201.00,-173.00,-964.00
2025-08-06T12:08:26.308988,-11,8,93,0,0,0,69,71,47,0,88,152.40,0,-210.00,-156.00,-986.00
2025-08-06T12:08:26.411149,-11,8,92,0,0,0,69,71,47,0,88,152.68,0,-169.00,-148.00,-1006.00
2025-08-06T12:08:26.512999,-10,8,92,0,0,0,69,71,47,0,88,152.27,0,-213.00,-135.00,-933.00
2025-08-06T12:08:26.615296,-10,8,92,0,0,0,69,71,48,0,88,152.37,0,-163.00,-121.00,-977.00
2025-08-06T12:08:26.716961,-10,8,93,0,0,0,69,71,47,0,88,152.46,0,-206.00,-141.00,-951.00
2025-08-06T12:08:26.819103,-9,8,94,0,0,0,69,71,47,0,88,152.58,0,-175.00,-150.00,-974.00
2025-08-06T12:08:26.921048,-9,8,94,0,0,0,69,71,47,0,88,152.42,0,-186.00,-154.00,-919.00
2025-08-06T12:08:27.023168,-10,8,94,0,0,0,69,71,47,0,88,152.64,0,-184.00,-148.00,-959.00
2025-08-06T12:08:27.125239,-12,9,93,0,0,1,69,71,46,0,88,152.67,0,-161.00,-179.00,-938.00
2025-08-06T12:08:27.227592,-13,9,95,0,0,1,69,71,45,0,88,152.40,0,-241.00,-151.00,-938.00
2025-08-06T12:08:27.329127,-14,10,95,0,0,1,69,71,44,0,88,152.37,0,-306.00,-166.00,-984.00
2025-08-06T12:08:27.379973,-16,11,94,0,0,1,69,71,43,0,88,152.30,0,-233.00,-221.00,-1012.00
2025-08-06T12:08:27.481877,-16,12,94,0,0,0,69,71,42,0,88,152.72,0,-276.00,-183.00,-957.00
2025-08-06T12:08:27.584040,-16,12,94,0,0,0,69,71,42,0,88,152.31,0,-322.00,-198.00,-919.00
2025-08-06T12:08:27.685889,-15,12,96,0,0,0,69,71,41,0,88,152.22,0,-321.00,-227.00,-899.00
2025-08-06T12:08:27.787952,-15,11,97,0,0,0,69,71,40,0,88,152.48,0,-229.00,-218.00,-933.00
2025-08-06T12:08:27.889862,-14,11,98,0,0,1,69,71,39,0,88,152.27,0,-220.00,-201.00,-921.00
2025-08-06T12:08:27.992016,-14,11,100,0,0,1,69,71,38,0,88,152.52,0,-267.00,-165.00,-906.00
2025-08-06T12:08:28.093944,-15,10,101,0,0,1,69,71,36,0,88,152.58,0,-263.00,-161.00,-938.00
2025-08-06T12:08:28.196179,-15,10,103,0,0,1,69,71,34,0,88,152.19,0,-310.00,-166.00,-871.00
2025-08-06T12:08:28.297913,-14,9,106,0,0,2,69,71,32,0,88,152.05,0,-330.00,-142.00,-912.00
2025-08-06T12:08:28.400240,-13,8,108,0,0,2,69,71,30,0,88,151.96,0,-288.00,-177.00,-963.00
2025-08-06T12:08:28.502087,-14,8,109,0,0,2,69,71,10,0,88,152.38,0,-236.00,-169.00,-1021.00
2025-08-06T12:08:28.604323,-16,7,110,0,0,1,69,71,10,0,88,152.41,0,-303.00,-158.00,-994.00
2025-08-06T12:08:28.707216,-18,6,110,1,0,0,70,71,10,0,88,152.02,0,-321.00,-146.00,-1030.00
2025-08-06T12:08:28.809160,-20,7,110,0,0,0,70,71,10,0,88,152.28,0,-330.00,-99.00,-1031.00
2025-08-06T12:08:28.912492,-21,7,109,0,0,0,70,71,10,0,88,152.31,0,-368.00,-101.00,-1009.00
2025-08-06T12:08:29.012822,-20,7,106,0,0,0,70,71,10,0,88,152.26,0,-353.00,-161.00,-998.00
2025-08-06T12:08:29.115775,-18,8,106,0,0,-1,70,71,10,0,88,152.10,0,-372.00,-135.00,-984.00
2025-08-06T12:08:29.217126,-17,8,105,0,0,-2,70,71,10,0,88,152.17,0,-303.00,-173.00,-1000.00
2025-08-06T12:08:29.321489,-14,8,105,0,0,-2,70,71,31,0,88,152.44,0,-335.00,-148.00,-965.00
2025-08-06T12:08:29.420927,-13,7,104,0,0,-2,70,71,35,0,88,152.21,0,-249.00,-181.00,-1012.00
2025-08-06T12:08:29.523199,-11,5,101,0,0,-2,70,71,38,0,88,152.48,0,-159.00,-88.00,-1034.00
2025-08-06T12:08:29.625065,-7,5,100,0,0,-2,70,71,41,0,88,152.54,0,-148.00,-102.00,-896.00
2025-08-06T12:08:29.726953,-5,4,100,0,0,-1,69,72,44,0,88,152.70,0,-75.00,-136.00,-893.00
2025-08-06T12:08:29.828776,-4,3,100,1,0,0,69,72,46,0,88,152.31,0,-64.00,-97.00,-931.00
2025-08-06T12:08:29.930904,-3,2,99,1,0,0,69,72,47,0,88,152.21,0,-54.00,-39.00,-930.00
2025-08-06T12:08:30.033261,-3,2,98,0,0,0,69,72,48,0,88,152.53,0,-25.00,-10.00,-993.00
2025-08-06T12:08:30.134869,-3,1,98,0,0,0,69,72,49,0,88,152.71,0,-68.00,-11.00,-974.00
2025-08-06T12:08:30.237309,-2,1,98,0,0,0,69,72,49,0,88,152.72,0,-67.00,-8.00,-942.00
2025-08-06T12:08:30.340957,-3,1,98,0,0,0,69,72,49,0,88,152.78,0,-53.00,-16.00,-970.00
2025-08-06T12:08:30.440928,-3,1,98,0,0,0,69,72,49,0,88,152.71,0,-57.00,-34.00,-990.00
2025-08-06T12:08:30.542805,-3,1,98,0,0,0,69,72,49,0,88,152.38,0,-56.00,-41.00,-1019.00
2025-08-06T12:08:30.652617,-3,1,98,0,0,0,69,72,49,0,88,152.54,0,-72.00,-43.00,-978.00
2025-08-06T12:08:30.746871,-3,2,99,0,0,0,69,71,49,0,88,152.32,0,-62.00,-75.00,-1023.00
2025-08-06T12:08:30.797815,-3,3,99,0,0,0,69,71,49,0,88,152.47,0,-49.00,-123.00,-1188.00
2025-08-06T12:08:30.900176,-1,5,98,0,0,-2,69,71,52,0,88,152.51,0,-34.00,-53.00,-1153.00
2025-08-06T12:08:31.003056,0,5,95,0,0,-3,69,71,55,0,88,152.73,0,-8.00,-102.00,-1025.00
2025-08-06T12:08:31.106204,0,5,94,0,0,-3,69,71,59,0,88,152.76,0,31.00,-127.00,-1144.00
2025-08-06T12:08:31.207549,1,4,90,0,0,-5,69,71,64,0,88,152.60,0,20.00,-95.00,-1155.00
2025-08-06T12:08:31.309884,3,2,88,0,0,-6,69,71,70,0,88,152.84,0,83.00,-35.00,-1063.00
2025-08-06T12:08:31.410696,5,1,86,0,0,-6,69,71,76,10,88,153.01,0,89.00,-23.00,-900.00
2025-08-06T12:08:31.512917,8,-1,86,0,0,-5,69,71,83,20,88,152.54,0,91.00,-29.00,-765.00
2025-08-06T12:08:31.614786,10,-4,85,0,0,-2,69,71,87,20,88,152.88,0,160.00,29.00,-604.00
2025-08-06T12:08:31.716649,9,-4,84,0,0,1,69,72,85,20,88,152.84,0,191.00,6.00,-567.00
2025-08-06T12:08:31.818689,8,-2,84,0,1,5,69,72,81,20,88,153.10,0,146.00,-12.00,-641.00
2025-08-06T12:08:31.921102,6,-1,85,0,0,8,69,72,71,10,88,152.90,0,63.00,-27.00,-830.00
2025-08-06T12:08:32.022683,3,-1,86,0,0,8,69,72,62,0,88,152.65,0,-6.00,23.00,-996.00
2025-08-06T12:08:32.124815,0,1,88,1,0,8,69,72,52,0,88,152.51,0,-47.00,59.00,-1026.00
2025-08-06T12:08:32.226851,-3,2,90,0,0,8,69,72,43,0,88,152.39,0,-96.00,-76.00,-1160.00
2025-08-06T12:08:32.328838,-6,5,95,0,0,6,69,72,35,-10,88,152.54,0,-74.00,-76.00,-1147.00
2025-08-06T12:08:32.430810,-7,6,101,0,0,5,69,72,10,-20,88,152.09,0,-52.00,-161.00,-1015.00
2025-08-06T12:08:32.532699,-4,5,106,0,0,4,69,72,10,-20,88,151.95,0,-107.00,-150.00,-1016.00
2025-08-06T12:08:32.635076,-2,4,110,1,0,3,69,72,10,-30,88,152.21,0,-44.00,-138.00,-1129.00
2025-08-06T12:08:32.736856,-4,5,112,1,0,2,70,72,10,-30,88,152.43,0,48.00,-94.00,-1116.00
2025-08-06T12:08:32.839144,-5,5,114,1,0,0,70,72,10,-30,88,152.32,0,-51.00,-136.00,-1109.00
2025-08-06T12:08:32.940761,-7,5,115,1,0,0,70,72,10,-30,88,152.27,0,-134.00,-100.00,-1100.00
2025-08-06T12:08:33.042913,-8,6,115,1,0,-1,70,72,10,0,88,152.04,0,-201.00,-69.00,-1077.00
2025-08-06T12:08:33.144571,-8,6,114,1,0,-2,70,72,10,0,88,152.48,0,-165.00,-123.00,-1097.00
2025-08-06T12:08:33.247634,-9,8,111,1,0,-4,70,72,10,0,88,152.44,0,-198.00,-173.00,-1146.00
2025-08-06T12:08:33.348601,-10,9,106,0,0,-5,70,72,10,0,88,152.13,0,-198.00,-161.00,-1063.00
2025-08-06T12:08:33.450644,-9,9,98,0,0,-5,70,72,10,0,88,152.33,0,-129.00,-164.00,-1009.00
2025-08-06T12:08:33.557258,-6,7,96,0,0,-6,70,72,33,10,88,152.54,0,-109.00,-206.00,-1022.00
2025-08-06T12:08:33.655057,-3,9,97,1,0,-6,70,72,39,10,88,152.29,0,-148.00,-209.00,-1057.00
2025-08-06T12:08:33.756574,-1,11,98,1,0,-7,71,72,46,20,88,152.79,0,-72.00,-188.00,-981.00
2025-08-06T12:08:33.858645,-1,10,98,0,0,-6,71,72,53,20,88,152.73,0,17.00,-247.00,-947.00
2025-08-06T12:08:33.961865,0,9,97,1,0,-6,71,72,59,30,88,152.88,0,83.00,-168.00,-962.00
2025-08-06T12:08:34.062593,3,6,97,1,0,-5,71,72,65,30,88,152.68,0,123.00,-184.00,-922.00
2025-08-06T12:08:34.113525,7,5,99,1,0,-4,71,72,69,40,88,152.70,0,139.00,-154.00,-892.00
2025-08-06T12:08:34.215607,9,4,101,2,0,-3,71,72,74,40,88,152.91,0,86.00,-67.00,-936.00
2025-08-06T12:08:34.317635,10,4,101,2,0,-3,71,72,77,50,88,152.90,0,189.00,-43.00,-966.00
2025-08-06T12:08:34.419640,12,4,98,2,0,-2,71,72,80,50,88,153.08,0,282.00,-65.00,-993.00
2025-08-06T12:08:34.521627,9,1,96,2,0,-1,71,72,81,50,88,152.57,0,203.00,3.00,-924.00
2025-08-06T12:08:34.624852,8,2,93,0,0,0,71,72,81,0,88,152.84,0,202.00,-77.00,-858.00
2025-08-06T12:08:34.725451,9,1,93,0,0,0,71,72,83,0,88,152.58,0,219.00,-51.00,-974.00
2025-08-06T12:08:34.827545,9,0,94,0,0,-1,71,72,85,0,88,152.87,0,251.00,1.00,-1094.00
2025-08-06T12:08:34.929625,10,0,93,0,0,-2,71,72,87,0,88,152.90,0,109.00,26.00,-1031.00
2025-08-06T12:08:35.031820,9,0,92,0,0,-3,71,72,91,0,88,152.97,0,124.00,-7.00,-992.00
2025-08-06T12:08:35.134813,9,-2,90,0,0,-2,71,72,94,0,88,152.83,0,74.00,35.00,-905.00
2025-08-06T12:08:35.235937,8,-3,89,0,0,0,71,72,95,0,88,152.89,0,121.00,6.00,-611.00
2025-08-06T12:08:35.337800,5,-4,87,0,0,3,71,72,91,0,88,153.01,0,119.00,27.00,-605.00
2025-08-06T12:08:35.439626,2,-1,87,0,0,6,71,72,86,0,88,153.07,0,66.00,69.00,-809.00
2025-08-06T12:08:35.541594,0,1,88,0,0,7,71,72,79,-10,88,152.79,0,-9.00,-24.00,-979.00
2025-08-06T12:08:35.643553,-3,3,90,0,1,7,71,72,70,-10,88,153.05,0,-50.00,-116.00,-966.00
2025-08-06T12:08:35.745413,-7,6,90,0,1,8,70,72,62,-20,88,152.59,0,17.00,-87.00,-914.00
2025-08-06T12:08:35.847650,-9,5,91,0,1,8,70,72,53,-30,88,152.37,0,-85.00,-114.00,-953.00
2025-08-06T12:08:35.949467,-8,7,90,1,1,7,70,72,46,-40,88,152.56,0,-166.00,-165.00,-971.00
2025-08-06T12:08:36.051830,-6,7,90,1,1,7,70,72,38,-40,88,152.36,0,-170.00,-206.00,-963.00
2025-08-06T12:08:36.153444,-3,6,92,1,0,6,70,72,31,-50,88,152.48,0,-153.00,-136.00,-979.00
2025-08-06T12:08:36.255638,-2,6,97,1,0,5,70,72,10,-60,88,152.17,0,-167.00,-155.00,-1015.00
2025-08-06T12:08:36.357527,0,5,102,1,0,4,70,72,10,-60,88,152.17,0,-105.00,-87.00,-1180.00
2025-08-06T12:08:36.459444,-1,6,104,2,0,3,70,72,10,-70,88,152.42,0,1.00,-136.00,-1023.00
2025-08-06T12:08:36.561942,-4,7,107,2,0,2,70,72,10,-70,88,152.16,0,-6.00,-153.00,-1080.00
2025-08-06T12:08:36.663485,-5,7,110,1,0,0,70,72,10,-70,88,152.06,0,-94.00,-85.00,-1133.00
2025-08-06T12:08:36.766506,-5,7,110,1,0,0,70,72,10,-70,88,152.36,0,-108.00,-102.00,-1097.00
2025-08-06T12:08:36.868645,-5,6,111,1,0,0,70,72,10,0,88,152.05,0,-87.00,-97.00,-1195.00
2025-08-06T12:08:36.971025,-6,6,108,0,0,-2,70,72,10,0,88,152.19,0,-167.00,-149.00,-1225.00
2025-08-06T12:08:37.073808,-8,6,101,1,0,-4,70,72,10,0,88,152.31,0,-223.00,-102.00,-1129.00
2025-08-06T12:08:37.175928,-9,8,95,0,0,-5,70,72,10,0,88,152.55,0,-201.00,-172.00,-1016.00
2025-08-06T12:08:37.278444,-9,10,92,0,0,-6,70,72,33,0,88,152.34,0,-240.00,-196.00,-1041.00
2025-08-06T12:08:37.327529,-12,12,90,0,0,-7,70,72,42,10,88,152.56,0,-301.00,-247.00,-931.00
2025-08-06T12:08:37.429302,-13,12,90,0,-1,-8,70,72,51,20,88,152.44,0,-187.00,-281.00,-909.00
2025-08-06T12:08:37.531447,-10,10,89,1,-1,-8,70,72,58,30,88,152.71,0,-136.00,-260.00,-936.00
2025-08-06T12:08:37.634338,-6,6,88,2,0,-8,70,72,65,40,88,152.60,0,-51.00,-137.00,-846.00
2025-08-06T12:08:37.735332,-1,5,87,2,0,-7,70,73,73,40,88,152.64,0,45.00,-94.00,-818.00
2025-08-06T12:08:37.837461,1,3,89,3,0,-5,70,73,79,50,88,152.70,0,62.00,-82.00,-871.00
2025-08-06T12:08:37.939559,4,2,92,3,0,-4,70,73,83,60,88,152.89,0,75.00,-90.00,-909.00
2025-08-06T12:08:38.042176,6,0,92,3,0,-2,70,73,85,60,88,153.01,0,90.00,32.00,-926.00
2025-08-06T12:08:38.143302,8,0,93,3,0,-2,70,73,88,60,88,153.05,0,143.00,66.00,-915.00
2025-08-06T12:08:38.246833,9,-1,94,3,0,-1,70,73,90,60,88,152.70,0,149.00,29.00,-937.00
2025-08-06T12:08:38.347467,9,-1,94,3,0,0,70,73,91,60,88,153.24,0,193.00,50.00,-928.00
2025-08-06T12:08:38.449451,10,-1,94,0,0,0,70,73,91,0,88,153.07,0,189.00,48.00,-837.00
2025-08-06T12:08:38.551942,9,0,94,0,0,1,70,73,90,0,88,153.09,0,146.00,37.00,-785.00
2025-08-06T12:08:38.654030,8,1,94,0,0,3,70,73,86,0,88,153.09,0,137.00,-29.00,-887.00
2025-08-06T12:08:38.755413,5,3,94,0,0,4,71,72,78,0,88,152.58,0,101.00,-72.00,-934.00
2025-08-06T12:08:38.857397,3,5,93,0,0,5,71,72,73,0,88,152.60,0,-10.00,-100.00,-982.00
2025-08-06T12:08:38.959274,0,6,92,0,0,5,71,72,68,0,88,152.34,0,-27.00,-158.00,-980.00
2025-08-06T12:08:39.061332,-2,6,91,0,0,5,71,72,61,-10,88,152.67,0,-74.00,-188.00,-966.00
2025-08-06T12:08:39.163305,-5,6,90,0,0,5,71,72,56,-10,88,152.58,0,-108.00,-75.00,-1058.00
2025-08-06T12:08:39.265375,-3,6,89,0,1,5,71,72,50,-20,88,152.65,0,-90.00,-130.00,-996.00
2025-08-06T12:08:39.370164,-2,5,90,0,0,4,71,72,45,-20,88,152.36,0,-137.00,-76.00,-1099.00
2025-08-06T12:08:39.469461,-4,6,89,0,0,4,71,72,42,-30,88,152.82,0,-115.00,-103.00,-1059.00
2025-08-06T12:08:39.572164,-4,7,89,0,0,3,71,72,38,-30,88,152.30,0,-58.00,-105.00,-985.00
2025-08-06T12:08:39.673527,-3,8,90,0,0,3,71,72,35,-30,88,152.32,0,-48.00,-155.00,-978.00
2025-08-06T12:08:39.776279,-2,10,91,0,0,3,70,72,31,-40,88,152.22,0,17.00,-214.00,-956.00
2025-08-06T12:08:39.878178,-4,9,93,0,0,3,70,72,10,0,88,152.37,0,-70.00,-225.00,-982.00
2025-08-06T12:08:39.980395,-6,9,96,0,0,3,70,72,10,0,88,152.10,0,-122.00,-163.00,-986.00
2025-08-06T12:08:40.082271,-7,8,99,0,0,3,70,72,10,0,88,152.10,0,-154.00,-179.00,-1036.00
2025-08-06T12:08:40.184344,-8,8,101,0,0,2,70,72,10,0,88,152.16,0,-154.00,-191.00,-1051.00
2025-08-06T12:08:40.286471,-8,9,103,1,0,2,70,72,10,0,88,152.10,0,-204.00,-209.00,-1027.00
2025-08-06T12:08:40.388201,-8,10,104,1,0,1,70,72,10,0,88,152.33,0,-130.00,-160.00,-990.00
2025-08-06T12:08:40.439198,-6,10,105,1,0,1,70,72,10,0,88,152.21,0,-97.00,-164.00,-1068.00
2025-08-06T12:08:40.541378,-4,10,105,1,0,0,70,72,10,0,88,152.10,0,-48.00,-239.00,-1090.00
2025-08-06T12:08:40.643496,-5,10,106,1,0,0,70,72,10,0,88,152.14,0,-51.00,-141.00,-1098.00
2025-08-06T12:08:40.745517,-6,8,104,1,0,-1,71,73,10,0,88,152.36,0,-97.00,-116.00,-1071.00
2025-08-06T12:08:40.847190,-6,6,101,0,0,-2,71,73,10,0,88,152.69,0,-114.00,-142.00,-1062.00
2025-08-06T12:08:40.949253,-4,7,99,1,0,-3,71,73,30,0,88,152.52,0,-113.00,-194.00,-1080.00
2025-08-06T12:08:41.051223,-2,8,96,1,0,-4,71,73,33,0,88,152.13,0,-79.00,-208.00,-1099.00
2025-08-06T12:08:41.153090,-3,11,94,1,0,-5,71,73,41,0,88,152.51,0,-92.00,-178.00,-1080.00
2025-08-06T12:08:41.255080,-6,12,91,1,0,-6,71,73,48,10,88,152.36,0,-129.00,-236.00,-1007.00
2025-08-06T12:08:41.357275,-6,11,88,1,0,-7,71,73,55,10,88,152.65,0,-133.00,-221.00,-1008.00
2025-08-06T12:08:41.459243,-5,8,87,1,0,-8,71,73,63,20,88,152.88,0,-105.00,-121.00,-919.00
2025-08-06T12:08:41.561758,-3,5,86,2,0,-7,71,73,71,30,88,152.84,0,-18.00,-95.00,-1001.00
2025-08-06T12:08:41.664166,0,2,86,2,0,-7,71,73,79,40,88,152.84,0,-38.00,-35.00,-981.00
2025-08-06T12:08:41.766357,1,-1,87,2,0,-7,70,73,86,50,88,152.77,0,28.00,37.00,-927.00
2025-08-06T12:08:41.867552,5,-3,89,2,0,-6,70,73,93,50,88,152.99,0,76.00,72.00,-870.00
2025-08-06T12:08:41.971292,8,-5,90,0,-1,-5,70,73,99,60,88,153.09,0,191.00,113.00,-812.00
2025-08-06T12:08:42.071393,11,-8,92,0,-1,-3,70,73,104,60,88,153.07,0,244.00,107.00,-754.00
2025-08-06T12:08:42.173955,13,-9,94,0,-1,-1,70,73,105,70,88,153.12,0,279.00,136.00,-675.00
2025-08-06T12:08:42.275404,13,-9,94,0,0,0,70,73,103,70,88,153.23,0,274.00,112.00,-654.00
2025-08-06T12:08:42.377921,11,-7,94,0,0,3,70,73,97,70,88,153.10,0,252.00,125.00,-708.00
2025-08-06T12:08:42.479288,8,-4,94,0,1,6,70,73,87,60,88,152.84,0,102.00,63.00,-833.00
2025-08-06T12:08:42.581125,4,-1,94,-1,1,7,70,73,79,50,88,152.85,0,4.00,-55.00,-978.00
2025-08-06T12:08:42.683312,0,0,93,0,2,8,70,73,71,40,88,152.86,0,6.00,-53.00,-998.00
2025-08-06T12:08:42.785140,0,4,91,0,2,7,71,73,63,40,88,152.64,0,5.00,-87.00,-1089.00
2025-08-06T12:08:42.887004,0,2,91,0,2,6,71,73,56,30,88,152.73,0,-19.00,-123.00,-1134.00
2025-08-06T12:08:42.989777,-2,2,91,0,1,5,71,73,50,20,88,152.44,0,-99.00,-42.00,-1041.00
2025-08-06T12:08:43.091398,-5,3,93,0,1,4,71,73,45,20,88,152.32,0,-198.00,-25.00,-1057.00
2025-08-06T12:08:43.193000,-7,2,95,0,0,4,71,73,40,10,88,152.32,0,-149.00,-52.00,-1043.00
2025-08-06T12:08:43.295173,-9,2,99,0,0,4,71,73,37,10,88,152.17,0,-169.00,-84.00,-1006.00
2025-08-06T12:08:43.397265,-10,6,104,0,0,3,71,73,33,0,88,152.07,0,-181.00,-137.00,-973.00
2025-08-06T12:08:43.499105,-11,7,106,0,0,3,71,73,30,0,88,151.88,0,-214.00,-147.00,-967.00
2025-08-06T12:08:43.601580,-11,7,109,0,0,3,71,73,10,0,88,152.05,0,-246.00,-69.00,-994.00
2025-08-06T12:08:43.703507,-12,7,110,0,0,3,71,73,10,0,88,152.36,0,-240.00,-127.00,-1049.00
2025-08-06T12:08:43.804992,-13,5,113,0,0,2,71,73,10,0,88,152.14,0,-179.00,-85.00,-1044.00
2025-08-06T12:08:43.856376,-14,3,115,0,0,2,71,73,10,0,88,152.15,0,-199.00,-113.00,-1003.00
2025-08-06T12:08:43.958068,-12,4,117,0,0,2,71,73,10,0,88,151.89,0,-176.00,-94.00,-1000.00
2025-08-06T12:08:44.060055,-10,5,118,0,0,1,71,73,10,0,88,152.13,0,-233.00,-109.00,-1047.00
2025-08-06T12:08:44.162119,-8,5,118,0,0,1,71,73,10,0,88,152.42,0,-181.00,-129.00,-1088.00
2025-08-06T12:08:44.263945,-7,5,118,1,0,0,71,73,10,0,88,152.12,0,-109.00,-50.00,-1088.00
2025-08-06T12:08:44.366194,-7,5,116,0,0,0,71,73,10,0,88,152.26,0,-139.00,-1.00,-1093.00
2025-08-06T12:08:44.468041,-6,4,116,0,0,-1,71,73,10,0,88,152.35,0,-152.00,-158.00,-1109.00
2025-08-06T12:08:44.570696,-7,3,110,0,0,-2,71,73,10,0,88,152.11,0,-254.00,-66.00,-1128.00
2025-08-06T12:08:44.672658,-8,4,104,1,0,-4,71,73,10,0,88,152.26,0,-150.00,-74.00,-1084.00
2025-08-06T12:08:44.775351,-9,8,97,0,0,-5,71,73,32,0,88,152.26,0,-169.00,-147.00,-1039.00
2025-08-06T12:08:44.875971,-8,12,95,0,0,-5,71,73,40,0,88,152.55,0,-168.00,-242.00,-960.00
2025-08-06T12:08:44.978074,-9,13,93,0,0,-5,71,73,47,10,88,152.50,0,-118.00,-247.00,-973.00
2025-08-06T12:08:45.079946,-9,11,91,0,0,-6,71,73,53,20,88,152.68,0,-125.00,-283.00,-937.00
2025-08-06T12:08:45.182166,-7,9,90,0,0,-6,71,73,60,20,88,152.85,0,-135.00,-253.00,-1007.00
2025-08-06T12:08:45.283967,-5,6,90,1,0,-6,71,73,67,30,88,152.73,0,-120.00,-182.00,-1039.00
2025-08-06T12:08:45.386105,-4,4,91,2,0,-7,71,73,74,40,88,152.84,0,-93.00,-45.00,-826.00
2025-08-06T12:08:45.488174,0,3,91,2,0,-6,71,73,80,40,88,152.87,0,96.00,-2.00,-786.00
2025-08-06T12:08:45.589912,3,0,92,1,0,-4,71,73,83,50,88,152.98,0,134.00,-21.00,-631.00
2025-08-06T12:08:45.692842,6,1,94,1,0,-1,71,73,83,50,88,152.84,0,49.00,55.00,-727.00
2025-08-06T12:08:45.794916,5,1,94,0,0,1,70,73,81,50,88,152.83,0,72.00,40.00,-973.00
2025-08-06T12:08:45.896944,4,1,95,0,0,2,70,73,79,50,88,152.54,0,132.00,-91.00,-817.00
2025-08-06T12:08:45.998973,2,2,96,-1,0,3,70,73,74,50,88,152.62,0,100.00,-100.00,-801.00
2025-08-06T12:08:46.100914,0,5,96,0,0,5,70,73,69,0,88,152.60,0,-25.00,-125.00,-928.00
2025-08-06T12:08:46.203166,-1,4,95,0,0,6,70,73,62,0,88,152.55,0,14.00,-208.00,-1043.00
2025-08-06T12:08:46.304900,-4,6,94,0,1,5,70,73,56,-10,88,152.57,0,-81.00,-75.00,-1007.00
2025-08-06T12:08:46.406962,-5,7,94,0,1,5,70,73,50,-10,88,152.64,0,-183.00,-96.00,-1149.00
2025-08-06T12:08:46.508890,-5,7,92,0,1,4,70,73,46,-20,88,152.47,0,-195.00,-224.00,-1383.00
2025-08-06T12:08:46.611047,-8,6,90,0,1,1,70,73,47,-20,88,152.75,0,-204.00,-191.00,-1601.00
2025-08-06T12:08:46.662261,-7,7,86,0,1,-4,70,73,52,-20,88,152.26,0,-87.00,11.00,-1330.00
2025-08-06T12:08:46.814874,0,9,90,-3,2,-3,72,73,59,-10,88,152.61,0,-181.00,-232.00,-1477.00
2025-08-06T12:08:46.916961,1,6,96,-4,2,1,72,73,60,-10,88,152.69,0,-15.00,234.00,-845.00
2025-08-06T12:08:47.018801,4,4,100,-3,1,3,72,73,57,-10,88,152.57,0,58.00,-426.00,-1214.00
2025-08-06T12:08:47.120712,4,6,106,-1,1,1,72,73,10,-10,88,152.59,0,-13.00,0.00,-1083.00
2025-08-06T12:08:47.222846,3,4,111,-2,0,0,72,73,10,-10,88,152.49,0,1.00,9.00,-1004.00
2025-08-06T12:08:47.324762,2,1,114,-3,-1,1,72,73,10,0,88,152.51,0,-304.00,47.00,-855.00
2025-08-06T12:08:47.375918,2,1,118,-1,-3,2,72,73,10,0,88,152.46,0,-266.00,-220.00,-1009.00
2025-08-06T12:08:47.477837,2,2,119,1,-1,2,72,73,10,0,88,152.45,0,804.00,55.00,-2574.00
2025-08-06T12:08:47.579805,2,2,119,1,0,0,72,73,10,0,88,152.39,0,67.00,-77.00,-1006.00
2025-08-06T12:08:47.682732,2,2,119,1,1,0,72,73,10,0,88,152.56,0,90.00,-52.00,-1069.00
2025-08-06T12:08:47.785065,2,2,119,1,1,0,72,73,10,0,88,152.58,0,89.00,-57.00,-1032.00
2025-08-06T12:08:47.885764,2,2,119,1,1,0,72,73,10,0,88,152.51,0,65.00,-54.00,-1016.00
2025-08-06T12:08:47.997264,2,2,119,1,1,0,72,73,10,0,88,152.28,0,37.00,-37.00,-1003.00
2025-08-06T12:08:48.090433,2,2,119,1,1,0,72,73,10,0,88,152.34,0,38.00,-42.00,-974.00
2025-08-06T12:08:48.191862,2,2,119,1,1,0,72,73,10,0,88,152.65,0,67.00,-59.00,-973.00
2025-08-06T12:08:48.295275,2,2,119,0,0,0,72,73,10,0,88,152.21,0,84.00,-41.00,-987.00
2025-08-06T12:08:48.396792,2,2,119,0,0,0,72,73,10,0,88,152.59,0,37.00,-36.00,-991.00
2025-08-06T12:08:48.498560,2,2,119,0,0,0,72,73,10,0,88,152.60,0,63.00,-37.00,-991.00
2025-08-06T12:08:48.599810,2,2,119,0,0,0,72,73,10,0,88,152.34,0,75.00,-70.00,-999.00
2025-08-06T12:08:48.702056,2,2,119,0,0,0,72,73,10,0,88,152.57,0,84.00,-46.00,-1007.00
2025-08-06T12:08:48.803651,2,2,119,0,0,0,72,74,10,0,88,152.56,0,26.00,-48.00,-1006.00
2025-08-06T12:08:48.905830,2,2,119,0,0,0,72,74,10,0,88,152.39,0,67.00,-38.00,-1000.00
2025-08-06T12:08:49.007661,2,2,119,0,0,0,72,74,10,0,88,152.48,0,71.00,-70.00,-1000.00
2025-08-06T12:08:49.110215,2,2,119,0,0,0,72,74,10,0,88,152.69,0,80.00,-43.00,-995.00
2025-08-06T12:08:49.211601,2,2,119,0,0,0,72,74,10,0,88,152.17,0,27.00,-43.00,-994.00
2025-08-06T12:08:49.313624,2,2,119,0,0,0,72,74,10,0,88,152.44,0,69.00,-35.00,-992.00
2025-08-06T12:08:49.415698,3,2,119,0,0,0,72,74,10,0,88,152.53,0,70.00,-65.00,-997.00
2025-08-06T12:08:49.517794,3,2,119,0,0,0,72,74,10,0,88,152.44,0,75.00,-44.00,-992.00
2025-08-06T12:08:49.619640,3,2,119,0,0,0,72,74,10,0,88,152.65,0,35.00,-45.00,-996.00
2025-08-06T12:08:49.721591,3,2,119,0,0,0,72,74,10,0,88,152.49,0,67.00,-40.00,-1001.00
2025-08-06T12:08:49.823664,3,2,119,0,0,0,72,73,10,0,88,152.81,0,71.00,-60.00,-1000.00
2025-08-06T12:08:49.925871,3,2,119,0,0,0,72,73,10,0,88,152.16,0,70.00,-48.00,-994.00
2025-08-06T12:08:50.027769,3,2,119,0,0,0,72,73,10,0,88,152.41,0,46.00,-44.00,-999.00
2025-08-06T12:08:50.129616,3,2,119,0,0,0,72,73,10,0,88,152.50,0,62.00,-43.00,-1002.00
2025-08-06T12:08:50.231662,3,2,119,0,0,0,72,73,10,0,88,152.31,0,67.00,-54.00,-997.00
