TS,pitch,roll,yaw,vgx,vgy,vgz,templ,temph,tof,h,bat,baro,time,agx,agy,agz
2025-08-06T12:16:04.250658,1,0,170,0,0,0,90,92,10,0,81,152.36,0,23.00,0.00,-997.00
2025-08-06T12:16:04.350060,1,0,170,0,0,0,90,92,10,0,81,152.67,0,23.00,3.00,-993.00
2025-08-06T12:16:04.452581,1,0,170,0,0,0,90,92,10,0,81,152.38,0,23.00,4.00,-993.00
2025-08-06T12:16:04.555379,1,0,170,0,0,0,90,92,10,0,81,152.45,0,25.00,2.00,-998.00
2025-08-06T12:16:04.656105,1,0,170,0,0,0,90,92,10,0,81,152.43,0,22.00,0.00,-999.00
2025-08-06T12:16:04.757916,1,0,170,0,0,0,90,92,10,0,81,152.40,0,24.00,3.00,-996.00
2025-08-06T12:16:04.859915,1,0,170,0,0,0,90,92,10,0,81,152.68,0,22.00,1.00,-1002.00
2025-08-06T12:16:04.962194,1,0,170,0,0,0,90,92,10,0,81,152.44,0,22.00,1.00,-998.00
2025-08-06T12:16:05.064693,1,0,170,0,0,0,90,92,10,0,81,152.61,0,22.00,2.00,-995.00
2025-08-06T12:16:05.167592,1,0,170,0,0,0,90,92,10,0,81,152.38,0,22.00,3.00,-997.00
2025-08-06T12:16:05.269099,1,0,170,0,0,0,90,92,10,0,81,152.53,0,22.00,3.00,-1001.00
2025-08-06T12:16:05.373086,1,0,170,0,0,0,90,92,10,0,81,152.24,0,24.00,2.00,-999.00
2025-08-06T12:16:05.473154,1,0,170,0,0,0,90,92,10,0,81,152.25,0,23.00,1.00,-998.00
2025-08-06T12:16:05.575077,1,0,170,0,0,0,90,92,10,0,81,152.37,0,24.00,0.00,-998.00
2025-08-06T12:16:05.677229,1,0,170,0,0,0,90,92,10,0,81,152.44,0,22.00,1.00,-996.00
2025-08-06T12:16:05.778790,1,0,170,0,0,0,90,92,10,0,81,152.39,0,24.00,1.00,-996.00
2025-08-06T12:16:05.880742,1,0,170,0,0,0,90,92,10,0,81,152.77,0,22.00,3.00,-1000.00
2025-08-06T12:16:05.982743,1,0,170,0,0,0,90,92,10,0,81,152.46,0,23.00,1.00,-1001.00
2025-08-06T12:16:06.084656,1,0,170,0,0,0,90,92,10,0,81,152.47,0,22.00,0.00,-1001.00
2025-08-06T12:16:06.186579,1,0,170,0,0,0,90,92,10,0,81,152.38,0,24.00,3.00,-1001.00
2025-08-06T12:16:06.288579,1,0,170,0,0,0,90,92,10,0,81,152.58,0,23.00,1.00,-997.00
2025-08-06T12:16:06.390965,1,0,170,0,0,0,90,92,10,0,81,152.60,0,22.00,2.00,-1001.00
2025-08-06T12:16:06.492777,1,0,170,0,0,0,90,92,10,0,81,152.44,0,22.00,1.00,-1005.00
2025-08-06T12:16:06.594691,1,0,170,0,0,0,90,92,10,0,81,152.46,0,21.00,0.00,-990.00
2025-08-06T12:16:06.696558,1,0,170,0,0,0,90,92,10,0,81,152.63,0,23.00,1.00,-997.00
2025-08-06T12:16:06.798934,1,0,170,0,0,0,90,92,10,0,81,152.37,0,23.00,0.00,-1001.00
2025-08-06T12:16:06.901065,1,0,170,0,0,0,90,92,10,0,81,152.53,0,21.00,2.00,-1000.00
2025-08-06T12:16:07.003445,1,0,170,0,0,0,90,92,10,0,81,152.42,0,23.00,2.00,-1001.00
2025-08-06T12:16:07.104687,1,0,170,0,0,0,90,92,10,0,81,152.46,0,17.00,-5.00,-1000.00
2025-08-06T12:16:07.207007,0,2,172,0,0,0,90,92,10,0,81,152.59,0,25.00,56.00,-1305.00
2025-08-06T12:16:07.308768,-3,0,168,0,0,-3,90,92,10,0,81,152.66,0,-2.00,179.00,-1032.00
2025-08-06T12:16:07.410594,1,-4,175,0,-3,-4,90,92,10,0,81,152.41,0,-158.00,25.00,-1011.00
2025-08-06T12:16:07.464017,0,-3,-176,2,-3,-3,90,92,10,0,81,152.19,0,-12.00,34.00,-869.00
2025-08-06T12:16:07.563452,-7,-3,-169,1,-3,-2,90,92,10,0,81,152.39,0,-48.00,30.00,-812.00
2025-08-06T12:16:07.665375,-3,-5,-174,0,-3,-1,90,92,10,0,81,152.53,0,-97.00,-8.00,-925.00
2025-08-06T12:16:07.767391,-3,-4,-172,1,-3,0,90,92,10,0,81,152.93,0,-51.00,50.00,-901.00
2025-08-06T12:16:07.869502,-5,-4,-169,0,-4,0,90,92,10,0,81,152.53,0,-109.00,-2.00,-1008.00
2025-08-06T12:16:07.971896,-5,-4,-165,1,-3,0,90,92,10,0,81,152.81,0,-216.00,76.00,-949.00
2025-08-06T12:16:08.073304,-8,-3,-169,2,-2,0,90,92,10,0,81,152.68,0,-177.00,-71.00,-912.00
2025-08-06T12:16:08.175314,-5,-2,-178,2,-2,1,90,92,10,0,81,152.60,0,-93.00,81.00,-917.00
2025-08-06T12:16:08.277926,-2,-3,172,2,-1,2,90,92,30,0,81,152.34,0,-113.00,-45.00,-854.00
2025-08-06T12:16:08.379607,1,-2,164,3,-2,3,90,92,10,0,81,152.73,0,152.00,-18.00,-958.00
2025-08-06T12:16:08.481412,6,-4,155,2,-2,4,90,92,10,0,81,152.72,0,163.00,58.00,-968.00
2025-08-06T12:16:08.583507,9,-8,147,2,-1,4,90,92,32,0,81,152.37,0,307.00,217.00,-1076.00
2025-08-06T12:16:08.686206,8,-8,152,0,-1,3,90,92,10,0,81,152.68,0,302.00,102.00,-1098.00
2025-08-06T12:16:08.787265,11,-11,149,0,1,2,90,92,10,0,81,152.49,0,259.00,96.00,-1163.00
2025-08-06T12:16:08.889330,8,-9,150,0,1,0,90,92,10,0,81,152.29,0,286.00,90.00,-1218.00
2025-08-06T12:16:08.991612,5,-8,149,0,2,-1,90,92,10,0,81,152.24,0,185.00,98.00,-965.00
2025-08-06T12:16:09.093143,4,-4,151,-1,3,-1,90,92,32,0,81,152.52,0,207.00,93.00,-942.00
2025-08-06T12:16:09.195468,4,-2,154,-1,1,0,90,92,10,0,81,152.24,0,89.00,40.00,-976.00
2025-08-06T12:16:09.297518,3,0,158,-1,1,0,90,92,10,0,81,152.38,0,0.00,-29.00,-977.00
2025-08-06T12:16:09.399749,-1,4,165,-1,0,0,90,92,10,0,81,152.39,0,18.00,7.00,-909.00
2025-08-06T12:16:09.501573,0,4,167,-1,0,0,90,92,10,0,81,152.46,0,-18.00,-39.00,-1053.00
2025-08-06T12:16:09.603550,2,5,169,-2,0,0,90,92,10,0,81,152.56,0,-50.00,-138.00,-1064.00
2025-08-06T12:16:09.705295,1,8,169,-1,0,0,90,92,10,0,81,152.66,0,31.00,-188.00,-1080.00
2025-08-06T12:16:09.807395,0,11,171,0,0,0,90,92,10,0,81,152.54,0,9.00,-156.00,-979.00
2025-08-06T12:16:09.909303,-1,10,174,0,0,0,90,92,10,0,81,152.51,0,15.00,-179.00,-996.00
2025-08-06T12:16:10.011226,-1,10,177,-1,0,0,90,92,10,0,81,152.69,0,17.00,-187.00,-996.00
2025-08-06T12:16:10.113149,0,9,178,-1,0,0,90,92,10,0,81,152.18,0,-19.00,-232.00,-1013.00
2025-08-06T12:16:10.215385,-2,10,-179,-1,0,0,90,92,10,0,81,152.46,0,-22.00,-147.00,-966.00
2025-08-06T12:16:10.317476,-5,11,-176,-1,0,0,90,92,10,0,81,152.39,0,-109.00,-220.00,-974.00
2025-08-06T12:16:10.419223,-6,11,-173,-1,0,0,90,92,10,0,81,152.04,0,-18.00,-160.00,-910.00
2025-08-06T12:16:10.521313,-4,10,-169,0,0,0,90,92,10,0,81,152.46,0,-46.00,-201.00,-1104.00
2025-08-06T12:16:10.623106,-7,10,-164,0,0,0,90,92,10,0,81,152.40,0,-109.00,-40.00,-860.00
2025-08-06T12:16:10.725333,-7,10,-163,0,0,0,90,92,10,0,81,152.47,0,-35.00,-168.00,-1002.00
2025-08-06T12:16:10.827145,-1,10,-161,0,0,0,90,92,10,0,81,152.27,0,-88.00,-223.00,-990.00
2025-08-06T12:16:10.929299,-1,10,-155,0,0,0,90,92,10,0,81,152.61,0,-86.00,-227.00,-1021.00
2025-08-06T12:16:11.031096,0,11,-153,0,0,0,90,92,10,0,81,152.48,0,-14.00,-150.00,-990.00
2025-08-06T12:16:11.133187,1,10,-151,0,0,0,90,92,10,0,81,152.47,0,-40.00,-178.00,-987.00
2025-08-06T12:16:11.185742,1,11,-150,0,0,0,90,92,10,0,81,152.53,0,-62.00,-174.00,-1052.00
2025-08-06T12:16:11.289826,-3,12,-150,0,0,0,90,92,10,0,81,152.54,0,-27.00,-223.00,-865.00
2025-08-06T12:16:11.388758,-1,13,-145,0,0,0,90,92,10,0,81,152.54,0,-68.00,-140.00,-964.00
2025-08-06T12:16:11.491537,0,10,-145,0,0,0,90,92,10,0,81,152.66,0,29.00,-261.00,-1005.00
2025-08-06T12:16:11.592166,0,11,-144,0,0,0,90,92,10,0,81,152.51,0,83.00,-204.00,-964.00
2025-08-06T12:16:11.694050,0,10,-143,0,0,0,90,92,10,0,80,152.43,0,188.00,-278.00,-1092.00
2025-08-06T12:16:11.796065,-1,7,-138,0,0,0,90,92,10,0,80,152.41,0,-63.00,-164.00,-949.00
2025-08-06T12:16:11.898178,0,7,-140,0,0,0,90,92,10,0,80,152.22,0,62.00,-155.00,-973.00
2025-08-06T12:16:12.000740,0,10,-139,0,0,0,90,92,10,0,80,152.49,0,88.00,-90.00,-856.00
2025-08-06T12:16:12.102437,-3,10,-138,0,0,0,90,92,10,0,80,152.76,0,1.00,-198.00,-1012.00
2025-08-06T12:16:12.204881,-4,12,-149,0,0,0,90,92,10,0,80,152.59,0,160.00,-247.00,-826.00
2025-08-06T12:16:12.305917,-6,14,-147,0,0,0,90,92,10,0,80,152.72,0,20.00,-207.00,-883.00
2025-08-06T12:16:12.408398,-6,16,-147,0,0,0,90,92,10,0,80,152.59,0,-206.00,-218.00,-1061.00
2025-08-06T12:16:12.509948,-11,19,-149,0,0,0,90,92,10,0,80,152.65,0,-232.00,-253.00,-929.00
2025-08-06T12:16:12.612211,-9,13,-141,0,0,0,90,92,10,0,80,152.30,0,-313.00,-146.00,-1186.00
2025-08-06T12:16:12.713906,-7,13,-146,0,0,0,90,92,10,0,80,152.92,0,-207.00,-264.00,-783.00
2025-08-06T12:16:12.816055,2,6,-157,0,0,-1,91,92,10,0,80,152.44,0,-127.00,-196.00,-1128.00
2025-08-06T12:16:12.918149,1,5,-170,0,0,-1,91,92,10,0,80,152.51,0,-11.00,-133.00,-1046.00
2025-08-06T12:16:13.019870,-4,2,-176,0,0,-1,91,92,10,0,80,152.65,0,-24.00,-138.00,-1031.00
2025-08-06T12:16:13.121827,1,0,176,0,0,-1,91,92,10,0,80,152.79,0,60.00,-9.00,-1026.00
2025-08-06T12:16:13.223989,5,0,176,0,0,0,91,92,10,0,80,152.60,0,24.00,-21.00,-917.00
2025-08-06T12:16:13.326223,8,2,-179,0,0,1,91,92,10,0,80,152.82,0,20.00,58.00,-933.00
2025-08-06T12:16:13.428618,-2,2,177,0,0,2,91,92,10,0,80,152.37,0,196.00,-27.00,-1004.00
2025-08-06T12:16:13.529954,-11,1,-177,0,0,2,91,92,10,0,80,152.51,0,-29.00,23.00,-968.00
2025-08-06T12:16:13.633184,-6,-1,-172,0,0,1,91,92,10,0,80,152.54,0,12.00,-8.00,-1017.00
2025-08-06T12:16:13.734299,0,-3,-165,0,0,1,91,92,10,0,80,152.73,0,126.00,16.00,-1031.00
2025-08-06T12:16:13.836762,5,-3,-152,0,0,1,90,92,10,0,80,152.65,0,91.00,93.00,-1072.00
2025-08-06T12:16:13.938031,4,-4,-145,0,0,0,90,92,10,0,80,152.19,0,195.00,24.00,-1019.00
2025-08-06T12:16:14.039804,4,-3,-146,0,0,0,90,92,10,0,80,152.28,0,111.00,65.00,-1000.00
2025-08-06T12:16:14.141881,8,-1,-154,0,0,0,90,92,10,0,80,152.71,0,51.00,110.00,-1029.00
2025-08-06T12:16:14.193097,15,-7,-157,0,0,0,90,92,10,0,80,152.35,0,-188.00,154.00,-1042.00
2025-08-06T12:16:14.295738,12,-9,-154,0,0,0,90,92,10,0,80,152.37,0,134.00,206.00,-1080.00
2025-08-06T12:16:14.398202,10,-7,-156,0,0,0,90,92,10,0,80,152.84,0,254.00,10.00,-993.00
2025-08-06T12:16:14.499052,11,2,-150,0,0,0,90,92,10,0,80,152.35,0,392.00,-32.00,-950.00
2025-08-06T12:16:14.601187,9,8,-143,0,0,0,90,92,10,0,80,152.27,0,157.00,-146.00,-955.00
2025-08-06T12:16:14.703425,6,11,-131,0,0,0,90,92,10,0,80,152.57,0,207.00,-286.00,-922.00
2025-08-06T12:16:14.804971,-5,1,-140,0,0,0,90,92,10,0,80,152.27,0,-49.00,-113.00,-1071.00
2025-08-06T12:16:14.907352,-4,4,-140,0,0,0,90,92,10,0,80,152.66,0,34.00,-20.00,-941.00
2025-08-06T12:16:15.009277,6,5,-152,0,0,0,90,92,10,0,80,152.38,0,107.00,-239.00,-1158.00
2025-08-06T12:16:15.110976,6,8,-153,0,0,0,90,92,10,0,80,152.42,0,115.00,-222.00,-1063.00
2025-08-06T12:16:15.212946,6,8,-148,0,0,0,90,92,10,0,80,152.48,0,-24.00,-119.00,-978.00
2025-08-06T12:16:15.314876,6,9,-147,0,0,0,90,92,10,0,80,152.51,0,58.00,-168.00,-853.00
2025-08-06T12:16:15.417130,2,4,-145,0,0,0,90,92,10,0,80,152.29,0,93.00,-17.00,-1016.00
2025-08-06T12:16:15.518937,3,1,-147,0,0,0,90,92,10,0,80,152.60,0,-1.00,7.00,-1038.00
2025-08-06T12:16:15.621010,4,0,-147,0,0,0,90,92,10,0,80,152.71,0,74.00,0.00,-1121.00
2025-08-06T12:16:15.722973,1,9,-152,0,0,0,90,92,10,0,80,152.41,0,50.00,-119.00,-1040.00
2025-08-06T12:16:15.824974,5,5,-155,0,0,-1,90,93,10,0,80,152.55,0,218.00,-29.00,-1036.00
2025-08-06T12:16:15.926839,5,5,-166,0,0,-1,90,93,10,0,80,152.79,0,218.00,-156.00,-920.00
2025-08-06T12:16:16.028806,6,2,-173,0,0,0,90,93,10,0,80,152.48,0,179.00,-90.00,-930.00
2025-08-06T12:16:16.130885,11,1,-173,0,0,0,90,93,10,0,80,152.65,0,317.00,-33.00,-952.00
2025-08-06T12:16:16.233730,11,0,-170,0,0,0,90,93,10,0,80,152.77,0,194.00,-115.00,-929.00
2025-08-06T12:16:16.335125,10,0,-163,0,0,0,90,93,10,0,80,152.49,0,63.00,22.00,-978.00
2025-08-06T12:16:16.438068,11,0,-160,0,0,0,90,93,10,0,80,152.81,0,219.00,38.00,-1054.00
2025-08-06T12:16:16.543392,7,7,-165,0,0,0,90,93,10,0,80,152.48,0,321.00,-128.00,-938.00
2025-08-06T12:16:16.640955,12,8,-165,0,0,0,90,93,10,0,80,152.46,0,243.00,-187.00,-869.00
2025-08-06T12:16:16.743167,10,10,-160,0,0,0,90,93,10,0,80,152.54,0,150.00,-109.00,-952.00
2025-08-06T12:16:16.845248,9,11,-152,0,0,0,90,92,10,0,80,152.53,0,59.00,-143.00,-1042.00
2025-08-06T12:16:16.947827,13,8,-149,0,0,1,90,92,10,0,80,152.66,0,97.00,-147.00,-954.00
2025-08-06T12:16:17.050078,12,7,-147,0,0,1,90,92,10,0,80,152.59,0,121.00,-100.00,-848.00
2025-08-06T12:16:17.152372,12,6,-147,0,0,2,90,92,10,0,80,152.79,0,289.00,-146.00,-1024.00
2025-08-06T12:16:17.255161,13,4,-146,0,0,1,90,92,10,0,80,152.38,0,300.00,-56.00,-1003.00
2025-08-06T12:16:17.357570,16,3,-145,0,0,0,90,92,10,0,80,152.31,0,327.00,-43.00,-1043.00
2025-08-06T12:16:17.456852,19,2,-149,0,0,0,90,92,10,0,80,152.33,0,299.00,-112.00,-1049.00
2025-08-06T12:16:17.507650,19,0,-157,0,0,0,90,92,10,0,80,152.16,0,402.00,-75.00,-895.00
2025-08-06T12:16:17.609690,18,0,-154,0,0,0,90,92,10,0,80,152.35,0,412.00,15.00,-955.00
2025-08-06T12:16:17.711723,18,0,-160,0,0,0,90,92,10,0,80,152.63,0,271.00,36.00,-998.00
2025-08-06T12:16:17.813813,16,0,-161,0,0,0,90,92,10,0,80,152.83,0,182.00,-82.00,-996.00
2025-08-06T12:16:17.915733,14,0,-160,0,0,0,90,92,10,0,80,152.49,0,209.00,39.00,-915.00
2025-08-06T12:16:18.018198,13,0,-164,0,0,0,90,92,10,0,80,152.57,0,206.00,24.00,-990.00
2025-08-06T12:16:18.119603,11,-1,-169,0,0,0,90,92,10,0,80,152.58,0,157.00,-30.00,-986.00
2025-08-06T12:16:18.221666,10,-2,-172,0,0,0,90,92,10,0,80,152.45,0,160.00,126.00,-1053.00
2025-08-06T12:16:18.323550,12,-3,-164,0,0,-1,90,92,10,0,80,152.46,0,245.00,12.00,-1014.00
2025-08-06T12:16:18.425649,10,-2,-171,0,0,-1,90,92,10,0,80,152.61,0,286.00,115.00,-888.00
2025-08-06T12:16:18.527545,11,-1,-176,0,0,-1,90,92,10,0,80,152.47,0,237.00,43.00,-931.00
2025-08-06T12:16:18.629748,11,0,-176,0,0,-1,90,92,10,0,80,152.32,0,370.00,-40.00,-1033.00
2025-08-06T12:16:18.731636,9,3,-179,0,0,-1,90,92,10,0,80,152.90,0,181.00,-113.00,-853.00
2025-08-06T12:16:18.833517,14,2,178,0,0,0,91,92,10,0,80,152.70,0,330.00,-62.00,-1000.00
2025-08-06T12:16:18.935768,15,2,178,0,0,0,91,92,10,0,80,152.71,0,317.00,-70.00,-971.00
2025-08-06T12:16:19.037703,16,0,179,0,0,0,91,92,10,0,80,152.49,0,263.00,40.00,-1011.00
2025-08-06T12:16:19.139878,15,0,-167,0,0,-1,91,92,10,0,80,152.63,0,177.00,-101.00,-1016.00
2025-08-06T12:16:19.241504,15,-2,-177,0,0,-1,91,92,10,0,80,152.76,0,272.00,-111.00,-1167.00
2025-08-06T12:16:19.343564,10,-2,178,0,0,-2,91,92,10,0,80,152.59,0,226.00,72.00,-1041.00
2025-08-06T12:16:19.445565,7,-1,179,0,0,-3,91,92,32,0,80,152.99,0,139.00,-26.00,-960.00
2025-08-06T12:16:19.547992,12,-5,172,0,0,-3,91,92,33,0,80,152.47,0,144.00,70.00,-952.00
2025-08-06T12:16:19.649506,8,3,168,0,2,-2,91,92,33,0,80,152.77,0,28.00,-191.00,-845.00
2025-08-06T12:16:19.751662,6,4,168,1,2,-1,91,92,35,0,80,153.07,0,-11.00,-123.00,-1133.00
2025-08-06T12:16:19.853539,4,5,160,2,2,-2,90,92,37,0,80,152.61,0,-49.00,-37.00,-1076.00
2025-08-06T12:16:19.955558,-2,5,157,3,1,-2,90,92,39,0,80,153.05,0,-205.00,129.00,-860.00
2025-08-06T12:16:20.058231,-9,3,153,4,0,-1,90,92,41,0,80,152.60,0,-189.00,53.00,-813.00
2025-08-06T12:16:20.159432,-10,4,144,3,0,0,90,92,36,0,80,153.07,0,-9.00,54.00,-819.00
2025-08-06T12:16:20.261432,-8,0,141,2,0,1,90,92,40,0,80,152.71,0,143.00,231.00,-1182.00
2025-08-06T12:16:20.363539,-8,-2,137,0,0,3,90,92,37,0,80,152.93,0,88.00,173.00,-910.00
2025-08-06T12:16:20.465768,-6,-3,130,-1,0,4,90,92,35,0,80,152.81,0,-25.00,103.00,-998.00
2025-08-06T12:16:20.568845,-7,-6,123,-1,0,4,90,92,10,0,80,152.62,0,-26.00,279.00,-1071.00
2025-08-06T12:16:20.669619,-12,-7,128,-3,0,3,90,92,10,0,80,152.89,0,-189.00,165.00,-1075.00
2025-08-06T12:16:20.771688,-10,-4,138,-4,0,2,90,92,10,0,80,152.61,0,-114.00,301.00,-978.00
2025-08-06T12:16:20.873590,-9,-2,149,0,0,3,90,92,10,0,80,152.64,0,-248.00,160.00,-1054.00
2025-08-06T12:16:20.976107,-10,-1,164,0,0,2,90,92,10,0,80,152.76,0,-405.00,101.00,-996.00
2025-08-06T12:16:21.077671,-11,-2,178,0,0,2,90,92,10,0,80,152.43,0,-574.00,-65.00,-1107.00
2025-08-06T12:16:21.128571,-8,-8,-177,0,0,1,90,92,37,0,80,152.92,0,-721.00,-87.00,-1085.00
2025-08-06T12:16:21.230474,-9,-12,173,0,0,0,90,92,38,0,80,152.67,0,-417.00,118.00,-887.00
2025-08-06T12:16:21.332417,-14,-13,151,0,0,0,90,92,30,0,80,152.63,0,-57.00,197.00,-629.00
2025-08-06T12:16:21.434632,-14,-8,133,0,0,2,90,92,77,0,80,152.58,0,167.00,255.00,-934.00
2025-08-06T12:16:21.537398,-8,-9,116,0,0,3,90,92,46,0,80,152.46,0,93.00,46.00,-1027.00
2025-08-06T12:16:21.638530,-3,-8,107,0,0,3,90,92,77,0,80,152.39,0,160.00,23.00,-1036.00
2025-08-06T12:16:21.740849,-4,-7,114,0,0,2,90,92,75,0,80,152.72,0,-24.00,199.00,-1027.00
2025-08-06T12:16:21.842508,-4,-5,122,0,0,2,90,92,72,0,80,152.39,0,-2.00,278.00,-948.00
2025-08-06T12:16:21.944595,-9,-3,135,0,0,2,90,92,68,0,80,152.16,0,-50.00,153.00,-952.00
2025-08-06T12:16:22.048057,-11,-2,143,0,0,2,90,92,65,0,80,152.17,0,-94.00,231.00,-859.00
2025-08-06T12:16:22.148452,-11,-5,145,0,0,3,90,92,63,0,80,152.45,0,-168.00,92.00,-1184.00
2025-08-06T12:16:22.250608,-16,-7,148,0,0,2,90,92,63,0,80,152.38,0,-325.00,256.00,-1373.00
2025-08-06T12:16:22.352663,-22,-9,149,0,0,-1,90,92,65,0,80,152.53,0,-369.00,160.00,-807.00
2025-08-06T12:16:22.454485,-16,-3,148,0,0,-1,90,92,65,0,80,152.50,0,-316.00,234.00,-1041.00
2025-08-06T12:16:22.556890,-18,-7,151,0,-1,-2,90,92,66,0,80,152.53,0,-430.00,52.00,-1310.00
2025-08-06T12:16:22.658517,-16,-3,146,0,0,-5,90,92,69,0,80,152.37,0,-448.00,-48.00,-996.00
2025-08-06T12:16:22.760720,-11,3,138,1,0,-6,90,92,47,0,80,152.79,0,-14.00,1.00,-962.00
2025-08-06T12:16:22.862446,-4,8,135,-3,1,-4,90,92,80,10,80,152.55,0,261.00,-36.00,-843.00
2025-08-06T12:16:22.964647,-3,7,144,-6,2,-2,90,92,86,20,80,152.62,0,369.00,-63.00,-786.00
2025-08-06T12:16:23.066619,-3,7,156,-8,3,-1,90,92,87,20,80,152.48,0,256.00,-144.00,-1015.00
2025-08-06T12:16:23.168572,0,6,170,-9,3,0,90,92,10,20,80,152.85,0,-85.00,40.00,-810.00
2025-08-06T12:16:23.270521,4,7,177,-7,1,0,90,92,10,20,80,152.43,0,-168.00,44.00,-1100.00
2025-08-06T12:16:23.372402,3,7,-179,0,0,0,90,92,10,0,80,152.70,0,-53.00,-134.00,-1141.00
2025-08-06T12:16:23.474474,5,6,-171,0,0,0,90,92,10,0,80,152.67,0,113.00,56.00,-941.00
2025-08-06T12:16:23.576648,-6,11,-168,0,0,0,90,92,10,0,80,152.54,0,306.00,169.00,-1210.00
2025-08-06T12:16:23.678518,-5,11,-161,0,0,0,90,92,10,0,80,152.56,0,-64.00,-237.00,-955.00
2025-08-06T12:16:23.781254,-14,10,-155,0,0,0,90,92,10,0,80,152.49,0,-138.00,-75.00,-1183.00
2025-08-06T12:16:23.882314,-20,10,-141,0,0,0,90,92,10,0,80,152.65,0,-152.00,-212.00,-967.00
2025-08-06T12:16:23.984838,-17,9,-131,0,0,0,90,92,38,0,80,152.39,0,534.00,-327.00,-770.00
2025-08-06T12:16:24.086373,-17,1,-116,0,0,3,90,92,87,0,80,152.68,0,-100.00,-475.00,-1049.00
2025-08-06T12:16:24.188524,-15,-5,-106,0,0,5,90,92,83,0,80,152.64,0,-221.00,59.00,-745.00
2025-08-06T12:16:24.290419,-10,-10,-104,0,0,6,90,92,76,0,80,152.52,0,-508.00,188.00,-684.00
2025-08-06T12:16:24.392418,-4,-5,-100,0,0,7,90,92,65,-10,80,152.32,0,-336.00,416.00,-753.00
2025-08-06T12:16:24.494275,0,-6,-97,0,0,7,90,92,56,-20,80,152.33,0,-18.00,-248.00,-986.00
2025-08-06T12:16:24.545133,6,-5,-100,0,0,6,90,92,49,-30,80,151.96,0,-124.00,199.00,-899.00
2025-08-06T12:16:24.647182,10,-8,-101,0,0,5,90,92,43,-30,80,152.19,0,2.00,169.00,-1029.00
2025-08-06T12:16:24.749245,14,-10,-99,0,0,3,90,92,38,-40,80,152.28,0,242.00,171.00,-1094.00
2025-08-06T12:16:24.851253,17,-11,-97,0,0,1,90,92,36,-40,80,151.89,0,136.00,289.00,-1102.00
2025-08-06T12:16:24.961765,16,-12,-95,0,0,0,90,92,35,-40,80,151.71,0,302.00,145.00,-1012.00
2025-08-06T12:16:25.055382,17,-13,-95,0,0,0,90,92,34,-40,80,151.90,0,230.00,184.00,-985.00
2025-08-06T12:16:25.157179,16,-14,-94,0,0,0,90,92,34,0,80,152.06,0,314.00,200.00,-959.00
2025-08-06T12:16:25.259078,16,-13,-94,0,0,0,90,92,34,0,80,152.28,0,288.00,222.00,-1009.00
2025-08-06T12:16:25.361119,17,-14,-97,0,1,0,90,92,35,0,80,152.16,0,277.00,284.00,-993.00
2025-08-06T12:16:25.463067,15,-13,-97,0,1,0,90,92,36,0,80,152.05,0,76.00,147.00,-827.00
2025-08-06T12:16:25.565671,11,-11,-99,0,1,0,90,92,35,0,80,151.97,0,518.00,260.00,-999.00
2025-08-06T12:16:25.667290,17,-14,-106,0,0,-2,90,92,35,0,80,151.94,0,-54.00,191.00,-1438.00
2025-08-06T12:16:25.769139,19,-14,-106,-1,1,-5,90,92,40,0,80,152.25,0,364.00,296.00,-1110.00
2025-08-06T12:16:25.871322,18,-14,-101,-1,1,-6,90,92,47,0,80,152.27,0,249.00,303.00,-909.00
2025-08-06T12:16:25.973132,13,-16,-98,0,0,-6,90,92,54,10,80,152.26,0,184.00,346.00,-782.00
2025-08-06T12:16:26.075098,9,-18,-95,0,0,-5,90,92,60,10,80,152.35,0,106.00,303.00,-923.00
2025-08-06T12:16:26.177256,6,-17,-96,0,0,-4,90,92,63,20,80,152.23,0,94.00,321.00,-931.00
2025-08-06T12:16:26.279268,3,-16,-99,0,0,-4,90,92,68,30,80,152.48,0,18.00,292.00,-866.00
2025-08-06T12:16:26.381106,1,-16,-100,0,0,-3,90,92,71,30,80,152.22,0,3.00,236.00,-786.00
2025-08-06T12:16:26.485124,0,-15,-103,0,0,-2,90,92,74,30,80,152.30,0,-17.00,279.00,-928.00
2025-08-06T12:16:26.585173,-1,-13,-107,1,1,-2,90,92,76,30,80,152.23,0,16.00,200.00,-954.00
2025-08-06T12:16:26.687088,-4,-13,-107,1,0,-1,90,92,75,0,80,152.19,0,-29.00,129.00,-849.00
2025-08-06T12:16:26.789371,-6,-14,-105,1,0,0,90,92,70,0,80,152.61,0,-74.00,159.00,-822.00
2025-08-06T12:16:26.891347,-5,-15,-106,0,0,1,90,92,54,0,80,152.46,0,-115.00,181.00,-956.00
2025-08-06T12:16:26.993069,-4,-16,-105,0,0,1,90,92,53,0,80,152.61,0,-158.00,271.00,-977.00
2025-08-06T12:16:27.095070,-3,-16,-105,0,0,1,90,92,55,0,80,152.11,0,-85.00,257.00,-993.00
2025-08-06T12:16:27.197125,-1,-16,-104,0,0,1,90,92,60,0,80,152.45,0,-107.00,241.00,-960.00
2025-08-06T12:16:27.299026,0,-15,-104,0,1,0,90,92,67,0,80,152.26,0,-24.00,293.00,-989.00
2025-08-06T12:16:27.401007,0,-14,-104,0,0,0,90,92,71,0,80,152.47,0,-15.00,324.00,-934.00
2025-08-06T12:16:27.503122,0,-15,-104,0,0,0,90,92,68,0,80,152.37,0,3.00,257.00,-986.00
2025-08-06T12:16:27.605049,0,-16,-104,0,0,0,90,92,66,0,80,152.36,0,1.00,231.00,-982.00
2025-08-06T12:16:27.707104,0,-16,-104,0,0,0,90,92,67,0,80,152.38,0,-18.00,253.00,-949.00
2025-08-06T12:16:27.809049,0,-16,-104,0,0,0,90,92,66,0,80,152.31,0,-56.00,283.00,-936.00
2025-08-06T12:16:27.911062,0,-17,-104,0,0,0,90,92,63,0,80,152.64,0,-45.00,315.00,-913.00
2025-08-06T12:16:27.962128,0,-19,-104,0,0,1,90,92,58,0,80,152.25,0,12.00,313.00,-933.00
2025-08-06T12:16:28.064883,0,-20,-105,0,0,1,90,92,54,0,80,152.48,0,13.00,325.00,-991.00
2025-08-06T12:16:28.166157,0,-21,-105,0,0,0,90,92,54,0,80,152.64,0,4.00,354.00,-1000.00
2025-08-06T12:16:28.268158,0,-20,-104,0,0,0,90,92,57,0,80,152.28,0,-8.00,382.00,-923.00
2025-08-06T12:16:28.370218,-1,-20,-105,0,0,0,90,92,57,0,80,152.42,0,-17.00,352.00,-912.00
2025-08-06T12:16:28.472202,-1,-20,-105,0,0,0,90,92,58,0,80,152.23,0,-115.00,317.00,-814.00
2025-08-06T12:16:28.574256,0,-18,-108,0,0,3,90,92,63,0,80,152.44,0,-77.00,223.00,-425.00
2025-08-06T12:16:28.676387,2,-15,-115,0,0,6,90,92,62,0,80,152.26,0,50.00,132.00,-926.00
2025-08-06T12:16:28.778285,6,-10,-126,-1,0,5,90,92,56,0,80,152.50,0,17.00,257.00,-1140.00
2025-08-06T12:16:28.880203,5,-9,-126,0,1,3,90,92,51,-10,80,152.23,0,206.00,303.00,-1188.00
2025-08-06T12:16:28.982199,4,-9,-127,0,0,0,90,92,50,-10,80,152.29,0,7.00,337.00,-1393.00
2025-08-06T12:16:29.084306,0,-12,-125,0,0,-3,90,92,54,-10,80,152.55,0,134.00,175.00,-1252.00
2025-08-06T12:16:29.186190,-2,-12,-125,0,0,-5,90,92,58,0,80,152.08,0,28.00,187.00,-1071.00
2025-08-06T12:16:29.288072,-3,-12,-125,0,0,-5,90,92,63,0,80,152.33,0,-63.00,242.00,-1043.00
2025-08-06T12:16:29.390032,-2,-12,-124,0,0,-6,90,92,70,0,80,152.58,0,-173.00,142.00,-1013.00
2025-08-06T12:16:29.492275,-4,-11,-126,0,1,-6,90,92,75,10,80,152.37,0,-63.00,8.00,-859.00
2025-08-06T12:16:29.594160,-5,-8,-127,-1,2,-4,90,92,82,10,80,152.56,0,-67.00,-81.00,-799.00
2025-08-06T12:16:29.696177,-5,-4,-123,-2,3,-2,90,92,85,20,80,152.50,0,-41.00,20.00,-830.00
2025-08-06T12:16:29.798688,-4,-2,-119,-3,2,0,90,92,85,20,80,152.66,0,150.00,-24.00,-822.00
2025-08-06T12:16:29.900157,-1,-1,-114,-4,0,0,90,92,84,20,80,152.78,0,147.00,123.00,-886.00
2025-08-06T12:16:30.001993,0,-2,-109,-4,0,1,90,92,82,20,80,152.59,0,73.00,3.00,-945.00
2025-08-06T12:16:30.103966,0,-3,-102,-4,-1,2,90,92,62,0,80,152.45,0,28.00,52.00,-909.00
2025-08-06T12:16:30.206967,0,-5,-94,-4,-1,2,90,92,31,0,80,152.15,0,34.00,100.00,-1050.00
2025-08-06T12:16:30.308343,0,-6,-87,-4,-1,2,90,92,33,0,80,152.60,0,-57.00,209.00,-930.00
2025-08-06T12:16:30.410106,2,-6,-87,-3,0,3,90,92,10,0,80,152.64,0,-11.00,229.00,-878.00
2025-08-06T12:16:30.512301,0,-8,-85,-2,0,4,90,92,10,0,80,152.30,0,25.00,229.00,-851.00
2025-08-06T12:16:30.613939,-2,-9,-84,-1,0,5,90,92,10,0,80,152.37,0,-12.00,249.00,-1037.00
2025-08-06T12:16:30.716131,0,-9,-81,0,0,3,90,92,10,0,80,152.15,0,-133.00,209.00,-1220.00
2025-08-06T12:16:30.817905,2,-7,-81,-1,0,2,90,92,10,-10,80,152.39,0,-49.00,220.00,-968.00
2025-08-06T12:16:30.920057,6,-4,-89,0,1,2,90,92,10,-10,80,152.17,0,99.00,497.00,-1035.00
2025-08-06T12:16:31.021961,2,-15,-85,0,2,0,90,92,10,-10,80,152.23,0,511.00,-15.00,-1071.00
2025-08-06T12:16:31.123856,-3,-12,-83,0,1,0,90,92,10,-10,80,152.15,0,-100.00,192.00,-1161.00
2025-08-06T12:16:31.226162,-3,-4,-84,-1,1,-2,90,92,10,0,80,152.09,0,18.00,227.00,376.00
2025-08-06T12:16:31.328417,-2,-1,-84,0,1,0,90,92,10,0,80,151.99,0,-203.00,73.00,-1166.00
2025-08-06T12:16:31.378709,-3,-1,-84,0,1,0,90,92,10,0,80,152.17,0,-97.00,-24.00,-922.00
2025-08-06T12:16:31.480722,-3,-1,-84,0,1,0,90,92,10,0,80,152.13,0,-76.00,42.00,-945.00
2025-08-06T12:16:31.591943,-3,-1,-84,0,2,0,90,92,10,0,80,152.40,0,-78.00,12.00,-1005.00
2025-08-06T12:16:31.684789,-3,-1,-84,0,2,0,90,92,10,0,80,152.05,0,-24.00,17.00,-971.00
2025-08-06T12:16:31.789811,-3,-1,-84,0,2,0,90,92,10,0,80,152.10,0,-20.00,0.00,-958.00
2025-08-06T12:16:31.889207,-3,-1,-84,0,2,0,90,91,10,0,80,152.43,0,-55.00,19.00,-980.00
2025-08-06T12:16:31.990884,-3,-1,-84,0,2,0,90,91,10,0,80,152.09,0,-79.00,25.00,-993.00
2025-08-06T12:16:32.092686,-3,-1,-84,0,2,0,90,91,10,0,80,151.81,0,-58.00,11.00,-997.00
2025-08-06T12:16:32.195184,-3,-1,-84,0,2,0,90,91,10,0,80,152.23,0,-41.00,28.00,-1007.00
2025-08-06T12:16:32.296690,-3,-1,-84,0,2,0,90,91,10,0,80,152.31,0,-82.00,18.00,-1008.00
2025-08-06T12:16:32.398795,-3,-1,-84,0,3,0,90,91,10,0,80,152.02,0,-81.00,40.00,-1007.00
2025-08-06T12:16:32.500767,-3,-1,-84,0,3,0,90,91,10,0,80,152.10,0,-69.00,4.00,-994.00
2025-08-06T12:16:32.602753,-3,-1,-84,0,3,0,90,91,10,0,80,152.08,0,-29.00,30.00,-989.00
2025-08-06T12:16:32.704727,-3,-1,-84,0,0,0,90,91,10,0,80,152.45,0,-63.00,2.00,-984.00
2025-08-06T12:16:32.806957,-3,-1,-84,0,0,0,90,91,10,0,80,152.09,0,-63.00,39.00,-992.00
2025-08-06T12:16:32.909418,-3,-1,-84,0,0,0,90,91,10,0,80,152.02,0,-73.00,2.00,-993.00
2025-08-06T12:16:33.011855,-3,-1,-84,0,0,0,90,91,10,0,80,152.42,0,-36.00,34.00,-997.00
2025-08-06T12:16:33.113887,-3,-1,-84,0,0,0,90,91,10,0,80,152.04,0,-67.00,3.00,-998.00
2025-08-06T12:16:33.215248,-3,-1,-84,0,0,0,90,91,10,0,80,151.87,0,-71.00,39.00,-1004.00
2025-08-06T12:16:33.318626,-3,-1,-84,0,0,0,90,91,10,0,80,152.10,0,-78.00,10.00,-999.00
2025-08-06T12:16:33.421217,-3,-1,-84,0,0,0,90,91,10,0,80,152.22,0,-41.00,26.00,-994.00
