TS,pitch,roll,yaw,vgx,vgy,vgz,templ,temph,tof,h,bat,baro,time,agx,agy,agz
2025-08-06T12:19:23.203807,1,0,-86,0,0,0,91,93,10,0,77,152.25,0,17.00,-5.00,-1002.00
2025-08-06T12:19:23.307483,1,0,-86,0,0,0,91,93,10,0,77,152.42,0,19.00,-4.00,-1000.00
2025-08-06T12:19:23.407793,1,0,-86,0,0,0,91,93,10,0,77,152.41,0,19.00,-6.00,-1000.00
2025-08-06T12:19:23.510494,1,0,-86,0,0,0,91,93,10,0,77,152.11,0,17.00,-5.00,-999.00
2025-08-06T12:19:23.613005,1,0,-86,0,0,0,91,93,10,0,77,151.91,0,17.00,-6.00,-1001.00
2025-08-06T12:19:23.714968,0,0,-86,0,0,0,91,93,10,0,77,152.39,0,17.00,-5.00,-999.00
2025-08-06T12:19:23.817374,0,0,-86,0,0,0,91,93,10,0,77,152.28,0,18.00,-5.00,-999.00
2025-08-06T12:19:23.918662,1,0,-86,0,0,0,91,93,10,0,77,152.24,0,19.00,-6.00,-999.00
2025-08-06T12:19:24.019811,1,0,-86,0,0,0,91,93,10,0,77,152.17,0,18.00,-4.00,-999.00
2025-08-06T12:19:24.121849,0,0,-86,0,0,0,91,93,10,0,77,152.30,0,16.00,-5.00,-994.00
2025-08-06T12:19:24.224214,0,0,-86,0,0,0,91,93,10,0,77,152.38,0,-26.00,-17.00,-1268.00
2025-08-06T12:19:24.325941,0,3,-91,1,2,-3,91,93,10,0,77,152.41,0,-707.00,164.00,-1577.00
2025-08-06T12:19:24.377734,-13,4,-115,4,6,-6,91,93,10,0,77,152.33,0,-298.00,261.00,-1124.00
2025-08-06T12:19:24.478713,-24,13,-149,6,5,-6,91,93,80,10,77,152.46,0,-198.00,-37.00,-863.00
2025-08-06T12:19:24.580779,-24,18,-170,5,3,-4,91,93,88,10,77,152.21,0,-113.00,-185.00,-786.00
2025-08-06T12:19:24.682780,-24,19,177,3,2,-2,91,93,78,20,77,152.60,0,-42.00,-206.00,-769.00
2025-08-06T12:19:24.785345,-17,17,169,1,1,-1,91,93,81,20,77,152.48,0,-261.00,-271.00,-955.00
2025-08-06T12:19:24.886745,-19,14,179,1,1,-1,91,93,84,20,77,152.55,0,-93.00,-319.00,-1053.00
2025-08-06T12:19:24.989206,-30,-6,-133,0,1,-1,91,93,37,20,77,152.55,0,-180.00,-376.00,-880.00
2025-08-06T12:19:25.090710,-23,-19,-99,-2,1,0,91,93,89,0,77,152.57,0,-503.00,98.00,-741.00
2025-08-06T12:19:25.192878,-18,-35,-74,-2,1,0,91,93,6553,0,77,152.31,0,-204.00,663.00,-706.00
2025-08-06T12:19:25.301077,-4,-47,-59,0,1,0,91,93,49,0,77,152.73,0,-34.00,973.00,-609.00
2025-08-06T12:19:25.397303,10,-59,-52,0,1,-1,91,93,10,0,77,152.35,0,107.00,806.00,-509.00
2025-08-06T12:19:25.498748,15,-56,-50,-1,1,0,91,93,10,0,77,152.57,0,189.00,697.00,-554.00
2025-08-06T12:19:25.600739,16,-45,-48,-1,1,0,91,93,6553,0,77,152.38,0,257.00,608.00,-583.00
2025-08-06T12:19:25.702659,10,-32,-48,-1,0,2,91,94,97,0,77,152.48,0,161.00,350.00,-645.00
2025-08-06T12:19:25.804743,5,-23,-55,-1,0,4,91,94,83,0,77,152.28,0,126.00,400.00,-960.00
2025-08-06T12:19:25.906578,4,-17,-60,0,0,4,91,94,73,0,77,152.39,0,152.00,341.00,-1057.00
2025-08-06T12:19:26.008689,7,-16,-61,0,0,3,91,94,68,0,77,152.11,0,135.00,401.00,-1028.00
2025-08-06T12:19:26.110657,8,-17,-64,0,1,2,91,94,65,0,77,152.38,0,204.00,419.00,-1051.00
2025-08-06T12:19:26.212690,7,-20,-67,0,1,0,91,94,64,0,77,152.37,0,159.00,317.00,-992.00
2025-08-06T12:19:26.314865,7,-23,-70,0,1,0,91,94,63,0,77,152.08,0,102.00,380.00,-922.00
2025-08-06T12:19:26.416543,5,-26,-72,0,0,0,91,94,63,0,77,152.19,0,98.00,376.00,-919.00
2025-08-06T12:19:26.518878,5,-27,-73,0,0,0,91,94,63,0,77,152.24,0,139.00,393.00,-818.00
2025-08-06T12:19:26.620615,6,-28,-72,0,0,1,91,94,61,0,77,152.28,0,121.00,560.00,-862.00
2025-08-06T12:19:26.722574,7,-29,-72,0,0,0,92,94,60,0,77,152.37,0,104.00,620.00,-923.00
2025-08-06T12:19:26.824816,6,-30,-73,0,0,0,92,94,60,0,77,151.90,0,138.00,471.00,-881.00
2025-08-06T12:19:26.926691,5,-31,-74,0,0,0,92,94,61,0,77,152.02,0,95.00,409.00,-852.00
2025-08-06T12:19:27.028568,4,-31,-74,0,0,0,92,94,61,0,77,152.31,0,127.00,469.00,-839.00
2025-08-06T12:19:27.130598,4,-29,-75,0,0,0,92,94,60,0,77,152.08,0,64.00,512.00,-855.00
2025-08-06T12:19:27.234379,5,-27,-76,0,0,1,92,94,58,0,77,152.41,0,38.00,408.00,-882.00
2025-08-06T12:19:27.334622,3,-19,-84,0,0,1,92,94,56,0,77,152.13,0,15.00,268.00,-877.00
2025-08-06T12:19:27.436693,2,-9,-95,0,0,2,92,94,51,0,77,152.18,0,97.00,178.00,-993.00
2025-08-06T12:19:27.539223,3,-4,-102,0,0,2,92,94,48,0,77,151.99,0,45.00,117.00,-1171.00
2025-08-06T12:19:27.640532,4,-4,-101,1,0,0,92,94,48,0,77,152.02,0,33.00,64.00,-1163.00
2025-08-06T12:19:27.742622,3,-6,-101,0,0,-1,92,93,49,0,77,152.19,0,62.00,94.00,-1064.00
2025-08-06T12:19:27.844537,0,-7,-101,0,0,-1,92,93,51,0,77,152.24,0,0.00,128.00,-1101.00
2025-08-06T12:19:27.895447,-2,-8,-101,0,0,-2,92,93,55,0,77,152.26,0,-57.00,131.00,-976.00
2025-08-06T12:19:27.997880,-5,-8,-102,0,0,-2,92,93,58,0,77,152.42,0,-144.00,138.00,-915.00
2025-08-06T12:19:28.099837,-8,-6,-102,0,0,-2,92,93,60,0,77,152.08,0,-125.00,154.00,-859.00
2025-08-06T12:19:28.201513,-9,-5,-103,0,0,-1,92,93,63,0,77,152.15,0,-171.00,120.00,-853.00
2025-08-06T12:19:28.303949,-9,-5,-103,0,0,0,92,93,63,0,77,152.22,0,-177.00,73.00,-875.00
2025-08-06T12:19:28.405604,-8,-5,-103,0,0,0,92,93,62,0,77,152.14,0,-185.00,101.00,-950.00
2025-08-06T12:19:28.507865,-7,-5,-103,0,0,1,92,93,61,0,77,152.06,0,-139.00,42.00,-957.00
2025-08-06T12:19:28.610024,-5,-5,-103,0,0,1,92,93,59,0,77,152.04,0,-105.00,102.00,-941.00
2025-08-06T12:19:28.711473,-3,-5,-103,0,0,2,92,93,55,0,77,152.21,0,-56.00,100.00,-989.00
2025-08-06T12:19:28.813828,0,-5,-103,0,1,2,92,93,53,0,77,152.19,0,29.00,103.00,-1053.00
2025-08-06T12:19:28.915548,0,-4,-104,0,0,1,92,93,51,0,77,152.21,0,21.00,85.00,-1114.00
2025-08-06T12:19:29.017446,0,-5,-104,0,0,0,92,93,50,0,77,151.93,0,37.00,85.00,-1080.00
2025-08-06T12:19:29.119484,0,-6,-104,0,0,0,92,93,50,0,77,152.32,0,28.00,45.00,-1015.00
2025-08-06T12:19:29.221410,0,-6,-103,0,0,0,92,93,50,0,77,152.33,0,17.00,86.00,-949.00
2025-08-06T12:19:29.323520,1,-5,-102,0,0,0,92,93,50,0,77,152.29,0,57.00,127.00,-1051.00
2025-08-06T12:19:29.425556,1,-4,-104,0,0,0,92,93,51,0,77,152.07,0,91.00,85.00,-1143.00
2025-08-06T12:19:29.527441,1,-2,-104,0,0,-1,92,93,53,0,77,152.38,0,32.00,87.00,-1151.00
2025-08-06T12:19:29.629485,0,0,-106,0,0,-2,92,93,55,0,77,152.11,0,-46.00,7.00,-964.00
2025-08-06T12:19:29.731481,0,1,-109,0,0,-1,91,94,56,0,77,152.14,0,-44.00,-126.00,-676.00
2025-08-06T12:19:29.833495,0,4,-113,0,0,0,91,94,54,0,77,152.14,0,-55.00,-56.00,-624.00
2025-08-06T12:19:29.935881,0,2,-114,0,0,4,91,94,49,0,77,152.22,0,87.00,-43.00,-824.00
2025-08-06T12:19:30.038178,2,0,-110,0,0,6,91,94,42,0,77,152.30,0,128.00,-48.00,-1049.00
2025-08-06T12:19:30.140642,5,-4,-106,0,0,5,91,94,36,-10,77,151.90,0,153.00,68.00,-1124.00
2025-08-06T12:19:30.241506,7,-5,-99,0,0,4,91,94,31,-10,77,151.80,0,128.00,140.00,-1076.00
2025-08-06T12:19:30.343405,7,-7,-89,0,0,3,91,94,10,-20,77,151.97,0,231.00,162.00,-1079.00
2025-08-06T12:19:30.445666,6,-8,-78,0,0,3,91,94,10,-20,77,151.93,0,152.00,117.00,-1031.00
2025-08-06T12:19:30.548305,5,-7,-73,0,0,3,91,94,10,-30,77,151.57,0,92.00,167.00,-1025.00
2025-08-06T12:19:30.649333,2,-7,-71,0,0,3,91,94,10,-30,77,151.88,0,22.00,161.00,-1095.00
2025-08-06T12:19:30.751412,3,-7,-67,0,0,1,91,93,10,0,77,151.55,0,-67.00,195.00,-1199.00
2025-08-06T12:19:30.854547,2,-7,-70,0,0,0,91,93,10,0,77,152.05,0,-23.00,146.00,-1294.00
2025-08-06T12:19:30.955450,0,-8,-74,0,1,-3,91,93,10,0,77,152.11,0,92.00,181.00,-1260.00
2025-08-06T12:19:31.057672,-1,-8,-80,-1,1,-6,91,93,33,0,77,152.09,0,44.00,178.00,-1206.00
2025-08-06T12:19:31.159323,-2,-8,-85,-1,0,-8,91,93,43,10,77,152.18,0,-119.00,134.00,-1013.00
2025-08-06T12:19:31.261289,-4,-11,-84,-1,0,-9,91,93,55,10,77,152.26,0,79.00,135.00,-1005.00
2025-08-06T12:19:31.363500,-3,-11,-83,0,0,-9,91,93,65,20,77,152.37,0,27.00,201.00,-968.00
2025-08-06T12:19:31.414270,-4,-8,-87,-1,0,-8,91,93,73,30,77,152.13,0,-115.00,124.00,-1099.00
2025-08-06T12:19:31.516281,-7,-5,-96,-1,0,-9,91,93,86,40,77,152.70,0,-211.00,320.00,-1042.00
2025-08-06T12:19:31.619367,-12,-3,-103,0,1,-10,91,93,97,60,77,152.60,0,-372.00,112.00,-810.00
2025-08-06T12:19:31.720478,-6,0,-109,1,2,-11,91,93,107,70,77,152.67,0,-209.00,80.00,-859.00
2025-08-06T12:19:31.822756,-4,0,-111,2,3,-10,91,93,118,80,77,152.66,0,126.00,-70.00,-985.00
2025-08-06T12:19:31.924307,3,2,-111,2,2,-10,91,93,129,90,77,152.72,0,290.00,-55.00,-922.00
2025-08-06T12:19:32.026250,0,3,-107,1,0,-10,91,93,140,100,77,152.96,0,150.00,-117.00,-819.00
2025-08-06T12:19:32.128768,-2,7,-105,0,-2,-8,91,93,148,110,77,153.22,0,137.00,-176.00,-611.00
2025-08-06T12:19:32.230236,-6,10,-99,0,-4,-5,91,93,125,120,77,153.06,0,281.00,-285.00,-675.00
2025-08-06T12:19:32.332414,-6,12,-89,-2,-7,-2,91,93,102,120,77,153.18,0,150.00,-348.00,-673.00
2025-08-06T12:19:32.434330,-6,12,-76,-4,-9,0,91,93,101,120,77,153.24,0,-27.00,-211.00,-741.00
2025-08-06T12:19:32.536245,-4,12,-61,-5,-12,2,91,93,110,120,77,152.93,0,-34.00,-135.00,-797.00
2025-08-06T12:19:32.638323,-3,8,-49,-4,-12,4,91,93,142,120,77,152.96,0,-86.00,-45.00,-904.00
2025-08-06T12:19:32.740123,-2,4,-38,-4,-11,5,91,93,136,110,77,152.67,0,-39.00,223.00,-760.00
2025-08-06T12:19:32.842254,-1,2,-28,-2,-10,8,91,93,123,100,77,152.95,0,-163.00,491.00,-742.00
2025-08-06T12:19:32.944289,2,2,-25,-2,-5,10,91,93,110,90,77,152.35,0,-50.00,513.00,-804.00
2025-08-06T12:19:33.046195,1,-2,-30,-1,0,13,91,93,101,80,77,152.58,0,52.00,347.00,-903.00
2025-08-06T12:19:33.148561,1,-8,-36,0,0,13,91,93,89,60,77,152.49,0,287.00,347.00,-1038.00
2025-08-06T12:19:33.250512,0,-12,-40,0,0,13,91,93,76,50,77,152.25,0,233.00,379.00,-1116.00
2025-08-06T12:19:33.352498,0,-16,-42,0,0,12,91,93,66,40,77,152.19,0,-25.00,175.00,-1148.00
2025-08-06T12:19:33.454163,1,-15,-51,0,0,10,91,93,56,30,77,152.15,0,-12.00,95.00,-1111.00
2025-08-06T12:19:33.557954,0,-18,-48,0,0,9,91,93,47,10,77,152.15,0,160.00,247.00,-1069.00
2025-08-06T12:19:33.659225,0,-18,-41,0,0,8,91,93,37,10,77,152.16,0,90.00,342.00,-1143.00
2025-08-06T12:19:33.761130,3,-17,-25,0,0,5,90,93,31,0,77,151.97,0,106.00,325.00,-1066.00
2025-08-06T12:19:33.863418,6,-17,-17,0,0,3,90,93,10,0,77,151.68,0,51.00,357.00,-1090.00
2025-08-06T12:19:33.965567,9,-18,-11,0,0,1,90,93,10,0,77,151.89,0,13.00,482.00,-1092.00
2025-08-06T12:19:34.067149,8,-19,-11,0,0,0,90,93,10,0,77,152.07,0,21.00,519.00,-1104.00
2025-08-06T12:19:34.169232,10,-19,-13,0,0,-2,90,93,10,0,77,151.97,0,39.00,478.00,-1154.00
2025-08-06T12:19:34.271120,5,-21,-15,0,0,-5,90,93,30,0,77,152.18,0,-20.00,509.00,-1241.00
2025-08-06T12:19:34.374162,0,-21,-19,0,0,-8,90,93,36,0,77,151.98,0,-19.00,415.00,-1282.00
2025-08-06T12:19:34.475453,0,-18,-22,0,0,-10,90,93,46,10,77,152.19,0,166.00,392.00,-1138.00
2025-08-06T12:19:34.578889,-1,-17,-22,0,0,-11,90,93,57,30,77,152.16,0,155.00,398.00,-971.00
2025-08-06T12:19:34.680563,1,-15,-24,0,0,-11,90,93,68,40,77,152.68,0,129.00,391.00,-949.00
2025-08-06T12:19:34.782765,0,-10,-25,0,0,-11,92,93,81,50,77,152.41,0,140.00,381.00,-906.00
2025-08-06T12:19:34.884400,-7,-6,-29,0,0,-11,92,93,92,60,77,152.72,0,94.00,408.00,-961.00
2025-08-06T12:19:34.934034,-13,-3,-35,0,0,-10,92,93,104,80,77,152.70,0,-94.00,415.00,-1025.00
2025-08-06T12:19:35.036304,-17,0,-43,0,0,-7,92,93,74,80,77,152.98,0,-157.00,437.00,-797.00
2025-08-06T12:19:35.138073,-18,3,-53,0,0,-5,92,93,66,90,77,152.81,0,-259.00,297.00,-699.00
2025-08-06T12:19:35.240256,-19,8,-64,0,0,-4,92,93,84,100,77,152.67,0,-213.00,165.00,-716.00
2025-08-06T12:19:35.342022,-18,13,-75,0,0,-3,92,93,88,100,77,153.05,0,-250.00,62.00,-807.00
2025-08-06T12:19:35.444263,-19,13,-85,0,0,-1,92,93,91,100,77,152.73,0,-180.00,-31.00,-834.00
2025-08-06T12:19:35.546122,-17,13,-95,0,0,0,92,93,137,100,77,152.65,0,-160.00,-92.00,-872.00
2025-08-06T12:19:35.647960,-15,14,-104,0,0,0,92,93,129,100,77,152.65,0,-179.00,-158.00,-800.00
2025-08-06T12:19:35.750049,-12,13,-113,0,0,0,91,93,6553,0,77,152.90,0,28.00,-164.00,-970.00
2025-08-06T12:19:35.851983,-7,12,-122,0,0,1,91,93,43,0,77,153.04,0,14.00,-155.00,-1014.00
2025-08-06T12:19:35.955775,-5,9,-129,0,0,1,91,93,44,0,77,152.78,0,4.00,-138.00,-987.00
2025-08-06T12:19:36.056068,-4,7,-137,0,0,1,91,93,44,0,77,153.02,0,12.00,-71.00,-987.00
2025-08-06T12:19:36.158090,-2,6,-145,0,0,2,91,93,43,0,77,153.01,0,7.00,-56.00,-948.00
2025-08-06T12:19:36.263410,-1,4,-154,0,0,2,91,93,41,0,77,152.65,0,13.00,-5.00,-970.00
2025-08-06T12:19:36.362808,0,2,-163,0,0,2,91,93,39,0,77,152.95,0,84.00,-55.00,-972.00
2025-08-06T12:19:36.464140,1,0,-172,4,-1,3,91,93,36,0,77,152.67,0,170.00,-18.00,-976.00
2025-08-06T12:19:36.566927,2,0,177,3,-1,3,91,93,34,0,77,152.75,0,229.00,91.00,-1017.00
2025-08-06T12:19:36.667952,1,-3,168,1,-1,2,91,93,36,0,77,152.89,0,352.00,111.00,-999.00
2025-08-06T12:19:36.770141,0,-5,162,-1,-1,2,92,94,33,0,77,152.44,0,226.00,102.00,-992.00
2025-08-06T12:19:36.872398,0,-5,159,-3,-1,2,92,94,30,0,77,152.50,0,118.00,145.00,-971.00
2025-08-06T12:19:36.974148,0,-6,157,-4,-1,2,92,94,10,0,77,152.68,0,171.00,124.00,-975.00
2025-08-06T12:19:37.075849,0,-11,160,-6,-1,3,92,94,10,0,77,152.46,0,173.00,283.00,-965.00
2025-08-06T12:19:37.177837,1,-17,165,0,0,2,92,94,10,0,77,152.47,0,185.00,285.00,-1048.00
2025-08-06T12:19:37.280028,1,-18,172,0,0,1,92,94,10,0,77,152.25,0,139.00,269.00,-1028.00
2025-08-06T12:19:37.382087,0,-18,-175,0,0,1,92,94,36,0,77,152.64,0,65.00,237.00,-976.00
2025-08-06T12:19:37.483938,0,-15,-160,0,0,0,92,94,40,0,77,152.79,0,31.00,329.00,-991.00
2025-08-06T12:19:37.585936,0,-10,-146,0,0,0,92,94,42,0,77,152.75,0,13.00,359.00,-970.00
2025-08-06T12:19:37.688909,0,-8,-130,0,0,0,92,94,63,0,77,152.53,0,70.00,336.00,-966.00
2025-08-06T12:19:37.790428,-1,-9,-114,0,0,0,91,94,79,0,77,152.69,0,121.00,213.00,-880.00
2025-08-06T12:19:37.892040,-1,-7,-97,0,0,0,91,94,40,0,77,152.86,0,69.00,147.00,-844.00
2025-08-06T12:19:37.994015,1,-3,-82,0,0,2,91,94,39,0,77,152.56,0,17.00,177.00,-855.00
2025-08-06T12:19:38.095915,1,-3,-67,0,0,2,91,94,36,0,77,152.58,0,-36.00,317.00,-815.00
2025-08-06T12:19:38.197954,0,-9,-54,0,0,3,91,94,37,0,77,152.37,0,31.00,196.00,-853.00
2025-08-06T12:19:38.249363,2,-11,-44,0,0,4,91,94,38,0,77,152.02,0,51.00,355.00,-865.00
2025-08-06T12:19:38.350883,5,-12,-36,0,0,5,91,94,68,0,77,151.90,0,128.00,399.00,-889.00
2025-08-06T12:19:38.452939,8,-15,-29,0,0,5,91,94,69,-10,77,152.30,0,142.00,468.00,-1008.00
2025-08-06T12:19:38.555139,9,-18,-24,0,0,5,91,94,64,-10,77,152.14,0,166.00,437.00,-962.00
2025-08-06T12:19:38.656922,10,-20,-19,0,0,4,91,94,59,-20,77,151.84,0,135.00,396.00,-1018.00
2025-08-06T12:19:38.758879,11,-19,-14,0,0,3,91,94,54,-20,77,151.94,0,106.00,459.00,-1028.00
2025-08-06T12:19:38.860942,10,-15,-11,0,0,2,91,94,49,-30,77,151.92,0,37.00,386.00,-1072.00
2025-08-06T12:19:38.962839,9,-15,-9,-1,0,1,91,94,47,-30,77,151.96,0,73.00,232.00,-1160.00
2025-08-06T12:19:39.065153,10,-15,-11,-3,0,0,91,94,48,-30,77,152.01,0,48.00,276.00,-1356.00
2025-08-06T12:19:39.166915,11,-14,-11,-5,0,-4,91,94,52,0,77,152.05,0,48.00,397.00,-1337.00
2025-08-06T12:19:39.268888,0,-17,-9,-5,1,-7,91,94,57,0,77,152.36,0,91.00,539.00,-1104.00
2025-08-06T12:19:39.371098,-10,-18,-12,-3,2,-8,91,94,62,10,77,152.27,0,-67.00,598.00,-966.00
2025-08-06T12:19:39.472734,-20,-15,-20,-1,5,-9,91,94,84,20,77,152.26,0,-281.00,591.00,-948.00
2025-08-06T12:19:39.585928,-30,-10,-33,1,8,-9,91,94,46,30,77,152.52,0,-284.00,651.00,-708.00
2025-08-06T12:19:39.676792,-34,-1,-52,4,10,-8,91,94,62,40,77,152.59,0,-411.00,288.00,-625.00
2025-08-06T12:19:39.778876,-34,3,-70,6,11,-5,92,93,58,40,77,152.55,0,-335.00,96.00,-609.00
2025-08-06T12:19:39.883812,-31,7,-87,7,10,-3,92,93,85,50,77,152.55,0,-305.00,-13.00,-749.00
2025-08-06T12:19:39.983523,-27,7,-100,8,9,-1,92,93,126,50,77,152.41,0,-258.00,-30.00,-852.00
2025-08-06T12:19:40.085093,-23,7,-114,8,7,-1,92,93,119,50,77,152.50,0,-206.00,-16.00,-910.00
2025-08-06T12:19:40.186720,-20,7,-126,8,5,0,92,93,6553,50,77,152.25,0,-70.00,-16.00,-900.00
2025-08-06T12:19:40.289182,-16,6,-137,7,2,1,92,93,35,50,77,152.65,0,50.00,-23.00,-918.00
2025-08-06T12:19:40.391411,-11,3,-145,5,0,3,92,93,30,0,77,152.72,0,101.00,0.00,-967.00
2025-08-06T12:19:40.493253,-8,0,-152,2,-1,3,92,93,10,0,77,152.41,0,184.00,-20.00,-1064.00
2025-08-06T12:19:40.594806,-5,-4,-154,0,-2,3,92,93,10,0,77,152.64,0,230.00,-14.00,-1143.00
2025-08-06T12:19:40.696685,-3,-7,-151,0,0,1,92,93,10,0,77,152.57,0,165.00,-6.00,-1187.00
2025-08-06T12:19:40.800893,-3,-8,-144,0,0,0,92,94,35,0,77,152.49,0,101.00,63.00,-1096.00
2025-08-06T12:19:40.901255,-3,-7,-134,0,0,0,92,94,44,0,77,152.37,0,43.00,156.00,-983.00
2025-08-06T12:19:41.003667,-5,-6,-122,0,0,0,92,94,67,0,77,152.41,0,100.00,138.00,-963.00
2025-08-06T12:19:41.105997,-5,-5,-108,0,0,0,92,94,90,0,77,152.39,0,93.00,118.00,-993.00
2025-08-06T12:19:41.206694,-7,-6,-90,0,0,1,92,94,40,0,77,152.68,0,-36.00,237.00,-799.00
2025-08-06T12:19:41.308717,-8,-8,-72,0,0,4,92,94,39,0,77,152.54,0,-89.00,454.00,-606.00
2025-08-06T12:19:41.410886,-5,-11,-58,0,0,6,92,94,32,0,77,152.53,0,-284.00,500.00,-860.00
2025-08-06T12:19:41.512565,-3,-18,-45,0,0,7,92,94,10,-10,77,152.42,0,-110.00,479.00,-717.00
2025-08-06T12:19:41.614768,-4,-26,-33,0,0,8,92,94,10,-10,77,152.02,0,2.00,682.00,-547.00
2025-08-06T12:19:41.665680,0,-30,-26,0,0,8,92,94,10,-20,77,152.22,0,-43.00,618.00,-918.00
2025-08-06T12:19:41.818715,7,-30,-23,0,0,6,92,93,51,-30,77,152.37,0,141.00,608.00,-1130.00
2025-08-06T12:19:41.870258,10,-28,-20,0,0,4,92,93,52,-30,77,151.98,0,334.00,677.00,-1018.00
2025-08-06T12:19:41.971758,10,-28,-20,0,0,2,92,93,49,-40,77,151.95,0,213.00,575.00,-1074.00
2025-08-06T12:19:42.073579,10,-29,-19,0,0,0,92,93,50,-40,77,151.80,0,-103.00,522.00,-1235.00
2025-08-06T12:19:42.175746,6,-30,-17,0,0,-3,92,93,51,-40,77,152.25,0,-112.00,567.00,-1338.00
2025-08-06T12:19:42.277610,-2,-28,-18,-5,0,-7,92,93,10,-30,77,151.99,0,0.00,690.00,-1069.00
2025-08-06T12:19:42.379873,-11,-22,-23,-4,1,-9,92,93,10,-20,77,152.40,0,-68.00,712.00,-887.00
2025-08-06T12:19:42.481593,-20,-17,-32,-1,4,-9,92,93,10,-10,77,152.51,0,-228.00,744.00,-752.00
2025-08-06T12:19:42.583707,-27,-13,-46,0,0,-8,92,93,37,0,77,152.53,0,-370.00,564.00,-426.00
2025-08-06T12:19:42.685516,-31,-8,-63,0,0,-5,92,93,44,0,77,152.35,0,-254.00,182.00,-428.00
2025-08-06T12:19:42.787487,-29,-5,-79,0,0,-1,92,94,80,0,77,152.53,0,-129.00,-43.00,-632.00
2025-08-06T12:19:42.889591,-24,-2,-89,0,0,2,92,94,95,0,77,152.63,0,68.00,-231.00,-841.00
2025-08-06T12:19:42.991606,-18,-1,-93,0,0,5,92,94,83,0,77,152.08,0,107.00,-116.00,-827.00
2025-08-06T12:19:43.093690,-12,-5,-90,0,0,7,92,94,10,0,77,152.49,0,128.00,-35.00,-973.00
2025-08-06T12:19:43.195592,-3,-7,-81,0,0,6,92,94,10,-10,77,151.89,0,-193.00,358.00,-1231.00
2025-08-06T12:19:43.297708,1,-6,-79,0,0,3,92,94,10,-20,77,152.03,0,-178.00,212.00,-1284.00
2025-08-06T12:19:43.399506,2,-6,-76,0,0,2,92,94,10,-20,77,152.25,0,-49.00,156.00,-963.00
2025-08-06T12:19:43.501534,3,-4,-77,0,0,2,92,94,10,-20,77,152.13,0,136.00,223.00,-1083.00
2025-08-06T12:19:43.606229,1,0,-77,0,0,0,92,94,10,-30,77,151.81,0,-70.00,82.00,-1032.00
2025-08-06T12:19:43.705860,1,0,-79,0,0,0,92,94,10,-30,77,152.34,0,22.00,-51.00,-1079.00
2025-08-06T12:19:43.807454,1,0,-79,0,0,0,92,93,10,0,77,152.41,0,-6.00,-8.00,-998.00
2025-08-06T12:19:43.909520,1,0,-79,0,0,0,92,93,10,0,77,152.17,0,46.00,18.00,-981.00
2025-08-06T12:19:44.011729,1,0,-79,0,0,0,92,93,10,0,77,152.15,0,-12.00,-47.00,-1008.00
2025-08-06T12:19:44.113509,1,0,-79,0,0,0,92,93,10,0,77,152.34,0,19.00,23.00,-1003.00
2025-08-06T12:19:44.216142,1,0,-79,0,0,0,92,93,10,0,77,152.33,0,9.00,-4.00,-996.00
2025-08-06T12:19:44.317516,1,0,-79,0,0,0,92,93,10,0,77,152.02,0,4.00,-25.00,-1002.00
2025-08-06T12:19:44.419397,1,0,-79,0,0,0,92,93,10,0,77,152.22,0,25.00,19.00,-1000.00
2025-08-06T12:19:44.521806,1,0,-79,0,0,0,92,93,10,0,77,151.74,0,0.00,-27.00,-1003.00
2025-08-06T12:19:44.623969,1,0,-79,0,0,0,92,93,10,0,77,152.03,0,16.00,2.00,-999.00
2025-08-06T12:19:44.674363,1,0,-79,0,0,0,92,93,10,0,77,152.27,0,12.00,-1.00,-1002.00
2025-08-06T12:19:44.828278,1,0,-79,0,0,0,92,93,10,0,77,151.98,0,4.00,-17.00,-1000.00
2025-08-06T12:19:44.878496,1,0,-79,0,0,0,92,93,10,0,77,151.81,0,18.00,9.00,-1002.00
2025-08-06T12:19:44.982768,1,0,-79,0,0,0,92,93,10,0,77,152.25,0,6.00,-14.00,-1002.00
2025-08-06T12:19:45.082387,1,0,-79,0,0,0,92,93,10,0,77,152.13,0,14.00,-2.00,-999.00
2025-08-06T12:19:45.184517,1,0,-79,0,0,0,92,93,10,0,77,152.30,0,13.00,-1.00,-999.00
2025-08-06T12:19:45.286429,1,0,-79,0,0,0,92,93,10,0,77,152.38,0,8.00,-13.00,-1000.00
2025-08-06T12:19:45.388386,1,0,-79,0,0,0,92,93,10,0,77,151.99,0,16.00,4.00,-1000.00
2025-08-06T12:19:45.490648,1,0,-79,0,0,0,92,93,10,0,77,151.76,0,6.00,-11.00,-1000.00
2025-08-06T12:19:45.592841,1,0,-79,0,0,0,92,93,10,0,77,152.13,0,12.00,-3.00,-1000.00
2025-08-06T12:19:45.694865,1,0,-79,0,0,0,92,93,10,0,77,152.11,0,12.00,-1.00,-1000.00
2025-08-06T12:19:45.797008,1,0,-79,0,0,0,91,94,10,0,77,152.07,0,16.00,2.00,-1001.00
2025-08-06T12:19:45.899086,1,0,-79,0,0,0,91,94,10,0,77,151.89,0,7.00,-11.00,-1000.00
