TS,pitch,roll,yaw,vgx,vgy,vgz,templ,temph,tof,h,bat,baro,time,agx,agy,agz
2025-08-06T12:21:00.463409,0,0,-70,0,0,0,92,94,10,0,75,152.05,0,10.00,-3.00,-998.00
2025-08-06T12:21:00.565515,0,0,-70,0,0,0,92,94,10,0,75,152.10,0,10.00,-3.00,-1000.00
2025-08-06T12:21:00.667002,0,0,-70,0,0,0,92,94,10,0,75,152.00,0,10.00,-4.00,-1000.00
2025-08-06T12:21:00.769007,0,0,-70,0,0,0,92,94,10,0,74,152.17,0,11.00,-3.00,-996.00
2025-08-06T12:21:00.870930,0,0,-70,0,0,0,92,94,10,0,74,152.23,0,11.00,-5.00,-1002.00
2025-08-06T12:21:00.972942,0,0,-70,0,0,0,92,94,10,0,74,151.83,0,11.00,-3.00,-1000.00
2025-08-06T12:21:01.074853,0,0,-70,0,0,0,92,94,10,0,74,152.01,0,10.00,-2.00,-998.00
2025-08-06T12:21:01.177053,0,0,-70,0,0,0,92,94,10,0,74,152.13,0,10.00,-5.00,-998.00
2025-08-06T12:21:01.280207,0,0,-70,0,0,0,92,94,10,0,74,152.13,0,11.00,-4.00,-1000.00
2025-08-06T12:21:01.380936,0,0,-70,0,0,0,92,94,10,0,74,152.22,0,10.00,-3.00,-997.00
2025-08-06T12:21:01.482863,0,0,-70,0,0,0,92,94,10,0,74,152.18,0,9.00,-4.00,-1001.00
2025-08-06T12:21:01.584973,0,0,-70,0,0,0,92,94,10,0,74,152.15,0,11.00,-3.00,-1000.00
2025-08-06T12:21:01.635944,0,0,-70,0,0,0,92,94,10,0,74,152.16,0,10.00,-5.00,-1000.00
2025-08-06T12:21:01.737998,0,0,-70,0,0,0,92,94,10,0,74,152.33,0,13.00,-4.00,-999.00
2025-08-06T12:21:01.840073,0,0,-70,0,0,0,92,94,10,0,74,151.86,0,10.00,-5.00,-1001.00
2025-08-06T12:21:01.941833,0,0,-70,0,0,0,92,94,10,0,74,152.05,0,11.00,-4.00,-998.00
2025-08-06T12:21:02.044144,0,0,-70,0,0,0,92,94,10,0,74,152.35,0,12.00,-3.00,-998.00
2025-08-06T12:21:02.145943,0,0,-70,0,0,0,91,94,10,0,74,152.08,0,9.00,-6.00,-997.00
2025-08-06T12:21:02.248325,0,0,-70,0,0,0,91,94,10,0,74,152.11,0,11.00,-4.00,-998.00
2025-08-06T12:21:02.350356,0,0,-70,0,0,0,91,94,10,0,74,152.48,0,9.00,-6.00,-999.00
2025-08-06T12:21:02.451975,0,0,-70,0,0,0,91,94,10,0,74,152.30,0,10.00,-3.00,-997.00
2025-08-06T12:21:02.554075,0,0,-70,0,0,0,91,94,10,0,74,152.13,0,13.00,-4.00,-998.00
2025-08-06T12:21:02.655779,0,0,-70,0,0,0,91,94,10,0,74,152.35,0,10.00,-4.00,-1001.00
2025-08-06T12:21:02.758101,0,0,-70,0,0,0,91,94,10,0,74,152.17,0,12.00,-4.00,-997.00
2025-08-06T12:21:02.859974,0,0,-70,0,0,0,91,94,10,0,74,152.25,0,10.00,-4.00,-999.00
2025-08-06T12:21:02.961949,0,0,-70,0,0,0,91,94,10,0,74,151.79,0,12.00,-3.00,-1002.00
2025-08-06T12:21:03.064803,0,0,-70,0,0,0,91,94,10,0,74,151.96,0,9.00,-3.00,-999.00
2025-08-06T12:21:03.166868,0,0,-70,0,0,0,92,94,10,0,74,152.09,0,10.00,-3.00,-1001.00
2025-08-06T12:21:03.268879,0,0,-70,0,0,0,92,94,10,0,74,152.35,0,11.00,-2.00,-1000.00
2025-08-06T12:21:03.370762,0,0,-70,0,0,0,92,94,10,0,74,152.05,0,8.00,-5.00,-1000.00
2025-08-06T12:21:03.472643,0,0,-70,0,0,0,92,94,10,0,74,152.32,0,12.00,-3.00,-999.00
2025-08-06T12:21:03.576537,0,0,-70,0,0,0,92,94,10,0,74,152.03,0,-28.00,0.00,-1072.00
2025-08-06T12:21:03.676448,1,0,-70,0,0,0,92,94,10,0,74,152.14,0,72.00,135.00,-996.00
2025-08-06T12:21:03.779038,10,-8,-73,0,1,-2,92,94,10,0,74,152.22,0,139.00,355.00,-1157.00
2025-08-06T12:21:03.880498,4,-4,-78,1,2,-3,92,94,10,0,74,152.18,0,175.00,-86.00,-590.00
2025-08-06T12:21:03.982694,3,-4,-78,0,0,1,92,94,10,0,74,152.10,0,214.00,55.00,-701.00
2025-08-06T12:21:04.084883,10,-2,-79,0,0,1,92,94,10,0,74,152.44,0,196.00,154.00,-1241.00
2025-08-06T12:21:04.187086,7,-3,-78,0,0,0,91,94,10,0,74,152.15,0,155.00,163.00,-1038.00
2025-08-06T12:21:04.288485,6,-2,-82,1,2,-2,91,94,10,0,74,152.02,0,-73.00,140.00,-1324.00
2025-08-06T12:21:04.390463,-1,-3,-86,2,4,-3,91,94,10,0,74,152.37,0,-37.00,212.00,-911.00
2025-08-06T12:21:04.492304,-5,-4,-92,2,4,-2,91,94,30,0,74,152.27,0,-2.00,66.00,-795.00
2025-08-06T12:21:04.594441,-5,-6,-98,2,3,-1,91,94,65,0,74,152.50,0,14.00,4.00,-846.00
2025-08-06T12:21:04.696386,-2,-6,-104,2,3,0,91,94,64,0,74,151.91,0,-40.00,-16.00,-907.00
2025-08-06T12:21:04.798521,3,-4,-110,0,2,1,91,94,63,0,74,152.23,0,102.00,-121.00,-960.00
2025-08-06T12:21:04.900450,9,0,-116,0,3,2,91,94,59,0,74,152.19,0,264.00,-113.00,-916.00
2025-08-06T12:21:04.951599,11,-2,-117,0,2,2,91,94,59,0,74,152.17,0,337.00,-46.00,-915.00
2025-08-06T12:21:05.053860,11,-4,-117,0,1,2,91,94,57,0,74,152.02,0,367.00,5.00,-985.00
2025-08-06T12:21:05.155529,14,-6,-117,0,1,2,92,94,55,0,74,152.21,0,197.00,224.00,-1058.00
2025-08-06T12:21:05.257537,12,-10,-116,0,1,1,92,94,55,0,74,152.06,0,187.00,241.00,-947.00
2025-08-06T12:21:05.359668,10,-15,-113,0,1,1,92,94,54,0,74,152.05,0,226.00,325.00,-997.00
2025-08-06T12:21:05.461608,8,-18,-112,0,0,0,92,94,54,0,74,151.85,0,189.00,255.00,-1000.00
2025-08-06T12:21:05.563568,6,-19,-110,0,0,0,92,94,53,0,74,152.03,0,172.00,297.00,-936.00
2025-08-06T12:21:05.665399,5,-20,-108,0,0,1,92,94,53,0,74,152.20,0,102.00,344.00,-972.00
2025-08-06T12:21:05.767435,5,-20,-108,0,0,1,92,94,53,0,74,152.14,0,83.00,389.00,-878.00
2025-08-06T12:21:05.869283,6,-20,-109,0,0,0,92,94,52,0,74,152.34,0,33.00,379.00,-1044.00
2025-08-06T12:21:05.971356,4,-21,-109,0,0,0,92,94,53,0,74,152.11,0,81.00,264.00,-960.00
2025-08-06T12:21:06.073392,4,-20,-109,0,0,0,92,94,53,0,74,151.97,0,91.00,378.00,-930.00
2025-08-06T12:21:06.175392,3,-21,-108,0,0,0,92,94,53,0,74,151.97,0,54.00,369.00,-886.00
2025-08-06T12:21:06.277343,4,-21,-108,0,0,0,92,94,53,0,74,152.02,0,56.00,355.00,-946.00
2025-08-06T12:21:06.379445,4,-21,-107,0,0,0,92,94,53,0,74,152.15,0,31.00,440.00,-927.00
2025-08-06T12:21:06.481559,4,-22,-108,0,0,0,92,94,53,0,74,151.88,0,61.00,331.00,-944.00
2025-08-06T12:21:06.583454,4,-22,-107,0,0,0,92,94,53,0,74,152.06,0,63.00,391.00,-945.00
2025-08-06T12:21:06.685318,4,-22,-108,0,0,0,92,94,53,0,74,152.14,0,68.00,349.00,-901.00
2025-08-06T12:21:06.787450,5,-22,-108,0,0,0,92,94,53,0,74,152.29,0,90.00,387.00,-913.00
2025-08-06T12:21:06.889477,5,-22,-108,0,0,0,92,94,53,0,74,152.18,0,69.00,417.00,-917.00
2025-08-06T12:21:06.991493,5,-22,-109,0,0,0,92,94,52,0,74,152.08,0,99.00,310.00,-960.00
2025-08-06T12:21:07.093508,5,-21,-108,0,0,0,92,94,52,0,74,152.19,0,109.00,392.00,-905.00
2025-08-06T12:21:07.195352,5,-21,-109,0,0,0,92,94,52,0,74,152.20,0,91.00,292.00,-856.00
2025-08-06T12:21:07.297502,6,-21,-109,0,0,1,92,94,51,0,74,151.86,0,119.00,425.00,-877.00
2025-08-06T12:21:07.399438,7,-23,-109,0,0,0,92,94,50,0,74,152.30,0,117.00,387.00,-962.00
2025-08-06T12:21:07.501307,8,-23,-109,0,0,0,92,94,50,0,74,152.15,0,149.00,337.00,-965.00
2025-08-06T12:21:07.603292,8,-24,-108,0,0,0,92,94,50,0,74,152.25,0,144.00,463.00,-912.00
2025-08-06T12:21:07.705246,8,-24,-108,0,0,0,92,94,50,0,74,152.20,0,149.00,333.00,-920.00
2025-08-06T12:21:07.807647,8,-23,-108,0,0,0,92,94,50,0,74,152.09,0,154.00,440.00,-915.00
2025-08-06T12:21:07.909232,8,-24,-108,0,0,0,92,94,50,0,74,152.25,0,130.00,396.00,-912.00
2025-08-06T12:21:08.011260,8,-24,-108,0,0,0,92,94,50,0,74,152.11,0,149.00,401.00,-880.00
2025-08-06T12:21:08.113189,8,-24,-107,0,0,0,92,94,50,0,74,152.28,0,140.00,484.00,-880.00
2025-08-06T12:21:08.215397,9,-24,-108,0,0,0,92,93,50,0,74,152.07,0,143.00,349.00,-938.00
2025-08-06T12:21:08.317340,9,-24,-107,0,0,0,92,93,50,0,74,152.12,0,179.00,482.00,-914.00
2025-08-06T12:21:08.419328,8,-24,-108,0,0,0,92,93,51,0,74,151.91,0,170.00,370.00,-850.00
2025-08-06T12:21:08.470114,9,-24,-108,0,0,0,92,93,51,0,74,151.90,0,172.00,400.00,-879.00
2025-08-06T12:21:08.572198,9,-24,-108,0,0,0,92,93,50,0,74,152.14,0,122.00,429.00,-924.00
2025-08-06T12:21:08.674253,9,-23,-108,0,0,0,92,93,50,0,74,151.72,0,164.00,386.00,-969.00
2025-08-06T12:21:08.776204,8,-22,-107,0,0,-1,92,93,51,0,74,152.04,0,117.00,442.00,-1041.00
2025-08-06T12:21:08.878582,5,-21,-106,0,0,-1,92,93,52,0,74,151.95,0,117.00,367.00,-815.00
2025-08-06T12:21:08.980199,5,-19,-108,0,0,0,92,93,52,0,74,152.08,0,85.00,221.00,-939.00
2025-08-06T12:21:09.082207,6,-16,-109,0,0,0,92,93,51,0,74,152.02,0,13.00,301.00,-850.00
2025-08-06T12:21:09.184169,6,-15,-110,0,0,1,92,94,50,0,74,152.37,0,51.00,189.00,-826.00
2025-08-06T12:21:09.288099,6,-14,-108,0,0,3,92,94,47,0,74,152.18,0,140.00,172.00,-820.00
2025-08-06T12:21:09.388808,5,-13,-105,0,0,3,92,94,41,0,74,152.11,0,149.00,158.00,-896.00
2025-08-06T12:21:09.490238,6,-10,-100,0,0,4,92,94,37,0,74,151.98,0,140.00,156.00,-1054.00
2025-08-06T12:21:09.593098,3,-8,-92,0,0,3,92,94,32,0,74,151.83,0,89.00,188.00,-1140.00
2025-08-06T12:21:09.695956,7,-13,-86,0,0,3,92,94,10,0,74,151.77,0,22.00,341.00,-1113.00
2025-08-06T12:21:09.798316,7,-13,-84,0,0,3,92,94,10,0,74,151.93,0,190.00,264.00,-830.00
2025-08-06T12:21:09.901825,10,-13,-85,0,0,3,92,94,10,0,74,151.87,0,218.00,164.00,-992.00
2025-08-06T12:21:10.003140,12,-16,-80,0,0,3,92,94,10,0,74,151.63,0,182.00,303.00,-1010.00
2025-08-06T12:21:10.102058,12,-18,-76,0,0,3,92,94,10,0,74,151.83,0,213.00,408.00,-1035.00
2025-08-06T12:21:10.204176,12,-19,-74,0,0,2,92,94,10,0,74,152.18,0,226.00,325.00,-963.00
2025-08-06T12:21:10.306086,13,-18,-75,0,0,1,92,94,10,0,74,151.65,0,218.00,404.00,-969.00
2025-08-06T12:21:10.407998,12,-19,-76,0,1,0,92,94,10,0,74,151.67,0,258.00,362.00,-1002.00
2025-08-06T12:21:10.510123,9,-23,-75,0,1,-2,92,94,10,0,74,151.91,0,168.00,341.00,-1140.00
2025-08-06T12:21:10.612900,7,-23,-77,0,1,-3,92,94,10,0,74,151.76,0,175.00,396.00,-1039.00
2025-08-06T12:21:10.714024,6,-23,-83,0,0,-4,92,94,10,0,74,151.86,0,178.00,456.00,-989.00
2025-08-06T12:21:10.816572,2,-23,-84,0,0,-5,92,94,31,0,74,152.07,0,140.00,456.00,-870.00
2025-08-06T12:21:10.918056,0,-22,-87,0,0,-5,92,94,38,10,74,152.07,0,83.00,414.00,-768.00
2025-08-06T12:21:11.020062,-1,-20,-92,1,-1,-5,92,94,44,10,74,151.83,0,33.00,445.00,-718.00
2025-08-06T12:21:11.121881,-1,-16,-98,1,-1,-5,92,94,50,20,74,151.94,0,-34.00,292.00,-843.00
2025-08-06T12:21:11.224036,-3,-14,-102,1,-2,-5,91,94,55,20,74,151.99,0,-100.00,202.00,-963.00
2025-08-06T12:21:11.326057,-4,-12,-103,0,-2,-4,91,94,59,30,74,152.11,0,-175.00,230.00,-859.00
2025-08-06T12:21:11.428014,-5,-10,-106,0,-2,-2,91,94,61,30,74,152.17,0,-165.00,182.00,-880.00
2025-08-06T12:21:11.529949,-4,-7,-107,0,-2,-1,91,94,62,40,74,152.24,0,-105.00,130.00,-1053.00
2025-08-06T12:21:11.633317,-4,-6,-107,0,-2,-1,91,94,63,40,74,152.08,0,-19.00,29.00,-1042.00
2025-08-06T12:21:11.733933,-5,-4,-105,-1,-3,-1,91,94,64,40,74,152.58,0,-102.00,78.00,-933.00
2025-08-06T12:21:11.785054,-5,-2,-102,-1,-3,-1,91,94,65,0,74,152.37,0,-198.00,115.00,-971.00
2025-08-06T12:21:11.887102,-5,-1,-97,-1,-3,0,91,94,10,0,74,152.42,0,-284.00,149.00,-940.00
2025-08-06T12:21:11.989140,-5,0,-95,0,-1,0,91,94,10,0,74,152.37,0,-416.00,199.00,-952.00
2025-08-06T12:21:12.091113,-6,0,-96,1,0,0,91,94,10,0,74,152.18,0,-392.00,100.00,-914.00
2025-08-06T12:21:12.194574,-8,0,-100,2,2,0,92,94,65,0,74,152.07,0,-153.00,-59.00,-663.00
2025-08-06T12:21:12.295901,-8,-2,-104,1,4,2,92,94,65,0,74,152.01,0,8.00,-244.00,-828.00
2025-08-06T12:21:12.398097,-7,-4,-106,0,4,4,92,94,61,0,74,152.42,0,118.00,-237.00,-914.00
2025-08-06T12:21:12.499236,-4,-6,-109,0,3,5,92,94,55,0,74,152.15,0,200.00,77.00,-919.00
2025-08-06T12:21:12.601610,0,-9,-106,-1,2,6,92,94,49,0,74,151.77,0,220.00,279.00,-984.00
2025-08-06T12:21:12.703031,4,-13,-102,0,1,5,92,94,43,-10,74,152.04,0,211.00,399.00,-1030.00
2025-08-06T12:21:12.805000,8,-18,-97,0,0,4,92,94,39,-20,74,151.66,0,243.00,319.00,-1085.00
2025-08-06T12:21:12.906998,10,-22,-89,0,0,3,92,94,36,-20,74,151.85,0,291.00,433.00,-943.00
2025-08-06T12:21:13.008916,11,-25,-82,0,0,3,92,94,33,-30,74,151.63,0,264.00,500.00,-902.00
2025-08-06T12:21:13.111047,13,-28,-77,0,0,2,92,94,31,-30,74,151.52,0,268.00,450.00,-886.00
2025-08-06T12:21:13.213766,15,-29,-74,0,0,2,92,94,10,-30,74,151.83,0,260.00,579.00,-973.00
2025-08-06T12:21:13.315786,17,-29,-73,0,0,1,92,94,10,0,74,151.84,0,220.00,598.00,-1024.00
2025-08-06T12:21:13.416990,17,-29,-76,0,1,0,92,94,10,0,74,151.88,0,250.00,599.00,-960.00
2025-08-06T12:21:13.519288,14,-30,-79,0,2,-2,92,94,32,0,74,151.96,0,337.00,509.00,-932.00
2025-08-06T12:21:13.621044,14,-29,-89,0,1,-3,92,94,36,0,74,151.74,0,397.00,430.00,-941.00
2025-08-06T12:21:13.723020,13,-26,-98,0,0,-4,92,94,41,0,74,151.83,0,377.00,467.00,-859.00
2025-08-06T12:21:13.825032,8,-25,-101,0,0,-5,92,94,49,0,74,152.05,0,260.00,391.00,-930.00
2025-08-06T12:21:13.926905,4,-24,-102,0,-1,-5,92,94,53,10,74,152.10,0,207.00,299.00,-900.00
2025-08-06T12:21:14.028914,2,-19,-107,0,-2,-5,92,94,57,10,74,152.24,0,113.00,242.00,-907.00
2025-08-06T12:21:14.130978,0,-12,-110,0,-3,-4,92,94,60,20,74,152.58,0,47.00,176.00,-910.00
2025-08-06T12:21:14.232960,-1,-6,-112,0,-3,-4,92,94,63,20,74,152.13,0,23.00,22.00,-821.00
2025-08-06T12:21:14.334778,-3,-1,-112,0,-3,-3,92,94,66,30,74,152.02,0,2.00,-63.00,-905.00
2025-08-06T12:21:14.436901,-4,1,-111,0,-4,-2,92,94,68,30,74,152.52,0,-4.00,-87.00,-952.00
2025-08-06T12:21:14.539015,-6,3,-106,-1,-4,-1,92,94,69,30,74,152.28,0,-114.00,-90.00,-929.00
2025-08-06T12:21:14.640842,-8,4,-101,-1,-4,-1,92,94,33,0,74,152.19,0,-309.00,-4.00,-886.00
2025-08-06T12:21:14.742892,-8,5,-97,-1,-2,0,92,94,10,0,74,152.18,0,-428.00,45.00,-862.00
2025-08-06T12:21:14.844908,-8,5,-95,0,0,0,92,94,10,0,74,152.27,0,-471.00,55.00,-790.00
2025-08-06T12:21:14.895718,-9,3,-97,0,2,1,92,94,64,0,74,152.39,0,-363.00,-44.00,-808.00
2025-08-06T12:21:14.997764,-9,0,-100,0,4,2,92,94,63,0,74,152.40,0,-226.00,82.00,-833.00
2025-08-06T12:21:15.099849,-9,-5,-102,0,5,3,92,94,60,0,74,152.08,0,-55.00,103.00,-831.00
2025-08-06T12:21:15.252910,-6,-7,-103,0,4,4,93,94,55,0,74,152.28,0,-113.00,326.00,-996.00
2025-08-06T12:21:15.303737,-4,-11,-102,0,3,4,93,94,51,0,74,152.01,0,-24.00,418.00,-1109.00
2025-08-06T12:21:15.406014,0,-15,-101,0,2,3,93,94,47,0,74,152.18,0,70.00,292.00,-955.00
2025-08-06T12:21:15.508370,3,-16,-101,0,1,3,93,94,43,0,74,151.91,0,192.00,427.00,-1011.00
2025-08-06T12:21:15.610856,7,-18,-100,0,0,2,93,94,42,0,74,152.17,0,82.00,559.00,-1400.00
2025-08-06T12:21:15.719389,10,-18,-101,0,1,-1,93,94,44,0,74,152.02,0,185.00,493.00,-1269.00
2025-08-06T12:21:15.813651,4,-17,-103,0,1,-4,93,94,49,0,74,151.95,0,155.00,364.00,-1092.00
2025-08-06T12:21:15.915891,-1,-14,-106,0,0,-6,93,94,56,0,74,152.10,0,94.00,256.00,-937.00
2025-08-06T12:21:16.022294,-7,-10,-108,0,-2,-6,93,94,61,10,74,152.36,0,-21.00,196.00,-846.00
2025-08-06T12:21:16.119754,-11,-6,-109,0,-3,-5,93,94,67,10,74,152.58,0,-144.00,102.00,-858.00
2025-08-06T12:21:16.221823,-12,-2,-108,0,-4,-3,92,94,69,20,74,152.52,0,-342.00,185.00,-781.00
2025-08-06T12:21:16.323997,-12,0,-106,0,-4,-1,92,94,70,20,74,152.08,0,-482.00,256.00,-831.00
2025-08-06T12:21:16.425622,-9,2,-109,3,-3,0,92,94,68,20,74,152.37,0,-396.00,-60.00,-783.00
2025-08-06T12:21:16.527699,-9,2,-111,3,0,1,92,94,67,20,74,152.40,0,-313.00,-300.00,-847.00
2025-08-06T12:21:16.630130,-9,0,-114,1,1,2,92,94,64,20,74,152.08,0,-237.00,-290.00,-962.00
2025-08-06T12:21:16.731734,-7,0,-116,0,3,3,92,94,60,0,74,152.30,0,-142.00,-86.00,-1123.00
2025-08-06T12:21:16.833910,-7,0,-117,0,3,3,92,94,56,0,74,152.04,0,25.00,-51.00,-933.00
2025-08-06T12:21:16.935712,-5,-3,-116,0,3,4,92,94,50,0,74,152.09,0,133.00,194.00,-990.00
2025-08-06T12:21:17.037768,2,-4,-116,0,1,5,92,94,47,0,74,152.11,0,149.00,268.00,-1231.00
2025-08-06T12:21:17.139497,5,-8,-115,0,1,2,92,94,46,-10,74,152.30,0,155.00,211.00,-1384.00
2025-08-06T12:21:17.241649,5,-9,-115,0,0,0,91,94,48,-10,74,152.12,0,171.00,166.00,-1357.00
2025-08-06T12:21:17.343685,1,-7,-114,-1,0,-4,91,94,53,0,74,151.99,0,151.00,198.00,-1205.00
2025-08-06T12:21:17.445597,-4,-3,-115,0,-2,-6,91,94,60,0,74,152.34,0,54.00,176.00,-895.00
2025-08-06T12:21:17.547577,-9,0,-115,0,-3,-5,91,94,67,0,74,152.42,0,-130.00,-15.00,-713.00
2025-08-06T12:21:17.649674,-12,1,-115,1,-4,-3,91,94,71,0,74,152.25,0,-335.00,-70.00,-541.00
2025-08-06T12:21:17.751572,-13,1,-115,1,-2,0,91,94,71,0,74,152.04,0,-374.00,-249.00,-635.00
2025-08-06T12:21:17.853777,-13,-1,-114,1,0,3,91,94,66,0,74,152.21,0,-441.00,-42.00,-950.00
2025-08-06T12:21:17.955532,-8,-3,-115,0,1,4,91,94,61,0,74,152.28,0,-134.00,-123.00,-1034.00
2025-08-06T12:21:18.057549,-6,-6,-113,0,2,5,91,94,55,0,74,152.34,0,4.00,-55.00,-1068.00
2025-08-06T12:21:18.159616,-3,-8,-111,-1,2,5,91,94,50,0,74,152.04,0,203.00,224.00,-872.00
2025-08-06T12:21:18.261557,2,-12,-106,-1,1,5,92,94,47,0,74,151.77,0,365.00,212.00,-875.00
2025-08-06T12:21:18.363562,5,-20,-102,0,0,5,92,94,44,-10,74,152.07,0,410.00,504.00,-1103.00
2025-08-06T12:21:18.414640,11,-22,-101,0,0,2,92,94,43,-10,74,152.03,0,144.00,509.00,-1457.00
2025-08-06T12:21:18.516796,10,-21,-104,0,1,-2,92,94,45,-10,74,152.16,0,216.00,471.00,-1312.00
2025-08-06T12:21:18.619094,2,-16,-107,0,1,-6,92,94,51,-10,74,152.13,0,220.00,380.00,-1201.00
2025-08-06T12:21:18.720662,-2,-7,-114,0,0,-8,92,94,60,0,74,152.47,0,130.00,66.00,-869.00
2025-08-06T12:21:18.822728,-9,0,-117,0,-2,-7,92,94,68,0,74,152.28,0,6.00,-68.00,-577.00
2025-08-06T12:21:18.924565,-12,4,-116,0,-3,-4,92,94,73,0,74,152.36,0,-208.00,-144.00,-527.00
2025-08-06T12:21:19.026678,-13,5,-114,0,-2,0,92,94,73,10,74,152.38,0,-378.00,-131.00,-512.00
2025-08-06T12:21:19.128623,-11,2,-112,0,0,3,92,94,67,10,74,152.17,0,-491.00,-105.00,-1075.00
2025-08-06T12:21:19.230604,-8,-5,-111,0,3,6,92,94,62,0,74,152.50,0,-285.00,-25.00,-828.00
2025-08-06T12:21:19.332749,0,-8,-111,0,2,6,92,94,54,0,74,152.10,0,-90.00,185.00,-1128.00
2025-08-06T12:21:19.434584,3,-10,-109,0,2,5,92,94,48,0,74,151.97,0,53.00,268.00,-1038.00
2025-08-06T12:21:19.536940,7,-13,-106,0,0,4,92,94,43,-10,74,152.25,0,221.00,387.00,-1060.00
2025-08-06T12:21:19.640701,10,-17,-102,0,0,1,92,94,41,-10,74,151.87,0,269.00,362.00,-1169.00
2025-08-06T12:21:19.741756,9,-20,-98,0,0,0,92,94,41,-10,74,152.05,0,208.00,419.00,-1235.00
2025-08-06T12:21:19.844230,6,-19,-102,0,0,-4,92,94,43,-10,74,152.05,0,122.00,498.00,-1361.00
2025-08-06T12:21:19.946392,-2,-17,-101,0,0,-6,92,94,47,-10,74,152.39,0,214.00,390.00,-1211.00
2025-08-06T12:21:20.049060,-10,-14,-104,1,-2,-7,92,94,55,0,74,151.95,0,1.00,474.00,-949.00
2025-08-06T12:21:20.151170,-15,-8,-108,1,-3,-5,92,94,63,0,74,152.31,0,-18.00,66.00,-746.00
2025-08-06T12:21:20.250816,-17,-5,-108,0,-2,-1,92,94,68,0,74,152.07,0,-115.00,383.00,-961.00
2025-08-06T12:21:20.352787,-15,-7,-107,0,0,3,92,94,68,0,74,152.34,0,-254.00,-175.00,-421.00
2025-08-06T12:21:20.454739,-13,-13,-104,0,0,5,92,94,64,0,74,152.09,0,-319.00,-52.00,-770.00
2025-08-06T12:21:20.556716,-5,-18,-101,0,1,6,92,94,58,0,74,151.99,0,-307.00,338.00,-1009.00
2025-08-06T12:21:20.658929,1,-18,-101,0,2,5,92,94,52,-10,74,151.92,0,3.00,312.00,-1028.00
2025-08-06T12:21:20.760596,8,-17,-100,-1,0,5,92,94,45,-10,74,152.23,0,413.00,246.00,-913.00
2025-08-06T12:21:20.862874,16,-17,-97,0,0,2,92,94,41,-10,74,151.97,0,359.00,397.00,-1253.00
2025-08-06T12:21:20.966968,14,-18,-96,0,1,-1,92,94,40,-20,74,152.03,0,200.00,551.00,-1280.00
2025-08-06T12:21:21.066597,6,-19,-98,0,1,-4,92,94,43,-10,74,152.43,0,254.00,448.00,-1225.00
2025-08-06T12:21:21.168435,-3,-16,-101,1,0,-7,92,94,49,-10,74,152.22,0,284.00,624.00,-1139.00
2025-08-06T12:21:21.270607,-12,-11,-107,2,-3,-8,92,94,58,0,74,152.14,0,-9.00,186.00,-801.00
2025-08-06T12:21:21.372449,-14,-3,-112,1,-4,-6,92,94,65,0,74,152.51,0,-210.00,-197.00,-736.00
2025-08-06T12:21:21.474418,-18,0,-112,0,-3,-2,92,94,71,10,74,152.33,0,-283.00,-171.00,-374.00
2025-08-06T12:21:21.576570,-18,-3,-108,0,0,2,92,94,74,10,74,152.24,0,-233.00,-117.00,-171.00
2025-08-06T12:21:21.678846,-12,-11,-105,-1,1,6,92,94,68,0,74,152.28,0,-291.00,220.00,-703.00
2025-08-06T12:21:21.781313,-4,-21,-99,0,1,6,92,94,61,0,74,152.47,0,-253.00,758.00,-966.00
2025-08-06T12:21:21.831679,3,-23,-99,0,1,5,92,94,55,0,74,152.21,0,0.00,811.00,-1012.00
2025-08-06T12:21:21.933317,7,-26,-97,0,1,2,92,94,51,0,74,152.12,0,157.00,586.00,-1148.00
2025-08-06T12:21:22.035278,10,-27,-99,0,1,0,92,94,49,0,74,151.99,0,260.00,445.00,-1140.00
2025-08-06T12:21:22.137337,7,-27,-98,0,1,-1,92,94,50,0,74,151.97,0,227.00,516.00,-1014.00
2025-08-06T12:21:22.239216,3,-26,-99,0,0,-3,92,95,52,0,74,152.27,0,121.00,455.00,-959.00
2025-08-06T12:21:22.341293,0,-23,-101,0,0,-3,92,95,54,0,74,152.03,0,98.00,383.00,-840.00
2025-08-06T12:21:22.443213,-3,-21,-100,0,-1,-2,92,95,56,0,74,152.25,0,-34.00,390.00,-799.00
2025-08-06T12:21:22.545677,-4,-20,-100,0,-1,-1,92,95,58,0,74,151.94,0,-136.00,311.00,-915.00
2025-08-06T12:21:22.647221,-4,-19,-100,0,-1,0,92,95,58,0,74,152.41,0,-135.00,365.00,-766.00
2025-08-06T12:21:22.749219,-3,-19,-101,0,0,1,92,95,57,0,74,152.34,0,-35.00,108.00,-687.00
2025-08-06T12:21:22.851329,3,-20,-100,0,0,4,92,95,55,0,74,152.00,0,57.00,341.00,-940.00
2025-08-06T12:21:22.954361,8,-20,-99,0,0,3,92,95,50,0,74,152.04,0,71.00,460.00,-1234.00
2025-08-06T12:21:23.056999,7,-19,-99,0,1,0,92,95,49,0,74,152.08,0,31.00,623.00,-1479.00
2025-08-06T12:21:23.158630,1,-16,-102,0,1,-5,92,95,51,0,74,152.06,0,152.00,463.00,-1355.00
2025-08-06T12:21:23.260493,-8,-11,-105,0,0,-8,92,94,62,0,74,152.36,0,258.00,304.00,-1072.00
2025-08-06T12:21:23.362634,-15,-4,-108,0,-4,-7,92,94,72,10,74,152.38,0,204.00,15.00,-661.00
2025-08-06T12:21:23.464382,-18,0,-105,-2,-6,-3,92,94,77,20,74,152.28,0,78.00,-251.00,-528.00
2025-08-06T12:21:23.566392,-17,2,-97,-4,-8,1,92,94,71,20,74,152.13,0,-26.00,-162.00,-623.00
2025-08-06T12:21:23.668351,-13,1,-84,-3,-8,5,92,94,10,10,74,152.26,0,-430.00,279.00,-691.00
2025-08-06T12:21:23.770261,-5,0,-78,-1,-4,6,92,94,10,10,74,152.34,0,-435.00,42.00,-1079.00
2025-08-06T12:21:23.872376,-1,-1,-75,-1,-1,5,92,94,10,0,74,151.93,0,-119.00,165.00,-1037.00
2025-08-06T12:21:23.975802,0,0,-79,0,0,0,92,94,10,0,74,152.26,0,262.00,-170.00,-773.00
2025-08-06T12:21:24.076300,0,0,-78,1,-1,0,92,94,10,0,74,151.79,0,41.00,148.00,-1060.00
2025-08-06T12:21:24.178424,0,0,-78,0,-1,0,92,94,10,0,74,152.08,0,-86.00,-155.00,-984.00
2025-08-06T12:21:24.280267,0,0,-78,0,-1,0,92,94,10,0,74,152.11,0,78.00,76.00,-1013.00
2025-08-06T12:21:24.382328,0,0,-78,1,-1,0,92,94,10,0,74,152.20,0,-2.00,-1.00,-994.00
2025-08-06T12:21:24.484276,0,0,-78,0,-1,0,92,94,10,0,74,152.35,0,-41.00,-66.00,-999.00
2025-08-06T12:21:24.586445,0,0,-78,0,-1,0,92,94,10,0,74,152.14,0,59.00,78.00,-1000.00
2025-08-06T12:21:24.688424,0,0,-78,1,-1,0,92,94,10,0,74,152.04,0,-9.00,-54.00,-999.00
2025-08-06T12:21:24.790352,0,0,-78,0,-1,0,92,94,10,0,74,152.24,0,10.00,-10.00,-1000.00
2025-08-06T12:21:24.892296,0,0,-78,1,-1,0,92,94,10,0,74,152.25,0,31.00,37.00,-998.00
2025-08-06T12:21:24.994553,0,0,-78,1,-1,0,92,94,10,0,74,152.10,0,-16.00,-50.00,-1001.00
2025-08-06T12:21:25.045283,0,0,-78,1,-2,0,92,94,10,0,74,152.28,0,29.00,23.00,-1001.00
2025-08-06T12:21:25.147448,0,0,-78,1,-2,0,92,94,10,0,74,151.96,0,10.00,-5.00,-1000.00
2025-08-06T12:21:25.249112,0,0,-78,1,-2,0,92,94,10,0,74,152.14,0,0.00,-25.00,-1000.00
2025-08-06T12:21:25.351172,0,0,-78,1,-2,0,92,94,10,0,74,152.22,0,28.00,24.00,-1004.00
2025-08-06T12:21:25.453086,0,0,-78,1,-2,0,92,94,10,0,74,151.96,0,-1.00,-26.00,-1001.00
2025-08-06T12:21:25.554990,0,0,-78,1,-2,0,92,94,10,0,74,151.97,0,15.00,2.00,-1000.00
2025-08-06T12:21:25.657115,0,0,-78,1,-2,0,92,94,10,0,74,152.22,0,15.00,2.00,-1000.00
2025-08-06T12:21:25.759418,0,0,-78,1,-2,0,92,94,10,0,74,152.23,0,2.00,-20.00,-1002.00
2025-08-06T12:21:25.861204,0,0,-78,0,0,0,92,94,10,0,74,152.29,0,20.00,12.00,-1001.00
2025-08-06T12:21:25.964459,0,0,-78,0,0,0,92,94,10,0,74,152.21,0,4.00,-14.00,-1000.00
2025-08-06T12:21:26.065289,0,0,-78,0,0,0,92,94,10,0,74,152.08,0,14.00,-1.00,-1002.00
2025-08-06T12:21:26.167347,0,0,-78,0,0,0,92,94,10,0,74,152.30,0,13.00,0.00,-1001.00
