TS,pitch,roll,yaw,vgx,vgy,vgz,templ,temph,tof,h,bat,baro,time,agx,agy,agz
2025-08-06T12:09:52.297899,-5,5,-20,0,0,0,78,80,10,0,87,152.78,0,-80.00,-73.00,-1009.00
2025-08-06T12:09:52.400025,-5,4,-21,0,0,0,78,80,10,0,87,152.83,0,-90.00,-75.00,-963.00
2025-08-06T12:09:52.501919,-5,5,-21,0,0,0,78,80,10,0,87,152.49,0,-104.00,-93.00,-1001.00
2025-08-06T12:09:52.604448,-5,4,-22,0,0,0,78,80,10,0,87,152.68,0,-95.00,-103.00,-1005.00
2025-08-06T12:09:52.705894,-4,4,-23,0,0,0,78,80,10,0,87,152.51,0,-70.00,-72.00,-979.00
2025-08-06T12:09:52.808217,-3,3,-23,0,0,0,78,80,10,0,87,152.30,0,-117.00,-63.00,-1068.00
2025-08-06T12:09:52.910860,-3,1,-24,0,0,0,78,80,10,0,87,152.93,0,-120.00,-6.00,-1020.00
2025-08-06T12:09:53.011705,-1,0,-27,0,0,0,78,80,10,0,87,152.44,0,-35.00,58.00,-972.00
2025-08-06T12:09:53.113726,0,0,-25,0,0,0,78,80,10,0,87,152.91,0,-27.00,28.00,-904.00
2025-08-06T12:09:53.216298,3,1,-24,0,0,0,78,80,10,0,87,152.47,0,63.00,67.00,-906.00
2025-08-06T12:09:53.318985,5,0,-16,0,0,1,78,80,10,0,87,152.73,0,23.00,69.00,-1032.00
2025-08-06T12:09:53.420145,0,-1,-3,0,0,1,78,80,10,0,87,152.62,0,45.00,-7.00,-1018.00
2025-08-06T12:09:53.523182,-4,-1,6,0,0,1,78,80,10,0,87,152.64,0,-111.00,-84.00,-1029.00
2025-08-06T12:09:53.625517,-1,3,21,0,0,0,78,80,10,0,87,152.74,0,-33.00,-3.00,-1087.00
2025-08-06T12:09:53.674838,4,5,29,0,0,-1,78,80,10,0,87,152.28,0,-110.00,-149.00,-1294.00
2025-08-06T12:09:53.776653,1,4,7,0,0,-4,78,80,10,0,87,152.71,0,196.00,-98.00,-1493.00
2025-08-06T12:09:53.879135,0,8,-9,0,0,-6,78,80,10,0,87,152.97,0,208.00,-194.00,-1153.00
2025-08-06T12:09:53.980677,0,5,-13,0,0,-8,78,80,10,10,87,152.72,0,24.00,-104.00,-1073.00
2025-08-06T12:09:54.082725,1,1,-28,0,0,-9,78,80,37,20,87,152.72,0,138.00,-200.00,-912.00
2025-08-06T12:09:54.184977,6,1,-47,0,0,-8,78,80,48,20,87,152.96,0,325.00,11.00,-850.00
2025-08-06T12:09:54.287455,3,-3,-63,0,0,-6,78,80,63,30,87,153.16,0,115.00,46.00,-857.00
2025-08-06T12:09:54.388977,-2,-5,-77,0,0,-5,78,80,94,40,87,153.02,0,18.00,228.00,-860.00
2025-08-06T12:09:54.490604,-6,-7,-88,0,0,-3,78,80,127,40,87,152.99,0,204.00,129.00,-672.00
2025-08-06T12:09:54.592797,0,-7,-103,0,0,-1,78,80,94,50,87,153.08,0,137.00,-29.00,-692.00
2025-08-06T12:09:54.694623,1,-6,-117,0,0,0,78,80,102,50,87,153.36,0,116.00,3.00,-856.00
2025-08-06T12:09:54.796817,-4,-6,-127,0,0,2,78,80,95,40,87,153.20,0,-34.00,103.00,-715.00
2025-08-06T12:09:54.899112,-16,-3,-137,0,0,5,78,80,79,40,87,153.37,0,-144.00,118.00,-687.00
2025-08-06T12:09:55.000690,-18,-4,-150,0,0,8,78,80,83,30,87,153.09,0,-86.00,-11.00,-823.00
2025-08-06T12:09:55.102905,-7,-5,-161,0,0,8,78,80,128,30,87,152.99,0,-140.00,-160.00,-1104.00
2025-08-06T12:09:55.204753,-2,-2,-164,0,0,8,78,80,118,20,87,152.67,0,-16.00,-443.00,-1034.00
2025-08-06T12:09:55.306673,0,-4,-153,0,0,7,78,80,109,10,87,152.72,0,-372.00,80.00,-1210.00
2025-08-06T12:09:55.408992,1,0,-150,0,0,5,78,80,103,0,87,152.72,0,-54.00,-113.00,-946.00
2025-08-06T12:09:55.511396,0,5,-150,0,0,3,78,80,99,0,87,152.64,0,-98.00,-10.00,-1424.00
2025-08-06T12:09:55.613718,0,7,-156,0,0,0,78,80,99,0,87,152.92,0,-2.00,-268.00,-1523.00
2025-08-06T12:09:55.716120,-4,6,-159,0,0,-5,78,80,104,0,87,152.99,0,-319.00,-288.00,-1463.00
2025-08-06T12:09:55.818458,-11,0,-154,3,3,-9,78,80,114,10,87,152.58,0,-449.00,-496.00,-1022.00
2025-08-06T12:09:55.920889,-20,-5,-138,1,8,-9,78,80,98,20,87,153.18,0,-264.00,-385.00,-878.00
2025-08-06T12:09:56.023125,-22,-10,-121,-1,10,-7,78,80,83,30,87,153.05,0,-230.00,-231.00,-664.00
2025-08-06T12:09:56.122622,-20,-11,-103,0,0,-3,77,80,58,30,87,153.23,0,-248.00,-199.00,-574.00
2025-08-06T12:09:56.224792,-16,-9,-87,0,0,0,77,80,71,30,87,153.04,0,-22.00,-25.00,-668.00
2025-08-06T12:09:56.326534,-8,-6,-69,0,0,3,77,80,117,30,87,152.71,0,36.00,-67.00,-842.00
2025-08-06T12:09:56.428683,-3,0,-50,0,0,4,77,80,112,30,87,153.17,0,57.00,-44.00,-1081.00
2025-08-06T12:09:56.530604,0,0,-32,0,0,3,77,80,68,20,87,152.69,0,148.00,-233.00,-1155.00
2025-08-06T12:09:56.632656,2,3,-19,0,0,1,77,80,48,0,87,152.84,0,164.00,-162.00,-996.00
2025-08-06T12:09:56.734607,4,3,-7,0,0,1,77,80,40,0,87,152.69,0,111.00,-245.00,-953.00
2025-08-06T12:09:56.836696,7,4,6,0,0,1,77,80,47,0,87,152.79,0,-116.00,-185.00,-1005.00
2025-08-06T12:09:56.888427,4,2,21,0,0,2,77,80,47,0,87,153.02,0,183.00,-291.00,-796.00
2025-08-06T12:09:56.989644,2,4,33,0,0,4,77,80,51,0,87,152.81,0,111.00,-168.00,-794.00
2025-08-06T12:09:57.092194,-1,7,41,0,0,6,78,80,59,0,87,152.39,0,296.00,-116.00,-814.00
2025-08-06T12:09:57.193527,0,8,45,0,0,7,78,80,65,-10,87,152.77,0,25.00,-422.00,-1098.00
2025-08-06T12:09:57.295474,-4,13,49,0,0,4,78,80,41,-20,87,152.75,0,-2.00,-511.00,-1503.00
2025-08-06T12:09:57.397603,-8,17,46,0,0,-1,78,80,40,-20,87,152.62,0,131.00,-35.00,-1646.00
2025-08-06T12:09:57.499605,-7,10,42,0,0,-6,78,80,56,-10,87,152.92,0,190.00,-391.00,-1226.00
2025-08-06T12:09:57.601621,-4,6,30,0,0,-8,78,80,61,0,87,152.73,0,196.00,-323.00,-1001.00
2025-08-06T12:09:57.704028,0,3,15,0,0,-7,78,80,42,0,87,153.23,0,22.00,-393.00,-878.00
2025-08-06T12:09:57.805736,3,4,4,0,0,-6,78,80,49,0,87,152.72,0,-15.00,-312.00,-953.00
2025-08-06T12:09:57.908494,8,4,-5,0,0,-5,78,80,54,10,87,152.90,0,108.00,-188.00,-713.00
2025-08-06T12:09:58.009754,8,0,-24,0,0,-3,78,80,62,10,87,153.24,0,333.00,-232.00,-891.00
2025-08-06T12:09:58.112226,8,-5,-43,0,0,-3,79,80,133,20,87,153.13,0,318.00,-141.00,-1084.00
2025-08-06T12:09:58.215514,5,-11,-63,0,0,-3,79,80,59,20,87,153.21,0,349.00,-231.00,-925.00
2025-08-06T12:09:58.317829,-1,-11,-89,0,0,-1,79,80,57,20,87,153.32,0,351.00,-88.00,-758.00
2025-08-06T12:09:58.417699,-8,-8,-120,0,0,0,79,80,67,20,87,153.05,0,169.00,-200.00,-833.00
2025-08-06T12:09:58.519964,-12,-5,-141,0,0,4,79,80,6553,0,87,153.03,0,30.00,-201.00,-551.00
2025-08-06T12:09:58.621646,-6,-4,-158,0,0,7,79,80,130,0,87,153.07,0,-114.00,-383.00,-1003.00
2025-08-06T12:09:58.723934,0,-2,-166,0,0,7,79,80,124,-10,87,153.19,0,-142.00,-549.00,-1139.00
2025-08-06T12:09:58.825854,0,1,-167,0,0,6,79,80,117,-10,87,152.76,0,-265.00,-352.00,-1098.00
2025-08-06T12:09:58.927437,-2,6,-164,0,0,5,79,80,110,-20,87,152.90,0,-565.00,-305.00,-1039.00
2025-08-06T12:09:59.029558,-7,11,-167,0,0,2,79,80,111,-30,87,152.75,0,-1004.00,-785.00,-1441.00
2025-08-06T12:09:59.131450,-15,8,-157,0,0,-4,79,80,118,-20,87,153.14,0,-141.00,-510.00,-1233.00
2025-08-06T12:09:59.233372,-20,0,-144,2,6,-6,79,80,128,-20,87,152.72,0,-364.00,-346.00,-1066.00
2025-08-06T12:09:59.336862,-24,-3,-133,0,9,-6,79,80,85,-10,87,153.17,0,-381.00,-292.00,-740.00
2025-08-06T12:09:59.437579,-24,-6,-116,0,0,-4,79,80,41,-10,87,152.86,0,-256.00,-70.00,-614.00
2025-08-06T12:09:59.539907,-15,-9,-102,0,0,-1,79,80,77,0,87,152.98,0,-211.00,27.00,-687.00
2025-08-06T12:09:59.641952,-5,-11,-89,0,0,0,79,80,83,0,87,152.97,0,3.00,111.00,-820.00
2025-08-06T12:09:59.743397,3,-10,-74,0,0,2,79,80,85,0,87,152.98,0,39.00,125.00,-979.00
2025-08-06T12:09:59.845483,8,-8,-58,0,0,2,79,80,88,-10,87,153.06,0,91.00,-64.00,-836.00
2025-08-06T12:09:59.947285,11,-3,-41,0,0,4,79,80,120,0,87,152.96,0,197.00,-115.00,-1022.00
2025-08-06T12:09:59.998427,10,2,-24,0,0,3,79,80,66,0,87,152.92,0,228.00,-47.00,-908.00
2025-08-06T12:10:00.151387,10,4,-10,0,0,3,78,81,33,0,87,153.04,0,117.00,-56.00,-990.00
2025-08-06T12:10:00.253349,8,2,-2,0,0,3,78,81,39,0,87,152.90,0,204.00,-249.00,-975.00
2025-08-06T12:10:00.305635,9,0,5,0,0,2,78,81,35,0,87,153.02,0,162.00,-273.00,-1157.00
2025-08-06T12:10:00.407047,7,0,10,0,0,1,78,81,34,0,87,152.62,0,301.00,-146.00,-1005.00
2025-08-06T12:10:00.509454,7,0,14,0,0,1,78,81,32,0,87,153.01,0,330.00,-62.00,-915.00
2025-08-06T12:10:00.611178,10,0,17,0,0,1,78,81,31,0,87,152.88,0,211.00,-134.00,-1018.00
2025-08-06T12:10:00.712371,9,1,18,0,0,0,78,81,10,0,87,153.01,0,207.00,82.00,-1082.00
2025-08-06T12:10:00.814206,9,1,20,-1,0,0,78,81,10,0,87,153.00,0,64.00,16.00,-1057.00
2025-08-06T12:10:00.916615,8,1,23,-1,0,0,78,81,10,0,87,152.91,0,113.00,-65.00,-937.00
2025-08-06T12:10:01.021844,7,1,27,0,0,0,78,81,10,0,87,152.93,0,92.00,-81.00,-842.00
2025-08-06T12:10:01.120327,7,2,31,0,0,2,79,80,10,0,87,152.62,0,-33.00,-108.00,-879.00
2025-08-06T12:10:01.222392,5,4,36,0,0,3,79,80,10,0,87,152.60,0,71.00,-123.00,-1003.00
2025-08-06T12:10:01.324411,3,7,41,0,0,2,79,80,85,0,87,152.62,0,190.00,-136.00,-1180.00
2025-08-06T12:10:01.426380,1,8,47,-1,0,0,79,80,89,0,87,152.79,0,117.00,-189.00,-1221.00
2025-08-06T12:10:01.529180,0,6,53,0,0,-1,79,80,91,0,87,152.68,0,66.00,-306.00,-1144.00
2025-08-06T12:10:01.630353,-2,4,57,0,0,-3,79,80,93,0,87,152.78,0,81.00,62.00,-1130.00
2025-08-06T12:10:01.732772,-5,2,59,1,2,-2,79,80,92,0,87,152.61,0,224.00,-100.00,-756.00
2025-08-06T12:10:01.834391,-1,5,56,4,3,0,79,80,96,0,87,152.65,0,124.00,-164.00,-1005.00
2025-08-06T12:10:01.936190,2,8,49,4,5,-2,79,80,87,0,87,152.66,0,76.00,-168.00,-1167.00
2025-08-06T12:10:02.038255,3,6,45,3,4,-4,79,80,32,0,87,152.56,0,-25.00,-192.00,-1163.00
2025-08-06T12:10:02.140329,2,4,38,3,4,-5,79,81,33,0,87,152.69,0,102.00,-170.00,-1133.00
2025-08-06T12:10:02.242381,4,2,32,5,4,-6,79,81,38,0,87,152.82,0,130.00,-62.00,-1023.00
2025-08-06T12:10:02.344256,4,0,21,6,3,-5,79,81,43,10,87,152.94,0,304.00,-153.00,-767.00
2025-08-06T12:10:02.446280,9,-1,12,7,2,-4,79,81,46,10,87,152.93,0,24.00,-99.00,-869.00
2025-08-06T12:10:02.548381,10,-2,5,6,0,-2,79,81,46,10,87,152.95,0,43.00,100.00,-883.00
2025-08-06T12:10:02.650302,9,-4,0,4,1,-1,79,81,47,10,87,153.05,0,-44.00,127.00,-771.00
2025-08-06T12:10:02.752190,7,-3,-1,3,1,2,79,81,45,10,87,152.91,0,20.00,-3.00,-690.00
2025-08-06T12:10:02.854337,11,0,1,1,1,2,79,81,42,10,87,152.78,0,-80.00,24.00,-1098.00
2025-08-06T12:10:02.956582,10,1,3,0,1,2,79,81,40,0,87,152.67,0,108.00,8.00,-1040.00
2025-08-06T12:10:03.060582,11,3,10,-2,1,1,79,81,38,0,87,152.73,0,19.00,2.00,-1140.00
2025-08-06T12:10:03.161388,8,4,16,-3,0,1,79,81,37,0,87,152.87,0,166.00,-103.00,-1053.00
2025-08-06T12:10:03.262246,6,2,22,-5,0,1,79,81,36,0,87,152.93,0,121.00,-99.00,-1083.00
2025-08-06T12:10:03.364451,2,1,29,-6,0,1,79,81,36,0,87,152.89,0,4.00,3.00,-1033.00
2025-08-06T12:10:03.415102,3,3,35,-5,-1,3,79,81,33,0,87,152.84,0,-107.00,19.00,-973.00
2025-08-06T12:10:03.517844,2,7,40,-3,-2,2,79,81,45,0,87,152.88,0,170.00,-196.00,-829.00
2025-08-06T12:10:03.619671,0,9,43,-2,0,1,79,81,99,0,87,152.47,0,163.00,-222.00,-1097.00
2025-08-06T12:10:03.721209,0,8,45,-1,0,1,79,81,98,0,87,152.85,0,283.00,-141.00,-1039.00
2025-08-06T12:10:03.823441,0,7,46,-1,0,1,79,81,96,0,87,152.43,0,148.00,-197.00,-989.00
2025-08-06T12:10:03.926152,-2,3,48,-2,-1,2,79,81,94,0,87,152.96,0,-50.00,-213.00,-998.00
2025-08-06T12:10:04.028106,-1,2,47,0,-4,4,79,81,89,0,87,152.67,0,-189.00,-190.00,-836.00
2025-08-06T12:10:04.130475,-1,3,48,0,-2,3,79,81,84,0,87,152.63,0,-121.00,-57.00,-1195.00
2025-08-06T12:10:04.232287,0,0,49,0,-1,1,79,81,81,0,87,152.44,0,69.00,190.00,-1243.00
2025-08-06T12:10:04.334170,-8,2,44,0,0,0,79,81,31,0,87,152.83,0,-16.00,158.00,-1085.00
2025-08-06T12:10:04.436159,-9,2,40,0,2,-1,79,81,33,0,87,152.73,0,-62.00,43.00,-1117.00
2025-08-06T12:10:04.538059,-7,0,40,0,4,-1,79,81,61,0,87,152.53,0,12.00,29.00,-1081.00
2025-08-06T12:10:04.640854,-4,-1,36,1,5,-2,79,81,92,0,87,152.52,0,0.00,87.00,-1060.00
2025-08-06T12:10:04.742090,-1,-6,34,2,6,-3,79,81,97,0,87,152.76,0,-69.00,52.00,-1068.00
2025-08-06T12:10:04.844258,-1,-8,31,2,5,-3,79,81,102,0,87,152.52,0,57.00,133.00,-890.00
2025-08-06T12:10:04.946073,-2,-9,26,3,4,-2,79,81,105,0,87,152.85,0,17.00,54.00,-930.00
2025-08-06T12:10:05.048026,0,-11,23,4,3,-1,79,81,104,0,87,152.65,0,-62.00,136.00,-982.00
2025-08-06T12:10:05.150027,0,-13,20,4,2,-1,79,81,45,0,87,153.08,0,10.00,180.00,-952.00
2025-08-06T12:10:05.252098,-1,-13,16,4,1,-1,79,81,36,0,87,152.83,0,121.00,116.00,-1039.00
2025-08-06T12:10:05.354590,0,-10,12,5,0,-1,79,81,36,0,87,152.71,0,72.00,57.00,-942.00
2025-08-06T12:10:05.456053,1,-8,7,6,0,-1,79,81,36,0,87,152.76,0,-8.00,3.00,-1008.00
2025-08-06T12:10:05.559303,4,-9,1,6,0,-1,79,81,35,0,87,152.96,0,-12.00,39.00,-981.00
2025-08-06T12:10:05.660644,3,-9,-3,5,-1,-1,79,81,37,0,87,152.74,0,78.00,58.00,-1033.00
2025-08-06T12:10:05.762214,3,-7,-10,5,-2,-1,79,81,41,0,87,152.76,0,16.00,75.00,-1025.00
2025-08-06T12:10:05.864134,2,-4,-19,5,-2,-2,79,81,46,0,87,153.17,0,47.00,-22.00,-903.00
2025-08-06T12:10:05.966978,-1,-1,-28,5,-2,-1,79,81,50,0,87,152.96,0,8.00,-56.00,-749.00
2025-08-06T12:10:06.069677,-4,0,-38,4,-4,0,79,81,54,0,87,152.73,0,-41.00,-184.00,-713.00
2025-08-06T12:10:06.170957,-3,1,-48,3,-5,1,79,81,77,0,87,152.63,0,-95.00,-88.00,-1014.00
2025-08-06T12:10:06.272090,-4,4,-56,1,-5,2,79,81,71,0,87,152.78,0,-268.00,-200.00,-944.00
2025-08-06T12:10:06.374214,-6,4,-62,0,-5,2,79,81,63,0,87,152.83,0,-250.00,6.00,-951.00
2025-08-06T12:10:06.476615,-9,8,-69,0,-4,2,79,81,59,0,87,153.05,0,-109.00,-52.00,-832.00
2025-08-06T12:10:06.579019,-6,3,-73,0,-3,3,79,81,57,0,87,152.74,0,-391.00,74.00,-1034.00
2025-08-06T12:10:06.628888,-2,-1,-78,0,-1,2,79,81,92,0,87,152.95,0,-216.00,306.00,-1057.00
2025-08-06T12:10:06.731627,6,-18,-80,0,0,2,79,81,65,0,86,152.90,0,-325.00,-53.00,-1328.00
2025-08-06T12:10:06.833013,10,-17,-73,-3,3,1,79,81,59,0,86,152.80,0,314.00,405.00,-924.00
2025-08-06T12:10:06.934853,9,-14,-61,-1,4,0,79,81,65,0,86,152.72,0,46.00,345.00,-1068.00
2025-08-06T12:10:07.037142,9,-14,-50,-1,6,0,79,81,77,0,86,152.91,0,68.00,227.00,-914.00
2025-08-06T12:10:07.138864,9,-12,-38,-1,6,0,79,81,111,0,86,152.97,0,0.00,113.00,-1018.00
2025-08-06T12:10:07.240922,9,-9,-27,-3,6,0,79,81,39,0,86,152.70,0,51.00,54.00,-1040.00
2025-08-06T12:10:07.343110,6,-2,-19,-5,5,0,79,81,34,0,86,152.71,0,112.00,0.00,-1014.00
2025-08-06T12:10:07.444865,6,-1,-12,-5,5,0,79,81,33,0,86,153.00,0,101.00,-47.00,-1013.00
2025-08-06T12:10:07.546959,5,-1,-6,-5,4,0,79,81,10,0,86,153.14,0,114.00,-20.00,-968.00
2025-08-06T12:10:07.649348,2,-1,-1,-4,4,0,79,81,31,0,86,152.68,0,249.00,-80.00,-971.00
2025-08-06T12:10:07.750845,2,-1,1,-3,3,0,79,81,32,0,86,152.84,0,267.00,-104.00,-938.00
2025-08-06T12:10:07.853159,2,-2,2,-1,2,0,79,81,32,0,86,152.57,0,135.00,-12.00,-1013.00
2025-08-06T12:10:07.954771,3,-1,2,0,1,0,79,81,32,0,86,152.89,0,181.00,-16.00,-1011.00
2025-08-06T12:10:08.057079,5,-1,1,0,1,0,79,81,30,0,86,153.00,0,156.00,-34.00,-1014.00
2025-08-06T12:10:08.159363,7,-1,0,0,1,0,79,81,10,0,86,152.96,0,260.00,-97.00,-972.00
2025-08-06T12:10:08.263028,7,-1,-1,1,0,0,79,81,10,0,86,152.82,0,258.00,-28.00,-1011.00
2025-08-06T12:10:08.363007,8,0,-4,2,0,0,79,81,10,0,86,153.07,0,175.00,-44.00,-965.00
2025-08-06T12:10:08.466770,7,0,-7,2,0,0,79,81,33,0,86,152.91,0,184.00,0.00,-999.00
2025-08-06T12:10:08.566950,5,0,-10,2,-1,0,79,81,35,0,86,152.70,0,67.00,-5.00,-985.00
2025-08-06T12:10:08.668819,4,-2,-14,2,-2,0,79,81,36,0,86,152.79,0,40.00,-17.00,-950.00
2025-08-06T12:10:08.772360,4,-4,-16,2,-3,0,79,81,36,0,86,152.78,0,-3.00,12.00,-946.00
2025-08-06T12:10:08.872797,4,-6,-19,2,-4,0,79,81,41,0,86,152.88,0,-12.00,106.00,-890.00
2025-08-06T12:10:08.978438,2,-5,-21,1,-4,1,79,81,49,0,86,152.92,0,-39.00,244.00,-1046.00
2025-08-06T12:10:09.084993,0,-3,-27,1,-3,1,79,81,49,0,86,152.52,0,-94.00,182.00,-1051.00
2025-08-06T12:10:09.178893,-2,-5,-32,2,-2,0,80,81,50,0,86,152.80,0,-173.00,100.00,-1010.00
2025-08-06T12:10:09.281147,-4,-5,-35,1,-1,0,80,81,47,0,86,152.58,0,-152.00,85.00,-940.00
2025-08-06T12:10:09.382755,-6,-4,-38,0,-1,0,80,81,44,0,86,152.72,0,-145.00,83.00,-909.00
2025-08-06T12:10:09.484765,-6,-3,-40,0,-1,1,80,81,42,0,86,152.98,0,-169.00,77.00,-1034.00
2025-08-06T12:10:09.586729,-5,-3,-42,0,-1,0,80,81,43,0,86,152.73,0,-176.00,144.00,-1035.00
2025-08-06T12:10:09.688954,-6,-2,-45,0,0,0,80,81,53,0,86,152.82,0,-191.00,108.00,-978.00
2025-08-06T12:10:09.791090,-6,-2,-47,1,0,0,80,81,85,0,86,152.72,0,-225.00,71.00,-1014.00
2025-08-06T12:10:09.899391,-6,-2,-48,0,1,0,80,81,93,0,86,152.57,0,-152.00,3.00,-982.00
2025-08-06T12:10:09.943757,-6,-2,-48,0,1,0,80,81,96,0,86,152.88,0,-172.00,20.00,-985.00
2025-08-06T12:10:10.045742,-6,-2,-47,0,1,0,80,81,95,0,86,152.91,0,-188.00,54.00,-1006.00
2025-08-06T12:10:10.147763,-6,-2,-46,0,1,0,80,82,96,0,86,152.51,0,-177.00,95.00,-1011.00
2025-08-06T12:10:10.249795,-5,-2,-44,0,2,0,80,82,97,0,86,152.93,0,-138.00,50.00,-1005.00
2025-08-06T12:10:10.351775,-3,-2,-42,0,2,0,80,82,98,0,86,152.81,0,-109.00,29.00,-970.00
2025-08-06T12:10:10.454165,-2,-2,-40,-1,2,0,80,82,97,0,86,152.98,0,-72.00,46.00,-1022.00
2025-08-06T12:10:10.555843,0,-2,-37,-1,2,0,80,82,91,0,86,152.64,0,-14.00,68.00,-1017.00
2025-08-06T12:10:10.657805,0,-2,-35,-1,2,0,80,82,94,0,86,152.70,0,26.00,20.00,-1000.00
2025-08-06T12:10:10.759747,2,-3,-33,-1,2,0,80,82,96,0,86,152.91,0,45.00,5.00,-978.00
2025-08-06T12:10:10.861803,3,-3,-32,-1,1,0,80,82,90,0,86,152.69,0,98.00,66.00,-992.00
2025-08-06T12:10:10.964504,4,-3,-32,-1,1,0,80,82,88,0,86,152.70,0,78.00,98.00,-999.00
2025-08-06T12:10:11.065790,5,-3,-33,-1,1,0,80,82,89,0,86,152.92,0,98.00,39.00,-972.00
2025-08-06T12:10:11.169144,5,-4,-33,-1,1,0,80,82,76,0,86,152.44,0,90.00,106.00,-904.00
2025-08-06T12:10:11.269583,5,-3,-32,-1,1,0,80,82,68,0,86,152.53,0,55.00,125.00,-1022.00
2025-08-06T12:10:11.371709,6,-2,-31,0,1,0,80,82,71,0,86,152.81,0,77.00,99.00,-1045.00
2025-08-06T12:10:11.474115,6,-3,-29,-1,2,0,80,82,75,0,86,152.89,0,81.00,76.00,-989.00
2025-08-06T12:10:11.588397,6,-3,-27,-1,2,0,80,82,76,0,86,152.76,0,89.00,66.00,-930.00
2025-08-06T12:10:11.677663,6,-2,-25,-1,2,0,80,82,58,0,86,152.77,0,93.00,111.00,-1000.00
2025-08-06T12:10:11.779824,6,-1,-24,0,3,0,80,82,54,0,86,152.38,0,-97.00,186.00,-1237.00
2025-08-06T12:10:11.881560,5,-1,-22,-1,5,-1,80,82,38,0,86,152.81,0,-107.00,108.00,-1055.00
2025-08-06T12:10:11.983603,3,-3,-18,-3,6,-2,80,82,32,0,86,153.08,0,143.00,39.00,-743.00
2025-08-06T12:10:12.085599,2,-8,-13,-3,6,0,80,82,10,0,86,152.84,0,-164.00,-39.00,-1064.00
2025-08-06T12:10:12.188278,0,-10,-8,-5,5,0,79,81,31,0,86,152.80,0,-307.00,100.00,-1110.00
2025-08-06T12:10:12.289571,-2,-8,-10,-7,4,-1,79,81,10,0,86,152.59,0,239.00,-279.00,-68.00
2025-08-06T12:10:12.391717,-5,-12,5,-6,3,6,79,81,10,0,86,152.67,0,-75.00,-379.00,-911.00
2025-08-06T12:10:12.493749,-3,-12,27,-7,-1,8,79,81,38,0,86,152.67,0,-162.00,309.00,-1422.00
2025-08-06T12:10:12.595718,-9,-8,40,-6,-1,5,79,81,68,-10,86,153.01,0,183.00,252.00,-1090.00
2025-08-06T12:10:12.697848,2,1,51,-6,0,2,79,81,10,-20,86,152.66,0,155.00,-315.00,-1061.00
2025-08-06T12:10:12.800824,3,3,51,-5,0,1,79,81,75,-20,86,152.59,0,1359.00,323.00,-121.00
2025-08-06T12:10:12.904056,-12,-2,51,-2,3,2,79,81,55,-20,86,152.58,0,148.00,-107.00,-1005.00
2025-08-06T12:10:12.952772,-9,5,43,-1,3,2,79,81,70,-20,86,152.70,0,-196.00,-161.00,-1141.00
2025-08-06T12:10:13.054445,-7,4,44,-1,3,1,79,81,66,0,86,152.48,0,-178.00,-164.00,-1131.00
2025-08-06T12:10:13.156451,-5,4,43,-1,5,0,79,81,70,0,86,152.52,0,-568.00,-369.00,-845.00
2025-08-06T12:10:13.258599,-1,8,51,-3,5,0,79,81,47,0,86,152.66,0,-239.00,3.00,-1081.00
2025-08-06T12:10:13.360649,1,17,61,-6,6,-1,79,81,74,0,86,152.55,0,-146.00,-200.00,-1125.00
2025-08-06T12:10:13.463123,2,13,65,-8,5,-3,79,81,56,0,86,152.93,0,-97.00,-157.00,-1029.00
2025-08-06T12:10:13.564615,0,11,75,-10,4,-3,79,81,10,0,86,152.58,0,25.00,-168.00,-872.00
2025-08-06T12:10:13.666666,-1,9,88,-11,5,-3,79,81,32,0,86,152.67,0,147.00,-412.00,-903.00
2025-08-06T12:10:13.768472,-4,7,99,-9,6,-2,79,81,10,0,86,152.83,0,110.00,-386.00,-1044.00
2025-08-06T12:10:13.870626,-6,7,106,-7,8,-3,79,81,46,0,86,152.80,0,-19.00,-502.00,-1143.00
2025-08-06T12:10:13.972437,-8,3,107,-3,11,-4,79,81,50,0,86,152.93,0,-39.00,-420.00,-1085.00
2025-08-06T12:10:14.074477,-6,4,109,-1,13,-5,79,81,54,0,86,152.73,0,-136.00,-346.00,-995.00
2025-08-06T12:10:14.177186,3,4,99,4,13,-6,79,81,64,10,86,152.81,0,-242.00,-315.00,-1043.00
2025-08-06T12:10:14.278537,6,4,92,0,0,-4,79,81,113,20,86,152.74,0,-101.00,-411.00,-961.00
2025-08-06T12:10:14.380491,6,1,81,0,0,-3,79,81,41,20,86,153.16,0,-83.00,-291.00,-906.00
2025-08-06T12:10:14.483200,6,-2,70,0,0,-3,79,81,36,20,86,152.96,0,-96.00,-142.00,-889.00
2025-08-06T12:10:14.584406,5,-5,56,0,0,-1,79,81,40,20,86,153.14,0,-44.00,-78.00,-972.00
2025-08-06T12:10:14.686657,3,-6,43,0,0,0,79,81,43,20,86,152.85,0,-68.00,-66.00,-869.00
2025-08-06T12:10:14.788596,2,-4,36,0,0,1,79,81,40,0,86,153.16,0,-146.00,-27.00,-833.00
2025-08-06T12:10:14.890584,4,3,36,0,0,2,79,81,39,0,86,153.10,0,-202.00,105.00,-837.00
2025-08-06T12:10:14.994701,3,4,32,0,0,3,79,81,37,0,86,152.79,0,-264.00,136.00,-836.00
2025-08-06T12:10:15.095308,-6,1,23,0,0,3,79,81,38,0,86,152.97,0,-248.00,-17.00,-792.00
2025-08-06T12:10:15.197503,-5,0,28,0,0,2,80,81,34,0,86,153.15,0,-91.00,247.00,-1050.00
2025-08-06T12:10:15.299399,0,4,34,0,0,2,80,81,32,0,86,152.81,0,-114.00,30.00,-1013.00
2025-08-06T12:10:15.401528,0,4,40,0,0,2,80,81,30,0,86,152.55,0,-258.00,151.00,-994.00
2025-08-06T12:10:15.503461,2,3,50,0,0,3,80,81,10,0,86,152.94,0,-114.00,1.00,-986.00
2025-08-06T12:10:15.605833,3,4,64,0,0,3,80,81,55,0,86,152.51,0,-161.00,80.00,-1013.00
2025-08-06T12:10:15.707445,2,2,80,0,0,2,80,81,94,0,86,152.74,0,-59.00,-19.00,-1204.00
2025-08-06T12:10:15.809540,1,-3,95,0,0,1,80,81,91,0,86,152.87,0,-127.00,-141.00,-1078.00
2025-08-06T12:10:15.911452,0,-7,109,0,0,0,80,81,37,0,86,152.84,0,-6.00,-134.00,-1082.00
2025-08-06T12:10:16.013316,-1,-4,122,0,0,0,80,81,37,0,86,152.64,0,78.00,-83.00,-1125.00
2025-08-06T12:10:16.115509,-1,-5,129,0,0,-1,80,81,37,0,86,152.77,0,84.00,-158.00,-1091.00
2025-08-06T12:10:16.217417,0,-4,134,0,0,-1,80,81,30,0,86,152.41,0,142.00,-166.00,-1160.00
2025-08-06T12:10:16.319495,0,-6,136,0,0,-2,80,81,35,0,86,152.84,0,65.00,-286.00,-1070.00
2025-08-06T12:10:16.421411,1,-7,133,0,0,-2,80,81,50,0,86,152.74,0,91.00,-231.00,-1033.00
2025-08-06T12:10:16.523492,4,-6,128,0,0,-2,80,81,56,0,86,152.82,0,16.00,-126.00,-964.00
2025-08-06T12:10:16.574241,6,-5,119,0,0,-2,80,81,58,0,86,152.33,0,59.00,-173.00,-960.00
2025-08-06T12:10:16.676458,6,-5,106,0,0,-2,80,81,60,0,86,152.84,0,18.00,-132.00,-1019.00
2025-08-06T12:10:16.778397,6,-7,89,0,0,-1,80,81,64,0,86,152.76,0,-30.00,-59.00,-1084.00
2025-08-06T12:10:16.880526,5,-8,74,0,0,-2,80,81,108,0,86,152.84,0,-62.00,-61.00,-936.00
2025-08-06T12:10:16.982449,6,-11,59,0,0,-1,80,81,6553,0,86,152.83,0,-150.00,-23.00,-842.00
2025-08-06T12:10:17.084683,6,-12,41,0,0,1,80,81,31,0,86,152.70,0,-189.00,-32.00,-706.00
2025-08-06T12:10:17.186364,2,-9,26,0,0,3,79,82,30,0,86,153.10,0,-233.00,32.00,-927.00
2025-08-06T12:10:17.288373,-2,-7,12,0,0,4,79,82,10,0,86,152.78,0,-310.00,64.00,-951.00
2025-08-06T12:10:17.390367,-4,-5,0,0,0,3,79,82,10,0,86,152.70,0,-389.00,67.00,-963.00
2025-08-06T12:10:17.492639,-6,-4,-14,0,0,3,79,82,10,0,86,152.68,0,-361.00,19.00,-892.00
2025-08-06T12:10:17.594450,-7,-1,-26,0,0,4,79,82,10,0,86,152.68,0,-513.00,79.00,-1040.00
2025-08-06T12:10:17.696437,-8,1,-30,0,0,2,79,82,10,0,86,152.83,0,-434.00,154.00,-1146.00
2025-08-06T12:10:17.798221,-8,4,-24,0,0,1,79,82,10,0,86,152.42,0,-317.00,65.00,-1043.00
2025-08-06T12:10:17.902492,-8,3,-13,0,0,0,79,82,10,0,86,152.93,0,-310.00,-79.00,-1002.00
2025-08-06T12:10:18.002229,-6,1,2,0,0,0,79,82,10,0,86,152.66,0,-290.00,13.00,-946.00
2025-08-06T12:10:18.104205,-6,0,18,0,0,0,79,82,10,0,86,152.72,0,-308.00,-64.00,-961.00
2025-08-06T12:10:18.206554,-6,0,36,0,0,0,80,82,87,0,86,152.78,0,-405.00,60.00,-969.00
2025-08-06T12:10:18.309398,-5,-2,56,0,0,0,80,82,86,0,86,152.77,0,-431.00,5.00,-889.00
2025-08-06T12:10:18.410187,-8,-2,76,0,0,0,80,82,33,0,86,152.55,0,-293.00,-218.00,-965.00
2025-08-06T12:10:18.512611,-6,0,91,0,0,0,80,82,33,0,86,152.81,0,-119.00,-250.00,-1001.00
2025-08-06T12:10:18.614273,-5,-2,104,0,0,0,80,82,33,0,86,152.82,0,169.00,-312.00,-1045.00
2025-08-06T12:10:18.717010,-5,-1,111,0,0,0,80,82,31,0,86,152.72,0,232.00,-324.00,-1115.00
2025-08-06T12:10:18.826754,-3,2,114,0,0,-1,80,82,30,0,86,152.50,0,210.00,-158.00,-1091.00
2025-08-06T12:10:18.920536,-2,3,115,0,0,-2,80,82,10,0,86,152.63,0,111.00,-327.00,-988.00
2025-08-06T12:10:19.022348,-2,0,111,0,0,-2,80,82,10,0,86,152.67,0,125.00,-411.00,-1033.00
2025-08-06T12:10:19.124105,-1,-2,102,0,0,-3,80,82,34,0,86,152.94,0,57.00,-313.00,-1090.00
2025-08-06T12:10:19.226688,-2,-7,88,0,0,-3,80,82,34,0,86,152.96,0,-87.00,-281.00,-1041.00
2025-08-06T12:10:19.328581,-4,-13,70,0,0,-3,80,82,57,0,86,152.95,0,-136.00,-196.00,-987.00
2025-08-06T12:10:19.430330,-5,-14,51,0,0,-1,80,82,108,0,86,152.87,0,-261.00,-157.00,-791.00
2025-08-06T12:10:19.533246,-5,-12,30,0,0,0,80,82,101,0,86,152.77,0,-398.00,-19.00,-813.00
2025-08-06T12:10:19.634122,-10,-13,7,0,0,1,80,82,10,0,86,152.68,0,-503.00,-83.00,-867.00
2025-08-06T12:10:19.736397,-10,-7,-12,0,0,2,80,82,10,0,86,152.83,0,-708.00,185.00,-832.00
2025-08-06T12:10:19.788537,-9,-5,-30,0,0,2,80,82,10,0,86,152.90,0,-556.00,118.00,-985.00
2025-08-06T12:10:19.890918,-6,-3,-37,0,0,1,80,82,10,0,86,152.90,0,-496.00,25.00,-1067.00
2025-08-06T12:10:19.991164,-3,0,-32,0,0,0,80,82,10,0,86,152.83,0,-350.00,105.00,-1067.00
2025-08-06T12:10:20.093092,-2,0,-18,0,0,0,80,82,10,0,86,152.69,0,-217.00,74.00,-1136.00
2025-08-06T12:10:20.195359,-2,-1,-1,0,0,0,80,82,31,0,86,152.68,0,-199.00,62.00,-1080.00
2025-08-06T12:10:20.297148,0,-3,18,0,0,-1,80,82,36,0,86,152.96,0,-345.00,254.00,-895.00
2025-08-06T12:10:20.399305,-3,-7,38,0,0,0,80,82,94,0,86,152.60,0,-182.00,118.00,-991.00
2025-08-06T12:10:20.501241,-4,-9,56,0,0,0,80,82,94,0,86,152.62,0,0.00,28.00,-910.00
2025-08-06T12:10:20.603164,-2,-9,70,0,0,1,80,82,90,0,86,152.51,0,35.00,-35.00,-796.00
2025-08-06T12:10:20.705097,-3,-8,80,0,0,3,80,82,52,0,86,152.90,0,55.00,-15.00,-806.00
2025-08-06T12:10:20.807177,-7,-7,87,0,0,5,80,82,10,0,86,152.67,0,-16.00,-31.00,-939.00
2025-08-06T12:10:20.908979,-8,-4,91,0,0,6,80,82,10,0,86,152.63,0,-23.00,-53.00,-993.00
2025-08-06T12:10:21.011130,-7,-1,96,0,0,6,80,82,30,-10,86,152.79,0,-147.00,-67.00,-936.00
2025-08-06T12:10:21.112948,-6,-1,100,0,0,5,80,82,10,-10,86,152.48,0,-67.00,-181.00,-994.00
2025-08-06T12:10:21.215485,-7,3,104,0,0,5,80,81,10,-20,86,152.42,0,-141.00,-113.00,-994.00
2025-08-06T12:10:21.317302,-9,4,107,0,0,5,80,81,10,-20,86,152.55,0,-287.00,-171.00,-1088.00
2025-08-06T12:10:21.419090,-11,4,107,0,0,3,80,81,10,-30,86,152.23,0,-242.00,-168.00,-1276.00
2025-08-06T12:10:21.521076,-11,7,105,0,0,1,80,81,10,-30,86,152.27,0,-238.00,-136.00,-1318.00
2025-08-06T12:10:21.622996,-9,8,100,0,0,-2,80,81,10,-30,86,152.27,0,-202.00,-117.00,-1433.00
2025-08-06T12:10:21.725490,-7,4,91,0,0,-6,80,81,10,-20,86,152.40,0,-139.00,-209.00,-1332.00
2025-08-06T12:10:21.827716,-4,3,89,0,0,-10,80,81,32,-20,86,152.46,0,-14.00,-187.00,-1222.00
2025-08-06T12:10:21.931284,0,-2,87,0,0,-11,80,81,40,-10,86,152.65,0,47.00,-108.00,-1031.00
2025-08-06T12:10:22.032829,4,-10,85,0,0,-11,80,81,51,0,86,152.77,0,127.00,-12.00,-882.00
2025-08-06T12:10:22.135129,8,-12,81,0,0,-9,80,81,64,10,86,152.80,0,202.00,225.00,-854.00
2025-08-06T12:10:22.237450,8,-17,78,0,0,-8,80,82,78,20,86,153.06,0,371.00,103.00,-680.00
2025-08-06T12:10:22.336905,12,-22,75,0,0,-5,80,82,123,20,86,152.88,0,281.00,113.00,-602.00
2025-08-06T12:10:22.439029,15,-21,68,0,0,-1,80,82,56,30,86,152.79,0,128.00,165.00,-606.00
2025-08-06T12:10:22.541012,13,-22,61,0,0,1,80,82,50,30,86,152.90,0,209.00,225.00,-646.00
2025-08-06T12:10:22.642909,10,-20,53,0,0,4,80,82,6553,20,86,153.06,0,192.00,299.00,-759.00
2025-08-06T12:10:22.745217,6,-16,45,0,0,5,80,82,6553,20,86,152.75,0,225.00,295.00,-1010.00
2025-08-06T12:10:22.846974,4,-12,37,0,0,4,80,82,32,10,86,152.74,0,129.00,221.00,-1055.00
2025-08-06T12:10:22.898023,3,-10,28,0,0,4,80,82,10,10,86,152.83,0,94.00,160.00,-1088.00
2025-08-06T12:10:22.999965,2,-9,18,0,0,4,80,82,10,0,86,152.81,0,8.00,-11.00,-1051.00
2025-08-06T12:10:23.102139,0,-6,8,0,0,4,80,82,10,0,86,152.58,0,-162.00,-73.00,-1048.00
2025-08-06T12:10:23.203882,0,-3,-3,0,0,3,80,82,10,0,86,152.89,0,-301.00,-64.00,-1197.00
2025-08-06T12:10:23.307427,0,0,-11,0,0,1,80,82,10,0,86,152.70,0,-393.00,25.00,-1090.00
2025-08-06T12:10:23.407966,2,2,-11,0,0,1,80,82,10,0,86,152.90,0,-338.00,153.00,-1046.00
2025-08-06T12:10:23.510735,4,3,-2,0,0,0,80,82,10,0,86,152.65,0,-287.00,121.00,-1020.00
2025-08-06T12:10:23.612037,6,3,13,0,0,1,80,82,10,0,86,152.55,0,-259.00,49.00,-908.00
2025-08-06T12:10:23.713968,6,2,33,0,0,1,80,82,88,0,86,152.80,0,-74.00,-45.00,-894.00
2025-08-06T12:10:23.815920,4,3,54,0,0,2,80,82,88,0,86,152.74,0,117.00,-188.00,-959.00
2025-08-06T12:10:23.918030,0,0,68,0,0,3,80,82,60,0,86,152.44,0,228.00,-281.00,-873.00
2025-08-06T12:10:24.019914,0,2,78,0,0,4,80,82,10,0,86,152.64,0,177.00,-145.00,-898.00
2025-08-06T12:10:24.121900,-3,3,86,0,0,4,80,82,30,0,86,152.41,0,197.00,-312.00,-945.00
2025-08-06T12:10:24.223863,-4,8,90,0,0,4,80,82,10,0,86,152.55,0,208.00,-255.00,-904.00
2025-08-06T12:10:24.325942,0,8,83,0,0,4,80,82,10,0,86,152.28,0,291.00,-388.00,-1193.00
2025-08-06T12:10:24.427890,6,15,81,0,0,2,80,82,10,-10,86,152.54,0,104.00,-183.00,-1072.00
2025-08-06T12:10:24.529980,10,13,72,0,0,1,80,82,10,-10,86,152.45,0,77.00,-225.00,-1007.00
2025-08-06T12:10:24.631868,9,11,71,0,0,1,80,82,10,-10,86,152.48,0,119.00,-284.00,-1022.00
2025-08-06T12:10:24.733949,3,12,83,0,0,1,80,82,10,-10,86,152.59,0,-197.00,-184.00,-975.00
2025-08-06T12:10:24.835848,1,10,82,0,0,1,80,82,10,0,86,152.16,0,-126.00,-58.00,-1022.00
2025-08-06T12:10:24.938506,0,9,79,0,0,0,80,82,10,0,86,152.37,0,-42.00,-207.00,-1085.00
2025-08-06T12:10:25.039816,-1,9,91,0,0,0,80,82,10,0,86,152.26,0,-39.00,-159.00,-1078.00
2025-08-06T12:10:25.141742,-6,9,107,0,0,0,80,82,10,0,86,152.39,0,-7.00,-345.00,-1146.00
2025-08-06T12:10:25.243726,-11,11,114,0,0,-1,80,82,10,0,86,152.52,0,67.00,-416.00,-963.00
2025-08-06T12:10:25.351989,-6,10,111,0,0,-2,80,82,10,0,86,152.38,0,165.00,-481.00,-1097.00
2025-08-06T12:10:25.447961,-1,12,107,0,0,-4,80,82,10,0,86,152.58,0,247.00,-452.00,-1206.00
2025-08-06T12:10:25.549821,8,13,102,0,0,-6,80,82,10,0,86,152.56,0,179.00,-542.00,-1126.00
2025-08-06T12:10:25.651922,16,13,93,0,0,-8,80,82,30,10,86,152.49,0,215.00,-474.00,-1087.00
2025-08-06T12:10:25.754093,21,11,82,0,0,-8,80,82,88,20,86,152.58,0,118.00,-226.00,-708.00
2025-08-06T12:10:25.855830,23,5,69,0,0,-5,80,82,96,20,86,152.42,0,114.00,11.00,-562.00
2025-08-06T12:10:25.958095,23,3,59,0,0,0,80,82,97,30,86,152.78,0,70.00,212.00,-658.00
2025-08-06T12:10:26.009616,20,8,60,0,0,3,80,82,91,20,86,152.99,0,28.00,305.00,-602.00
2025-08-06T12:10:26.111967,15,14,68,0,0,8,80,82,80,20,86,152.28,0,-193.00,193.00,-704.00
2025-08-06T12:10:26.214518,3,12,80,0,0,10,79,82,10,10,86,152.82,0,-81.00,323.00,-740.00
2025-08-06T12:10:26.314790,-8,10,95,0,0,8,79,82,10,0,86,152.41,0,-10.00,7.00,-885.00
2025-08-06T12:10:26.419613,-12,7,106,0,0,3,79,82,10,0,86,152.30,0,-119.00,-609.00,-1280.00
2025-08-06T12:10:26.521737,-12,6,110,0,0,1,79,82,10,0,86,152.16,0,-97.00,-566.00,-1322.00
2025-08-06T12:10:26.624015,0,2,114,0,0,1,79,82,10,0,86,152.37,0,-10.00,-432.00,-1290.00
2025-08-06T12:10:26.722797,0,2,114,0,0,0,79,82,10,0,86,152.37,0,-539.00,-332.00,-963.00
2025-08-06T12:10:26.824729,0,2,115,0,0,0,79,82,10,0,86,152.33,0,-257.00,-131.00,-382.00
2025-08-06T12:10:26.926770,0,2,115,0,0,0,79,82,10,0,86,151.99,0,193.00,-76.00,-942.00
2025-08-06T12:10:27.028814,1,2,115,0,0,0,79,82,10,0,86,152.39,0,115.00,-26.00,-1031.00
2025-08-06T12:10:27.130587,1,2,115,0,0,0,79,82,10,0,86,151.96,0,1.00,-46.00,-1066.00
2025-08-06T12:10:27.232894,1,2,115,0,0,0,80,82,10,0,86,152.18,0,68.00,-16.00,-919.00
2025-08-06T12:10:27.334762,1,2,114,0,0,0,80,82,10,0,86,152.49,0,34.00,-28.00,-943.00
2025-08-06T12:10:27.436772,1,2,114,0,0,0,80,82,10,0,86,152.31,0,66.00,-38.00,-952.00
2025-08-06T12:10:27.541851,1,2,114,0,0,0,80,82,10,0,86,152.07,0,84.00,-50.00,-989.00
2025-08-06T12:10:27.640660,1,2,114,0,0,0,80,82,10,0,86,152.16,0,54.00,-46.00,-994.00
2025-08-06T12:10:27.742846,1,2,114,0,0,0,80,82,10,0,86,152.19,0,62.00,-35.00,-1017.00
2025-08-06T12:10:27.844754,1,2,114,0,0,0,80,82,10,0,86,152.40,0,63.00,-65.00,-1022.00
2025-08-06T12:10:27.946627,1,2,114,0,0,0,80,82,10,0,86,152.16,0,94.00,-46.00,-1025.00
2025-08-06T12:10:28.049564,1,2,114,0,0,0,80,82,10,0,86,152.54,0,36.00,-60.00,-1012.00
2025-08-06T12:10:28.151923,1,2,114,0,0,0,80,82,10,0,86,152.40,0,74.00,-25.00,-1010.00
2025-08-06T12:10:28.253980,1,2,114,0,0,0,80,82,10,0,86,152.20,0,51.00,-65.00,-1003.00
2025-08-06T12:10:28.356009,1,2,114,0,0,0,80,82,10,0,86,152.40,0,91.00,-30.00,-990.00
2025-08-06T12:10:28.459685,1,2,114,0,0,0,80,82,10,0,86,152.13,0,32.00,-56.00,-988.00
2025-08-06T12:10:28.560062,1,2,114,0,0,0,80,82,10,0,86,152.01,0,78.00,-21.00,-989.00
2025-08-06T12:10:28.662043,1,2,114,0,0,0,80,82,10,0,86,152.47,0,47.00,-63.00,-993.00
