TS,pitch,roll,yaw,vgx,vgy,vgz,templ,temph,tof,h,bat,baro,time,agx,agy,agz
2025-08-06T12:14:26.736276,0,1,70,0,0,0,88,90,10,0,82,152.50,0,-2.00,-19.00,-998.00
2025-08-06T12:14:26.838468,0,1,70,0,0,0,88,90,10,0,82,152.70,0,-2.00,-20.00,-1000.00
2025-08-06T12:14:26.940483,0,1,70,0,0,0,88,90,10,0,82,152.50,0,-6.00,-20.00,-1000.00
2025-08-06T12:14:27.043246,0,1,70,0,0,0,88,90,10,0,82,152.39,0,-5.00,-18.00,-998.00
2025-08-06T12:14:27.143078,0,1,70,0,0,0,88,90,10,0,82,152.61,0,-5.00,-20.00,-999.00
2025-08-06T12:14:27.245322,0,1,70,0,0,0,88,90,10,0,82,152.42,0,-4.00,-20.00,-1002.00
2025-08-06T12:14:27.351530,0,1,70,0,0,0,88,90,10,0,82,152.33,0,-2.00,-21.00,-1001.00
2025-08-06T12:14:27.449605,0,1,70,0,0,0,88,90,10,0,82,152.52,0,-2.00,-20.00,-998.00
2025-08-06T12:14:27.551644,0,1,70,0,0,0,88,90,10,0,82,152.48,0,-3.00,-21.00,-1003.00
2025-08-06T12:14:27.653063,0,1,70,0,0,0,88,90,10,0,82,152.39,0,-3.00,-21.00,-999.00
2025-08-06T12:14:27.754974,0,1,70,0,0,0,88,90,10,0,82,152.57,0,-4.00,-19.00,-1001.00
2025-08-06T12:14:27.858062,0,1,70,0,0,0,88,90,10,0,82,152.49,0,-3.00,-20.00,-998.00
2025-08-06T12:14:27.959231,0,1,70,0,0,0,88,90,10,0,82,152.58,0,-3.00,-20.00,-1000.00
2025-08-06T12:14:28.060824,0,1,70,0,0,0,88,90,10,0,82,152.64,0,-3.00,-20.00,-1003.00
2025-08-06T12:14:28.162842,0,1,70,0,0,0,88,90,10,0,82,152.28,0,-3.00,-19.00,-998.00
2025-08-06T12:14:28.265008,0,1,70,0,0,0,88,90,10,0,82,152.44,0,-3.00,-20.00,-1002.00
2025-08-06T12:14:28.366943,0,1,70,0,0,0,88,90,10,0,82,152.61,0,-4.00,-19.00,-997.00
2025-08-06T12:14:28.469151,0,1,70,0,0,0,88,90,10,0,82,153.06,0,-2.00,-19.00,-996.00
2025-08-06T12:14:28.571502,0,1,70,0,0,0,88,90,10,0,82,152.89,0,-5.00,-18.00,-999.00
2025-08-06T12:14:28.673005,0,1,70,0,0,0,88,90,10,0,82,152.57,0,-5.00,-19.00,-1000.00
2025-08-06T12:14:28.775086,0,1,70,0,0,0,88,90,10,0,82,152.43,0,-4.00,-21.00,-999.00
2025-08-06T12:14:28.876773,0,1,70,0,0,0,88,90,10,0,82,152.47,0,-2.00,-20.00,-998.00
2025-08-06T12:14:28.979851,0,1,70,0,0,0,88,90,10,0,82,152.68,0,-2.00,-21.00,-1000.00
2025-08-06T12:14:29.029781,0,1,70,0,0,0,88,90,10,0,82,152.67,0,-4.00,-19.00,-998.00
2025-08-06T12:14:29.131742,0,1,70,0,0,0,88,90,10,0,82,152.79,0,-3.00,-21.00,-998.00
2025-08-06T12:14:29.233873,0,1,70,0,0,0,88,90,10,0,82,152.54,0,-5.00,-19.00,-999.00
2025-08-06T12:14:29.338533,0,1,70,0,0,0,88,90,10,0,82,152.61,0,-5.00,-20.00,-997.00
2025-08-06T12:14:29.438495,0,1,70,0,0,0,88,90,10,0,82,152.75,0,-4.00,-19.00,-998.00
2025-08-06T12:14:29.542121,0,1,70,0,0,0,88,90,10,0,82,152.41,0,-3.00,-20.00,-998.00
2025-08-06T12:14:29.642130,0,1,70,0,0,0,88,90,10,0,82,152.43,0,-5.00,-19.00,-999.00
2025-08-06T12:14:29.744698,0,1,70,0,0,0,88,90,10,0,82,152.34,0,-2.00,-20.00,-998.00
2025-08-06T12:14:29.845926,0,1,70,0,0,0,88,90,10,0,82,152.62,0,-3.00,-19.00,-999.00
2025-08-06T12:14:29.948597,0,1,70,0,0,0,88,90,10,0,82,152.46,0,-5.00,-18.00,-1000.00
2025-08-06T12:14:30.053236,0,1,70,0,0,0,88,90,10,0,82,152.69,0,-4.00,-21.00,-1000.00
2025-08-06T12:14:30.152252,0,1,70,0,0,0,88,90,10,0,82,152.60,0,7.00,-11.00,-1000.00
2025-08-06T12:14:30.253672,0,1,70,0,0,0,88,90,10,0,82,152.55,0,-240.00,-169.00,-1095.00
2025-08-06T12:14:30.355374,-3,0,71,0,-1,0,88,90,10,0,82,152.55,0,-269.00,241.00,-1184.00
2025-08-06T12:14:30.457369,0,-1,75,-2,-2,-3,88,90,85,0,82,152.75,0,-122.00,-7.00,-1012.00
2025-08-06T12:14:30.563093,0,-4,75,-1,-4,-2,88,90,89,0,82,152.66,0,-47.00,-62.00,-880.00
2025-08-06T12:14:30.661453,-1,-4,75,0,-6,-1,88,90,90,0,82,152.99,0,34.00,-81.00,-936.00
2025-08-06T12:14:30.763446,2,6,79,0,-6,0,88,90,92,0,82,152.69,0,69.00,-115.00,-964.00
2025-08-06T12:14:30.865330,4,6,79,0,-5,0,88,90,91,0,82,152.52,0,251.00,-117.00,-898.00
2025-08-06T12:14:30.967982,6,5,80,0,-4,0,88,90,92,0,82,152.67,0,240.00,-12.00,-903.00
2025-08-06T12:14:31.069414,9,6,84,0,-4,0,88,90,91,0,82,152.55,0,160.00,7.00,-833.00
2025-08-06T12:14:31.172451,7,8,84,0,-3,2,88,90,86,0,82,152.69,0,183.00,-147.00,-847.00
2025-08-06T12:14:31.274408,4,8,85,0,-4,3,88,90,79,0,82,152.67,0,83.00,-167.00,-1002.00
2025-08-06T12:14:31.376473,2,8,93,0,-4,4,88,90,10,0,82,152.60,0,83.00,-192.00,-941.00
2025-08-06T12:14:31.478622,0,10,98,0,-4,4,88,90,10,0,82,152.37,0,0.00,-169.00,-1038.00
2025-08-06T12:14:31.580422,-4,11,102,0,-4,4,88,90,10,0,82,152.46,0,-87.00,-167.00,-1197.00
2025-08-06T12:14:31.682501,-5,11,105,-1,-3,2,88,90,10,0,82,152.42,0,11.00,-146.00,-946.00
2025-08-06T12:14:31.784454,-5,10,112,-2,-3,2,88,90,10,0,82,152.31,0,85.00,-332.00,-931.00
2025-08-06T12:14:31.886299,-4,10,116,-1,-2,2,88,90,10,0,82,152.49,0,-13.00,-327.00,-1243.00
2025-08-06T12:14:31.989132,-5,11,115,0,-1,0,88,90,10,0,82,152.44,0,34.00,-362.00,-1348.00
2025-08-06T12:14:32.040321,-4,12,109,0,1,-3,88,90,10,0,82,152.40,0,150.00,-308.00,-1108.00
2025-08-06T12:14:32.141336,-1,16,97,0,3,-5,88,90,10,0,82,152.47,0,221.00,-340.00,-993.00
2025-08-06T12:14:32.243252,0,13,92,0,5,-6,88,90,10,0,82,152.55,0,147.00,-305.00,-951.00
2025-08-06T12:14:32.398468,2,12,82,1,6,-5,88,91,74,10,82,152.81,0,119.00,-281.00,-1004.00
2025-08-06T12:14:32.501313,2,7,78,2,6,-5,88,91,84,20,82,152.66,0,85.00,-294.00,-974.00
2025-08-06T12:14:32.549388,4,4,72,4,5,-5,88,91,90,30,82,152.88,0,35.00,-339.00,-975.00
2025-08-06T12:14:32.651294,8,2,62,7,2,-3,88,91,94,30,82,152.83,0,-61.00,-462.00,-681.00
2025-08-06T12:14:32.753216,11,4,51,8,0,0,88,91,86,30,82,152.74,0,-155.00,-268.00,-753.00
2025-08-06T12:14:32.855302,8,6,39,7,-3,2,88,91,10,30,82,152.75,0,-150.00,-129.00,-883.00
2025-08-06T12:14:32.957339,2,5,23,4,-4,2,88,91,10,30,82,152.67,0,-109.00,-40.00,-1006.00
2025-08-06T12:14:33.059552,0,9,10,2,-3,1,88,91,10,30,82,152.51,0,-134.00,14.00,-994.00
2025-08-06T12:14:33.161207,0,8,0,1,-2,2,88,91,10,0,82,152.58,0,-231.00,27.00,-929.00
2025-08-06T12:14:33.263340,2,5,-5,0,0,2,88,91,10,0,82,152.86,0,-45.00,-11.00,-946.00
2025-08-06T12:14:33.365224,9,1,-6,0,0,0,89,91,10,0,82,152.72,0,-66.00,23.00,-955.00
2025-08-06T12:14:33.467434,10,-4,-7,0,0,0,89,91,10,0,82,152.36,0,-75.00,-155.00,-1144.00
2025-08-06T12:14:33.569309,13,-7,-8,0,0,0,89,91,10,0,82,152.56,0,168.00,-6.00,-1304.00
2025-08-06T12:14:33.671299,15,-11,-11,0,0,0,89,91,10,0,82,152.62,0,134.00,63.00,-985.00
2025-08-06T12:14:33.773168,8,-7,-8,0,0,0,89,91,10,0,82,152.58,0,-73.00,282.00,-919.00
2025-08-06T12:14:33.875237,0,-2,-4,0,0,0,89,91,10,0,82,152.68,0,-11.00,258.00,-980.00
2025-08-06T12:14:33.978677,-2,1,0,0,0,0,89,91,10,0,82,152.64,0,93.00,255.00,-1013.00
2025-08-06T12:14:34.079323,1,-4,-1,0,0,0,89,91,10,0,82,152.75,0,97.00,91.00,-999.00
2025-08-06T12:14:34.181137,5,-7,0,0,0,0,89,91,10,0,82,152.91,0,-115.00,247.00,-1002.00
2025-08-06T12:14:34.283260,4,-4,0,0,0,0,89,91,10,0,82,152.62,0,-35.00,128.00,-1081.00
2025-08-06T12:14:34.385130,2,-4,-3,0,0,0,89,91,10,0,82,152.64,0,143.00,40.00,-994.00
2025-08-06T12:14:34.487591,1,-2,-8,0,0,0,89,91,10,0,82,152.56,0,-103.00,163.00,-1108.00
2025-08-06T12:14:34.589100,-3,3,-10,0,0,-1,89,91,10,0,82,152.71,0,114.00,128.00,-1234.00
2025-08-06T12:14:34.691409,-15,7,-17,0,0,-3,89,91,10,0,82,152.74,0,-178.00,-12.00,-846.00
2025-08-06T12:14:34.793458,-10,9,-22,0,0,-2,89,91,10,0,82,152.88,0,-301.00,-105.00,-952.00
2025-08-06T12:14:34.895227,-2,9,-21,0,0,-2,89,91,10,0,82,152.62,0,-126.00,-213.00,-982.00
2025-08-06T12:14:34.999858,3,4,-23,0,0,-2,89,91,10,0,82,152.60,0,-51.00,-194.00,-1005.00
2025-08-06T12:14:35.099114,9,1,-22,0,0,-1,89,91,10,0,82,152.86,0,-112.00,-316.00,-858.00
2025-08-06T12:14:35.203841,11,0,-11,0,0,1,89,91,10,0,82,152.66,0,-100.00,-237.00,-707.00
2025-08-06T12:14:35.303326,13,-1,-4,0,0,3,89,91,10,0,82,152.68,0,-7.00,-303.00,-1008.00
2025-08-06T12:14:35.405164,12,5,6,0,0,2,89,91,10,0,82,152.73,0,131.00,-9.00,-1055.00
2025-08-06T12:14:35.507307,10,7,16,0,0,2,89,91,10,0,82,153.02,0,225.00,-181.00,-1009.00
2025-08-06T12:14:35.609097,9,4,24,0,0,1,89,91,10,0,82,152.76,0,228.00,-221.00,-892.00
2025-08-06T12:14:35.661232,7,4,27,0,0,2,89,91,10,0,82,152.65,0,452.00,-147.00,-908.00
2025-08-06T12:14:35.762017,11,6,30,0,0,2,89,91,53,0,82,152.62,0,482.00,-189.00,-983.00
2025-08-06T12:14:35.865686,14,8,34,0,0,0,89,91,67,0,82,152.66,0,673.00,-150.00,-1117.00
2025-08-06T12:14:35.968187,7,14,35,0,0,-1,89,91,41,0,82,152.72,0,753.00,54.00,-1215.00
2025-08-06T12:14:36.068087,8,12,28,0,0,-5,89,91,10,0,82,152.62,0,390.00,-186.00,-1290.00
2025-08-06T12:14:36.170343,6,6,19,0,0,-6,89,91,10,0,82,152.87,0,318.00,-345.00,-649.00
2025-08-06T12:14:36.272248,9,4,7,0,0,-3,89,91,10,10,82,152.90,0,215.00,-472.00,-609.00
2025-08-06T12:14:36.374065,15,4,-1,0,0,-1,89,91,10,10,82,152.81,0,222.00,-368.00,-769.00
2025-08-06T12:14:36.476238,19,5,-11,0,0,0,89,91,10,10,82,152.78,0,252.00,-219.00,-986.00
2025-08-06T12:14:36.578140,19,7,-16,0,0,0,89,91,10,10,82,153.19,0,161.00,-328.00,-882.00
2025-08-06T12:14:36.680019,16,8,-17,0,0,0,89,91,10,10,82,152.70,0,-61.00,-349.00,-874.00
2025-08-06T12:14:36.782096,10,6,-18,0,0,2,89,91,10,0,82,152.78,0,5.00,-176.00,-870.00
2025-08-06T12:14:36.884058,8,6,-25,0,0,3,89,91,10,0,82,152.77,0,181.00,-55.00,-871.00
2025-08-06T12:14:36.986039,10,0,-21,0,0,2,89,91,30,0,82,152.42,0,397.00,245.00,-1202.00
2025-08-06T12:14:37.088879,13,5,-14,0,0,0,89,91,35,0,82,152.71,0,263.00,250.00,-1220.00
2025-08-06T12:14:37.190939,15,2,-10,0,0,-1,89,91,36,0,82,152.87,0,359.00,63.00,-930.00
2025-08-06T12:14:37.292914,11,-2,-1,0,0,-2,89,91,10,0,82,152.81,0,132.00,40.00,-1111.00
2025-08-06T12:14:37.394912,4,-1,-2,0,0,-2,89,91,10,0,82,152.55,0,178.00,67.00,-1009.00
2025-08-06T12:14:37.497125,-5,5,-16,0,0,-2,89,91,10,0,82,152.67,0,-81.00,3.00,-875.00
2025-08-06T12:14:37.599253,-4,5,-40,0,0,-1,89,91,10,0,82,152.92,0,-253.00,-322.00,-826.00
2025-08-06T12:14:37.701322,-2,3,-45,0,0,0,89,91,10,0,82,152.80,0,-77.00,-600.00,-963.00
2025-08-06T12:14:37.803333,-8,4,-15,0,0,0,89,91,10,0,82,152.64,0,-218.00,-35.00,-941.00
2025-08-06T12:14:37.905356,-4,14,7,0,0,1,89,91,10,0,82,152.84,0,31.00,-124.00,-1033.00
2025-08-06T12:14:38.007014,2,19,0,0,0,1,89,91,10,0,82,152.84,0,-40.00,35.00,-1106.00
2025-08-06T12:14:38.109024,0,4,-13,0,0,1,89,91,10,0,82,152.63,0,141.00,-248.00,-1017.00
2025-08-06T12:14:38.210941,4,-7,-5,0,0,1,89,91,10,0,82,152.61,0,27.00,-202.00,-609.00
2025-08-06T12:14:38.313018,14,-9,0,0,0,3,89,91,10,0,82,153.04,0,144.00,-92.00,-919.00
2025-08-06T12:14:38.414944,15,-2,17,0,0,4,89,91,10,0,82,152.84,0,291.00,-70.00,-883.00
2025-08-06T12:14:38.517011,21,8,38,0,0,4,89,91,10,0,82,152.70,0,599.00,-96.00,-1043.00
2025-08-06T12:14:38.618912,17,6,58,0,0,2,89,91,63,0,82,152.62,0,427.00,-215.00,-1127.00
2025-08-06T12:14:38.720962,5,9,59,0,0,0,89,91,82,0,82,152.76,0,456.00,-265.00,-922.00
2025-08-06T12:14:38.822985,-1,10,68,0,0,0,89,91,81,0,82,152.51,0,321.00,-155.00,-1008.00
2025-08-06T12:14:38.873963,8,3,70,0,0,-1,89,91,82,0,82,152.74,0,147.00,-92.00,-903.00
2025-08-06T12:14:38.975814,13,0,69,0,0,0,89,91,84,0,82,152.49,0,346.00,-12.00,-874.00
2025-08-06T12:14:39.078065,13,6,67,0,0,0,89,91,83,0,82,152.89,0,133.00,-122.00,-928.00
2025-08-06T12:14:39.179996,7,16,65,0,0,0,89,91,79,0,82,152.83,0,242.00,-213.00,-987.00
2025-08-06T12:14:39.292770,0,23,58,0,0,0,89,91,32,0,82,152.80,0,5.00,-313.00,-984.00
2025-08-06T12:14:39.384410,-1,24,52,0,0,-1,88,91,32,0,82,152.55,0,162.00,-531.00,-857.00
2025-08-06T12:14:39.485930,1,20,54,0,0,-1,88,91,37,0,82,152.96,0,103.00,-256.00,-1060.00
2025-08-06T12:14:39.587961,5,17,52,0,0,-2,88,91,57,0,82,152.32,0,216.00,-276.00,-1035.00
2025-08-06T12:14:39.689990,8,13,50,0,0,-3,88,91,83,0,82,152.69,0,315.00,-348.00,-974.00
2025-08-06T12:14:39.796083,9,8,47,0,0,-4,88,91,10,0,82,152.74,0,492.00,-250.00,-868.00
2025-08-06T12:14:39.894863,11,5,37,0,0,-3,88,91,10,0,82,152.76,0,367.00,-255.00,-968.00
2025-08-06T12:14:39.996846,14,7,28,0,0,-3,88,91,10,0,82,152.79,0,402.00,-522.00,-875.00
2025-08-06T12:14:40.098930,18,10,20,0,0,-2,88,91,10,0,82,152.86,0,204.00,-268.00,-987.00
2025-08-06T12:14:40.201084,15,8,6,0,0,-2,88,91,31,0,82,152.67,0,91.00,-252.00,-924.00
2025-08-06T12:14:40.303068,10,9,-5,0,0,-1,88,91,33,0,82,152.84,0,131.00,-153.00,-857.00
2025-08-06T12:14:40.404723,6,5,-22,0,0,0,89,91,33,0,82,152.87,0,24.00,-268.00,-914.00
2025-08-06T12:14:40.506923,6,6,-34,0,0,1,89,91,34,0,82,152.96,0,24.00,-154.00,-904.00
2025-08-06T12:14:40.608902,9,5,-48,0,0,1,89,91,34,0,82,152.93,0,96.00,-49.00,-915.00
2025-08-06T12:14:40.710848,9,5,-55,0,0,2,89,91,45,0,82,152.65,0,129.00,-160.00,-1038.00
2025-08-06T12:14:40.812750,9,4,-57,0,0,2,89,91,83,0,82,153.04,0,101.00,-137.00,-1036.00
2025-08-06T12:14:40.914701,10,4,-56,0,0,2,89,91,98,0,82,152.62,0,77.00,-179.00,-1040.00
2025-08-06T12:14:41.017901,3,9,-57,0,0,1,89,91,51,0,82,152.63,0,58.00,57.00,-1104.00
2025-08-06T12:14:41.118763,2,7,-60,0,0,0,89,91,83,0,82,152.68,0,152.00,-134.00,-1240.00
2025-08-06T12:14:41.221976,1,9,-66,0,0,-1,89,91,79,0,82,152.68,0,36.00,-314.00,-1122.00
2025-08-06T12:14:41.322719,-3,16,-76,0,0,-3,89,91,49,0,82,152.66,0,147.00,-294.00,-1181.00
2025-08-06T12:14:41.424949,-2,10,-89,0,0,-4,89,91,101,0,82,153.04,0,50.00,-218.00,-945.00
2025-08-06T12:14:41.526738,-5,3,-92,0,0,-3,89,91,70,0,82,152.84,0,0.00,-264.00,-820.00
2025-08-06T12:14:41.628753,-5,0,-94,0,0,-1,89,91,75,0,82,152.78,0,51.00,-110.00,-801.00
2025-08-06T12:14:41.730725,-12,-6,-84,0,0,0,89,91,77,0,82,152.95,0,-245.00,30.00,-914.00
2025-08-06T12:14:41.832737,-8,-8,-92,0,0,0,89,91,10,0,82,152.94,0,-209.00,-12.00,-824.00
2025-08-06T12:14:41.934652,-2,-8,-92,0,0,1,89,91,123,0,82,152.97,0,-28.00,6.00,-920.00
2025-08-06T12:14:42.036893,4,-10,-99,0,0,2,89,91,124,0,82,153.14,0,-121.00,67.00,-881.00
2025-08-06T12:14:42.087788,4,-12,-111,0,0,3,89,91,122,0,82,152.84,0,-90.00,120.00,-860.00
2025-08-06T12:14:42.190198,5,-10,-119,0,0,4,89,91,114,0,82,152.60,0,-188.00,199.00,-993.00
2025-08-06T12:14:42.292405,3,-7,-126,0,0,3,89,91,110,0,82,152.74,0,-269.00,236.00,-1223.00
2025-08-06T12:14:42.395276,-5,-8,-134,0,0,0,89,90,110,0,82,152.61,0,-624.00,85.00,-1189.00
2025-08-06T12:14:42.500020,-17,-10,-134,0,0,-1,89,90,122,0,82,152.85,0,-425.00,104.00,-1059.00
2025-08-06T12:14:42.598224,-20,-13,-131,0,0,-2,89,90,128,0,82,153.09,0,-715.00,6.00,-923.00
2025-08-06T12:14:42.706436,-16,-16,-120,0,0,-3,89,90,108,0,82,152.91,0,-461.00,65.00,-855.00
2025-08-06T12:14:42.803199,-9,-20,-106,0,0,-2,89,90,10,0,82,152.77,0,-316.00,118.00,-889.00
2025-08-06T12:14:42.907335,-13,-20,-96,0,0,-2,89,90,57,0,82,152.97,0,-160.00,181.00,-927.00
2025-08-06T12:14:43.005760,-21,-17,-92,0,0,-1,89,90,44,0,82,152.90,0,-266.00,134.00,-858.00
2025-08-06T12:14:43.107795,-19,-17,-79,0,0,-1,89,90,59,0,82,152.76,0,-349.00,158.00,-892.00
2025-08-06T12:14:43.209977,-16,-12,-72,0,0,0,89,90,74,0,82,152.91,0,-407.00,-15.00,-772.00
2025-08-06T12:14:43.311822,-13,-11,-66,0,0,0,89,90,52,0,82,152.82,0,-106.00,-113.00,-849.00
2025-08-06T12:14:43.413580,-7,-10,-54,0,0,1,89,91,44,0,82,153.06,0,-64.00,-16.00,-893.00
2025-08-06T12:14:43.515880,-1,-11,-43,0,0,2,89,91,38,0,82,152.93,0,152.00,152.00,-920.00
2025-08-06T12:14:43.624216,-2,-6,-38,0,0,3,89,91,33,0,82,152.75,0,-19.00,8.00,-1112.00
2025-08-06T12:14:43.726113,1,-2,-26,0,0,2,89,91,31,0,82,152.91,0,-33.00,-104.00,-1085.00
2025-08-06T12:14:43.822613,-1,0,-6,0,0,2,89,91,30,0,82,152.76,0,17.00,-149.00,-949.00
2025-08-06T12:14:43.923642,-2,-1,11,0,0,3,89,91,31,0,82,152.78,0,-107.00,-203.00,-883.00
2025-08-06T12:14:44.025574,1,-2,23,0,0,3,89,91,39,0,82,153.04,0,65.00,-341.00,-1082.00
2025-08-06T12:14:44.127683,-1,1,33,0,0,3,89,91,95,0,82,152.89,0,41.00,-342.00,-1007.00
2025-08-06T12:14:44.229484,0,1,47,0,0,2,89,91,92,0,82,152.59,0,338.00,-404.00,-932.00
2025-08-06T12:14:44.332251,5,3,64,0,0,2,89,91,89,0,82,152.80,0,429.00,-297.00,-1103.00
2025-08-06T12:14:44.434046,5,2,72,0,0,0,88,90,88,0,82,152.80,0,727.00,37.00,-1186.00
2025-08-06T12:14:44.535541,4,1,67,0,0,-1,88,90,89,0,82,152.56,0,471.00,65.00,-1203.00
2025-08-06T12:14:44.637992,2,2,65,0,0,-3,88,90,93,0,82,152.49,0,248.00,-69.00,-1084.00
2025-08-06T12:14:44.741869,3,-4,48,0,0,-5,88,90,98,0,82,152.49,0,285.00,-219.00,-1091.00
2025-08-06T12:14:44.842526,7,-2,28,0,0,-5,88,90,104,0,82,152.58,0,221.00,-249.00,-945.00
2025-08-06T12:14:44.944726,12,-1,16,0,0,-4,88,90,33,10,82,153.13,0,212.00,-227.00,-822.00
2025-08-06T12:14:45.047260,0,0,6,0,0,-3,88,90,36,10,82,152.92,0,15.00,-91.00,-932.00
2025-08-06T12:14:45.097525,-5,1,-4,0,0,-2,88,90,37,10,82,152.98,0,12.00,-36.00,-1007.00
2025-08-06T12:14:45.199531,-6,3,-15,0,0,-3,88,90,40,10,82,152.99,0,125.00,-94.00,-1065.00
2025-08-06T12:14:45.301530,-2,2,-29,0,0,-3,88,90,44,20,82,152.73,0,-41.00,-193.00,-1023.00
2025-08-06T12:14:45.454614,-2,-2,-48,0,0,-3,89,91,48,0,82,152.84,0,-31.00,-66.00,-928.00
2025-08-06T12:14:45.505786,-1,-9,-64,0,0,-3,89,91,55,0,82,152.81,0,-28.00,-109.00,-739.00
2025-08-06T12:14:45.607834,-2,-5,-79,0,0,-1,89,91,98,0,82,152.86,0,-149.00,-76.00,-947.00
2025-08-06T12:14:45.710291,-6,-1,-93,0,0,0,89,91,122,0,82,152.96,0,-40.00,76.00,-968.00
2025-08-06T12:14:45.812654,-7,-2,-105,0,0,0,89,91,78,0,82,153.23,0,49.00,18.00,-968.00
2025-08-06T12:14:45.914919,-3,-4,-116,0,0,0,89,91,71,0,82,153.13,0,31.00,-108.00,-905.00
2025-08-06T12:14:46.017501,1,-4,-123,0,0,1,89,91,85,0,82,152.78,0,58.00,-7.00,-943.00
2025-08-06T12:14:46.119761,2,-3,-131,0,0,2,89,91,6553,0,82,152.90,0,30.00,-144.00,-967.00
2025-08-06T12:14:46.222167,7,-3,-139,0,0,2,89,91,10,0,82,152.87,0,-151.00,-201.00,-992.00
2025-08-06T12:14:46.321528,13,-6,-146,0,0,2,89,91,130,0,82,153.01,0,-169.00,-200.00,-1306.00
2025-08-06T12:14:46.423564,12,-5,-147,0,0,1,88,92,127,0,82,152.84,0,-23.00,-63.00,-1261.00
2025-08-06T12:14:46.525481,11,-5,-146,0,0,0,88,92,119,0,82,152.92,0,-119.00,-224.00,-1103.00
2025-08-06T12:14:46.632758,13,-10,-138,0,0,0,88,92,10,0,82,152.89,0,109.00,-292.00,-965.00
2025-08-06T12:14:46.729620,11,-9,-124,0,0,0,88,92,47,0,82,152.94,0,252.00,-139.00,-803.00
2025-08-06T12:14:46.831447,14,-11,-110,0,0,1,88,92,80,0,82,152.97,0,397.00,-80.00,-859.00
2025-08-06T12:14:46.933385,12,-8,-96,0,0,3,88,92,64,0,82,153.01,0,557.00,131.00,-738.00
2025-08-06T12:14:47.035804,19,-10,-78,0,0,4,88,92,61,0,82,153.07,0,507.00,214.00,-954.00
2025-08-06T12:14:47.137250,20,-7,-64,0,0,4,88,92,67,0,82,152.96,0,363.00,350.00,-992.00
2025-08-06T12:14:47.239417,18,-4,-56,0,0,4,88,92,107,0,82,152.98,0,269.00,34.00,-1018.00
2025-08-06T12:14:47.341386,20,-3,-40,0,0,4,88,92,35,0,82,152.70,0,403.00,-51.00,-930.00
2025-08-06T12:14:47.443610,20,-4,-26,0,0,3,88,91,10,0,82,152.84,0,455.00,-33.00,-944.00
2025-08-06T12:14:47.545302,17,-4,-13,0,0,3,88,91,10,0,82,152.97,0,408.00,-57.00,-1047.00
2025-08-06T12:14:47.647441,15,-9,2,0,0,2,88,91,10,0,82,152.85,0,245.00,-7.00,-1146.00
2025-08-06T12:14:47.749581,5,-6,12,0,0,1,88,91,80,0,82,152.72,0,296.00,-96.00,-1015.00
2025-08-06T12:14:47.851682,0,-5,19,0,0,1,88,91,89,0,82,152.57,0,349.00,-110.00,-910.00
2025-08-06T12:14:47.953677,-5,-1,23,0,0,2,88,91,86,0,82,152.84,0,312.00,3.00,-958.00
2025-08-06T12:14:48.056540,-4,1,26,0,0,3,88,91,81,0,82,152.45,0,383.00,181.00,-1311.00
2025-08-06T12:14:48.157217,-1,4,31,0,0,1,88,91,80,0,82,152.52,0,305.00,212.00,-1316.00
2025-08-06T12:14:48.264268,1,3,28,0,0,-2,88,91,82,0,82,152.72,0,329.00,118.00,-1085.00
2025-08-06T12:14:48.310409,5,-2,20,0,0,-3,88,91,87,0,82,152.59,0,298.00,0.00,-1052.00
2025-08-06T12:14:48.463409,7,-7,12,0,0,-3,89,91,90,0,82,152.54,0,301.00,-28.00,-983.00
2025-08-06T12:14:48.515766,11,-11,3,0,0,-3,89,91,10,0,82,152.86,0,225.00,31.00,-956.00
2025-08-06T12:14:48.618897,9,-12,-4,0,0,-3,89,91,10,0,82,152.63,0,160.00,127.00,-970.00
2025-08-06T12:14:48.718509,6,-16,-10,0,0,-3,89,91,10,0,82,152.78,0,77.00,129.00,-918.00
2025-08-06T12:14:48.822481,7,-18,-15,0,0,-2,89,91,10,0,82,153.13,0,148.00,167.00,-826.00
2025-08-06T12:14:48.922267,6,-17,-18,0,0,0,89,91,10,0,82,152.92,0,103.00,146.00,-936.00
2025-08-06T12:14:49.024276,12,-12,-26,0,0,0,89,91,10,0,82,152.99,0,104.00,146.00,-968.00
2025-08-06T12:14:49.126373,13,-14,-23,0,0,1,89,91,10,0,82,152.75,0,46.00,77.00,-1042.00
2025-08-06T12:14:49.228250,11,-8,-24,0,0,1,89,91,10,0,82,152.74,0,46.00,287.00,-1040.00
2025-08-06T12:14:49.330333,1,1,-32,0,0,1,89,91,10,0,82,152.75,0,-32.00,-4.00,-1053.00
2025-08-06T12:14:49.432262,3,0,-27,0,0,1,89,91,10,0,82,152.79,0,-22.00,-57.00,-1022.00
2025-08-06T12:14:49.534336,4,0,-28,0,0,0,89,91,10,0,82,152.81,0,36.00,128.00,-967.00
2025-08-06T12:14:49.636940,0,4,-24,0,0,1,89,91,38,0,82,152.69,0,81.00,-6.00,-910.00
2025-08-06T12:14:49.738457,0,7,-26,0,0,1,89,91,39,0,82,152.55,0,-203.00,25.00,-1149.00
2025-08-06T12:14:49.840144,-4,11,-28,0,0,0,89,91,38,0,82,152.49,0,-51.00,-102.00,-1046.00
2025-08-06T12:14:49.942207,-1,10,-28,0,0,0,89,91,38,0,82,152.84,0,-93.00,-61.00,-1034.00
2025-08-06T12:14:50.044667,-2,13,-31,0,0,0,89,91,38,0,82,152.69,0,-36.00,-93.00,-1037.00
2025-08-06T12:14:50.146885,-1,9,-30,0,0,0,89,91,39,0,82,152.81,0,142.00,-103.00,-870.00
2025-08-06T12:14:50.248537,-2,8,-28,0,0,0,89,91,39,0,82,152.60,0,13.00,-32.00,-997.00
2025-08-06T12:14:50.350495,-2,8,-27,0,0,0,89,91,41,0,82,152.54,0,38.00,10.00,-1025.00
2025-08-06T12:14:50.452414,-4,11,-25,0,0,0,89,91,40,0,82,152.81,0,-145.00,-206.00,-975.00
2025-08-06T12:14:50.554860,0,10,-21,0,1,0,89,91,40,0,82,152.71,0,11.00,-162.00,-998.00
2025-08-06T12:14:50.656361,1,9,-16,0,2,0,89,91,40,0,82,152.60,0,-23.00,-99.00,-1015.00
2025-08-06T12:14:50.758739,3,7,-10,0,2,0,89,91,42,0,82,152.62,0,16.00,4.00,-977.00
2025-08-06T12:14:50.860077,5,5,-4,-1,3,0,89,91,33,0,82,152.76,0,185.00,-19.00,-1047.00
2025-08-06T12:14:50.962344,10,6,5,-1,3,0,89,91,10,0,82,152.90,0,139.00,-80.00,-987.00
2025-08-06T12:14:51.064252,11,2,5,-1,3,0,89,91,10,0,82,152.94,0,330.00,-97.00,-749.00
2025-08-06T12:14:51.166132,11,7,11,-1,3,1,89,91,10,0,82,152.62,0,57.00,-3.00,-999.00
2025-08-06T12:14:51.269472,14,11,14,0,0,2,89,91,10,0,82,152.63,0,134.00,-173.00,-1051.00
2025-08-06T12:14:51.370619,10,15,22,0,0,2,89,91,10,0,82,152.56,0,143.00,-305.00,-1023.00
2025-08-06T12:14:51.472352,8,14,27,0,0,0,90,91,10,0,82,152.69,0,274.00,-374.00,-996.00
2025-08-06T12:14:51.574442,6,11,31,0,0,0,90,91,10,0,82,152.64,0,215.00,-321.00,-959.00
2025-08-06T12:14:51.676249,0,8,30,0,0,0,90,91,10,0,82,152.86,0,295.00,-197.00,-928.00
2025-08-06T12:14:51.778138,6,4,31,0,0,0,90,91,10,0,82,152.75,0,248.00,-182.00,-910.00
2025-08-06T12:14:51.829052,4,3,26,0,0,0,90,91,10,0,82,152.71,0,270.00,-130.00,-850.00
2025-08-06T12:14:51.930983,5,1,19,0,0,1,90,91,10,0,82,152.30,0,322.00,-106.00,-1000.00
2025-08-06T12:14:52.032964,9,-1,13,0,0,1,90,91,10,0,82,152.61,0,272.00,113.00,-1084.00
2025-08-06T12:14:52.135141,12,-5,10,0,0,0,90,91,10,0,82,153.14,0,340.00,69.00,-1003.00
2025-08-06T12:14:52.236954,9,-4,3,0,0,0,90,91,10,0,82,152.44,0,333.00,32.00,-966.00
2025-08-06T12:14:52.339147,7,-2,-6,0,0,0,90,91,10,0,82,152.77,0,287.00,22.00,-1018.00
2025-08-06T12:14:52.441140,9,0,-19,0,0,0,89,91,10,0,82,152.59,0,374.00,-21.00,-1086.00
2025-08-06T12:14:52.543152,12,-1,-36,0,0,-2,89,91,36,0,82,152.85,0,326.00,-42.00,-1079.00
2025-08-06T12:14:52.645150,14,-2,-55,0,0,-3,89,91,94,0,82,152.62,0,230.00,-54.00,-952.00
2025-08-06T12:14:52.747921,15,-6,-70,0,0,-3,89,91,63,0,81,153.04,0,282.00,-69.00,-930.00
2025-08-06T12:14:52.850019,14,-9,-86,0,0,-2,89,91,71,0,81,152.91,0,251.00,-38.00,-1041.00
2025-08-06T12:14:52.952063,12,-7,-97,0,0,-2,89,91,73,0,81,153.10,0,207.00,8.00,-876.00
2025-08-06T12:14:53.054468,7,-6,-111,0,0,-2,89,91,48,0,81,152.87,0,274.00,-52.00,-711.00
2025-08-06T12:14:53.155961,6,-7,-126,0,0,0,89,91,10,0,81,152.73,0,101.00,-30.00,-944.00
2025-08-06T12:14:53.258209,5,-6,-140,0,0,0,89,91,118,0,81,152.79,0,143.00,-89.00,-794.00
2025-08-06T12:14:53.361515,4,-4,-151,0,0,2,89,91,114,0,81,152.64,0,30.00,-208.00,-824.00
2025-08-06T12:14:53.462032,6,-1,-160,0,0,3,89,91,110,0,81,152.47,0,39.00,-214.00,-1117.00
2025-08-06T12:14:53.564074,5,4,-169,0,0,3,89,91,106,0,81,152.98,0,90.00,-320.00,-1099.00
2025-08-06T12:14:53.666123,5,8,-175,0,0,2,89,91,106,0,81,152.71,0,-160.00,-563.00,-1105.00
2025-08-06T12:14:53.768953,3,12,-179,0,0,0,89,91,106,0,81,152.79,0,-162.00,-533.00,-1136.00
2025-08-06T12:14:53.871168,1,13,177,0,0,-1,89,91,108,0,81,152.97,0,-183.00,-574.00,-1125.00
2025-08-06T12:14:53.973139,-2,10,-176,3,3,-3,89,91,112,0,81,152.76,0,-132.00,-484.00,-1002.00
2025-08-06T12:14:54.075151,-7,9,-170,4,6,-4,89,91,103,0,81,152.64,0,-108.00,-388.00,-871.00
2025-08-06T12:14:54.175947,-10,6,-160,4,9,-3,89,91,76,0,81,152.98,0,-155.00,-309.00,-905.00
2025-08-06T12:14:54.277891,-9,0,-147,3,11,-2,89,91,55,0,81,152.84,0,-123.00,-315.00,-977.00
2025-08-06T12:14:54.380099,-9,-6,-131,0,14,-2,89,91,55,0,81,153.03,0,147.00,-419.00,-892.00
2025-08-06T12:14:54.482050,-5,-16,-108,-4,15,0,89,91,48,0,81,152.83,0,192.00,-207.00,-846.00
2025-08-06T12:14:54.584031,1,-20,-83,0,0,2,89,91,63,0,81,152.61,0,397.00,76.00,-838.00
2025-08-06T12:14:54.685841,7,-17,-58,0,0,4,89,91,116,0,81,152.69,0,703.00,239.00,-738.00
2025-08-06T12:14:54.787852,11,-11,-38,0,0,4,89,91,48,0,81,152.69,0,462.00,237.00,-978.00
2025-08-06T12:14:54.838808,15,-8,-22,0,0,4,89,91,32,0,81,152.62,0,434.00,156.00,-1044.00
2025-08-06T12:14:54.940957,19,-5,-6,0,0,2,89,91,10,0,81,152.58,0,388.00,150.00,-1057.00
2025-08-06T12:14:55.043057,17,-2,3,0,0,1,89,91,10,0,81,152.84,0,381.00,91.00,-1059.00
2025-08-06T12:14:55.145908,17,-5,10,0,0,0,89,91,10,0,81,152.71,0,453.00,78.00,-954.00
2025-08-06T12:14:55.247994,16,-8,16,0,0,0,89,91,10,0,81,152.62,0,326.00,-40.00,-895.00
2025-08-06T12:14:55.349940,16,-9,23,0,0,0,89,91,10,0,81,152.46,0,305.00,33.00,-904.00
2025-08-06T12:14:55.452441,15,-11,36,0,0,1,89,91,98,0,81,152.57,0,364.00,92.00,-874.00
2025-08-06T12:14:55.554078,12,-5,42,0,0,1,89,91,98,0,81,152.69,0,277.00,202.00,-961.00
2025-08-06T12:14:55.655787,9,2,48,0,0,0,89,91,92,0,81,152.53,0,190.00,54.00,-1042.00
2025-08-06T12:14:55.758120,6,1,58,0,0,0,89,91,89,0,81,152.77,0,255.00,-116.00,-1018.00
2025-08-06T12:14:55.859788,6,-3,61,0,0,0,89,91,87,0,81,152.44,0,162.00,-71.00,-1012.00
2025-08-06T12:14:55.961840,1,-2,62,0,0,0,89,91,47,0,81,152.62,0,250.00,44.00,-1081.00
2025-08-06T12:14:56.063718,2,0,65,0,0,-1,89,91,32,0,81,152.60,0,140.00,4.00,-1138.00
2025-08-06T12:14:56.165978,3,0,60,0,0,0,89,91,32,0,81,152.76,0,263.00,31.00,-969.00
2025-08-06T12:14:56.267882,0,6,58,0,0,0,89,91,33,0,81,152.81,0,180.00,-59.00,-1061.00
2025-08-06T12:14:56.369926,0,6,54,0,0,0,89,91,33,0,81,152.75,0,113.00,-73.00,-1003.00
2025-08-06T12:14:56.472030,-8,4,64,0,0,0,90,91,34,0,81,152.92,0,142.00,-181.00,-999.00
2025-08-06T12:14:56.573946,-1,-1,67,0,0,-1,90,91,40,0,81,152.56,0,26.00,-49.00,-1156.00
2025-08-06T12:14:56.675952,-1,-2,62,0,0,-2,90,91,90,0,81,152.70,0,40.00,-129.00,-1027.00
2025-08-06T12:14:56.778072,5,-3,62,0,0,-2,90,91,92,0,81,153.12,0,-16.00,34.00,-1047.00
2025-08-06T12:14:56.883708,12,-11,58,0,0,-2,90,91,101,0,81,152.50,0,39.00,-30.00,-1181.00
2025-08-06T12:14:56.981843,10,-9,55,0,0,-1,90,91,101,0,81,152.71,0,119.00,22.00,-946.00
2025-08-06T12:14:57.086253,3,-13,49,0,0,0,90,91,99,0,81,152.69,0,210.00,-2.00,-1010.00
2025-08-06T12:14:57.187217,4,-11,39,0,0,0,90,91,10,0,81,152.65,0,231.00,113.00,-911.00
2025-08-06T12:14:57.288661,10,-9,36,0,0,0,90,91,10,0,81,152.75,0,133.00,233.00,-888.00
2025-08-06T12:14:57.390866,8,-11,33,0,0,0,90,91,10,0,81,152.80,0,0.00,196.00,-949.00
2025-08-06T12:14:57.492774,9,-11,23,0,0,0,89,91,10,0,81,152.80,0,96.00,271.00,-1024.00
2025-08-06T12:14:57.594641,8,-11,19,0,0,0,89,91,10,0,81,152.85,0,82.00,276.00,-1026.00
2025-08-06T12:14:57.696707,7,-12,19,0,0,0,89,91,10,0,81,152.70,0,65.00,337.00,-1035.00
2025-08-06T12:14:57.798614,5,-10,17,0,0,0,89,91,10,0,81,152.70,0,0.00,227.00,-945.00
2025-08-06T12:14:57.900779,3,-11,16,0,0,0,89,91,10,0,81,152.57,0,132.00,168.00,-921.00
2025-08-06T12:14:58.002777,6,-12,14,0,0,0,89,91,10,0,81,152.84,0,191.00,207.00,-988.00
2025-08-06T12:14:58.053770,11,-8,-2,0,0,0,89,91,10,0,81,152.58,0,556.00,36.00,-824.00
2025-08-06T12:14:58.156160,20,-8,7,0,0,0,89,91,10,0,81,152.67,0,192.00,228.00,-1083.00
2025-08-06T12:14:58.257628,18,-10,6,0,0,0,89,91,10,0,81,152.83,0,361.00,308.00,-1034.00
2025-08-06T12:14:58.359860,15,-7,8,0,0,0,89,91,10,0,81,152.56,0,458.00,140.00,-754.00
2025-08-06T12:14:58.461667,20,-11,9,0,0,0,90,91,10,0,81,152.85,0,294.00,215.00,-984.00
2025-08-06T12:14:58.563754,21,-12,7,0,0,0,90,91,10,0,81,152.80,0,424.00,221.00,-797.00
2025-08-06T12:14:58.665889,26,-17,7,0,0,0,90,91,10,0,81,152.76,0,424.00,260.00,-942.00
2025-08-06T12:14:58.767965,22,-13,5,0,0,0,90,91,10,0,81,152.81,0,412.00,312.00,-842.00
2025-08-06T12:14:58.869889,22,-13,5,0,0,0,90,91,10,0,81,152.58,0,436.00,190.00,-847.00
2025-08-06T12:14:58.971606,25,-14,6,0,0,0,90,91,10,0,81,152.67,0,463.00,198.00,-846.00
2025-08-06T12:14:59.073929,24,-14,7,0,0,0,90,91,10,0,81,152.76,0,574.00,206.00,-695.00
2025-08-06T12:14:59.175554,27,-14,7,0,0,0,90,91,30,0,81,152.57,0,564.00,256.00,-843.00
2025-08-06T12:14:59.277684,30,-15,5,0,0,0,90,91,30,0,81,152.62,0,466.00,256.00,-850.00
2025-08-06T12:14:59.379731,27,-17,2,0,0,0,90,91,32,0,81,152.99,0,466.00,267.00,-903.00
2025-08-06T12:14:59.482161,26,-18,2,0,0,0,89,91,30,0,81,152.62,0,412.00,314.00,-781.00
2025-08-06T12:14:59.584680,24,-17,2,0,0,0,89,91,32,0,81,152.74,0,362.00,199.00,-814.00
2025-08-06T12:14:59.686068,23,-15,3,0,0,0,89,91,10,0,81,152.83,0,452.00,306.00,-867.00
2025-08-06T12:14:59.788443,25,-16,10,0,0,0,89,91,10,0,81,152.63,0,445.00,410.00,-951.00
2025-08-06T12:14:59.889534,28,-16,9,0,0,0,89,91,31,0,81,152.76,0,497.00,340.00,-862.00
2025-08-06T12:14:59.991483,31,-19,9,0,1,0,89,91,33,0,81,152.72,0,479.00,289.00,-906.00
2025-08-06T12:15:00.093536,29,-18,6,0,0,0,89,91,33,0,81,152.78,0,483.00,304.00,-804.00
2025-08-06T12:15:00.196210,27,-18,5,0,0,0,89,91,32,0,81,152.93,0,560.00,255.00,-724.00
2025-08-06T12:15:00.297538,29,-19,5,0,0,0,89,91,32,0,81,152.65,0,472.00,334.00,-864.00
2025-08-06T12:15:00.399628,29,-17,7,0,0,0,89,91,32,0,81,152.73,0,504.00,322.00,-768.00
2025-08-06T12:15:00.501658,31,-16,7,0,0,0,89,91,32,0,81,152.96,0,479.00,275.00,-847.00
2025-08-06T12:15:00.607565,35,-8,10,0,1,1,89,91,32,0,81,152.44,0,542.00,312.00,-1058.00
2025-08-06T12:15:00.705516,33,-10,11,-1,1,0,89,91,31,0,81,152.72,0,592.00,228.00,-857.00
2025-08-06T12:15:00.808364,33,-8,14,-1,2,0,89,91,10,0,81,152.74,0,511.00,186.00,-859.00
2025-08-06T12:15:00.909462,31,-7,16,-2,2,0,89,91,10,0,81,152.66,0,441.00,121.00,-902.00
2025-08-06T12:15:01.014856,28,-7,21,-3,1,0,89,91,10,0,81,152.77,0,296.00,156.00,-942.00
2025-08-06T12:15:01.113434,22,-4,22,0,0,0,89,91,10,0,81,153.03,0,140.00,78.00,-1040.00
2025-08-06T12:15:01.215514,16,-3,24,0,0,0,89,91,10,0,81,152.94,0,214.00,64.00,-958.00
2025-08-06T12:15:01.322058,13,-2,28,0,0,0,89,91,84,0,81,152.73,0,269.00,23.00,-929.00
2025-08-06T12:15:01.368585,7,0,26,0,0,0,89,91,100,0,81,152.67,0,175.00,-51.00,-981.00
2025-08-06T12:15:01.521638,0,3,20,0,0,0,89,91,95,0,81,152.66,0,124.00,-94.00,-855.00
2025-08-06T12:15:01.576399,-5,6,14,0,0,2,89,91,42,0,81,152.70,0,246.00,-161.00,-497.00
2025-08-06T12:15:01.676451,-1,9,17,0,0,4,89,91,37,0,81,152.48,0,153.00,-262.00,-910.00
2025-08-06T12:15:01.777303,4,9,16,0,0,5,89,91,37,0,81,152.93,0,126.00,-91.00,-1033.00
2025-08-06T12:15:01.880293,5,10,20,0,0,5,89,91,30,-10,81,152.39,0,214.00,-38.00,-983.00
2025-08-06T12:15:01.982748,9,6,25,0,0,3,89,91,10,-10,81,152.48,0,335.00,82.00,-1357.00
2025-08-06T12:15:02.082636,9,5,26,0,0,0,89,91,10,-10,81,152.53,0,385.00,255.00,-1362.00
2025-08-06T12:15:02.184522,9,2,20,0,0,-3,89,91,66,-10,81,152.64,0,443.00,76.00,-1130.00
2025-08-06T12:15:02.286889,5,-1,16,0,0,-5,89,91,80,-10,81,152.55,0,268.00,-118.00,-992.00
2025-08-06T12:15:02.388360,2,-1,10,0,0,-4,89,91,86,0,81,152.58,0,202.00,-76.00,-936.00
2025-08-06T12:15:02.490611,5,-5,3,0,0,-4,89,91,91,0,81,152.39,0,230.00,-86.00,-956.00
2025-08-06T12:15:02.592453,7,-5,-4,0,0,-3,89,91,10,0,81,152.64,0,247.00,-3.00,-875.00
2025-08-06T12:15:02.694606,6,-6,-9,0,0,-1,89,91,10,0,81,152.98,0,150.00,109.00,-959.00
2025-08-06T12:15:02.797247,7,-8,-16,0,0,-1,89,91,10,0,81,152.60,0,81.00,74.00,-1029.00
2025-08-06T12:15:02.899159,6,-10,-21,0,0,-1,89,91,10,0,81,152.88,0,21.00,85.00,-1004.00
2025-08-06T12:15:03.000372,4,-12,-26,0,0,-1,89,91,10,0,81,152.65,0,-26.00,101.00,-1019.00
2025-08-06T12:15:03.104299,4,-15,-31,0,0,-1,89,91,10,0,81,153.02,0,21.00,182.00,-960.00
2025-08-06T12:15:03.206626,4,-17,-35,0,0,0,89,91,10,0,81,152.54,0,-50.00,279.00,-925.00
2025-08-06T12:15:03.308759,5,-18,-39,0,0,0,89,91,44,0,81,152.88,0,11.00,373.00,-937.00
2025-08-06T12:15:03.408794,7,-15,-45,0,0,0,89,91,105,0,81,152.53,0,160.00,247.00,-944.00
2025-08-06T12:15:03.510434,8,-13,-50,0,0,0,89,91,105,0,81,152.58,0,274.00,352.00,-1034.00
2025-08-06T12:15:03.612451,8,-15,-59,0,0,-1,89,91,63,0,81,152.72,0,322.00,287.00,-1141.00
2025-08-06T12:15:03.714401,7,-17,-73,0,0,-3,89,91,52,0,81,152.78,0,333.00,349.00,-947.00
2025-08-06T12:15:03.816245,9,-17,-92,0,0,-3,89,91,48,0,81,152.83,0,228.00,302.00,-900.00
2025-08-06T12:15:03.920094,10,-15,-115,0,0,-1,89,91,69,0,81,152.82,0,273.00,230.00,-901.00
2025-08-06T12:15:04.020410,12,-14,-136,0,0,0,89,91,35,0,81,153.13,0,331.00,80.00,-822.00
2025-08-06T12:15:04.122513,11,-14,-156,0,0,0,89,91,10,0,81,152.87,0,260.00,-51.00,-831.00
2025-08-06T12:15:04.224600,9,-8,-171,0,0,3,89,91,113,0,81,152.45,0,514.00,-49.00,-558.00
2025-08-06T12:15:04.326232,13,-8,175,0,0,5,89,91,113,0,81,152.70,0,420.00,-365.00,-932.00
2025-08-06T12:15:04.428403,15,0,167,0,0,5,89,91,108,0,81,152.60,0,396.00,-153.00,-1029.00
2025-08-06T12:15:04.531131,17,5,159,0,0,4,89,91,103,-10,81,152.81,0,335.00,-293.00,-1121.00
2025-08-06T12:15:04.632317,16,6,155,0,0,2,89,91,103,-10,81,152.51,0,355.00,-381.00,-1179.00
2025-08-06T12:15:04.734286,10,9,156,0,0,0,89,91,101,-10,81,152.89,0,146.00,-449.00,-1219.00
2025-08-06T12:15:04.836322,4,10,158,0,0,-2,89,91,102,-10,81,152.69,0,119.00,-467.00,-1082.00
2025-08-06T12:15:04.887570,-1,10,164,1,3,-3,89,91,107,0,81,152.84,0,77.00,-365.00,-969.00
2025-08-06T12:15:04.991638,-6,7,172,1,5,-4,89,91,113,0,81,152.85,0,-56.00,-360.00,-950.00
2025-08-06T12:15:05.091722,-10,2,-177,1,7,-3,89,91,111,0,81,152.48,0,-73.00,-326.00,-857.00
2025-08-06T12:15:05.193211,-12,-2,-165,0,10,-2,89,91,10,0,81,152.98,0,-62.00,-267.00,-838.00
2025-08-06T12:15:05.295336,-13,-6,-149,-1,12,-1,89,91,78,0,81,152.85,0,-76.00,-106.00,-914.00
2025-08-06T12:15:05.398163,-11,-10,-134,-3,13,0,89,91,55,0,81,152.71,0,0.00,-20.00,-901.00
2025-08-06T12:15:05.499248,-7,-13,-119,0,0,0,89,91,50,0,81,153.07,0,3.00,154.00,-828.00
2025-08-06T12:15:05.601194,0,-17,-104,0,0,1,89,91,62,0,81,152.85,0,-96.00,113.00,-924.00
2025-08-06T12:15:05.703381,2,-12,-86,0,0,4,89,91,77,0,81,152.96,0,216.00,95.00,-664.00
2025-08-06T12:15:05.805774,9,-12,-69,0,0,5,89,91,109,0,81,153.07,0,224.00,-92.00,-1002.00
2025-08-06T12:15:05.907138,15,-8,-50,0,0,6,89,91,40,0,81,152.83,0,388.00,-103.00,-1051.00
2025-08-06T12:15:06.009193,18,-2,-30,0,0,5,89,91,31,-10,81,152.61,0,431.00,-264.00,-927.00
2025-08-06T12:15:06.111253,18,0,-14,0,0,5,89,91,10,-10,81,152.80,0,629.00,-287.00,-885.00
2025-08-06T12:15:06.213454,16,2,0,0,0,4,89,91,10,-20,81,152.56,0,664.00,-98.00,-911.00
2025-08-06T12:15:06.316581,13,2,10,0,0,4,89,91,45,-20,81,152.99,0,617.00,-82.00,-919.00
2025-08-06T12:15:06.417192,10,5,17,0,0,4,89,91,79,-20,81,152.81,0,430.00,40.00,-925.00
2025-08-06T12:15:06.519204,9,4,21,0,0,3,89,91,78,-20,81,152.51,0,350.00,-9.00,-1166.00
2025-08-06T12:15:06.623655,4,0,34,0,0,1,89,91,10,-30,81,152.45,0,313.00,-13.00,-1151.00
2025-08-06T12:15:06.723161,-4,0,55,0,0,0,89,91,30,-30,81,152.36,0,192.00,-73.00,-1169.00
2025-08-06T12:15:06.825032,-8,-4,64,0,0,0,89,91,30,0,81,152.62,0,215.00,94.00,-970.00
2025-08-06T12:15:06.927189,-2,0,64,0,0,-1,89,91,10,0,81,152.48,0,146.00,171.00,-1172.00
2025-08-06T12:15:07.029197,2,2,74,0,0,-3,89,91,61,0,81,152.40,0,281.00,126.00,-1218.00
2025-08-06T12:15:07.131063,10,1,83,0,0,-5,89,91,83,0,81,152.65,0,327.00,39.00,-1207.00
2025-08-06T12:15:07.233148,19,-6,78,0,0,-7,89,91,96,0,81,152.81,0,269.00,56.00,-1000.00
2025-08-06T12:15:07.335141,18,-11,66,0,0,-7,89,91,106,10,81,152.49,0,284.00,138.00,-936.00
2025-08-06T12:15:07.437390,14,-15,54,0,0,-6,89,91,114,20,81,152.39,0,241.00,182.00,-940.00
2025-08-06T12:15:07.539944,15,-15,43,0,0,-5,88,91,34,20,81,152.78,0,353.00,-84.00,-779.00
2025-08-06T12:15:07.642093,14,-15,33,0,0,-5,88,91,32,20,81,152.64,0,269.00,105.00,-892.00
2025-08-06T12:15:07.743454,18,-12,17,0,0,-4,88,91,37,30,81,152.87,0,410.00,257.00,-1023.00
2025-08-06T12:15:07.845050,25,-15,3,0,0,-6,88,91,47,30,81,152.85,0,530.00,95.00,-800.00
2025-08-06T12:15:07.947078,23,-17,-8,0,0,-6,88,91,55,40,81,152.91,0,402.00,100.00,-1167.00
2025-08-06T12:15:07.997998,14,-21,-17,0,0,-4,88,91,60,40,81,152.79,0,381.00,-9.00,-998.00
2025-08-06T12:15:08.100431,6,-17,-26,0,0,-2,88,91,59,40,81,152.94,0,148.00,132.00,-772.00
2025-08-06T12:15:08.202100,3,-14,-32,0,0,-1,88,91,59,40,81,153.11,0,162.00,295.00,-720.00
2025-08-06T12:15:08.304219,0,-13,-43,0,0,0,88,91,58,40,81,152.88,0,46.00,233.00,-790.00
2025-08-06T12:15:08.406059,-4,-9,-49,7,-4,0,88,91,59,40,81,153.24,0,26.00,252.00,-1012.00
2025-08-06T12:15:08.508247,-6,-10,-59,7,-6,0,89,91,62,0,81,153.36,0,89.00,73.00,-953.00
2025-08-06T12:15:08.610046,-9,-6,-77,7,-8,1,89,91,64,0,81,153.08,0,66.00,-42.00,-796.00
2025-08-06T12:15:08.712097,-7,-3,-100,6,-10,2,89,91,82,0,81,152.93,0,-41.00,-194.00,-1062.00
2025-08-06T12:15:08.823169,-4,-1,-118,4,-10,2,89,91,80,0,81,153.13,0,-33.00,-116.00,-807.00
2025-08-06T12:15:08.916124,-5,-1,-134,1,-11,4,89,91,75,0,81,152.89,0,47.00,-262.00,-566.00
2025-08-06T12:15:09.018871,1,-2,-143,0,-10,7,89,91,6553,0,81,152.69,0,112.00,-337.00,-1056.00
2025-08-06T12:15:09.120012,3,4,-148,-2,-7,8,89,91,10,-10,81,152.95,0,190.00,-228.00,-949.00
2025-08-06T12:15:09.222273,6,6,-155,-4,-7,6,89,91,114,-20,81,152.58,0,-187.00,-675.00,-1082.00
2025-08-06T12:15:09.323995,11,4,-152,-4,-2,6,89,91,110,-20,81,152.81,0,202.00,97.00,-837.00
2025-08-06T12:15:09.428232,8,10,-157,0,0,6,89,91,105,-30,81,152.54,0,98.00,-263.00,-1307.00
2025-08-06T12:15:09.527924,13,5,-156,0,0,4,89,92,101,-30,81,152.52,0,306.00,-501.00,-1069.00
2025-08-06T12:15:09.633632,17,5,-157,0,0,2,89,92,100,-30,81,152.51,0,71.00,-575.00,-594.00
2025-08-06T12:15:09.732067,25,3,-154,0,0,6,89,92,101,-40,81,152.70,0,313.00,-29.00,-1471.00
2025-08-06T12:15:09.833921,25,6,-150,0,0,2,89,92,97,-40,81,152.52,0,507.00,-383.00,-869.00
2025-08-06T12:15:09.935999,22,7,-147,0,0,1,89,92,93,-40,81,152.41,0,446.00,-247.00,-939.00
2025-08-06T12:15:10.038211,13,16,-152,0,3,1,89,92,92,-50,81,152.74,0,553.00,-167.00,-734.00
2025-08-06T12:15:10.140165,10,23,-155,-2,1,2,89,92,61,-50,81,152.37,0,182.00,-279.00,-1042.00
2025-08-06T12:15:10.242039,13,21,-156,-2,0,1,89,92,91,-50,81,152.40,0,176.00,-459.00,-1020.00
2025-08-06T12:15:10.344021,16,17,-160,0,0,0,89,92,91,0,81,152.52,0,192.00,-464.00,-863.00
2025-08-06T12:15:10.445879,18,18,-164,0,0,0,89,92,93,0,81,152.70,0,324.00,-361.00,-828.00
2025-08-06T12:15:10.547982,17,18,-162,0,0,0,89,92,94,0,81,152.55,0,313.00,-300.00,-960.00
2025-08-06T12:15:10.649975,17,21,-164,0,1,0,89,92,90,0,81,152.43,0,211.00,-142.00,-1069.00
2025-08-06T12:15:10.751962,11,19,-165,0,0,0,89,92,89,0,81,152.19,0,226.00,-421.00,-743.00
2025-08-06T12:15:10.853904,9,15,-162,-1,0,0,89,92,89,0,81,152.28,0,307.00,-336.00,-984.00
2025-08-06T12:15:10.955917,9,13,-162,-1,1,0,89,92,88,0,81,152.52,0,186.00,-370.00,-931.00
2025-08-06T12:15:11.057987,8,14,-168,-1,1,0,89,92,89,0,81,152.32,0,281.00,-151.00,-1047.00
2025-08-06T12:15:11.159751,10,10,-170,-1,0,-2,89,92,88,0,81,152.76,0,-102.00,-226.00,-1335.00
2025-08-06T12:15:11.210885,8,3,-168,2,0,-5,89,92,93,0,81,152.42,0,281.00,-266.00,-1081.00
2025-08-06T12:15:11.312850,2,-3,-169,1,2,-7,89,92,101,0,81,152.72,0,-416.00,-506.00,-1370.00
2025-08-06T12:15:11.414866,-3,-4,-162,4,8,-10,89,92,111,10,81,152.91,0,-20.00,-626.00,-851.00
2025-08-06T12:15:11.516847,-20,-5,-149,1,13,-8,89,91,49,20,81,152.73,0,-76.00,-481.00,-661.00
2025-08-06T12:15:11.619036,-26,-9,-130,-2,17,-5,89,91,55,30,81,152.80,0,-79.00,-386.00,-689.00
2025-08-06T12:15:11.721074,-22,-15,-108,-7,19,-1,89,91,46,40,81,152.92,0,181.00,-131.00,-765.00
2025-08-06T12:15:11.822726,-16,-18,-92,-11,17,2,89,91,52,40,81,152.50,0,125.00,-66.00,-614.00
2025-08-06T12:15:11.924805,-9,-18,-72,-14,14,7,89,91,6553,30,81,152.50,0,192.00,-57.00,-987.00
2025-08-06T12:15:12.026768,-2,-15,-50,-16,10,8,89,91,36,30,81,152.95,0,92.00,-130.00,-1135.00
2025-08-06T12:15:12.129228,0,-7,-32,-17,6,8,89,91,10,20,81,152.74,0,311.00,-338.00,-1170.00
2025-08-06T12:15:12.231422,2,0,-14,0,0,6,89,91,10,10,81,152.68,0,505.00,-415.00,-1028.00
2025-08-06T12:15:12.333888,1,4,2,0,0,6,89,91,88,10,81,152.65,0,525.00,-284.00,-966.00
2025-08-06T12:15:12.436305,0,9,13,0,0,5,89,91,75,0,81,152.29,0,318.00,-185.00,-1209.00
2025-08-06T12:15:12.536965,1,11,24,0,0,3,90,92,10,0,81,152.66,0,154.00,-151.00,-1169.00
2025-08-06T12:15:12.640966,0,15,30,0,0,2,90,92,10,0,81,152.36,0,219.00,-82.00,-1017.00
2025-08-06T12:15:12.744215,1,14,36,0,0,1,90,92,10,0,81,152.59,0,122.00,-206.00,-981.00
2025-08-06T12:15:12.842712,0,12,41,0,0,2,90,92,10,0,81,152.21,0,138.00,-160.00,-1065.00
2025-08-06T12:15:12.944759,0,7,49,0,0,1,90,92,10,0,81,152.44,0,0.00,24.00,-1087.00
2025-08-06T12:15:13.046960,-4,3,59,0,0,1,90,92,10,0,81,152.07,0,58.00,-28.00,-984.00
2025-08-06T12:15:13.148674,-2,3,69,0,0,0,90,92,10,0,81,152.16,0,86.00,-15.00,-1127.00
2025-08-06T12:15:13.250729,-1,4,75,0,0,0,90,92,10,0,81,152.03,0,-341.00,-30.00,-2087.00
2025-08-06T12:15:13.352921,0,2,77,0,0,-1,90,92,10,0,81,152.16,0,54.00,23.00,-1002.00
2025-08-06T12:15:13.454770,0,1,77,0,0,-1,90,92,10,0,81,152.36,0,40.00,-23.00,-1017.00
2025-08-06T12:15:13.556884,1,0,77,0,0,-1,90,91,10,0,81,152.22,0,345.00,313.00,-1848.00
2025-08-06T12:15:13.658710,8,0,75,0,0,-5,90,91,10,0,81,152.20,0,285.00,143.00,-1259.00
2025-08-06T12:15:13.760761,1,0,71,0,0,-8,90,91,10,0,81,152.38,0,181.00,130.00,-687.00
2025-08-06T12:15:13.862616,-4,1,63,0,0,-6,90,91,10,10,81,152.46,0,-119.00,32.00,-573.00
2025-08-06T12:15:13.964621,-3,-1,53,0,0,-3,90,91,30,10,81,152.46,0,41.00,-189.00,-483.00
2025-08-06T12:15:14.066714,0,-3,45,0,0,0,90,91,32,10,81,152.53,0,-165.00,-134.00,-855.00
2025-08-06T12:15:14.168711,8,-3,48,0,0,2,90,91,10,10,81,152.14,0,-108.00,-78.00,-966.00
2025-08-06T12:15:14.270748,10,-1,48,0,0,3,90,91,10,10,81,152.48,0,247.00,-29.00,-970.00
2025-08-06T12:15:14.373025,10,1,50,0,0,4,90,91,10,0,81,152.46,0,147.00,-266.00,-1055.00
2025-08-06T12:15:14.423615,12,5,61,0,0,3,90,91,10,0,81,152.19,0,109.00,-37.00,-1044.00
2025-08-06T12:15:14.576982,17,5,69,0,0,2,90,91,10,0,81,152.06,0,198.00,-188.00,-1049.00
2025-08-06T12:15:14.628128,16,6,73,0,0,2,90,91,10,0,81,152.28,0,210.00,-136.00,-934.00
2025-08-06T12:15:14.730016,13,8,72,0,0,2,90,91,10,0,81,151.94,0,105.00,6.00,-502.00
2025-08-06T12:15:14.832506,0,3,73,0,0,4,90,91,10,0,81,152.51,0,-88.00,-400.00,-1632.00
2025-08-06T12:15:14.934211,4,1,79,0,0,3,90,91,10,0,81,152.11,0,15.00,-94.00,-2208.00
2025-08-06T12:15:15.035764,3,1,75,0,0,0,90,91,10,0,81,152.25,0,77.00,-54.00,-989.00
2025-08-06T12:15:15.138129,3,0,74,0,0,0,90,91,10,0,81,152.19,0,-9.00,9.00,-125.00
2025-08-06T12:15:15.239622,3,1,73,0,0,0,90,91,10,0,81,152.36,0,99.00,14.00,-1167.00
2025-08-06T12:15:15.341781,3,1,73,0,0,0,90,91,10,0,81,152.11,0,115.00,8.00,-1093.00
2025-08-06T12:15:15.443511,3,1,73,0,0,1,90,91,10,0,81,152.51,0,131.00,-23.00,-1143.00
2025-08-06T12:15:15.546474,3,1,73,0,0,0,89,91,10,0,81,152.04,0,-122.00,179.00,-1022.00
2025-08-06T12:15:15.647520,3,2,75,0,0,0,89,91,10,0,81,151.94,0,291.00,228.00,-1239.00
2025-08-06T12:15:15.750169,3,-2,74,0,0,-1,89,91,10,0,81,152.39,0,27.00,379.00,-1390.00
2025-08-06T12:15:15.851552,3,-7,56,0,0,-5,89,91,10,0,81,152.24,0,-20.00,-87.00,-1198.00
2025-08-06T12:15:15.953462,-3,-8,54,0,0,-8,89,91,31,0,81,152.48,0,-337.00,-100.00,-1020.00
2025-08-06T12:15:16.055631,-6,-11,58,0,0,-8,89,91,37,10,81,152.52,0,-25.00,-332.00,-631.00
2025-08-06T12:15:16.158067,-6,-8,57,0,0,-5,89,91,42,20,81,152.51,0,79.00,86.00,-781.00
2025-08-06T12:15:16.268714,-1,-8,68,0,0,-2,89,91,45,30,81,152.35,0,-17.00,26.00,-733.00
2025-08-06T12:15:16.362976,1,-11,74,0,0,0,89,91,10,30,81,152.35,0,89.00,162.00,-650.00
2025-08-06T12:15:16.463467,-1,-6,75,0,0,2,89,91,31,30,81,152.31,0,171.00,246.00,-854.00
2025-08-06T12:15:16.566424,-2,0,73,0,0,4,89,91,10,30,81,152.18,0,139.00,158.00,-1013.00
2025-08-06T12:15:16.667446,-4,3,71,0,0,4,89,91,10,20,81,152.40,0,-5.00,-34.00,-930.00
2025-08-06T12:15:16.769621,-5,7,69,0,0,4,89,91,10,0,81,152.48,0,-236.00,-18.00,-1191.00
2025-08-06T12:15:16.871474,-5,9,71,0,0,2,89,91,10,0,81,152.35,0,-42.00,183.00,-936.00
2025-08-06T12:15:16.973520,-6,6,72,0,0,2,89,91,10,0,81,152.40,0,26.00,31.00,-929.00
2025-08-06T12:15:17.075483,-4,5,72,0,0,2,89,91,10,0,81,152.20,0,-104.00,63.00,-1118.00
2025-08-06T12:15:17.177649,-3,5,74,0,0,1,89,91,10,0,81,152.04,0,-13.00,-8.00,-1093.00
2025-08-06T12:15:17.279414,-4,4,78,0,0,1,89,91,10,0,81,152.21,0,-441.00,208.00,-2601.00
2025-08-06T12:15:17.381638,0,1,80,0,0,0,89,91,10,0,81,152.25,0,60.00,-15.00,-1274.00
2025-08-06T12:15:17.483437,0,1,80,0,0,0,89,91,10,0,81,152.36,0,12.00,19.00,-1210.00
2025-08-06T12:15:17.585566,0,1,80,0,0,0,89,91,10,0,81,152.24,0,5.00,-33.00,-939.00
2025-08-06T12:15:17.636485,0,1,80,0,0,0,89,91,10,0,81,152.23,0,17.00,2.00,-990.00
2025-08-06T12:15:17.738674,0,1,80,0,0,0,89,91,10,0,81,152.21,0,13.00,261.00,-1200.00
2025-08-06T12:15:17.840346,4,0,85,0,0,-1,89,91,10,0,81,152.31,0,29.00,163.00,-1347.00
2025-08-06T12:15:17.942425,1,1,82,0,0,-4,89,91,10,0,81,152.44,0,238.00,184.00,-1007.00
2025-08-06T12:15:18.044546,-4,2,82,0,0,-5,89,91,10,0,81,152.30,0,231.00,0.00,-912.00
2025-08-06T12:15:18.146387,-5,2,81,0,0,-3,89,91,10,0,81,152.62,0,-11.00,71.00,-1003.00
2025-08-06T12:15:18.248539,-4,0,77,0,0,-3,89,91,10,10,81,152.41,0,-39.00,260.00,-735.00
2025-08-06T12:15:18.350403,-3,-2,71,0,0,0,89,91,31,10,81,152.74,0,-113.00,78.00,-951.00
2025-08-06T12:15:18.452369,1,-3,67,0,0,0,89,91,30,10,81,152.34,0,-94.00,34.00,-806.00
2025-08-06T12:15:18.554468,3,1,69,0,0,5,89,91,10,0,81,152.32,0,-100.00,-384.00,-741.00
2025-08-06T12:15:18.656775,6,4,68,0,0,6,89,91,10,0,81,152.12,0,170.00,-377.00,-840.00
2025-08-06T12:15:18.758459,9,8,72,0,0,3,89,91,10,-10,81,152.39,0,-2.00,-112.00,-1340.00
2025-08-06T12:15:18.860600,9,9,76,0,0,0,89,91,10,-10,81,152.43,0,134.00,-124.00,-1232.00
2025-08-06T12:15:18.962323,9,8,75,0,0,0,89,91,10,-10,81,152.20,0,140.00,-69.00,-1013.00
2025-08-06T12:15:19.064598,12,8,78,0,0,0,89,91,10,-10,81,152.31,0,137.00,-293.00,-824.00
2025-08-06T12:15:19.166259,15,8,81,0,0,0,89,91,10,-10,81,152.15,0,358.00,149.00,-1151.00
2025-08-06T12:15:19.268259,11,1,72,0,0,-2,89,91,10,0,81,152.12,0,207.00,-66.00,-1181.00
2025-08-06T12:15:19.370414,4,-5,69,0,0,-5,89,91,10,0,81,152.28,0,208.00,94.00,-1372.00
2025-08-06T12:15:19.472303,0,-9,68,0,0,-8,89,91,10,0,81,152.58,0,93.00,0.00,-1284.00
2025-08-06T12:15:19.574865,1,-13,69,0,0,-9,90,91,10,10,81,152.72,0,157.00,134.00,-1387.00
2025-08-06T12:15:19.676285,1,-13,70,0,0,-5,90,91,36,20,81,152.47,0,-150.00,-198.00,-1270.00
2025-08-06T12:15:19.781173,-2,-3,73,0,0,0,90,91,38,20,81,152.39,0,-110.00,-242.00,-873.00
2025-08-06T12:15:19.880597,-8,3,74,0,0,5,90,91,10,20,81,152.54,0,68.00,-173.00,-381.00
2025-08-06T12:15:19.982303,-5,6,75,0,0,7,90,91,10,10,81,152.03,0,-52.00,358.00,-1342.00
2025-08-06T12:15:20.084234,-3,7,75,0,0,3,90,91,10,0,81,152.59,0,-220.00,131.00,-1500.00
2025-08-06T12:15:20.187498,-1,4,77,0,0,0,90,91,10,0,81,152.35,0,-107.00,-70.00,-1240.00
2025-08-06T12:15:20.290518,0,3,73,0,0,1,90,91,10,0,81,152.27,0,220.00,-205.00,-790.00
2025-08-06T12:15:20.391480,3,4,74,0,0,1,90,91,10,0,81,152.35,0,-56.00,-124.00,-1135.00
2025-08-06T12:15:20.492329,1,6,74,0,0,0,90,91,10,0,81,152.40,0,220.00,-205.00,-790.00
2025-08-06T12:15:20.594334,0,1,75,0,0,3,90,91,10,0,81,152.10,0,-56.00,-124.00,-1135.00
2025-08-06T12:15:20.696252,0,1,75,0,0,0,90,91,10,0,81,152.23,0,14.00,-183.00,-940.00
2025-08-06T12:15:20.798489,0,1,75,0,0,0,90,91,10,0,81,152.20,0,19.00,496.00,-4471.00
2025-08-06T12:15:20.900203,0,1,75,0,0,0,90,91,10,0,81,152.39,0,-119.00,-17.00,-1051.00
2025-08-06T12:15:20.951238,0,1,75,0,0,0,90,91,10,0,81,152.44,0,37.00,8.00,-1058.00
2025-08-06T12:15:21.053443,0,1,75,0,0,0,90,91,10,0,81,152.10,0,32.00,38.00,-993.00
2025-08-06T12:15:21.155131,0,1,75,0,0,0,90,91,10,0,81,152.26,0,-7.00,-6.00,-1003.00
2025-08-06T12:15:21.257554,0,1,75,0,0,0,90,91,10,0,81,152.10,0,-6.00,-31.00,-997.00
2025-08-06T12:15:21.360961,0,1,75,0,0,0,90,91,10,0,81,152.13,0,2.00,10.00,-994.00
2025-08-06T12:15:21.461318,0,1,75,0,0,0,90,91,10,0,81,152.36,0,-3.00,-22.00,-1003.00
2025-08-06T12:15:21.563141,0,1,75,0,0,0,89,91,10,0,81,152.27,0,-1.00,-22.00,-999.00
2025-08-06T12:15:21.665835,0,1,75,0,0,0,89,91,10,0,81,152.52,0,3.00,3.00,-999.00
2025-08-06T12:15:21.767754,0,0,75,0,0,0,89,91,10,0,81,151.76,0,0.00,-15.00,-1001.00
2025-08-06T12:15:21.869229,0,0,75,0,0,0,89,91,10,0,81,152.36,0,0.00,-12.00,-1000.00
2025-08-06T12:15:21.971125,0,0,75,0,0,0,89,91,10,0,81,152.54,0,1.00,1.00,-1001.00
2025-08-06T12:15:22.073094,0,0,75,0,0,0,89,91,10,0,81,152.46,0,-1.00,-18.00,-999.00
2025-08-06T12:15:22.175523,0,0,75,0,0,0,89,91,10,0,81,152.58,0,1.00,-5.00,-999.00
2025-08-06T12:15:22.277385,0,0,75,0,0,0,89,91,10,0,81,152.00,0,0.00,-7.00,-1002.00
2025-08-06T12:15:22.379614,0,0,75,0,0,0,89,91,10,0,81,152.17,0,0.00,-15.00,-999.00
2025-08-06T12:15:22.481205,0,0,75,0,0,0,89,91,10,0,81,152.29,0,0.00,-3.00,-1000.00
2025-08-06T12:15:22.584442,0,0,75,0,0,0,89,91,10,0,81,152.16,0,0.00,-11.00,-999.00
2025-08-06T12:15:22.685458,0,0,75,0,0,0,89,91,10,0,81,152.41,0,0.00,-9.00,-999.00
2025-08-06T12:15:22.788224,0,0,75,0,0,0,89,91,10,0,81,152.03,0,1.00,-8.00,-1001.00
2025-08-06T12:15:22.889917,0,0,75,0,0,0,89,91,10,0,81,152.07,0,0.00,-10.00,-1000.00
2025-08-06T12:15:22.991242,0,0,75,0,0,0,89,91,10,0,81,151.78,0,-1.00,-6.00,-1001.00
2025-08-06T12:15:23.093439,0,0,75,0,0,0,89,91,10,0,81,152.32,0,0.00,-8.00,-1001.00
2025-08-06T12:15:23.195994,0,0,75,0,0,0,89,91,10,0,81,152.13,0,-1.00,-8.00,-1003.00
2025-08-06T12:15:23.297753,0,0,75,0,0,0,89,91,10,0,81,152.39,0,0.00,-10.00,-1000.00
2025-08-06T12:15:23.399519,0,0,75,0,0,0,89,91,10,0,81,152.25,0,0.00,-7.00,-1002.00
2025-08-06T12:15:23.501419,0,0,75,0,0,0,89,91,10,0,81,152.35,0,-1.00,-9.00,-1002.00
2025-08-06T12:15:23.603325,0,0,75,0,0,0,88,91,10,0,81,152.34,0,-1.00,-9.00,-1001.00
2025-08-06T12:15:23.705515,0,0,75,0,0,0,88,91,10,0,81,152.24,0,0.00,-6.00,-999.00
