TS,pitch,roll,yaw,vgx,vgy,vgz,templ,temph,tof,h,bat,baro,time,agx,agy,agz
2024-05-17 16:17:45.431928,0,0,0,0,0,0,53,56,10,0,92,190.22,0,6.00,-2.00,-998.00
2024-05-17 16:17:45.465511,0,0,0,0,0,0,53,56,10,0,92,190.19,0,6.00,-1.00,-1001.00
2024-05-17 16:17:45.637347,0,0,0,0,0,0,53,56,10,0,92,190.18,0,6.00,-2.00,-1000.00
2024-05-17 16:17:45.669523,0,0,0,0,0,0,53,56,10,0,92,190.22,0,6.00,-1.00,-998.00
2024-05-17 16:17:45.841805,0,0,0,0,0,0,53,56,10,0,92,190.21,0,5.00,-2.00,-997.00
2024-05-17 16:17:45.873387,0,0,0,0,0,0,53,56,10,0,92,190.23,0,7.00,-1.00,-997.00
2024-05-17 16:17:46.046394,0,0,0,0,0,0,53,56,10,0,92,190.21,0,7.00,-1.00,-1000.00
2024-05-17 16:17:46.077546,0,0,0,0,0,0,53,56,10,0,92,190.24,0,6.00,-2.00,-999.00
2024-05-17 16:17:46.251335,0,0,0,0,0,0,53,56,10,0,92,190.22,0,7.00,-1.00,-999.00
2024-05-17 16:17:46.281538,0,0,0,0,0,0,53,56,10,0,92,190.19,0,5.00,0.00,-997.00
2024-05-17 16:17:46.456078,0,0,0,0,0,0,54,55,10,0,92,190.19,0,7.00,-2.00,-998.00
2024-05-17 16:17:46.485561,0,0,0,0,0,0,54,55,10,0,92,190.18,0,6.00,-1.00,-999.00
2024-05-17 16:17:46.660967,0,0,0,0,0,0,54,55,10,0,92,190.20,0,4.00,-1.00,-1000.00
2024-05-17 16:17:46.689377,0,0,0,0,0,0,54,55,10,0,92,190.21,0,6.00,-2.00,-999.00
2024-05-17 16:17:46.791648,0,0,0,0,0,0,54,55,10,0,92,190.22,0,7.00,-3.00,-999.00
2024-05-17 16:17:47.070793,0,0,0,0,0,0,54,55,10,0,92,190.23,0,7.00,-2.00,-998.00
2024-05-17 16:17:47.071211,0,0,0,0,0,0,54,55,10,0,92,190.20,0,6.00,0.00,-999.00
2024-05-17 16:17:47.097749,0,0,0,0,0,0,54,55,10,0,92,190.28,0,9.00,-3.00,-999.00
2024-05-17 16:17:47.275367,0,0,0,0,0,0,54,55,10,0,92,190.20,0,7.00,-2.00,-1000.00
2024-05-17 16:17:47.301565,0,0,0,0,0,0,54,55,10,0,92,190.23,0,7.00,-1.00,-999.00
2024-05-17 16:17:47.403566,0,0,0,0,0,0,54,56,10,0,92,190.22,0,6.00,-1.00,-1001.00
2024-05-17 16:17:47.583423,0,0,0,0,0,0,54,56,10,0,92,190.19,0,6.00,-2.00,-1000.00
2024-05-17 16:17:47.607450,0,0,0,0,0,0,54,56,10,0,92,190.21,0,7.00,-1.00,-1000.00
2024-05-17 16:17:47.787106,0,0,0,0,0,0,54,56,10,0,92,190.24,0,6.00,-2.00,-997.00
2024-05-17 16:17:47.811302,0,0,0,0,0,0,54,56,10,0,92,190.27,0,8.00,-2.00,-1001.00
2024-05-17 16:17:47.913495,0,0,0,0,0,0,54,56,10,0,92,190.27,0,7.00,0.00,-999.00
2024-05-17 16:17:48.015399,0,0,0,0,0,0,54,56,10,0,92,190.24,0,7.00,-1.00,-1000.00
2024-05-17 16:17:48.196954,0,0,0,0,0,0,54,56,10,0,92,190.21,0,6.00,-2.00,-998.00
2024-05-17 16:17:48.220237,0,0,0,0,0,0,54,56,10,0,92,190.20,0,6.00,-2.00,-1000.00
2024-05-17 16:17:48.401769,0,0,0,0,0,0,54,56,10,0,92,190.22,0,7.00,-1.00,-998.00
2024-05-17 16:17:48.423406,0,0,0,0,0,0,53,56,10,0,92,190.24,0,6.00,0.00,-1000.00
2024-05-17 16:17:48.474227,0,0,0,0,0,0,53,56,10,0,92,190.24,0,6.00,-1.00,-999.00
2024-05-17 16:17:48.606720,0,0,0,0,0,0,53,56,10,0,92,190.24,0,7.00,-1.00,-999.00
2024-05-17 16:17:48.678214,0,0,0,0,0,0,53,56,10,0,92,190.22,0,6.00,-3.00,-998.00
2024-05-17 16:17:48.811571,0,0,0,0,0,0,53,56,10,0,92,190.22,0,6.00,-3.00,-1000.00
2024-05-17 16:17:48.882142,0,0,0,0,0,0,53,56,10,0,92,190.23,0,8.00,-2.00,-998.00
2024-05-17 16:17:49.016104,0,0,0,0,0,0,53,56,10,0,92,190.23,0,7.00,-2.00,-999.00
2024-05-17 16:17:49.086254,0,0,0,0,0,0,53,56,10,0,92,190.19,0,7.00,0.00,-1002.00
2024-05-17 16:17:49.220893,0,0,0,0,0,0,53,56,10,0,92,190.26,0,6.00,-3.00,-1000.00
2024-05-17 16:17:49.290202,0,0,0,0,0,0,53,56,10,0,92,190.28,0,6.00,-1.00,-1000.00
2024-05-17 16:17:49.425804,0,0,0,0,0,0,53,56,10,0,92,190.27,0,7.00,-1.00,-1003.00
2024-05-17 16:17:49.494244,0,0,0,0,0,0,53,56,10,0,92,190.22,0,7.00,-2.00,-998.00
2024-05-17 16:17:49.630558,0,0,0,0,0,0,53,56,10,0,92,190.26,0,6.00,-3.00,-998.00
2024-05-17 16:17:49.698067,0,0,0,0,0,0,53,56,10,0,92,190.28,0,7.00,-2.00,-999.00
2024-05-17 16:17:49.835306,0,0,0,0,0,0,53,56,10,0,92,190.26,0,5.00,-1.00,-1001.00
2024-05-17 16:17:49.902383,0,0,0,0,0,0,53,56,10,0,92,190.25,0,7.00,-3.00,-1000.00
2024-05-17 16:17:50.003864,0,0,0,0,0,0,53,56,10,0,92,190.20,0,8.00,-2.00,-1000.00
2024-05-17 16:17:50.142402,0,0,0,0,0,0,53,56,10,0,92,190.24,0,8.00,-3.00,-1001.00
2024-05-17 16:17:50.208130,0,0,0,0,0,0,53,56,10,0,92,190.24,0,9.00,1.00,-1001.00
2024-05-17 16:17:50.310120,0,0,0,0,0,0,53,56,10,0,92,190.24,0,0.00,-5.00,-1001.00
2024-05-17 16:17:50.449621,0,0,0,0,0,0,54,57,10,0,92,190.24,0,-22.00,-16.00,-1007.00
2024-05-17 16:17:50.516171,0,0,-1,0,0,0,54,57,10,0,92,190.24,0,25.00,20.00,-1068.00
2024-05-17 16:17:50.615934,-2,3,-1,0,0,0,54,57,10,0,92,190.24,0,0.00,-9.00,-1120.00
2024-05-17 16:17:50.762488,-1,2,-2,0,1,-3,54,57,14,0,92,190.24,0,49.00,-2.00,-1287.00
2024-05-17 16:17:50.820004,1,0,-2,0,1,-5,54,57,11,0,92,190.24,0,17.00,-22.00,-1297.00
2024-05-17 16:17:50.961623,1,-2,-1,0,0,-7,54,57,11,0,92,190.59,0,40.00,-31.00,-1158.00
2024-05-17 16:17:51.024024,1,-1,-1,0,0,-7,54,57,22,10,92,190.82,0,17.00,-19.00,-1083.00
2024-05-17 16:17:51.166729,0,-1,-1,0,0,-7,54,57,30,10,92,190.92,1,11.00,-25.00,-992.00
2024-05-17 16:17:51.228100,0,0,-1,0,0,-6,54,57,40,20,92,191.01,1,44.00,-13.00,-985.00
2024-05-17 16:17:51.371031,0,0,-1,0,0,-5,54,57,47,20,92,190.96,1,-1.00,12.00,-940.00
2024-05-17 16:17:51.433154,0,0,-1,0,0,-4,55,58,53,30,92,191.03,1,41.00,4.00,-915.00
2024-05-17 16:17:51.576024,0,0,-1,0,0,-3,55,58,61,30,92,191.13,1,43.00,-31.00,-932.00
2024-05-17 16:17:51.638479,0,0,-1,0,0,-3,55,58,69,30,92,191.19,1,-6.00,-10.00,-907.00
2024-05-17 16:17:51.780868,0,0,-1,0,0,-2,55,58,72,40,92,191.23,1,-18.00,16.00,-891.00
2024-05-17 16:17:51.841362,0,0,-1,0,0,-1,55,58,76,40,92,191.29,1,18.00,-4.00,-921.00
2024-05-17 16:17:51.985848,0,0,-1,0,0,-1,55,58,80,40,92,191.31,1,-7.00,-1.00,-900.00
2024-05-17 16:17:51.993944,0,0,-1,0,0,0,55,58,83,40,92,191.40,1,-1.00,-2.00,-897.00
2024-05-17 16:17:52.190616,0,0,-1,0,0,0,55,58,86,40,92,191.36,2,31.00,0.00,-939.00
2024-05-17 16:17:52.197842,0,0,-1,0,0,0,55,58,87,50,92,191.42,2,13.00,-4.00,-972.00
2024-05-17 16:17:52.299908,0,0,-1,0,0,0,55,58,89,50,92,191.41,2,-12.00,-5.00,-952.00
2024-05-17 16:17:52.402113,0,0,-1,0,0,0,55,58,91,50,92,191.49,2,-2.00,0.00,-964.00
2024-05-17 16:17:52.599960,0,0,-1,0,0,0,55,58,93,50,91,191.46,2,13.00,-9.00,-991.00
2024-05-17 16:17:52.605953,0,0,-1,0,0,0,55,58,94,50,91,191.49,2,22.00,0.00,-997.00
2024-05-17 16:17:52.805123,0,0,-1,0,0,0,55,58,95,50,91,191.50,2,-5.00,-23.00,-942.00
2024-05-17 16:17:52.815072,0,0,-1,0,0,0,55,58,96,50,91,191.54,2,11.00,-21.00,-934.00
2024-05-17 16:17:52.912037,0,0,-1,0,0,0,55,58,96,50,91,191.60,2,-31.00,26.00,-938.00
2024-05-17 16:17:53.111948,0,0,-1,0,0,0,55,58,96,60,91,191.61,2,31.00,-1.00,-1011.00
2024-05-17 16:17:53.115844,0,0,-1,0,0,0,55,58,97,60,91,191.60,3,17.00,-16.00,-976.00
2024-05-17 16:17:53.317080,0,0,-1,0,0,1,55,58,97,60,91,191.61,3,7.00,-12.00,-967.00
2024-05-17 16:17:53.319819,0,0,-1,0,0,1,55,58,96,60,91,191.47,3,-17.00,-5.00,-954.00
2024-05-17 16:17:53.421995,0,0,-1,0,0,1,54,57,94,60,91,191.53,3,26.00,-18.00,-967.00
2024-05-17 16:17:53.524727,0,0,-1,0,0,1,54,57,93,60,91,191.49,3,-23.00,12.00,-990.00
2024-05-17 16:17:53.625833,0,0,-1,0,0,1,54,57,92,50,91,191.47,3,-3.00,0.00,-1003.00
2024-05-17 16:17:53.828822,0,0,-1,0,0,1,54,57,91,50,91,191.56,3,7.00,4.00,-1002.00
2024-05-17 16:17:53.829964,0,0,-1,0,0,1,54,57,91,50,91,191.49,3,6.00,-1.00,-989.00
2024-05-17 16:17:53.931918,0,0,-1,0,0,1,54,57,90,50,91,191.48,3,-18.00,8.00,-982.00
2024-05-17 16:17:54.033896,0,0,-1,0,0,1,54,57,90,50,91,191.53,3,-23.00,19.00,-974.00
2024-05-17 16:17:54.136509,0,0,-1,0,0,1,54,57,89,50,91,191.42,4,8.00,16.00,-1000.00
2024-05-17 16:17:54.238156,0,0,-1,0,0,1,54,57,87,50,91,191.44,4,-11.00,2.00,-971.00
2024-05-17 16:17:54.340458,0,0,-1,0,0,1,54,57,84,50,91,191.36,4,-26.00,20.00,-946.00
2024-05-17 16:17:54.443168,0,0,-1,0,0,1,56,58,82,50,91,191.38,4,12.00,18.00,-1037.00
2024-05-17 16:17:54.545571,0,0,-1,0,0,1,56,58,81,50,91,191.35,4,22.00,2.00,-1032.00
2024-05-17 16:17:54.646048,0,0,-1,0,0,0,56,58,80,50,91,191.34,4,-45.00,33.00,-1004.00
2024-05-17 16:17:54.748353,0,0,-1,0,0,0,56,58,80,50,91,191.33,4,-47.00,36.00,-997.00
2024-05-17 16:17:54.852777,0,0,-1,0,0,0,56,58,81,40,91,191.33,4,-27.00,34.00,-1015.00
2024-05-17 16:17:54.953208,0,0,-1,0,0,0,56,58,80,40,91,191.43,4,31.00,-14.00,-1020.00
2024-05-17 16:17:55.055058,0,0,-1,0,0,0,56,58,78,40,91,191.45,4,30.00,-8.00,-1028.00
2024-05-17 16:17:55.157238,0,0,-1,0,0,0,56,58,77,40,91,191.45,5,-3.00,8.00,-1036.00
2024-05-17 16:17:55.259103,0,0,-1,0,0,0,56,58,76,40,91,191.35,5,-13.00,19.00,-1012.00
2024-05-17 16:17:55.364796,1,0,-1,0,0,0,56,58,75,40,91,191.35,5,-16.00,33.00,-997.00
2024-05-17 16:17:55.463014,1,0,-1,0,0,0,56,58,75,40,91,191.43,5,0.00,12.00,-992.00
2024-05-17 16:17:55.565093,1,0,-1,0,0,0,56,58,75,40,91,191.37,5,32.00,4.00,-1028.00
2024-05-17 16:17:55.671998,1,0,-1,0,0,0,56,58,74,40,91,191.46,5,24.00,12.00,-1045.00
2024-05-17 16:17:55.768999,0,0,-1,0,0,0,56,58,74,40,91,191.41,5,-9.00,13.00,-983.00
2024-05-17 16:17:55.819805,1,0,-1,0,0,0,56,58,74,40,91,191.43,5,-67.00,52.00,-965.00
2024-05-17 16:17:55.921796,1,0,-1,0,0,0,56,58,74,40,91,191.45,5,46.00,-6.00,-1042.00
2024-05-17 16:17:56.023833,0,0,-1,0,0,0,56,58,75,40,91,191.43,5,-3.00,-4.00,-980.00
2024-05-17 16:17:56.126151,0,0,-1,0,0,0,56,58,75,40,91,191.30,6,27.00,1.00,-1005.00
2024-05-17 16:17:56.288761,1,0,-1,0,0,0,56,58,75,40,91,191.34,6,49.00,-12.00,-1017.00
2024-05-17 16:17:56.329910,0,0,-1,0,0,0,56,58,75,40,91,191.30,6,9.00,-1.00,-1016.00
2024-05-17 16:17:56.493058,0,0,-1,0,0,0,57,58,75,40,91,191.37,6,17.00,6.00,-980.00
2024-05-17 16:17:56.533829,0,0,-1,0,0,0,57,58,76,40,91,191.37,6,3.00,-14.00,-977.00
2024-05-17 16:17:56.696465,0,0,-1,0,0,0,57,58,76,40,91,191.37,6,-35.00,33.00,-967.00
2024-05-17 16:17:56.737789,0,0,-1,0,0,0,57,58,78,40,91,191.42,6,53.00,-16.00,-1014.00
2024-05-17 16:17:56.839933,0,0,-1,0,0,0,57,58,78,40,91,191.37,6,17.00,15.00,-1045.00
2024-05-17 16:17:57.003558,0,0,-1,0,0,0,57,58,79,40,91,191.41,6,-14.00,32.00,-995.00
2024-05-17 16:17:57.043854,0,0,-1,0,0,0,57,58,78,40,91,191.43,6,-27.00,31.00,-990.00
2024-05-17 16:17:57.213695,0,0,-1,0,0,0,57,58,77,40,91,191.37,7,32.00,4.00,-1040.00
2024-05-17 16:17:57.247902,0,0,-1,0,0,0,57,58,77,40,91,191.39,7,35.00,-4.00,-1034.00
2024-05-17 16:17:57.413810,0,0,-1,0,0,0,57,58,77,40,91,191.34,7,21.00,-3.00,-980.00
2024-05-17 16:17:57.453285,0,0,-1,0,0,0,55,58,76,40,91,191.40,7,39.00,3.00,-1014.00
2024-05-17 16:17:57.617703,0,0,-1,0,0,0,55,58,75,40,91,191.44,7,-2.00,16.00,-1014.00
2024-05-17 16:17:57.657071,0,0,-1,0,0,0,55,58,75,40,91,191.47,7,35.00,-10.00,-974.00
2024-05-17 16:17:57.822810,0,0,-1,0,0,0,55,58,75,40,91,191.38,7,35.00,9.00,-1017.00
2024-05-17 16:17:57.861058,0,0,-1,0,0,0,55,58,75,40,91,191.36,7,3.00,7.00,-993.00
2024-05-17 16:17:58.027305,0,0,-2,0,0,0,55,58,75,40,91,191.37,7,-22.00,23.00,-994.00
2024-05-17 16:17:58.064986,0,0,-2,0,0,0,55,58,75,40,91,191.41,7,4.00,8.00,-1006.00
2024-05-17 16:17:58.232032,0,0,-2,0,0,0,55,58,75,40,91,191.34,8,22.00,5.00,-997.00
2024-05-17 16:17:58.269558,1,0,-2,0,0,0,55,58,75,40,91,191.40,8,63.00,-3.00,-1025.00
2024-05-17 16:17:58.370976,1,0,-2,0,0,0,55,58,76,40,91,191.38,8,-1.00,25.00,-920.00
2024-05-17 16:17:58.539138,1,0,-2,0,0,0,56,59,76,40,90,191.40,8,42.00,13.00,-1036.00
2024-05-17 16:17:58.575305,0,0,-2,0,0,0,56,59,77,40,90,191.45,8,44.00,8.00,-1109.00
2024-05-17 16:17:58.743905,0,0,-2,0,0,-1,56,59,79,40,90,191.43,8,51.00,-2.00,-1176.00
2024-05-17 16:17:58.779021,0,-1,-2,0,0,-2,56,59,82,50,90,191.42,8,31.00,-7.00,-1098.00
2024-05-17 16:17:58.950914,0,0,-2,0,0,-3,56,59,87,50,90,191.50,8,35.00,-3.00,-1122.00
2024-05-17 16:17:58.983784,0,0,-2,0,0,-4,56,59,91,50,90,191.45,8,-43.00,26.00,-1028.00
2024-05-17 16:17:59.154072,0,0,-2,0,0,-5,56,59,97,60,90,191.46,8,26.00,29.00,-1009.00
2024-05-17 16:17:59.154144,1,0,-2,0,0,-5,56,59,100,60,90,191.59,9,12.00,11.00,-1009.00
2024-05-17 16:17:59.237628,1,0,-2,0,0,-5,56,59,106,70,90,191.68,9,11.00,25.00,-970.00
2024-05-17 16:17:59.341127,1,0,-2,0,0,-5,56,59,111,70,90,191.74,9,11.00,13.00,-1018.00
2024-05-17 16:17:59.492848,0,-1,-2,0,0,-5,57,59,117,80,90,191.75,9,-10.00,5.00,-972.00
2024-05-17 16:17:59.665601,0,-1,-2,0,0,-5,57,59,125,90,90,191.85,9,69.00,-25.00,-963.00
2024-05-17 16:17:59.696737,0,-1,-2,0,0,-5,57,59,132,90,90,191.85,9,14.00,24.00,-1001.00
2024-05-17 16:17:59.800427,0,0,-2,0,0,-4,57,59,137,100,90,191.91,9,-44.00,23.00,-941.00
2024-05-17 16:17:59.901239,0,0,-2,0,0,-4,57,59,140,100,90,191.96,9,46.00,6.00,-945.00
2024-05-17 16:17:59.953268,0,0,-2,0,0,-4,57,59,146,110,90,192.02,9,25.00,-13.00,-988.00
2024-05-17 16:18:00.055347,0,0,-2,0,0,-4,57,59,149,110,90,192.02,9,-6.00,25.00,-1011.00
2024-05-17 16:18:00.155783,0,0,-2,0,0,-4,57,59,154,110,90,192.07,10,-6.00,14.00,-954.00
2024-05-17 16:18:00.280170,0,0,-1,0,0,-3,57,59,157,120,90,192.17,10,24.00,-14.00,-975.00
2024-05-17 16:18:00.359787,0,0,-1,0,0,-3,57,59,161,120,90,192.19,10,14.00,9.00,-957.00
2024-05-17 16:18:00.461585,0,0,-1,0,0,-2,57,60,165,130,90,192.21,10,3.00,18.00,-947.00
2024-05-17 16:18:00.590000,0,0,-1,0,0,-2,57,60,168,130,90,192.24,10,-6.00,23.00,-984.00
2024-05-17 16:18:00.665704,0,0,-1,0,0,-2,57,60,171,130,90,192.29,10,22.00,10.00,-962.00
2024-05-17 16:18:00.792048,0,-1,-1,0,0,-2,57,60,173,130,90,192.34,10,22.00,13.00,-968.00
2024-05-17 16:18:00.869583,0,-1,-1,0,0,-1,57,60,175,140,90,192.33,10,2.00,-3.00,-937.00
2024-05-17 16:18:00.976976,0,-1,-1,0,0,-1,57,60,176,140,90,192.34,10,43.00,-18.00,-1001.00
2024-05-17 16:18:01.079959,0,-1,-1,0,0,-1,57,60,177,140,90,192.36,10,-24.00,2.00,-944.00
2024-05-17 16:18:01.177560,0,-1,-1,0,0,0,57,60,179,140,90,192.43,11,-1.00,13.00,-967.00
2024-05-17 16:18:01.278810,0,0,-1,0,0,0,57,60,180,140,90,192.33,11,14.00,1.00,-984.00
2024-05-17 16:18:01.406433,0,0,-1,0,0,0,57,60,180,140,90,192.41,11,7.00,21.00,-971.00
2024-05-17 16:18:01.481664,0,-1,-1,0,0,0,57,59,179,140,89,192.40,11,11.00,5.00,-988.00
2024-05-17 16:18:01.614882,0,-1,-1,0,0,0,57,59,179,140,89,192.44,11,45.00,2.00,-954.00
2024-05-17 16:18:01.689076,0,0,-1,0,0,0,57,59,180,140,89,192.45,11,18.00,25.00,-957.00
2024-05-17 16:18:01.787553,0,0,-1,0,0,0,57,59,180,140,89,192.41,11,36.00,5.00,-977.00
2024-05-17 16:18:01.919436,0,0,-1,0,0,0,57,59,180,140,89,192.41,11,20.00,10.00,-1023.00
2024-05-17 16:18:01.991651,0,-1,-1,0,0,0,57,59,180,140,89,192.42,11,45.00,-6.00,-997.00
2024-05-17 16:18:02.130660,0,-1,-1,0,0,0,57,59,180,140,89,192.40,11,45.00,12.00,-1006.00
2024-05-17 16:18:02.196376,1,-1,-1,0,0,0,57,59,181,140,89,192.42,12,6.00,19.00,-985.00
2024-05-17 16:18:02.328847,1,-1,-1,0,0,0,57,59,180,140,89,192.40,12,-9.00,3.00,-998.00
2024-05-17 16:18:02.399774,1,-1,-1,0,0,0,57,59,181,140,89,192.44,12,45.00,-8.00,-974.00
2024-05-17 16:18:02.533451,0,0,-1,0,0,0,56,61,181,140,89,192.46,12,18.00,-12.00,-987.00
2024-05-17 16:18:02.609293,1,0,-1,0,0,0,56,61,181,140,89,192.45,12,50.00,1.00,-997.00
2024-05-17 16:18:02.709622,1,0,-1,0,0,0,56,61,181,140,89,192.45,12,5.00,25.00,-971.00
2024-05-17 16:18:02.807661,1,0,-1,0,0,0,56,61,181,140,89,192.47,12,9.00,-14.00,-984.00
2024-05-17 16:18:02.924270,1,0,-1,0,0,0,56,61,180,140,89,192.44,12,11.00,-6.00,-957.00
2024-05-17 16:18:03.011759,1,0,-1,0,0,0,56,61,179,140,89,192.38,12,61.00,-14.00,-1027.00
2024-05-17 16:18:03.149509,1,0,-1,0,0,0,56,61,179,140,89,192.38,12,18.00,5.00,-978.00
2024-05-17 16:18:03.215471,1,-1,-1,0,0,0,56,61,179,140,89,192.41,13,-5.00,42.00,-940.00
2024-05-17 16:18:03.322141,1,-1,-1,0,0,0,56,61,178,140,89,192.37,13,-2.00,-24.00,-924.00
2024-05-17 16:18:03.419759,1,-1,-1,0,0,1,56,61,176,140,89,192.38,13,14.00,11.00,-947.00
2024-05-17 16:18:03.556761,1,0,-1,0,0,1,58,61,174,140,88,192.36,13,45.00,27.00,-975.00
2024-05-17 16:18:03.623766,1,0,-1,0,0,2,58,61,171,140,88,192.26,13,9.00,16.00,-958.00
2024-05-17 16:18:03.761820,1,0,-1,0,0,2,58,61,168,140,88,192.27,13,19.00,19.00,-982.00
2024-05-17 16:18:03.776772,1,0,-1,0,0,2,58,61,166,130,88,192.23,13,23.00,30.00,-978.00
2024-05-17 16:18:03.968977,1,0,-1,0,0,2,58,61,163,130,88,192.27,13,31.00,-4.00,-996.00
2024-05-17 16:18:03.981498,1,0,-1,0,0,2,58,61,161,130,88,192.15,13,23.00,17.00,-1028.00
2024-05-17 16:18:04.173427,1,0,-1,0,0,2,58,61,157,120,88,192.17,13,-1.00,9.00,-987.00
2024-05-17 16:18:04.185358,1,0,-1,0,0,2,58,61,154,120,88,192.20,14,41.00,-6.00,-1026.00
2024-05-17 16:18:04.377130,0,-1,-1,0,0,2,58,61,151,120,88,192.07,14,-2.00,21.00,-977.00
2024-05-17 16:18:04.388611,1,-1,-1,0,0,2,58,61,148,120,88,192.08,14,48.00,8.00,-1045.00
2024-05-17 16:18:04.580775,1,0,-1,0,0,2,59,61,146,110,88,192.11,14,18.00,1.00,-962.00
2024-05-17 16:18:04.592570,1,0,-1,0,0,2,59,61,144,110,88,192.14,14,58.00,3.00,-1027.00
2024-05-17 16:18:04.785920,1,0,-1,0,0,1,59,61,141,110,88,192.09,14,14.00,25.00,-1008.00
2024-05-17 16:18:04.796739,1,0,-1,0,0,1,59,61,139,110,88,192.06,14,46.00,-5.00,-1022.00
2024-05-17 16:18:04.990723,1,0,-1,0,0,1,59,61,137,100,88,192.04,14,14.00,24.00,-992.00
2024-05-17 16:18:05.000748,1,0,-1,0,0,1,59,61,134,100,88,192.04,14,26.00,-6.00,-1010.00
2024-05-17 16:18:05.195128,1,-1,-1,0,0,1,59,61,133,100,88,192.02,15,40.00,-5.00,-1056.00
2024-05-17 16:18:05.205524,1,-1,-1,0,0,1,59,61,131,100,88,191.98,15,2.00,28.00,-1035.00
2024-05-17 16:18:05.307720,0,-1,-1,0,0,1,59,61,130,100,88,191.96,15,12.00,16.00,-1020.00
2024-05-17 16:18:05.502516,0,-1,-1,0,0,0,59,61,129,100,88,191.94,15,52.00,2.00,-1056.00
2024-05-17 16:18:05.510961,0,-1,-1,0,0,0,58,60,128,100,88,191.93,15,-16.00,20.00,-998.00
2024-05-17 16:18:05.707689,0,-1,-1,0,0,0,58,60,127,100,88,191.91,15,-13.00,5.00,-995.00
2024-05-17 16:18:05.714576,0,-1,-1,0,0,0,58,60,126,90,88,191.99,15,-27.00,39.00,-922.00
2024-05-17 16:18:05.912714,0,0,-1,0,0,0,58,60,125,90,88,191.88,15,32.00,7.00,-1000.00
2024-05-17 16:18:05.919164,1,0,-1,0,0,0,58,60,125,90,88,191.91,15,52.00,-8.00,-998.00
2024-05-17 16:18:06.117029,0,-1,-1,0,0,0,58,60,125,90,88,191.86,15,36.00,10.00,-1049.00
2024-05-17 16:18:06.122344,0,-1,-1,0,0,0,58,60,125,90,88,191.93,16,3.00,33.00,-995.00
2024-05-17 16:18:06.323542,1,0,-1,0,0,0,58,60,124,90,88,191.90,16,8.00,11.00,-1004.00
2024-05-17 16:18:06.326536,1,0,-1,0,0,0,58,60,124,90,88,191.93,16,1.00,6.00,-970.00
2024-05-17 16:18:06.526758,0,0,-1,0,0,0,58,60,124,90,88,191.85,16,-14.00,31.00,-994.00
2024-05-17 16:18:06.530524,0,0,-2,0,0,0,59,61,124,90,87,191.86,16,65.00,4.00,-1003.00
2024-05-17 16:18:06.632772,0,0,-2,0,0,0,59,61,124,90,87,191.86,16,3.00,13.00,-992.00
2024-05-17 16:18:06.833705,0,0,-2,0,0,0,59,61,124,90,87,191.85,16,67.00,-3.00,-1008.00
2024-05-17 16:18:06.836773,0,0,-2,0,0,0,59,61,124,90,87,191.90,16,57.00,-22.00,-1061.00
2024-05-17 16:18:06.938745,0,0,-2,0,0,0,59,61,125,90,87,191.91,16,-8.00,24.00,-982.00
2024-05-17 16:18:07.142969,0,0,-2,0,0,0,59,61,125,90,87,191.97,16,-14.00,7.00,-999.00
2024-05-17 16:18:07.143149,0,0,-2,0,0,0,59,61,126,90,87,191.89,17,6.00,6.00,-996.00
2024-05-17 16:18:07.246421,0,-1,-2,0,0,0,59,61,126,90,87,191.94,17,18.00,-5.00,-1040.00
2024-05-17 16:18:07.346567,0,-1,-2,0,0,0,59,61,126,90,87,191.95,17,0.00,29.00,-991.00
2024-05-17 16:18:07.550434,-2,0,-1,0,0,0,59,61,130,90,87,191.94,17,12.00,19.00,-1021.00
2024-05-17 16:18:07.550758,-7,0,-1,0,0,0,58,60,132,90,87,191.97,17,26.00,-5.00,-1011.00
2024-05-17 16:18:07.652456,-8,0,-1,2,0,0,58,60,135,90,87,191.88,17,45.00,28.00,-1030.00
2024-05-17 16:18:07.756395,-8,0,-1,3,0,0,58,60,134,90,87,191.90,17,-10.00,6.00,-991.00
2024-05-17 16:18:07.857188,-7,0,-1,4,0,0,58,60,134,90,87,191.91,17,-48.00,33.00,-1018.00
2024-05-17 16:18:07.959986,-6,-1,-1,5,0,0,58,60,134,100,87,191.90,17,-10.00,5.00,-978.00
2024-05-17 16:18:08.062258,-6,-1,-1,6,0,0,58,60,135,100,87,191.96,17,-30.00,10.00,-955.00
2024-05-17 16:18:08.111471,-5,-1,-1,7,0,0,58,60,134,100,87,191.94,18,-10.00,12.00,-1013.00
2024-05-17 16:18:08.269196,-4,-1,-1,7,0,0,58,60,133,100,87,192.00,18,11.00,16.00,-969.00
2024-05-17 16:18:08.317515,-2,-1,-1,8,0,0,58,60,134,100,87,191.95,18,-67.00,35.00,-1022.00
2024-05-17 16:18:08.417450,0,-1,-2,7,0,0,58,60,132,100,87,191.93,18,-49.00,7.00,-1004.00
2024-05-17 16:18:08.574736,3,0,-1,7,0,0,60,61,136,100,86,192.00,18,-33.00,10.00,-1024.00
2024-05-17 16:18:08.623600,4,0,-1,6,0,0,60,61,134,100,86,191.97,18,-33.00,-3.00,-1027.00
2024-05-17 16:18:08.723123,4,0,-1,4,0,0,60,61,135,100,86,191.96,18,-16.00,0.00,-1030.00
2024-05-17 16:18:08.825070,3,0,-1,3,0,0,60,61,136,100,86,192.02,18,-29.00,5.00,-950.00
2024-05-17 16:18:08.983863,1,0,-1,3,0,0,60,61,133,100,86,191.98,18,-23.00,34.00,-958.00
2024-05-17 16:18:09.029108,0,0,-1,3,0,0,60,61,130,100,86,191.95,18,-15.00,28.00,-1012.00
2024-05-17 16:18:09.189380,0,0,-1,2,0,0,60,61,131,100,86,191.96,19,-19.00,10.00,-971.00
2024-05-17 16:18:09.233463,0,0,-1,2,0,0,60,61,131,100,86,192.04,19,15.00,6.00,-1025.00
2024-05-17 16:18:09.335068,0,0,-1,2,0,0,60,61,130,100,86,192.00,19,31.00,3.00,-981.00
2024-05-17 16:18:09.496545,1,-2,-1,2,0,0,60,61,131,100,86,191.98,19,8.00,-8.00,-998.00
2024-05-17 16:18:09.539859,1,-4,-1,1,0,0,60,62,133,100,86,191.89,19,-30.00,37.00,-1024.00
2024-05-17 16:18:09.641130,0,-4,-1,1,0,0,60,62,132,100,86,192.03,19,-21.00,10.00,-999.00
2024-05-17 16:18:09.803217,0,-3,-1,1,-1,0,60,62,132,100,86,191.98,19,-29.00,4.00,-986.00
2024-05-17 16:18:09.847939,2,-2,-1,1,-1,0,60,62,133,100,86,192.00,19,-29.00,12.00,-972.00
2024-05-17 16:18:09.947103,2,0,-1,0,-1,0,60,62,134,100,86,192.05,19,15.00,4.00,-1024.00
2024-05-17 16:18:10.110301,1,2,-1,0,0,0,60,62,133,100,86,192.00,19,42.00,2.00,-1018.00
2024-05-17 16:18:10.155603,0,0,-1,0,0,0,60,62,130,100,86,191.98,20,-29.00,27.00,-1009.00
2024-05-17 16:18:10.253037,0,0,-1,0,0,0,60,62,128,100,86,191.99,20,-4.00,24.00,-985.00
2024-05-17 16:18:10.355198,0,0,-1,0,0,0,60,62,128,100,86,191.92,20,39.00,6.00,-1019.00
2024-05-17 16:18:10.519960,0,-1,-1,0,0,0,60,62,127,100,86,191.93,20,20.00,11.00,-1018.00
2024-05-17 16:18:10.559613,0,-1,-1,0,0,0,60,62,126,90,86,191.94,20,10.00,14.00,-1028.00
2024-05-17 16:18:10.664262,0,-1,-1,0,0,0,60,62,127,90,86,191.93,20,5.00,17.00,-993.00
2024-05-17 16:18:10.763245,0,-1,-1,0,0,0,60,62,129,90,86,191.93,20,64.00,-12.00,-1050.00
2024-05-17 16:18:10.929722,0,-1,-1,0,0,0,60,62,128,90,86,191.92,20,10.00,8.00,-1007.00
2024-05-17 16:18:10.967551,0,-1,-1,0,0,0,60,62,127,90,86,191.92,20,17.00,25.00,-1029.00
2024-05-17 16:18:11.071480,0,-1,-1,0,0,0,60,62,128,90,86,191.88,20,33.00,14.00,-1051.00
2024-05-17 16:18:11.171623,0,-1,-1,0,0,0,60,62,128,90,86,191.91,21,42.00,-17.00,-1001.00
2024-05-17 16:18:11.339705,0,-1,-1,0,0,0,60,62,128,90,86,191.92,21,39.00,-23.00,-995.00
2024-05-17 16:18:11.375319,0,-1,-1,0,0,0,60,62,128,90,86,191.95,21,29.00,20.00,-1006.00
2024-05-17 16:18:11.477296,0,-1,-1,0,0,0,60,62,129,90,85,191.92,21,-26.00,32.00,-959.00
2024-05-17 16:18:11.646904,0,0,-1,0,0,0,59,62,129,100,85,191.99,21,-3.00,21.00,-995.00
2024-05-17 16:18:11.681226,0,0,-1,0,0,0,59,62,130,100,85,191.92,21,-28.00,24.00,-924.00
2024-05-17 16:18:11.852578,0,-1,-1,0,0,0,59,62,131,100,85,191.94,21,-21.00,20.00,-978.00
2024-05-17 16:18:11.885377,0,-1,-1,0,0,0,59,62,131,100,85,191.96,21,-4.00,16.00,-982.00
2024-05-17 16:18:11.987549,0,-1,-1,0,0,0,59,62,132,100,85,191.99,21,14.00,8.00,-1049.00
2024-05-17 16:18:12.038434,0,-1,-1,0,0,0,59,62,129,100,85,191.92,21,-29.00,27.00,-971.00
2024-05-17 16:18:12.140473,0,-1,-1,0,0,0,59,62,129,100,85,191.97,22,13.00,21.00,-977.00
2024-05-17 16:18:12.242166,0,-1,-1,0,0,0,59,62,129,100,85,191.96,22,-9.00,24.00,-985.00
2024-05-17 16:18:12.344268,6,0,-1,0,0,0,59,62,132,100,85,192.00,22,29.00,-8.00,-1017.00
2024-05-17 16:18:12.446448,8,0,-1,-1,0,0,59,62,133,100,85,192.03,22,24.00,6.00,-1015.00
2024-05-17 16:18:12.598975,8,0,-1,-2,0,0,60,62,133,100,85,192.02,22,42.00,5.00,-986.00
2024-05-17 16:18:12.651143,8,-1,-1,-3,0,0,60,62,133,100,85,191.92,22,65.00,2.00,-1014.00
2024-05-17 16:18:12.773809,8,-1,-2,-5,0,0,60,62,133,100,85,192.02,22,47.00,7.00,-1001.00
2024-05-17 16:18:12.855092,8,-1,-1,-6,0,0,60,62,132,100,85,192.03,22,45.00,11.00,-991.00
2024-05-17 16:18:12.977818,7,-1,-1,-7,0,0,60,62,131,100,85,191.99,22,21.00,16.00,-950.00
2024-05-17 16:18:13.057949,5,0,-1,-7,0,0,60,62,131,100,85,192.00,22,67.00,0.00,-988.00
2024-05-17 16:18:13.182467,4,-1,-1,-8,0,0,60,62,132,100,85,191.95,23,69.00,20.00,-1022.00
2024-05-17 16:18:13.264669,1,0,-1,-8,0,0,60,62,129,100,85,191.96,23,67.00,17.00,-986.00
2024-05-17 16:18:13.363883,-1,0,-1,-7,0,0,60,62,131,100,85,191.95,23,75.00,13.00,-987.00
2024-05-17 16:18:13.489509,-3,0,-1,-6,0,0,60,62,131,100,84,192.01,23,72.00,0.00,-978.00
2024-05-17 16:18:13.569517,-4,0,-1,-5,0,0,61,63,131,100,84,191.96,23,66.00,6.00,-1017.00
2024-05-17 16:18:13.670119,-2,0,-1,-4,0,0,61,63,132,100,84,191.90,23,15.00,19.00,-1010.00
2024-05-17 16:18:13.796671,-1,0,-1,-3,0,0,61,63,131,100,84,191.88,23,60.00,-2.00,-1035.00
2024-05-17 16:18:13.874659,0,0,-1,-3,0,0,61,63,128,100,84,191.91,23,47.00,15.00,-1055.00
2024-05-17 16:18:14.001524,0,0,-1,-3,0,0,61,63,127,90,84,191.90,23,21.00,18.00,-1015.00
2024-05-17 16:18:14.077947,0,0,-1,-3,0,0,61,63,128,90,84,191.98,23,-2.00,8.00,-965.00
2024-05-17 16:18:14.206345,0,0,-1,-2,0,0,61,63,130,90,84,191.99,24,26.00,18.00,-982.00
2024-05-17 16:18:14.282267,0,0,-1,-2,0,0,61,63,131,90,84,192.00,24,18.00,12.00,-1044.00
2024-05-17 16:18:14.384172,-3,0,-1,-2,0,0,61,63,130,90,84,192.03,24,21.00,22.00,-978.00
2024-05-17 16:18:14.515245,-4,0,-1,-1,0,0,61,63,132,90,84,191.95,24,21.00,13.00,-1025.00
2024-05-17 16:18:14.587984,-2,-1,-1,0,0,0,61,64,132,90,84,192.01,24,6.00,-6.00,-974.00
2024-05-17 16:18:14.718876,0,0,-1,0,0,0,61,64,133,100,84,191.98,24,-1.00,34.00,-978.00
2024-05-17 16:18:14.791851,0,0,-1,0,0,0,61,64,132,100,84,191.99,24,-17.00,25.00,-990.00
2024-05-17 16:18:14.923625,0,0,-1,0,0,0,61,64,132,100,84,192.03,24,20.00,-5.00,-988.00
2024-05-17 16:18:14.996296,0,0,-1,0,0,0,61,64,131,100,84,191.99,24,12.00,-3.00,-985.00
2024-05-17 16:18:15.128008,0,0,-1,0,0,0,61,64,131,100,84,192.01,24,-26.00,26.00,-974.00
2024-05-17 16:18:15.200312,0,0,-1,0,0,0,61,64,130,100,84,192.01,25,36.00,-7.00,-999.00
2024-05-17 16:18:15.332920,0,-1,-1,0,0,0,61,64,131,100,84,191.95,25,9.00,3.00,-990.00
2024-05-17 16:18:15.404903,0,-1,-1,0,0,0,61,64,131,100,84,192.03,25,10.00,23.00,-1017.00
2024-05-17 16:18:15.537693,0,-1,-1,0,0,0,61,64,131,100,84,192.08,25,19.00,0.00,-1006.00
2024-05-17 16:18:15.608295,0,-1,-1,0,0,0,61,63,132,100,84,192.00,25,31.00,14.00,-1002.00
2024-05-17 16:18:15.742612,0,-1,-1,0,0,0,61,63,133,100,84,191.98,25,25.00,7.00,-982.00
2024-05-17 16:18:15.812402,0,-1,-1,0,0,0,61,63,132,100,84,192.00,25,27.00,11.00,-993.00
2024-05-17 16:18:15.947145,0,-1,-1,0,0,0,61,63,132,100,84,192.03,25,45.00,6.00,-1031.00
2024-05-17 16:18:16.020593,0,-1,-1,0,0,0,61,63,132,100,84,192.03,25,33.00,20.00,-1026.00
2024-05-17 16:18:16.118060,0,-1,-1,0,0,0,61,63,133,100,84,192.02,25,60.00,13.00,-1003.00
2024-05-17 16:18:16.255412,0,-1,-1,0,0,0,61,63,132,100,84,191.96,26,11.00,22.00,-949.00
2024-05-17 16:18:16.270870,0,-1,-1,0,0,0,61,63,132,100,84,192.02,26,1.00,33.00,-1006.00
2024-05-17 16:18:16.372955,0,-1,-1,0,0,0,61,63,132,100,84,192.04,26,23.00,9.00,-1015.00
2024-05-17 16:18:16.542196,0,-1,-1,0,0,0,61,63,132,100,83,191.99,26,-15.00,21.00,-979.00
2024-05-17 16:18:16.576869,0,-1,-1,0,0,0,62,63,133,100,83,192.04,26,24.00,20.00,-983.00
2024-05-17 16:18:16.768126,0,0,-1,0,0,0,62,63,133,100,83,192.08,26,21.00,18.00,-955.00
2024-05-17 16:18:16.788076,0,-3,-1,0,0,0,62,63,136,100,83,192.09,26,21.00,-3.00,-1014.00
2024-05-17 16:18:16.884104,0,-8,-1,0,-1,0,62,63,137,100,83,192.10,26,11.00,19.00,-999.00
2024-05-17 16:18:17.073727,0,-7,-1,0,-2,0,62,63,133,100,83,192.08,26,3.00,17.00,-1003.00
2024-05-17 16:18:17.087820,1,-5,-1,0,-3,0,62,63,134,100,83,192.09,26,26.00,25.00,-963.00
2024-05-17 16:18:17.278390,1,-2,-1,0,-3,0,62,63,132,100,83,192.05,27,2.00,32.00,-994.00
2024-05-17 16:18:17.291759,1,0,-1,0,-3,0,62,63,132,100,83,192.01,27,48.00,10.00,-1026.00
2024-05-17 16:18:17.483436,1,0,-1,0,-3,0,62,63,132,100,83,192.05,27,4.00,54.00,-992.00
2024-05-17 16:18:17.496032,0,0,-1,0,-2,0,62,63,132,100,83,192.02,27,19.00,25.00,-964.00
2024-05-17 16:18:17.687843,0,-1,-1,0,-2,0,62,64,133,100,83,192.10,27,19.00,22.00,-995.00
2024-05-17 16:18:17.700142,0,-1,-1,0,-2,0,62,64,133,100,83,192.10,27,32.00,3.00,-989.00
2024-05-17 16:18:17.892646,0,-1,-1,0,-2,0,62,64,133,100,83,192.01,27,36.00,19.00,-991.00
2024-05-17 16:18:17.904041,0,-1,-1,0,-2,0,62,64,133,100,83,192.05,27,1.00,31.00,-1004.00
2024-05-17 16:18:18.097836,0,-1,-1,0,-2,0,62,64,132,100,83,192.07,27,-27.00,42.00,-1030.00
2024-05-17 16:18:18.108032,0,-1,-1,0,-2,0,62,64,132,100,83,192.08,28,-12.00,14.00,-979.00
2024-05-17 16:18:18.302419,0,-1,-1,0,-2,0,62,64,132,100,83,192.06,28,-8.00,31.00,-973.00
2024-05-17 16:18:18.312062,0,0,-1,0,-2,0,62,64,132,100,83,192.06,28,15.00,14.00,-995.00
2024-05-17 16:18:18.508202,0,0,-1,0,-2,0,62,64,130,100,83,191.91,28,10.00,18.00,-998.00
2024-05-17 16:18:18.515847,0,0,-1,0,-2,0,62,64,131,100,83,191.99,28,7.00,3.00,-1039.00
2024-05-17 16:18:18.712003,0,1,-1,0,-2,0,62,64,130,100,83,191.96,28,25.00,23.00,-1040.00
2024-05-17 16:18:18.720139,0,3,-1,0,-1,0,62,64,134,100,83,192.05,28,10.00,-9.00,-988.00
2024-05-17 16:18:18.821735,0,2,-1,0,0,0,62,64,134,100,83,192.06,28,4.00,15.00,-1008.00
2024-05-17 16:18:18.923785,0,0,-1,0,0,0,62,64,132,100,83,191.99,28,7.00,18.00,-992.00
2024-05-17 16:18:19.122568,0,0,-1,0,0,0,62,64,129,100,83,192.05,28,-22.00,3.00,-1017.00
2024-05-17 16:18:19.130034,0,0,-1,0,0,0,62,64,129,100,83,192.01,29,34.00,-23.00,-991.00
2024-05-17 16:18:19.229769,0,0,-1,0,0,0,62,64,129,100,83,192.06,29,19.00,-13.00,-1003.00
2024-05-17 16:18:19.331881,0,0,-1,0,0,0,62,64,129,100,83,192.04,29,15.00,-7.00,-1031.00
2024-05-17 16:18:19.433937,1,0,-1,0,0,0,62,64,129,100,83,192.02,29,-6.00,6.00,-956.00
2024-05-17 16:18:19.637701,0,0,-1,0,0,0,62,64,129,100,82,192.02,29,5.00,2.00,-997.00
2024-05-17 16:18:19.637958,0,0,-1,0,0,0,61,64,129,100,82,192.02,29,36.00,-24.00,-981.00
2024-05-17 16:18:19.842103,0,0,-1,0,0,0,61,64,130,100,82,191.96,29,15.00,5.00,-980.00
2024-05-17 16:18:19.842299,0,-1,-1,0,0,0,61,64,130,100,82,192.07,29,26.00,0.00,-969.00
2024-05-17 16:18:19.943967,0,-1,-1,0,0,0,61,64,130,100,82,192.05,29,9.00,0.00,-1022.00
2024-05-17 16:18:20.045767,0,0,-1,0,0,0,61,64,130,100,82,192.02,29,-23.00,30.00,-1040.00
2024-05-17 16:18:20.096736,0,0,-1,0,0,0,61,64,131,100,82,192.07,30,11.00,7.00,-1000.00
2024-05-17 16:18:20.250104,0,-1,-1,0,0,0,61,64,131,100,82,192.05,30,3.00,15.00,-1021.00
2024-05-17 16:18:20.300857,0,-1,-1,0,0,0,61,64,130,100,82,192.10,30,-47.00,16.00,-912.00
2024-05-17 16:18:20.454379,0,-1,-1,0,0,0,61,64,131,100,82,192.06,30,0.00,5.00,-995.00
2024-05-17 16:18:20.504753,0,-1,-1,0,0,0,61,64,132,100,82,192.07,30,-37.00,20.00,-944.00
2024-05-17 16:18:20.657804,0,-1,-1,0,0,0,61,65,131,100,82,192.08,30,-42.00,26.00,-1003.00
2024-05-17 16:18:20.711002,0,-1,-1,0,0,0,61,65,133,100,82,192.05,30,0.00,20.00,-1040.00
2024-05-17 16:18:20.811611,0,-1,-1,0,0,0,61,65,133,100,82,192.09,30,16.00,17.00,-1000.00
2024-05-17 16:18:20.918506,0,-1,-1,0,0,0,61,65,132,100,82,192.10,30,17.00,10.00,-996.00
2024-05-17 16:18:21.014778,0,0,-1,0,0,0,61,65,133,100,82,192.07,30,34.00,-14.00,-1069.00
2024-05-17 16:18:21.171018,0,8,-1,0,0,0,61,65,136,100,82,192.15,31,-11.00,55.00,-980.00
2024-05-17 16:18:21.218672,0,7,-1,0,2,0,61,65,135,100,82,192.06,31,21.00,2.00,-981.00
2024-05-17 16:18:21.374668,0,4,-1,0,3,0,61,65,135,100,82,192.06,31,76.00,-41.00,-1012.00
2024-05-17 16:18:21.422470,0,1,-1,0,4,0,61,65,133,100,82,192.11,31,7.00,-35.00,-949.00
2024-05-17 16:18:21.578955,0,-1,-1,0,4,0,61,65,131,100,82,192.08,31,-30.00,-2.00,-980.00
2024-05-17 16:18:21.631102,0,-2,-1,0,3,0,63,65,131,100,82,192.03,31,-17.00,-6.00,-1013.00
2024-05-17 16:18:21.729458,0,-1,-1,0,3,0,63,65,132,100,82,192.02,31,-5.00,-2.00,-986.00
2024-05-17 16:18:21.886235,0,-1,-1,0,3,0,63,65,134,100,82,192.05,31,5.00,-13.00,-972.00
2024-05-17 16:18:21.932659,0,0,-1,0,2,0,63,65,131,100,82,192.01,31,-17.00,-7.00,-999.00
2024-05-17 16:18:22.091038,0,0,-1,0,2,0,63,65,131,100,82,192.00,31,18.00,-17.00,-1023.00
2024-05-17 16:18:22.136800,0,0,-1,0,2,0,63,65,131,100,82,192.01,32,1.00,-8.00,-1007.00
2024-05-17 16:18:22.295793,0,0,-1,0,2,0,63,65,131,100,82,191.95,32,11.00,-14.00,-1023.00
2024-05-17 16:18:22.340800,0,-1,-1,0,2,0,63,65,131,100,82,192.02,32,-11.00,0.00,-992.00
2024-05-17 16:18:22.501149,0,-2,-1,0,2,0,63,65,129,100,82,192.02,32,11.00,-5.00,-1009.00
2024-05-17 16:18:22.544587,0,-4,-1,0,1,0,63,65,129,100,81,192.06,32,3.00,-2.00,-1002.00
2024-05-17 16:18:22.705438,0,-4,-1,0,1,0,64,65,129,100,81,192.06,32,6.00,-6.00,-1013.00
2024-05-17 16:18:22.749648,0,-2,-1,0,0,0,64,65,128,100,81,192.01,32,8.00,0.00,-1011.00
2024-05-17 16:18:22.910904,0,-1,-1,0,0,0,64,65,129,100,81,192.08,32,7.00,5.00,-1008.00
2024-05-17 16:18:22.953639,0,-1,-1,0,0,0,64,65,129,100,81,191.99,32,-23.00,3.00,-986.00
2024-05-17 16:18:23.115692,0,-1,-1,0,0,0,64,65,130,100,81,192.02,32,0.00,22.00,-1066.00
2024-05-17 16:18:23.157754,0,-1,-2,0,0,0,64,65,130,100,81,192.04,33,10.00,-19.00,-1002.00
2024-05-17 16:18:23.320041,0,-1,-2,0,0,0,64,65,129,100,81,192.03,33,2.00,17.00,-988.00
2024-05-17 16:18:23.361488,0,-1,-2,0,0,0,64,65,129,100,81,191.98,33,8.00,-12.00,-1007.00
2024-05-17 16:18:23.524776,0,-1,-2,0,0,0,64,65,127,100,81,192.03,33,18.00,14.00,-988.00
2024-05-17 16:18:23.565550,0,-1,-2,0,0,0,64,65,127,90,81,192.04,33,-22.00,10.00,-985.00
2024-05-17 16:18:23.729585,0,-1,-2,0,0,0,63,65,127,90,81,192.04,33,-23.00,9.00,-1005.00
2024-05-17 16:18:23.769651,0,-1,-2,0,0,0,63,65,128,90,81,192.06,33,1.00,16.00,-992.00
2024-05-17 16:18:23.936232,0,-1,-2,0,0,0,63,65,128,90,81,192.05,33,16.00,-3.00,-996.00
2024-05-17 16:18:23.973629,0,-1,-2,0,0,0,63,65,129,90,81,192.07,33,17.00,-24.00,-978.00
2024-05-17 16:18:24.139015,0,-1,-2,0,0,0,63,65,129,90,81,192.05,33,-4.00,22.00,-1020.00
2024-05-17 16:18:24.139183,0,-1,-2,0,0,0,63,65,129,90,81,192.09,34,-20.00,5.00,-1012.00
2024-05-17 16:18:24.228600,0,-1,-2,0,0,0,63,65,130,90,81,192.08,34,19.00,19.00,-999.00
2024-05-17 16:18:24.344555,0,-1,-1,0,0,0,63,65,129,90,81,192.12,34,-34.00,-11.00,-981.00
2024-05-17 16:18:24.432737,0,-1,-1,0,0,0,63,65,129,90,81,192.10,34,-36.00,21.00,-968.00
2024-05-17 16:18:24.548789,0,-1,-1,0,0,0,63,65,129,90,81,192.05,34,0.00,33.00,-1014.00
2024-05-17 16:18:24.636540,0,-1,-1,0,0,0,62,65,129,90,81,192.06,34,20.00,23.00,-1007.00
2024-05-17 16:18:24.738459,0,-1,-1,0,0,0,62,65,129,90,81,192.06,34,35.00,20.00,-975.00
2024-05-17 16:18:24.856334,0,-1,-1,0,0,0,62,65,129,90,81,192.07,34,26.00,-6.00,-1011.00
2024-05-17 16:18:24.942791,0,-1,3,0,0,0,62,65,129,90,81,192.08,34,16.00,30.00,-1033.00
2024-05-17 16:18:25.060715,0,-1,9,0,0,0,62,65,128,100,81,192.05,34,1.00,1.00,-992.00
2024-05-17 16:18:25.147139,1,-1,15,0,0,0,62,65,129,100,81,192.04,35,28.00,23.00,-1020.00
2024-05-17 16:18:25.265713,0,-1,22,0,0,0,62,65,129,100,81,192.11,35,6.00,14.00,-997.00
2024-05-17 16:18:25.351313,0,-1,28,0,0,0,62,65,130,100,81,192.12,35,-64.00,39.00,-983.00
2024-05-17 16:18:25.470211,0,-1,34,0,0,0,62,65,131,100,81,192.11,35,4.00,19.00,-1014.00
2024-05-17 16:18:25.555802,0,-1,40,0,0,0,62,65,131,100,81,192.15,35,50.00,-16.00,-1012.00
2024-05-17 16:18:25.675035,0,-1,46,0,0,0,62,66,130,100,81,192.08,35,-54.00,9.00,-916.00
2024-05-17 16:18:25.759789,0,-1,53,0,0,0,62,66,132,100,81,192.12,35,13.00,7.00,-1018.00
2024-05-17 16:18:25.880070,0,0,59,0,0,0,62,66,131,100,81,192.04,35,40.00,-8.00,-1018.00
2024-05-17 16:18:25.963368,0,0,65,0,0,0,62,66,132,100,81,191.96,35,-17.00,29.00,-1005.00
2024-05-17 16:18:26.067392,0,0,71,0,0,0,62,66,131,100,81,192.07,35,-2.00,0.00,-993.00
2024-05-17 16:18:26.167380,0,0,77,0,0,0,62,66,131,100,81,192.14,36,44.00,22.00,-985.00
2024-05-17 16:18:26.269735,0,0,83,0,0,0,62,66,131,100,81,192.10,36,17.00,-11.00,-996.00
2024-05-17 16:18:26.374414,0,0,89,0,0,0,62,66,132,100,81,192.14,36,35.00,-5.00,-1000.00
2024-05-17 16:18:26.476268,0,0,95,0,0,0,62,66,132,100,81,192.22,36,22.00,2.00,-999.00
2024-05-17 16:18:26.576081,0,0,101,0,0,0,62,66,131,100,81,192.21,36,-13.00,22.00,-994.00
2024-05-17 16:18:26.700066,0,0,107,0,0,0,64,65,131,100,81,192.11,36,26.00,-6.00,-1009.00
2024-05-17 16:18:26.781948,0,1,113,0,0,0,64,65,131,100,81,192.13,36,13.00,-1.00,-1022.00
2024-05-17 16:18:26.884247,0,1,119,0,0,0,64,65,131,100,81,192.11,36,-2.00,5.00,-995.00
2024-05-17 16:18:26.985776,0,1,125,0,0,0,64,65,132,100,81,192.13,36,33.00,0.00,-1027.00
2024-05-17 16:18:27.088096,0,1,131,0,0,0,64,65,131,100,81,192.10,36,6.00,2.00,-1012.00
2024-05-17 16:18:27.191338,0,1,137,0,0,0,64,65,131,100,81,192.07,37,0.00,-25.00,-988.00
2024-05-17 16:18:27.290268,0,1,143,0,0,0,64,65,130,100,81,192.10,37,-9.00,10.00,-1009.00
2024-05-17 16:18:27.392644,0,1,149,0,0,0,64,65,130,100,81,192.02,37,-10.00,-1.00,-961.00
2024-05-17 16:18:27.620622,0,1,155,0,0,0,64,65,130,100,81,192.02,37,5.00,-1.00,-1022.00
2024-05-17 16:18:27.620712,0,1,161,0,0,0,64,65,130,100,81,192.04,37,-29.00,8.00,-995.00
2024-05-17 16:18:27.698630,0,1,167,0,0,0,64,66,130,100,81,192.16,37,-37.00,30.00,-1023.00
2024-05-17 16:18:27.825539,0,1,173,0,0,0,64,66,130,100,81,192.06,37,-52.00,0.00,-957.00
2024-05-17 16:18:27.902338,0,1,179,0,0,0,64,66,130,100,81,192.10,37,-19.00,18.00,-974.00
2024-05-17 16:18:28.006114,0,1,-174,0,0,0,64,66,130,100,81,192.13,37,-42.00,-40.00,-1071.00
2024-05-17 16:18:28.106313,0,1,-168,0,0,0,64,66,131,100,81,192.16,37,41.00,-35.00,-1024.00
2024-05-17 16:18:28.157267,0,1,-163,0,0,0,64,66,131,100,81,192.17,38,30.00,12.00,-997.00
2024-05-17 16:18:28.337906,0,1,-157,0,0,0,64,66,131,100,81,192.12,38,-13.00,-7.00,-1022.00
2024-05-17 16:18:28.363297,0,1,-151,0,0,0,64,66,132,100,81,192.05,38,10.00,-18.00,-1025.00
2024-05-17 16:18:28.463260,-1,1,-146,0,0,0,64,66,132,100,81,192.14,38,-23.00,0.00,-964.00
2024-05-17 16:18:28.644627,0,0,-140,0,0,0,64,66,132,100,81,192.12,38,-21.00,-12.00,-988.00
2024-05-17 16:18:28.670229,0,0,-134,0,0,0,64,66,132,100,81,192.08,38,11.00,-2.00,-957.00
2024-05-17 16:18:28.770081,0,0,-129,0,0,0,64,66,133,100,81,192.09,38,-18.00,6.00,-1027.00
2024-05-17 16:18:28.951773,0,0,-123,0,0,0,64,66,133,100,81,192.15,38,20.00,-16.00,-1009.00
2024-05-17 16:18:28.973281,0,0,-117,0,0,0,64,66,134,100,81,192.14,38,4.00,-24.00,-1014.00
2024-05-17 16:18:29.156996,0,0,-111,0,0,0,64,66,133,100,81,192.18,38,-33.00,-5.00,-992.00
2024-05-17 16:18:29.178747,0,0,-105,0,0,0,64,66,134,100,81,192.20,39,22.00,-27.00,-986.00
2024-05-17 16:18:29.362379,0,0,-99,0,0,0,64,66,134,100,81,192.14,39,-5.00,3.00,-1005.00
2024-05-17 16:18:29.384704,0,1,-93,0,0,0,64,66,135,100,81,192.14,39,-19.00,-34.00,-987.00
2024-05-17 16:18:29.485104,-1,1,-88,0,0,0,64,66,135,100,80,192.10,39,-31.00,8.00,-1033.00
2024-05-17 16:18:29.586313,-1,0,-82,0,0,0,64,66,135,100,80,192.11,39,9.00,1.00,-1022.00
2024-05-17 16:18:29.687811,-1,0,-76,0,0,0,64,66,136,100,80,192.13,39,-10.00,17.00,-1000.00
2024-05-17 16:18:29.789268,-1,0,-70,0,0,0,64,66,135,100,80,192.14,39,3.00,14.00,-974.00
2024-05-17 16:18:29.891955,-1,0,-64,0,0,0,64,66,135,100,80,192.10,39,-11.00,18.00,-1020.00
2024-05-17 16:18:29.993092,-1,0,-57,0,0,0,64,66,134,100,80,192.18,39,-57.00,38.00,-1015.00
2024-05-17 16:18:30.095229,-1,0,-51,0,0,0,64,66,135,100,80,192.15,39,7.00,9.00,-991.00
2024-05-17 16:18:30.283033,-1,0,-45,0,0,0,64,66,135,100,80,192.17,40,-27.00,22.00,-919.00
2024-05-17 16:18:30.299625,-1,0,-39,0,0,0,64,66,135,100,80,192.16,40,14.00,-10.00,-999.00
2024-05-17 16:18:30.401168,-1,0,-32,0,0,0,64,66,134,100,80,192.18,40,10.00,12.00,-973.00
2024-05-17 16:18:30.590765,-1,0,-26,0,0,0,64,66,134,100,80,192.12,40,14.00,10.00,-984.00
2024-05-17 16:18:30.605193,0,0,-20,0,0,0,64,66,134,100,80,192.15,40,-30.00,47.00,-998.00
2024-05-17 16:18:30.794951,0,0,-16,0,0,0,64,66,135,100,80,192.23,40,-24.00,43.00,-985.00
2024-05-17 16:18:30.809178,0,0,-12,0,0,0,64,66,135,100,80,192.17,40,-13.00,8.00,-901.00
2024-05-17 16:18:30.999711,0,0,-10,0,0,0,64,66,134,100,80,192.15,40,13.00,25.00,-1037.00
2024-05-17 16:18:31.013613,0,0,-8,0,0,0,64,66,134,100,80,192.19,40,26.00,24.00,-1009.00
2024-05-17 16:18:31.204664,0,0,-6,0,0,0,64,66,134,100,80,192.16,40,12.00,10.00,-979.00
2024-05-17 16:18:31.217202,0,0,-5,0,0,0,64,66,134,100,80,192.06,41,25.00,-10.00,-948.00
2024-05-17 16:18:31.409899,0,0,-4,0,0,0,64,66,133,100,80,192.11,41,28.00,-8.00,-1020.00
2024-05-17 16:18:31.422157,0,0,-4,0,0,0,64,66,130,100,80,192.13,41,24.00,26.00,-1035.00
2024-05-17 16:18:31.614901,0,0,-3,0,0,0,64,66,129,100,80,192.11,41,15.00,17.00,-982.00
2024-05-17 16:18:31.626729,0,0,-3,0,0,0,64,66,127,100,80,192.04,41,-29.00,19.00,-993.00
2024-05-17 16:18:31.819920,0,-1,-3,0,0,0,65,67,127,100,80,192.13,41,-32.00,7.00,-1008.00
2024-05-17 16:18:31.830187,0,-1,-3,0,0,0,65,67,127,100,80,192.11,41,-42.00,11.00,-984.00
2024-05-17 16:18:32.023915,0,-1,-3,0,0,0,65,67,127,100,80,192.13,41,-26.00,18.00,-1005.00
2024-05-17 16:18:32.034309,0,-1,-3,0,0,0,65,67,127,100,80,192.08,41,-10.00,-2.00,-1014.00
2024-05-17 16:18:32.136434,0,0,-3,0,0,0,65,67,128,100,80,192.06,42,0.00,19.00,-991.00
2024-05-17 16:18:32.187363,0,0,-3,0,0,0,65,67,128,100,80,192.09,42,7.00,13.00,-1034.00
2024-05-17 16:18:32.331641,0,0,-3,0,0,0,65,67,128,100,80,192.11,42,-4.00,33.00,-1027.00
2024-05-17 16:18:32.391210,0,-1,-3,0,0,0,65,67,129,100,80,192.14,42,-2.00,24.00,-1016.00
2024-05-17 16:18:32.535909,0,-1,-3,0,0,0,65,67,129,90,80,192.11,42,26.00,6.00,-1040.00
2024-05-17 16:18:32.595155,0,-1,-3,0,0,0,65,67,129,90,80,192.12,42,13.00,-18.00,-974.00
2024-05-17 16:18:32.740761,0,-1,-3,0,0,0,65,67,130,90,80,192.09,42,-25.00,43.00,-985.00
2024-05-17 16:18:32.799415,0,-1,-3,0,0,0,65,67,130,90,80,192.08,42,-55.00,32.00,-1058.00
2024-05-17 16:18:32.945651,0,-1,-3,0,0,0,65,67,131,100,80,192.13,42,-63.00,6.00,-1000.00
2024-05-17 16:18:33.004702,0,-1,-3,0,0,0,65,67,131,100,80,192.16,42,-40.00,-17.00,-929.00
2024-05-17 16:18:33.150396,0,-1,-3,0,0,0,65,67,132,100,80,192.06,43,31.00,4.00,-992.00
2024-05-17 16:18:33.207865,0,-1,-3,0,0,0,65,67,131,100,80,192.11,43,31.00,3.00,-1001.00
2024-05-17 16:18:33.355299,0,0,-3,0,0,0,65,67,131,100,80,192.08,43,20.00,22.00,-1009.00
2024-05-17 16:18:33.411222,0,0,-3,0,0,0,65,67,132,100,80,192.11,43,-1.00,-31.00,-997.00
2024-05-17 16:18:33.560652,0,0,-3,0,0,0,65,67,133,100,80,192.17,43,12.00,15.00,-1068.00
2024-05-17 16:18:33.618087,0,0,-8,0,0,0,65,67,132,100,80,192.09,43,-14.00,12.00,-1023.00
2024-05-17 16:18:33.717298,0,0,-14,0,0,0,64,67,132,100,80,192.20,43,-40.00,15.00,-979.00
2024-05-17 16:18:33.867604,0,0,-20,0,0,0,64,67,131,100,80,192.06,43,18.00,-7.00,-980.00
2024-05-17 16:18:33.921185,1,0,-25,0,0,0,64,67,132,100,80,192.19,43,25.00,-19.00,-984.00
2024-05-17 16:18:34.075909,0,-1,-31,0,0,0,64,67,131,100,80,192.22,43,43.00,-7.00,-1013.00
2024-05-17 16:18:34.126786,0,-1,-37,0,0,0,64,67,133,100,80,192.14,44,-31.00,13.00,-940.00
2024-05-17 16:18:34.227594,0,-1,-43,0,0,0,64,67,134,100,80,192.16,44,-41.00,27.00,-965.00
2024-05-17 16:18:34.379581,0,-1,-48,0,0,0,64,67,135,100,80,192.18,44,0.00,9.00,-1021.00
2024-05-17 16:18:34.431388,0,-1,-54,0,0,0,64,67,136,100,80,192.13,44,17.00,-3.00,-988.00
2024-05-17 16:18:34.583888,0,-1,-60,0,0,0,64,67,137,100,80,192.23,44,40.00,-7.00,-1049.00
2024-05-17 16:18:34.635164,0,-1,-66,0,0,0,64,67,137,100,80,192.18,44,18.00,-1.00,-950.00
2024-05-17 16:18:34.788688,0,-1,-72,0,0,0,65,67,136,100,80,192.18,44,-47.00,20.00,-922.00
2024-05-17 16:18:34.839522,0,-1,-78,0,0,0,65,67,136,100,80,192.08,44,-35.00,45.00,-1009.00
2024-05-17 16:18:34.993616,-1,0,-84,0,0,0,65,67,136,100,80,192.14,44,-40.00,44.00,-1026.00
2024-05-17 16:18:35.043038,-1,0,-90,0,0,0,65,67,134,100,80,192.14,44,8.00,12.00,-990.00
2024-05-17 16:18:35.198318,0,0,-96,0,0,0,65,67,133,100,80,192.10,45,-23.00,13.00,-936.00
2024-05-17 16:18:35.247089,0,0,-102,0,0,0,65,67,132,100,80,192.14,45,49.00,-3.00,-1013.00
2024-05-17 16:18:35.404407,0,0,-108,0,0,0,65,67,131,100,80,192.09,45,-11.00,6.00,-971.00
2024-05-17 16:18:35.452059,0,0,-114,0,0,0,65,67,130,100,80,192.10,45,61.00,-17.00,-1025.00
2024-05-17 16:18:35.607845,0,0,-120,0,0,0,65,67,128,100,80,192.14,45,3.00,14.00,-979.00
2024-05-17 16:18:35.655083,0,0,-126,0,0,0,65,67,128,100,80,192.08,45,8.00,0.00,-982.00
2024-05-17 16:18:35.812633,0,0,-131,0,0,0,66,68,128,100,80,192.18,45,4.00,2.00,-988.00
2024-05-17 16:18:35.859447,0,0,-137,0,0,0,66,68,127,90,80,192.17,45,-16.00,16.00,-990.00
2024-05-17 16:18:36.019882,0,0,-143,0,0,0,66,68,126,90,80,192.07,45,5.00,21.00,-1048.00
2024-05-17 16:18:36.020044,0,0,-149,0,0,0,66,68,125,90,80,192.12,45,2.00,-7.00,-1029.00
2024-05-17 16:18:36.114004,0,0,-154,0,0,0,66,68,125,90,80,192.02,46,42.00,-18.00,-1071.00
2024-05-17 16:18:36.222235,0,0,-160,0,0,0,66,68,125,90,80,192.12,46,-48.00,25.00,-1019.00
2024-05-17 16:18:36.317998,0,0,-166,0,0,0,66,68,125,90,80,192.04,46,-12.00,11.00,-992.00
2024-05-17 16:18:36.420005,0,0,-172,0,0,0,66,68,125,90,80,192.08,46,-27.00,13.00,-1015.00
2024-05-17 16:18:36.532471,0,0,-178,0,0,0,66,68,126,90,79,192.07,46,29.00,-30.00,-1010.00
2024-05-17 16:18:36.623930,0,0,175,0,0,0,66,68,126,90,79,192.06,46,22.00,-19.00,-1006.00
2024-05-17 16:18:36.734245,0,1,169,0,0,0,65,68,127,90,79,192.05,46,-12.00,-3.00,-1010.00
2024-05-17 16:18:36.828030,0,1,163,0,0,0,65,68,128,90,79,192.11,46,9.00,0.00,-1044.00
2024-05-17 16:18:36.943202,0,1,157,0,0,0,65,68,128,90,79,192.12,46,68.00,-20.00,-1101.00
2024-05-17 16:18:37.031946,0,1,151,0,0,0,65,68,129,90,79,192.11,46,59.00,-24.00,-1022.00
2024-05-17 16:18:37.145894,0,1,145,0,0,0,65,68,129,90,79,192.11,47,26.00,-38.00,-952.00
2024-05-17 16:18:37.235881,0,1,139,0,0,0,65,68,130,90,79,192.12,47,-26.00,17.00,-973.00
2024-05-17 16:18:37.338016,0,1,133,0,0,0,65,68,130,100,79,192.13,47,-1.00,3.00,-995.00
2024-05-17 16:18:37.439915,0,1,126,0,0,0,65,68,131,100,79,192.15,47,66.00,-2.00,-1033.00
2024-05-17 16:18:37.555317,1,1,120,0,0,0,65,68,132,100,79,192.17,47,-22.00,14.00,-984.00
2024-05-17 16:18:37.646249,1,0,115,0,0,0,65,68,131,100,79,192.03,47,71.00,10.00,-1058.00
2024-05-17 16:18:37.746608,1,0,109,0,0,0,66,68,131,100,79,192.04,47,85.00,-13.00,-992.00
2024-05-17 16:18:37.860669,1,0,103,0,0,0,66,68,132,100,79,192.09,47,-24.00,53.00,-1036.00
2024-05-17 16:18:37.949920,1,0,98,0,0,0,66,68,131,100,79,192.14,47,45.00,10.00,-993.00
2024-05-17 16:18:38.065457,1,0,92,0,0,0,66,68,131,100,79,192.18,47,-33.00,44.00,-940.00
2024-05-17 16:18:38.153875,1,0,87,0,0,0,66,68,128,100,79,192.18,48,4.00,27.00,-964.00
2024-05-17 16:18:38.270900,0,-1,81,0,0,0,66,68,128,100,79,192.13,48,15.00,18.00,-1034.00
2024-05-17 16:18:38.357990,0,-1,76,0,0,0,66,68,128,90,79,192.20,48,35.00,-6.00,-1003.00
2024-05-17 16:18:38.478997,0,-1,70,0,0,0,66,68,130,90,79,192.25,48,32.00,2.00,-997.00
2024-05-17 16:18:38.562788,0,-1,65,0,0,0,66,68,130,90,79,192.09,48,-30.00,55.00,-1002.00
2024-05-17 16:18:38.679851,0,-1,59,0,0,0,66,68,130,100,79,192.16,48,58.00,-4.00,-1017.00
2024-05-17 16:18:38.770868,0,-1,54,0,0,0,66,68,130,100,79,192.11,48,20.00,-5.00,-980.00
2024-05-17 16:18:38.869939,0,-1,49,0,0,0,66,68,130,100,79,192.15,48,2.00,8.00,-968.00
2024-05-17 16:18:38.972942,0,0,43,0,0,0,66,68,130,100,79,192.24,48,15.00,23.00,-992.00
2024-05-17 16:18:39.075305,0,0,38,0,0,0,66,68,130,100,79,192.19,48,17.00,17.00,-991.00
2024-05-17 16:18:39.174941,0,0,33,0,0,0,66,68,130,100,79,192.11,49,-3.00,17.00,-977.00
2024-05-17 16:18:39.277382,0,-1,28,0,0,0,66,68,130,100,79,192.08,49,5.00,27.00,-1012.00
2024-05-17 16:18:39.399294,0,-1,22,0,0,0,66,68,130,100,79,192.13,49,-9.00,34.00,-977.00
2024-05-17 16:18:39.431062,0,0,17,0,0,0,66,68,129,100,79,192.12,49,8.00,12.00,-975.00
2024-05-17 16:18:39.605998,0,0,12,0,0,0,66,68,128,100,79,192.19,49,12.00,-8.00,-989.00
2024-05-17 16:18:39.635191,0,0,9,0,0,0,66,68,129,100,79,192.17,49,-31.00,38.00,-979.00
2024-05-17 16:18:39.810703,0,-1,6,0,0,0,65,68,129,100,79,192.28,49,-6.00,19.00,-992.00
2024-05-17 16:18:39.839322,0,-1,4,0,0,0,65,68,129,100,79,192.22,49,-7.00,25.00,-995.00
2024-05-17 16:18:40.011251,0,-1,2,0,0,0,65,68,128,100,79,192.23,49,37.00,-17.00,-997.00
2024-05-17 16:18:40.055001,0,-1,1,0,0,0,65,68,130,100,79,192.18,49,52.00,-21.00,-987.00
2024-05-17 16:18:40.145365,0,0,0,0,0,0,65,68,129,100,79,192.20,50,14.00,-1.00,-952.00
2024-05-17 16:18:40.318613,0,0,0,0,0,0,65,68,130,100,79,192.15,50,-15.00,43.00,-1002.00
2024-05-17 16:18:40.348826,0,-1,0,0,0,0,65,68,130,100,79,192.05,50,1.00,21.00,-985.00
2024-05-17 16:18:40.450913,0,-1,-1,0,0,0,65,68,130,100,79,192.14,50,-16.00,42.00,-988.00
2024-05-17 16:18:40.625386,0,-1,-2,0,0,0,65,68,131,100,79,192.23,50,9.00,37.00,-1036.00
2024-05-17 16:18:40.654935,0,-2,-2,0,0,0,65,68,131,100,79,192.15,50,-13.00,38.00,-1011.00
2024-05-17 16:18:40.831216,0,-1,-2,0,0,0,66,68,131,100,79,192.15,50,32.00,9.00,-988.00
2024-05-17 16:18:40.858884,0,-1,-3,0,0,0,66,68,132,100,79,192.13,50,64.00,2.00,-1019.00
2024-05-17 16:18:41.037070,0,-2,-3,0,0,0,66,68,133,100,79,192.14,50,15.00,27.00,-1076.00
2024-05-17 16:18:41.062720,0,-1,-4,0,0,0,66,68,133,100,79,192.15,50,14.00,41.00,-1029.00
2024-05-17 16:18:41.239891,0,-1,-4,0,0,0,66,68,132,100,79,192.17,51,35.00,12.00,-998.00
2024-05-17 16:18:41.266788,1,-1,-5,0,0,0,66,68,132,100,79,192.14,51,24.00,5.00,-970.00
2024-05-17 16:18:41.446603,1,0,-6,0,0,0,66,68,132,100,79,192.20,51,59.00,6.00,-1088.00
2024-05-17 16:18:41.474213,0,0,-6,0,0,0,66,68,132,100,78,192.17,51,30.00,16.00,-1061.00
2024-05-17 16:18:41.573386,0,-1,-6,0,0,0,66,68,136,100,78,192.10,51,-54.00,27.00,-998.00
2024-05-17 16:18:41.752059,0,-1,-6,0,0,0,66,68,136,100,78,192.17,51,-30.00,9.00,-944.00
2024-05-17 16:18:41.777126,0,-1,-6,0,0,0,66,69,134,100,78,192.19,51,22.00,-23.00,-1015.00
2024-05-17 16:18:41.959303,0,-1,-6,0,0,0,66,69,136,100,78,192.16,51,90.00,-21.00,-1039.00
2024-05-17 16:18:41.980872,0,-1,-6,0,0,0,66,69,133,100,78,192.18,51,36.00,-14.00,-971.00
2024-05-17 16:18:42.161612,0,0,-6,0,0,0,66,69,132,100,78,192.15,51,-59.00,22.00,-965.00
2024-05-17 16:18:42.185714,0,0,-6,0,0,0,66,69,134,100,78,192.22,52,-78.00,53.00,-1000.00
2024-05-17 16:18:42.366317,0,-1,-6,0,0,0,66,69,138,100,78,192.20,52,-14.00,19.00,-1026.00
2024-05-17 16:18:42.388982,0,-1,-6,0,0,0,66,69,137,100,78,192.20,52,-55.00,19.00,-940.00
2024-05-17 16:18:42.492135,0,-1,-6,0,0,0,66,69,139,100,78,192.27,52,12.00,-8.00,-1053.00
2024-05-17 16:18:42.673424,0,-1,-6,0,0,0,66,69,141,100,78,192.44,52,0.00,24.00,-1568.00
2024-05-17 16:18:42.694711,0,0,-6,0,0,-6,66,69,152,100,78,192.49,52,-6.00,75.00,-1471.00
2024-05-17 16:18:42.798077,-1,-23,-5,0,0,-12,66,68,178,110,78,192.59,52,-48.00,436.00,-1111.00
2024-05-17 16:18:42.980594,0,-129,-3,0,-8,-9,66,68,172,120,78,192.65,52,-65.00,717.00,-1249.00
2024-05-17 16:18:43.000710,3,99,-5,0,-10,6,66,68,212,130,78,192.77,52,-29.00,317.00,-1365.00
2024-05-17 16:18:43.185771,0,9,-9,0,-3,11,66,68,154,120,78,192.37,52,-6.00,-127.00,-1556.00
2024-05-17 16:18:43.204718,-1,3,-8,0,-1,7,66,68,149,110,78,192.37,53,19.00,-31.00,-1316.00
2024-05-17 16:18:43.255650,0,0,-7,1,-1,4,66,68,144,100,78,192.30,53,1.00,4.00,-1175.00
2024-05-17 16:18:43.391577,1,-1,-7,0,-1,2,66,68,144,100,78,192.29,53,-40.00,7.00,-1088.00
2024-05-17 16:18:43.459696,0,0,-6,0,-1,1,66,68,147,90,78,192.29,53,-57.00,31.00,-1044.00
2024-05-17 16:18:43.595075,0,0,-6,0,-1,0,66,68,147,90,78,192.32,53,22.00,-8.00,-1062.00
2024-05-17 16:18:43.665245,0,1,-6,0,0,0,66,68,151,90,78,192.27,53,-17.00,25.00,-962.00
2024-05-17 16:18:43.766229,0,1,-6,0,0,0,66,69,150,90,78,192.40,53,15.00,-30.00,-1004.00
2024-05-17 16:18:43.902200,0,0,-6,0,0,0,66,69,153,90,78,192.37,53,18.00,-24.00,-984.00
2024-05-17 16:18:43.970560,0,-2,-6,0,0,0,66,69,154,90,78,192.38,53,-22.00,16.00,-954.00
2024-05-17 16:18:44.108696,0,-2,-6,0,0,0,66,69,155,100,78,192.36,53,-58.00,47.00,-947.00
2024-05-17 16:18:44.173680,0,-3,-6,0,0,0,66,69,157,100,78,192.46,54,-71.00,26.00,-999.00
2024-05-17 16:18:44.311877,0,-3,-6,0,0,0,66,69,157,100,78,192.46,54,28.00,12.00,-956.00
2024-05-17 16:18:44.377773,0,-2,-6,0,0,0,66,69,156,100,78,192.42,54,-40.00,18.00,-985.00
2024-05-17 16:18:44.480903,0,-2,-6,0,0,0,66,69,155,100,78,192.53,54,-17.00,34.00,-868.00
2024-05-17 16:18:44.582665,0,-1,-6,0,0,1,66,69,153,100,78,192.46,54,-32.00,36.00,-1047.00
2024-05-17 16:18:44.685044,0,-1,-6,0,0,1,66,69,151,100,78,192.40,54,-15.00,12.00,-944.00
2024-05-17 16:18:44.786590,1,-1,-6,0,0,1,66,69,151,100,78,192.50,54,-43.00,23.00,-988.00
2024-05-17 16:18:44.926555,0,-1,-6,0,0,1,66,69,153,90,78,192.45,54,-63.00,62.00,-1001.00
2024-05-17 16:18:44.991342,0,-2,-6,0,0,1,66,69,154,90,78,192.45,54,-28.00,12.00,-975.00
2024-05-17 16:18:45.130985,0,-2,-6,0,0,1,66,69,154,90,78,192.47,54,7.00,30.00,-1042.00
2024-05-17 16:18:45.194706,0,-2,-6,0,0,1,66,69,155,90,78,192.44,55,12.00,14.00,-1057.00
2024-05-17 16:18:45.335876,0,-2,-6,0,0,0,66,69,156,100,78,192.46,55,-20.00,45.00,-1060.00
2024-05-17 16:18:45.398881,0,-2,-6,0,0,0,66,69,157,100,78,192.46,55,33.00,-12.00,-1014.00
2024-05-17 16:18:45.500573,0,-2,-6,0,0,0,66,69,157,100,77,192.49,55,-22.00,21.00,-976.00
2024-05-17 16:18:45.643027,0,-2,-6,0,0,0,66,69,158,100,77,192.49,55,2.00,32.00,-1017.00
2024-05-17 16:18:45.704809,0,-1,-6,0,0,0,66,69,159,100,77,192.42,55,-17.00,4.00,-958.00
2024-05-17 16:18:45.847816,0,-1,-6,0,0,0,66,69,160,100,77,192.52,55,0.00,52.00,-1045.00
2024-05-17 16:18:45.908556,0,-1,-6,0,0,0,66,69,159,100,77,192.48,55,-38.00,21.00,-956.00
2024-05-17 16:18:46.052649,0,-1,-6,0,0,0,66,69,159,100,77,192.44,55,-49.00,33.00,-981.00
2024-05-17 16:18:46.112679,0,-1,-6,0,0,0,66,69,157,100,77,192.45,55,-32.00,47.00,-1038.00
2024-05-17 16:18:46.257660,0,-1,-6,0,0,0,66,69,156,100,77,192.47,56,-12.00,28.00,-972.00
2024-05-17 16:18:46.316733,0,-2,-6,0,0,0,66,69,154,100,77,192.44,56,-57.00,26.00,-965.00
2024-05-17 16:18:46.462385,0,-1,-6,0,0,1,66,69,151,100,77,192.43,56,46.00,-16.00,-1048.00
2024-05-17 16:18:46.520727,0,-1,-6,0,0,0,66,69,147,100,77,192.39,56,27.00,9.00,-1072.00
2024-05-17 16:18:46.571621,1,-1,-6,0,0,0,66,69,147,100,77,192.42,56,19.00,29.00,-938.00
2024-05-17 16:18:46.770303,2,-1,-6,0,0,0,66,69,147,100,77,192.32,56,-11.00,-9.00,-936.00
2024-05-17 16:18:46.775934,2,-1,-6,0,0,0,67,69,145,100,77,192.44,56,-5.00,30.00,-1025.00
2024-05-17 16:18:46.975203,1,-1,-6,0,0,0,67,69,143,100,77,192.33,56,-41.00,28.00,-975.00
2024-05-17 16:18:46.979741,1,-1,-6,0,0,0,67,69,142,90,77,192.32,56,10.00,-5.00,-959.00
2024-05-17 16:18:47.179562,1,-2,-6,0,0,0,67,69,141,90,77,192.40,56,21.00,15.00,-1006.00
2024-05-17 16:18:47.184712,1,-1,-6,0,0,0,67,69,141,90,77,192.40,57,16.00,6.00,-1035.00
2024-05-17 16:18:47.384566,0,-2,-6,0,0,0,67,69,145,90,77,192.34,57,21.00,16.00,-1029.00
2024-05-17 16:18:47.387746,0,-2,-6,-1,0,0,67,69,144,90,77,192.34,57,63.00,3.00,-1101.00
2024-05-17 16:18:47.489513,-1,-2,-6,0,0,0,67,69,144,90,77,192.43,57,-4.00,8.00,-1034.00
2024-05-17 16:18:47.591875,0,-2,-6,0,0,0,67,69,144,90,77,192.34,57,45.00,21.00,-1015.00
2024-05-17 16:18:47.793479,0,-3,-6,0,0,0,67,69,144,90,77,192.33,57,-4.00,0.00,-928.00
2024-05-17 16:18:47.795684,0,-2,-6,0,0,0,67,69,145,90,77,192.31,57,35.00,-5.00,-1063.00
2024-05-17 16:18:47.897781,1,-2,-6,0,-1,0,67,69,144,90,77,192.30,57,-11.00,31.00,-967.00
2024-05-17 16:18:48.102950,1,-2,-6,0,-1,0,67,69,143,90,77,192.33,57,-29.00,9.00,-934.00
2024-05-17 16:18:48.103153,1,-1,-6,0,-1,0,67,69,144,90,77,192.33,58,16.00,5.00,-948.00
2024-05-17 16:18:48.203639,1,-1,-6,0,-1,0,67,69,144,90,77,192.35,58,54.00,-7.00,-978.00
2024-05-17 16:18:48.309124,0,-1,-6,0,0,0,67,69,145,90,77,192.43,58,-46.00,28.00,-961.00
2024-05-17 16:18:48.408607,0,-2,-6,0,0,0,67,69,150,90,77,192.31,58,-10.00,25.00,-944.00
2024-05-17 16:18:48.510479,0,-2,-6,0,0,0,67,69,149,90,77,192.37,58,-67.00,25.00,-1008.00
2024-05-17 16:18:48.612319,0,-2,-6,0,0,0,67,69,150,100,77,192.34,58,-53.00,55.00,-851.00
2024-05-17 16:18:48.715787,0,-2,-6,0,0,0,67,69,150,100,77,192.33,58,5.00,27.00,-1020.00
2024-05-17 16:18:48.821260,0,-2,-6,0,0,0,67,70,150,100,77,192.45,58,19.00,5.00,-1021.00
2024-05-17 16:18:48.918040,0,-2,-6,0,0,0,67,70,150,100,77,192.44,58,22.00,6.00,-956.00
2024-05-17 16:18:49.022650,0,-2,-6,0,0,0,67,70,149,100,77,192.39,58,-27.00,0.00,-1043.00
2024-05-17 16:18:49.121934,0,-2,-6,0,0,0,67,70,150,100,77,192.40,59,-114.00,53.00,-975.00
2024-05-17 16:18:49.226948,0,2,-6,0,0,-1,67,70,151,100,77,192.55,59,-32.00,5.00,-1182.00
2024-05-17 16:18:49.327338,0,5,-6,0,0,-9,67,70,154,100,77,192.66,59,-7.00,-29.00,-1754.00
2024-05-17 16:18:49.428457,-1,69,-6,0,4,-13,67,70,197,110,77,192.71,59,-24.00,-14.00,-1859.00
2024-05-17 16:18:49.549367,0,-171,-9,0,11,0,67,70,193,120,77,192.76,59,-14.00,720.00,-1186.00
2024-05-17 16:18:49.632930,0,-52,-6,0,7,11,67,70,239,120,77,192.79,59,57.00,740.00,-820.00
2024-05-17 16:18:49.739033,-1,20,-8,0,5,10,67,70,165,110,77,192.37,59,36.00,591.00,-1225.00
2024-05-17 16:18:49.836393,-1,5,-13,0,9,6,67,70,163,100,77,192.38,59,-20.00,757.00,-1128.00
2024-05-17 16:18:49.943732,-1,-7,-19,0,9,3,67,70,148,90,77,192.63,59,-13.00,249.00,-1076.00
2024-05-17 16:18:50.040365,-1,-10,-19,0,6,1,67,70,146,90,77,192.26,59,-58.00,26.00,-1425.00
2024-05-17 16:18:50.148537,0,-8,-12,0,4,0,67,70,144,90,77,192.25,60,58.00,-79.00,-1245.00
2024-05-17 16:18:50.195031,0,-3,-6,0,2,0,67,70,142,90,77,192.38,60,44.00,-108.00,-1169.00
2024-05-17 16:18:50.295440,0,-1,-6,0,2,0,67,70,143,90,77,192.39,60,48.00,-49.00,-1138.00
2024-05-17 16:18:50.456943,0,0,-6,0,3,-1,67,70,144,90,77,192.38,60,-33.00,-21.00,-932.00
2024-05-17 16:18:50.499494,0,-3,-6,0,4,-1,67,70,146,90,77,192.41,60,-86.00,26.00,-959.00
2024-05-17 16:18:50.601294,0,-5,-6,0,4,-1,67,70,146,90,77,192.38,60,-64.00,19.00,-981.00
2024-05-17 16:18:50.762936,0,-4,-6,0,3,0,67,70,148,90,77,192.41,60,1.00,-26.00,-988.00
2024-05-17 16:18:50.805320,0,-3,-6,0,2,0,66,70,147,90,77,192.47,60,20.00,-7.00,-1038.00
2024-05-17 16:18:50.968176,0,-2,-6,0,1,0,66,70,146,90,77,192.46,60,2.00,-9.00,-1019.00
2024-05-17 16:18:51.009396,1,-2,-6,0,1,0,66,70,147,90,77,192.50,60,-14.00,-37.00,-1048.00
2024-05-17 16:18:51.175344,1,-1,-6,0,1,0,66,70,147,90,77,192.46,61,35.00,1.00,-957.00
2024-05-17 16:18:51.213301,0,-2,-6,0,0,0,66,70,147,90,77,192.41,61,30.00,-23.00,-996.00
2024-05-17 16:18:51.377332,0,-2,-6,0,0,0,66,70,148,90,77,192.42,61,58.00,-39.00,-1005.00
2024-05-17 16:18:51.417580,1,-2,-6,0,0,0,66,70,146,90,77,192.42,61,19.00,-2.00,-1042.00
2024-05-17 16:18:51.582131,1,-2,-6,0,0,0,66,70,146,90,76,192.46,61,38.00,1.00,-1059.00
2024-05-17 16:18:51.621259,1,-2,-6,0,0,0,66,70,146,90,76,192.45,61,24.00,-9.00,-1015.00
2024-05-17 16:18:51.786925,1,-2,-6,0,0,0,66,70,147,90,76,192.42,61,-4.00,-13.00,-1038.00
2024-05-17 16:18:51.825248,1,-2,-6,0,0,0,67,70,147,90,76,192.45,61,24.00,0.00,-1004.00
2024-05-17 16:18:51.992374,1,-2,-6,0,0,0,67,70,148,90,76,192.48,61,50.00,-40.00,-1055.00
2024-05-17 16:18:52.029199,1,-2,-6,0,0,0,67,70,148,90,76,192.55,61,23.00,-13.00,-968.00
2024-05-17 16:18:52.196557,1,-2,-6,0,0,0,67,70,148,90,76,192.50,62,12.00,2.00,-1022.00
2024-05-17 16:18:52.233194,0,-2,-6,0,0,0,67,70,149,90,76,192.43,62,7.00,6.00,-964.00
2024-05-17 16:18:52.401353,0,-2,-6,0,0,0,67,70,150,90,76,192.46,62,34.00,-4.00,-923.00
2024-05-17 16:18:52.437891,0,-2,-6,0,0,0,67,70,150,90,76,192.47,62,-11.00,6.00,-973.00
2024-05-17 16:18:52.607533,0,-2,-6,0,0,0,67,70,153,90,76,192.35,62,7.00,-2.00,-935.00
2024-05-17 16:18:52.641334,0,-2,-6,0,0,0,67,70,153,90,76,192.42,62,13.00,15.00,-1030.00
2024-05-17 16:18:52.811483,0,-2,-6,0,0,0,67,70,151,90,76,192.43,62,-46.00,37.00,-994.00
2024-05-17 16:18:52.846335,0,-3,-6,0,0,0,68,71,150,90,76,192.46,62,60.00,9.00,-942.00
2024-05-17 16:18:53.015846,0,-3,-6,0,0,0,68,71,150,90,76,192.49,62,12.00,-5.00,-1049.00
2024-05-17 16:18:53.050465,0,-3,-6,0,0,0,68,71,149,90,76,192.43,62,-3.00,9.00,-900.00
2024-05-17 16:18:53.221296,0,-3,-6,0,-1,0,68,71,149,90,76,192.36,63,-63.00,0.00,-943.00
2024-05-17 16:18:53.254277,0,-3,-6,0,-1,0,68,71,149,90,76,192.48,63,10.00,5.00,-1027.00
2024-05-17 16:18:53.425864,0,-2,-6,0,-1,0,68,71,149,90,76,192.43,63,12.00,18.00,-982.00
2024-05-17 16:18:53.458403,0,-2,-6,0,-1,0,68,71,149,90,76,192.43,63,-8.00,20.00,-1041.00
2024-05-17 16:18:53.560519,0,-1,-6,0,-1,0,68,71,149,90,75,192.34,63,50.00,29.00,-983.00
