TS,pitch,roll,yaw,vgx,vgy,vgz,templ,temph,tof,h,bat,baro,time,agx,agy,agz
2024-05-19 09:08:17.624529,0,0,-3,0,0,0,88,90,10,0,51,131.17,335,-3.00,2.00,-999.00
2024-05-19 09:08:17.726572,0,0,-3,0,0,0,88,90,10,0,51,131.27,335,-4.00,0.00,-998.00
2024-05-19 09:08:17.902451,0,0,-3,0,0,0,88,90,10,0,51,131.25,335,-4.00,1.00,-999.00
2024-05-19 09:08:17.930892,0,0,-3,0,0,0,88,90,10,0,51,131.28,335,-4.00,0.00,-1003.00
2024-05-19 09:08:18.106791,0,0,-3,0,0,0,88,90,10,0,51,131.26,335,-4.00,1.00,-1000.00
2024-05-19 09:08:18.134534,0,0,-3,0,0,0,88,90,10,0,51,131.22,335,-3.00,2.00,-1000.00
2024-05-19 09:08:18.311399,0,0,-3,0,0,0,88,90,10,0,51,131.21,335,-3.00,1.00,-1001.00
2024-05-19 09:08:18.338593,0,0,-3,0,0,0,88,90,10,0,51,131.24,335,-3.00,0.00,-1000.00
2024-05-19 09:08:18.516129,0,0,-3,0,0,0,88,91,10,0,51,131.23,335,-2.00,1.00,-999.00
2024-05-19 09:08:18.542197,0,0,-3,0,0,0,88,91,10,0,51,131.28,335,-3.00,3.00,-997.00
2024-05-19 09:08:18.720999,0,0,-3,0,0,0,88,91,10,0,51,131.23,335,-4.00,2.00,-1001.00
2024-05-19 09:08:18.746258,0,0,-3,0,0,0,88,91,10,0,51,131.23,335,-5.00,0.00,-1000.00
2024-05-19 09:08:18.926145,0,0,-3,0,0,0,88,91,10,0,51,131.21,335,-4.00,1.00,-1000.00
2024-05-19 09:08:18.950140,0,0,-3,0,0,0,88,91,10,0,51,131.21,335,-4.00,1.00,-998.00
2024-05-19 09:08:19.130577,0,0,-3,0,0,0,88,91,10,0,51,131.23,335,-3.00,3.00,-1000.00
2024-05-19 09:08:19.154281,0,0,-3,0,0,0,88,91,10,0,51,131.26,335,-4.00,2.00,-1000.00
2024-05-19 09:08:19.335379,0,0,-3,0,0,0,88,91,10,0,51,131.24,335,-5.00,3.00,-1000.00
2024-05-19 09:08:19.358331,0,0,-3,0,0,0,88,91,10,0,51,131.27,335,-4.00,0.00,-998.00
2024-05-19 09:08:19.540040,0,0,-3,0,0,0,88,90,10,0,51,131.22,335,-4.00,1.00,-1000.00
2024-05-19 09:08:19.562222,0,0,-3,0,0,0,88,90,10,0,51,131.26,335,-5.00,1.00,-1002.00
2024-05-19 09:08:19.745072,0,0,-3,0,0,0,88,90,10,0,51,131.27,335,-3.00,1.00,-1002.00
2024-05-19 09:08:19.766254,0,0,-3,0,0,0,88,90,10,0,51,131.24,335,-3.00,1.00,-1000.00
2024-05-19 09:08:19.950107,0,0,-3,0,0,0,88,90,10,0,51,131.22,335,-3.00,1.00,-1001.00
2024-05-19 09:08:19.970235,0,0,-3,0,0,0,88,90,10,0,51,131.22,335,-4.00,0.00,-1000.00
2024-05-19 09:08:20.154447,0,0,-3,0,0,0,88,90,10,0,51,131.28,335,-4.00,3.00,-1000.00
2024-05-19 09:08:20.174258,0,0,-3,0,0,0,88,90,10,0,51,131.24,335,-4.00,2.00,-1001.00
2024-05-19 09:08:20.359530,0,0,-3,0,0,0,88,90,10,0,51,131.24,335,-5.00,1.00,-1003.00
2024-05-19 09:08:20.378158,0,0,-3,0,0,0,88,90,10,0,51,131.23,335,-4.00,1.00,-1000.00
2024-05-19 09:08:20.564131,0,0,-3,0,0,0,88,90,10,0,51,131.23,335,-5.00,1.00,-1002.00
2024-05-19 09:08:20.582200,0,0,-3,0,0,0,88,90,10,0,51,131.20,335,-5.00,1.00,-996.00
2024-05-19 09:08:20.633220,0,0,-3,0,0,0,88,90,10,0,51,131.23,335,-3.00,2.00,-998.00
2024-05-19 09:08:20.735290,0,0,-3,0,0,0,88,90,10,0,51,131.23,335,-4.00,1.00,-1000.00
2024-05-19 09:08:20.871315,0,0,-3,0,0,0,88,90,10,0,51,131.23,335,-4.00,0.00,-999.00
2024-05-19 09:08:20.940106,0,0,-3,0,0,0,88,90,10,0,51,131.19,335,-4.00,0.00,-999.00
2024-05-19 09:08:21.042048,0,0,-3,0,0,0,88,90,10,0,51,131.19,335,-4.00,2.00,-1001.00
2024-05-19 09:08:21.144176,0,0,-3,0,0,0,88,90,10,0,51,131.21,335,-3.00,1.00,-1001.00
2024-05-19 09:08:21.280839,0,0,-3,0,0,0,88,90,10,0,51,131.21,335,-9.00,0.00,-1001.00
2024-05-19 09:08:21.348120,0,0,-3,0,0,0,88,90,10,0,51,131.21,335,-4.00,1.00,-1000.00
2024-05-19 09:08:21.485550,0,0,-2,0,0,0,89,91,10,0,51,131.21,335,9.00,-8.00,-976.00
2024-05-19 09:08:21.552000,0,0,-1,0,0,0,89,91,10,0,51,131.21,335,-49.00,13.00,-951.00
2024-05-19 09:08:21.690374,0,1,-2,0,0,0,89,91,10,0,51,131.21,335,-32.00,6.00,-1001.00
2024-05-19 09:08:21.756061,-1,4,-2,0,0,-1,89,91,10,0,51,131.21,335,-34.00,-2.00,-1174.00
2024-05-19 09:08:21.895197,-2,2,-2,1,1,-3,89,91,10,0,51,131.21,335,20.00,-24.00,-1420.00
2024-05-19 09:08:21.960242,1,0,-2,1,1,-6,89,91,13,0,51,131.21,335,8.00,-11.00,-1228.00
2024-05-19 09:08:22.099943,3,-3,-2,0,1,-7,89,91,20,10,51,131.69,336,-152.00,44.00,-1143.00
2024-05-19 09:08:22.164042,1,-3,-2,0,0,-7,89,91,29,20,51,131.79,336,-40.00,-1.00,-980.00
2024-05-19 09:08:22.305534,0,-1,-2,0,0,-8,89,91,37,20,51,131.87,336,-93.00,44.00,-1005.00
2024-05-19 09:08:22.367959,0,-1,-2,0,0,-8,89,91,41,30,51,131.86,336,72.00,-24.00,-969.00
2024-05-19 09:08:22.509747,0,-1,-2,0,0,-6,89,92,48,40,51,131.95,336,64.00,-34.00,-931.00
2024-05-19 09:08:22.571913,0,-1,-2,0,0,-5,89,92,55,40,51,131.98,336,40.00,-9.00,-869.00
2024-05-19 09:08:22.714438,-1,0,-2,0,0,-4,89,92,60,50,51,132.05,336,64.00,-12.00,-860.00
2024-05-19 09:08:22.775876,0,0,-2,0,0,-3,89,92,65,50,51,132.18,336,7.00,-3.00,-923.00
2024-05-19 09:08:22.919251,0,0,-2,0,0,-2,89,92,68,50,51,132.21,336,53.00,-15.00,-912.00
2024-05-19 09:08:22.980016,0,0,-2,0,0,-1,89,92,71,60,51,132.28,336,25.00,-7.00,-971.00
2024-05-19 09:08:23.124360,0,0,-2,0,0,-1,89,92,73,60,51,132.26,337,2.00,-20.00,-1006.00
2024-05-19 09:08:23.184113,0,0,-2,0,0,-1,89,92,74,60,51,132.30,337,10.00,7.00,-978.00
2024-05-19 09:08:23.328789,-1,0,-2,0,0,0,89,92,76,60,51,132.22,337,-17.00,28.00,-901.00
2024-05-19 09:08:23.388347,-1,0,-2,0,0,0,89,92,77,60,51,132.34,337,36.00,-19.00,-1022.00
2024-05-19 09:08:23.533598,-1,0,-2,0,0,0,89,91,79,60,51,132.34,337,60.00,-14.00,-1023.00
2024-05-19 09:08:23.591852,0,0,-2,0,0,0,89,91,80,60,51,132.35,337,-49.00,16.00,-1004.00
2024-05-19 09:08:23.693961,0,0,-2,0,0,0,89,91,81,60,51,132.33,337,-51.00,13.00,-964.00
2024-05-19 09:08:23.840787,0,0,-2,0,0,0,89,91,82,60,51,132.38,337,-49.00,3.00,-1055.00
2024-05-19 09:08:23.897953,-2,0,-2,0,0,0,89,91,84,70,51,132.42,337,-48.00,-7.00,-1038.00
2024-05-19 09:08:24.000031,-3,0,-2,0,0,0,89,91,87,70,51,132.39,337,-22.00,1.00,-1078.00
2024-05-19 09:08:24.147975,-3,0,-2,0,0,0,89,91,90,70,51,132.39,338,31.00,-22.00,-977.00
2024-05-19 09:08:24.153138,-1,0,-2,0,0,0,89,91,93,70,51,132.35,338,36.00,-48.00,-945.00
2024-05-19 09:08:24.352794,0,0,-2,0,0,0,89,91,94,70,51,132.41,338,-53.00,26.00,-904.00
2024-05-19 09:08:24.357656,0,0,-2,0,0,0,89,91,96,80,51,132.47,338,81.00,-32.00,-941.00
2024-05-19 09:08:24.557602,0,0,-2,0,0,0,89,92,97,80,51,132.41,338,-40.00,31.00,-927.00
2024-05-19 09:08:24.560977,0,0,-2,0,0,0,89,92,98,80,51,132.40,338,-25.00,13.00,-1009.00
2024-05-19 09:08:24.663004,0,0,-2,0,0,0,89,92,98,80,51,132.43,338,35.00,-4.00,-953.00
2024-05-19 09:08:24.765042,0,0,-2,0,0,1,89,92,97,80,51,132.39,338,-35.00,-5.00,-971.00
2024-05-19 09:08:24.866921,0,0,-2,0,0,1,89,92,97,80,51,132.47,338,-39.00,34.00,-963.00
2024-05-19 09:08:24.969288,0,0,-2,0,0,0,89,92,96,80,51,132.41,338,7.00,-3.00,-964.00
2024-05-19 09:08:25.071147,0,0,-2,0,0,1,89,92,95,80,51,132.49,339,30.00,-24.00,-957.00
2024-05-19 09:08:25.274293,-1,0,-2,0,0,1,89,92,94,80,51,132.46,339,4.00,-2.00,-1008.00
2024-05-19 09:08:25.274823,-1,0,-2,0,0,1,89,92,93,80,51,132.47,339,46.00,-48.00,-971.00
2024-05-19 09:08:25.377013,-1,0,-2,0,0,1,89,92,93,80,51,132.41,339,31.00,-35.00,-1102.00
2024-05-19 09:08:25.479262,-1,0,-2,0,0,1,88,91,92,80,51,132.40,339,38.00,-21.00,-915.00
2024-05-19 09:08:25.581256,0,0,-2,0,0,0,88,91,91,80,51,132.38,339,10.00,14.00,-1046.00
2024-05-19 09:08:25.683989,0,0,-2,0,0,0,88,91,90,70,51,132.43,339,-45.00,13.00,-950.00
2024-05-19 09:08:25.786353,0,0,-2,0,0,1,88,91,88,70,51,132.42,339,-20.00,4.00,-976.00
2024-05-19 09:08:25.886885,0,0,-2,0,0,0,88,91,87,70,51,132.44,339,63.00,-18.00,-1063.00
2024-05-19 09:08:25.988832,0,0,-2,0,0,1,88,91,85,70,51,132.38,339,43.00,-8.00,-999.00
2024-05-19 09:08:26.093567,0,0,-2,0,0,0,88,91,84,70,51,132.31,340,20.00,15.00,-1043.00
2024-05-19 09:08:26.192864,0,0,-2,0,0,0,88,91,83,70,51,132.30,340,-38.00,-24.00,-1012.00
2024-05-19 09:08:26.298770,0,0,-2,0,0,0,88,91,81,70,51,132.30,340,10.00,-8.00,-1025.00
2024-05-19 09:08:26.397177,0,0,-2,0,0,0,88,91,80,70,51,132.36,340,51.00,-12.00,-1044.00
2024-05-19 09:08:26.503509,0,0,-2,0,0,0,88,92,77,70,51,132.35,340,21.00,-2.00,-1075.00
2024-05-19 09:08:26.600859,0,0,-2,0,0,0,88,92,76,70,51,132.29,340,-17.00,-7.00,-1153.00
2024-05-19 09:08:26.702847,0,0,-2,0,0,0,88,92,75,70,51,132.30,340,-35.00,-8.00,-1060.00
2024-05-19 09:08:26.810467,0,0,-2,0,0,0,88,92,73,60,51,132.28,340,29.00,-23.00,-1011.00
2024-05-19 09:08:26.906787,0,0,-2,0,0,0,88,92,72,60,51,132.25,340,53.00,-55.00,-1041.00
2024-05-19 09:08:27.009001,0,0,-2,0,0,0,88,92,71,60,51,132.26,340,9.00,-15.00,-1014.00
2024-05-19 09:08:27.110801,0,0,-2,0,0,0,88,92,70,60,51,132.32,341,21.00,-49.00,-1004.00
2024-05-19 09:08:27.219880,0,0,-2,0,0,0,88,92,69,60,51,132.20,341,-20.00,0.00,-1065.00
2024-05-19 09:08:27.314823,0,0,-2,0,0,0,88,92,68,60,51,132.19,341,28.00,-22.00,-960.00
2024-05-19 09:08:27.424685,0,0,-2,0,0,0,88,92,68,60,51,132.19,341,60.00,-19.00,-965.00
2024-05-19 09:08:27.518779,0,0,-2,0,0,0,89,91,68,60,51,132.24,341,48.00,-14.00,-1018.00
2024-05-19 09:08:27.634777,1,0,-2,0,0,0,89,91,67,60,51,132.24,341,48.00,-11.00,-1005.00
2024-05-19 09:08:27.722744,1,0,-2,0,0,0,89,91,67,60,51,132.21,341,-93.00,47.00,-1150.00
2024-05-19 09:08:27.834389,0,0,-2,0,0,0,89,91,68,60,51,132.26,341,-37.00,13.00,-1056.00
2024-05-19 09:08:27.926880,0,0,-2,0,0,0,89,91,68,60,51,132.25,341,38.00,-27.00,-1033.00
2024-05-19 09:08:28.039155,0,0,-2,0,0,0,89,91,70,60,51,132.28,341,56.00,3.00,-1016.00
2024-05-19 09:08:28.131770,0,0,-2,0,0,0,89,91,72,60,51,132.24,342,22.00,25.00,-1040.00
2024-05-19 09:08:28.182714,0,0,-2,0,0,0,89,91,74,60,51,132.27,342,67.00,-33.00,-964.00
2024-05-19 09:08:28.346723,0,0,-2,0,0,0,89,91,76,60,51,132.32,342,61.00,-24.00,-1009.00
2024-05-19 09:08:28.386769,0,0,-2,0,0,0,89,91,79,60,51,132.32,342,3.00,-7.00,-1048.00
2024-05-19 09:08:28.551168,0,0,-2,0,0,-1,88,91,82,60,51,132.35,342,-19.00,3.00,-882.00
2024-05-19 09:08:28.594410,0,0,-2,0,0,0,88,91,84,60,51,132.35,342,-81.00,59.00,-1036.00
2024-05-19 09:08:28.692756,-1,0,-2,0,0,0,88,91,87,70,51,132.31,342,0.00,15.00,-1003.00
2024-05-19 09:08:28.858394,-3,-1,-2,0,0,0,88,91,88,70,51,132.39,342,-78.00,29.00,-995.00
2024-05-19 09:08:28.896731,-3,-1,-1,0,0,0,88,91,90,70,51,132.39,342,48.00,-47.00,-1013.00
2024-05-19 09:08:28.998751,-2,-1,-1,0,0,0,88,91,92,70,51,132.40,342,10.00,-18.00,-956.00
2024-05-19 09:08:29.166053,0,0,-2,1,0,-1,88,91,93,80,51,132.32,343,0.00,-4.00,-967.00
2024-05-19 09:08:29.202677,1,0,-1,1,0,0,88,91,94,80,51,132.39,343,64.00,-36.00,-870.00
2024-05-19 09:08:29.370377,0,0,-1,1,0,0,88,91,95,80,51,132.47,343,-36.00,15.00,-1020.00
2024-05-19 09:08:29.406704,1,0,-1,1,0,0,88,91,95,80,51,132.41,343,-46.00,-9.00,-916.00
2024-05-19 09:08:29.575058,1,0,-1,0,0,0,88,91,95,80,51,132.46,343,10.00,-10.00,-977.00
2024-05-19 09:08:29.610949,0,0,-1,0,0,0,88,91,96,80,51,132.39,343,-38.00,29.00,-943.00
2024-05-19 09:08:29.712900,0,0,-2,0,0,0,88,91,95,80,51,132.46,343,86.00,-43.00,-915.00
2024-05-19 09:08:29.882507,-1,-1,-2,0,0,0,88,91,94,80,51,132.44,343,-24.00,29.00,-937.00
2024-05-19 09:08:29.916809,0,-1,-2,0,0,1,88,91,93,80,51,132.50,343,0.00,30.00,-1038.00
2024-05-19 09:08:30.018838,-1,-1,-2,0,0,1,88,91,92,80,51,132.55,343,-50.00,1.00,-1048.00
2024-05-19 09:08:30.190533,0,-1,-2,0,0,1,88,91,91,80,51,132.50,344,9.00,5.00,-878.00
2024-05-19 09:08:30.222853,-1,-1,-2,0,0,0,88,91,90,80,51,132.46,344,5.00,-20.00,-960.00
2024-05-19 09:08:30.394603,0,-2,-2,0,0,0,88,91,89,80,51,132.39,344,111.00,-44.00,-974.00
2024-05-19 09:08:30.426961,0,-1,-2,0,0,0,88,91,88,70,51,132.42,344,54.00,-5.00,-1077.00
2024-05-19 09:08:30.599494,1,-1,-2,1,0,0,88,91,88,70,51,132.43,344,72.00,-22.00,-951.00
2024-05-19 09:08:30.630847,1,0,-2,0,0,0,88,91,87,70,51,132.30,344,15.00,30.00,-1026.00
2024-05-19 09:08:30.804125,0,-1,-2,0,0,0,88,91,87,70,51,132.39,344,-28.00,-4.00,-1015.00
2024-05-19 09:08:30.834818,0,-1,-2,0,0,0,88,91,87,70,51,132.43,344,31.00,-8.00,-981.00
2024-05-19 09:08:31.008955,-1,-2,-2,0,0,0,88,91,86,70,51,132.46,344,2.00,14.00,-1026.00
2024-05-19 09:08:31.039104,-1,-1,-2,0,0,0,88,91,85,70,51,132.45,344,23.00,-31.00,-923.00
2024-05-19 09:08:31.140751,-2,-2,-1,0,0,0,88,91,84,70,51,132.32,345,-17.00,12.00,-937.00
2024-05-19 09:08:31.316072,-2,-2,-1,0,0,0,88,91,83,70,51,132.37,345,13.00,-2.00,-901.00
2024-05-19 09:08:31.344784,0,-1,-1,1,-1,0,88,91,82,70,51,132.39,345,-19.00,25.00,-1014.00
2024-05-19 09:08:31.520983,0,-1,-1,1,-1,0,88,91,82,70,51,132.34,345,98.00,-35.00,-1072.00
2024-05-19 09:08:31.548797,1,0,-2,1,-1,0,88,91,81,70,51,132.39,345,80.00,-22.00,-945.00
2024-05-19 09:08:31.716671,1,0,-2,0,-1,0,88,91,81,70,51,132.35,345,-7.00,0.00,-1009.00
2024-05-19 09:08:31.752586,0,1,-2,0,-1,0,88,91,80,70,51,132.35,345,102.00,-30.00,-1010.00
2024-05-19 09:08:31.930569,1,1,-2,1,-1,0,88,91,79,70,51,132.38,345,47.00,-34.00,-1085.00
2024-05-19 09:08:31.956824,1,1,-2,0,-1,0,88,91,78,70,51,132.29,345,-14.00,-8.00,-1080.00
2024-05-19 09:08:32.135143,0,1,-2,0,0,-1,88,91,78,70,51,132.32,346,47.00,-52.00,-1061.00
2024-05-19 09:08:32.135221,0,0,-2,0,0,-2,88,91,79,70,51,132.30,346,25.00,-33.00,-1156.00
2024-05-19 09:08:32.211457,-1,0,-2,0,0,-3,88,91,81,70,51,132.32,346,81.00,-92.00,-1057.00
2024-05-19 09:08:32.339876,0,1,-2,1,0,-4,88,91,84,70,51,132.45,346,70.00,-1.00,-1089.00
2024-05-19 09:08:32.415610,1,0,-2,0,0,-4,88,91,87,80,51,132.45,346,20.00,-7.00,-1077.00
2024-05-19 09:08:32.544779,0,0,-2,0,0,-4,89,90,92,80,51,132.56,346,74.00,-8.00,-1016.00
2024-05-19 09:08:32.619792,0,0,-2,0,0,-5,89,90,96,90,51,132.59,346,97.00,-32.00,-1089.00
2024-05-19 09:08:32.721514,0,-1,-1,0,0,-5,89,90,101,90,51,132.57,346,9.00,-3.00,-1064.00
2024-05-19 09:08:32.851935,-1,-1,-1,0,0,-5,89,90,104,100,51,132.62,346,-48.00,27.00,-1066.00
2024-05-19 09:08:32.925574,0,-2,-1,0,0,-5,89,90,110,100,51,132.65,346,35.00,0.00,-1066.00
2024-05-19 09:08:33.027782,0,-1,-2,0,0,-5,89,90,114,110,51,132.66,347,-46.00,6.00,-972.00
2024-05-19 09:08:33.129617,0,-1,-2,1,0,-5,89,90,118,110,51,132.69,347,8.00,13.00,-1032.00
2024-05-19 09:08:33.231555,1,0,-2,1,0,-4,89,90,123,110,51,132.70,347,113.00,-14.00,-915.00
2024-05-19 09:08:33.363864,2,0,-2,1,0,-4,89,90,127,120,51,132.78,347,0.00,21.00,-876.00
2024-05-19 09:08:33.435557,1,0,-2,0,0,-3,89,90,130,120,51,132.85,347,-5.00,5.00,-1055.00
2024-05-19 09:08:33.568760,0,0,-2,0,0,-3,88,91,133,120,51,132.92,347,127.00,-27.00,-984.00
2024-05-19 09:08:33.639748,1,0,-2,1,0,-3,88,91,136,130,51,132.91,347,86.00,-28.00,-1068.00
2024-05-19 09:08:33.776311,2,0,-2,1,0,-3,88,91,140,130,51,132.84,347,-9.00,4.00,-1026.00
2024-05-19 09:08:33.843563,2,0,-2,1,0,-3,88,91,143,130,51,132.96,347,6.00,5.00,-897.00
2024-05-19 09:08:33.978428,2,0,-2,0,0,-2,88,91,147,140,51,132.95,347,47.00,7.00,-949.00
2024-05-19 09:08:34.048547,2,0,-2,0,0,-2,88,91,150,140,51,133.00,348,49.00,-1.00,-1006.00
2024-05-19 09:08:34.183151,2,0,-2,0,0,-3,88,91,152,140,51,132.99,348,38.00,-25.00,-1089.00
2024-05-19 09:08:34.252559,1,0,-2,0,0,-2,88,91,154,140,51,132.99,348,-2.00,11.00,-995.00
2024-05-19 09:08:34.387857,0,0,-2,0,0,-2,88,91,157,150,51,133.02,348,38.00,-25.00,-955.00
2024-05-19 09:08:34.456462,0,0,-2,0,0,-2,88,91,159,150,51,132.99,348,59.00,-11.00,-917.00
2024-05-19 09:08:34.592753,0,0,-2,0,0,-2,88,90,163,150,51,133.06,348,19.00,-39.00,-983.00
2024-05-19 09:08:34.660525,0,0,-2,0,0,-1,88,90,166,150,51,133.09,348,8.00,22.00,-939.00
2024-05-19 09:08:34.797567,0,0,-2,0,0,-1,88,90,166,150,51,133.13,348,63.00,-22.00,-1001.00
2024-05-19 09:08:34.864569,0,0,-2,0,0,0,88,90,168,160,51,133.11,348,-40.00,50.00,-896.00
2024-05-19 09:08:35.002338,-1,0,-2,0,0,-1,88,90,170,160,51,133.18,348,-49.00,40.00,-946.00
2024-05-19 09:08:35.068467,-2,0,-2,0,0,-1,88,90,171,160,51,133.18,349,-41.00,25.00,-1148.00
2024-05-19 09:08:35.207304,-1,0,-2,0,0,-1,88,90,172,160,51,133.14,349,35.00,0.00,-939.00
2024-05-19 09:08:35.272436,1,0,-2,1,0,-1,88,90,175,160,51,133.17,349,6.00,4.00,-1012.00
2024-05-19 09:08:35.412019,2,1,-2,0,0,-1,88,90,175,160,51,133.23,349,-78.00,42.00,-1009.00
2024-05-19 09:08:35.476495,1,0,-2,0,0,-1,88,90,177,160,51,133.19,349,13.00,12.00,-979.00
2024-05-19 09:08:35.616908,0,0,-2,0,0,0,88,90,178,160,51,133.27,349,2.00,11.00,-1019.00
2024-05-19 09:08:35.680593,0,0,-2,0,0,0,88,90,180,160,51,133.24,349,33.00,5.00,-1083.00
2024-05-19 09:08:35.821733,0,0,-2,0,0,0,88,90,182,170,51,133.25,349,-4.00,17.00,-985.00
2024-05-19 09:08:35.884510,0,0,-2,0,0,0,88,90,180,170,51,133.27,349,12.00,32.00,-1026.00
2024-05-19 09:08:35.935529,0,0,-2,0,0,0,88,90,179,170,51,133.32,349,53.00,-37.00,-946.00
2024-05-19 09:08:36.037532,0,0,-2,0,0,0,88,90,178,170,51,133.31,350,34.00,22.00,-1017.00
2024-05-19 09:08:36.231247,0,0,-2,0,0,0,88,90,178,170,51,133.30,350,39.00,-27.00,-1001.00
2024-05-19 09:08:36.241560,0,0,-2,0,0,0,88,90,175,170,51,133.29,350,63.00,3.00,-925.00
2024-05-19 09:08:36.436306,0,0,-2,0,0,0,88,90,175,160,51,133.22,350,27.00,16.00,-940.00
2024-05-19 09:08:36.445535,0,0,-2,0,0,0,88,90,173,160,51,133.24,350,20.00,-18.00,-1018.00
2024-05-19 09:08:36.640937,0,0,-2,0,0,0,89,90,171,160,51,133.29,350,30.00,26.00,-963.00
2024-05-19 09:08:36.649627,0,0,-2,0,0,0,89,90,172,160,51,133.30,350,-8.00,16.00,-984.00
2024-05-19 09:08:36.845687,0,0,-2,0,0,0,89,90,171,160,51,133.29,350,7.00,-19.00,-1102.00
2024-05-19 09:08:36.853648,0,0,-2,0,0,0,89,90,172,160,51,133.27,350,45.00,-37.00,-993.00
2024-05-19 09:08:37.050622,0,0,-2,0,0,0,89,90,171,160,51,133.25,350,-56.00,15.00,-1104.00
2024-05-19 09:08:37.057352,0,0,-2,0,0,0,89,90,173,160,51,133.21,351,-1.00,-26.00,-981.00
2024-05-19 09:08:37.255227,0,0,-1,0,0,0,89,90,174,160,51,133.22,351,38.00,-15.00,-1034.00
2024-05-19 09:08:37.261654,0,0,-1,0,0,-1,89,90,176,160,51,133.24,351,73.00,-24.00,-1011.00
2024-05-19 09:08:37.428899,0,0,-1,0,0,0,89,90,177,160,51,133.25,351,-40.00,15.00,-962.00
2024-05-19 09:08:37.465368,0,0,-1,0,0,0,89,90,178,160,51,133.28,351,11.00,0.00,-839.00
2024-05-19 09:08:37.664745,-1,0,-1,0,0,0,88,90,180,160,51,133.31,351,113.00,-9.00,-1031.00
2024-05-19 09:08:37.671263,0,0,-2,0,0,0,88,90,182,160,51,133.25,351,19.00,-9.00,-920.00
2024-05-19 09:08:37.771843,1,0,-2,0,0,0,88,90,183,170,51,133.35,351,0.00,23.00,-934.00
2024-05-19 09:08:37.972294,1,0,-2,0,0,0,88,90,184,170,51,133.27,351,-8.00,26.00,-1011.00
2024-05-19 09:08:37.975500,0,0,-2,0,0,0,88,90,184,170,51,133.23,351,82.00,-59.00,-974.00
2024-05-19 09:08:38.077476,0,0,-2,0,0,1,88,90,182,170,51,133.30,352,104.00,-30.00,-964.00
2024-05-19 09:08:38.179669,0,0,-2,0,0,1,88,90,179,170,51,133.28,352,25.00,-18.00,-947.00
2024-05-19 09:08:38.281363,0,0,-2,0,0,2,88,90,178,160,51,133.27,352,23.00,1.00,-947.00
2024-05-19 09:08:38.383359,0,0,-2,0,0,2,88,90,175,160,51,133.25,352,-44.00,16.00,-963.00
2024-05-19 09:08:38.586433,0,0,-2,0,0,2,88,90,173,160,51,133.21,352,-28.00,44.00,-894.00
2024-05-19 09:08:38.587335,0,0,-2,0,0,2,88,90,170,160,51,133.24,352,46.00,-31.00,-1035.00
2024-05-19 09:08:38.689409,0,0,-1,0,0,2,88,90,166,150,51,133.14,352,58.00,-21.00,-1063.00
2024-05-19 09:08:38.791546,0,0,-1,0,0,2,88,90,164,150,51,133.06,352,-37.00,30.00,-964.00
2024-05-19 09:08:38.893722,0,0,-1,0,0,2,88,90,160,150,51,133.15,352,-54.00,32.00,-1040.00
2024-05-19 09:08:38.995970,0,0,-1,0,0,2,88,90,156,150,51,133.07,352,-50.00,4.00,-958.00
2024-05-19 09:08:39.099256,-1,0,-1,0,0,2,88,90,153,140,51,132.99,353,57.00,-42.00,-1016.00
2024-05-19 09:08:39.303244,-2,0,-1,0,0,2,88,90,149,140,51,132.98,353,37.00,-2.00,-1017.00
2024-05-19 09:08:39.303401,-1,0,-2,0,0,2,88,90,145,140,51,133.15,353,10.00,22.00,-874.00
2024-05-19 09:08:39.405772,0,0,-2,0,0,3,88,90,140,130,51,132.99,353,18.00,6.00,-1112.00
2024-05-19 09:08:39.456334,1,0,-2,1,0,2,88,90,137,130,51,132.81,353,13.00,-2.00,-1004.00
2024-05-19 09:08:39.610379,1,0,-1,0,0,2,88,90,133,130,51,132.81,353,58.00,9.00,-1069.00
2024-05-19 09:08:39.712756,1,0,-2,0,0,2,88,90,130,120,51,132.84,353,71.00,-14.00,-1004.00
2024-05-19 09:08:39.813404,1,0,-2,0,0,2,88,90,128,120,51,132.76,353,74.00,-22.00,-1072.00
2024-05-19 09:08:39.864534,1,0,-2,0,0,2,88,90,126,120,51,132.76,353,71.00,-36.00,-1111.00
2024-05-19 09:08:40.020640,0,0,-2,0,0,1,88,90,125,110,51,132.67,353,-36.00,11.00,-928.00
2024-05-19 09:08:40.068269,0,0,-2,0,0,0,88,90,124,110,51,132.78,354,59.00,-34.00,-1044.00
2024-05-19 09:08:40.224912,-1,0,-2,0,0,0,88,90,123,110,51,132.76,354,53.00,-17.00,-910.00
2024-05-19 09:08:40.272377,-1,0,-2,0,0,0,88,90,123,110,51,132.78,354,-69.00,14.00,-1031.00
2024-05-19 09:08:40.429722,-1,0,-2,0,0,0,88,90,124,110,51,132.82,354,29.00,-26.00,-949.00
2024-05-19 09:08:40.476712,-1,0,-2,0,0,0,88,90,125,110,51,132.84,354,2.00,21.00,-1079.00
2024-05-19 09:08:40.634687,-1,0,-2,0,0,0,89,91,126,110,51,132.81,354,17.00,21.00,-1053.00
2024-05-19 09:08:40.680311,0,0,-2,0,0,0,89,91,127,110,51,132.79,354,52.00,-3.00,-956.00
2024-05-19 09:08:40.839447,0,0,-1,0,0,0,89,91,129,110,51,132.79,354,77.00,-22.00,-973.00
2024-05-19 09:08:40.884345,0,0,-1,0,0,0,89,91,131,110,51,132.91,354,39.00,-24.00,-992.00
2024-05-19 09:08:41.044158,0,0,-1,0,0,0,89,91,132,120,51,132.89,354,0.00,9.00,-992.00
2024-05-19 09:08:41.088514,0,-1,-1,0,0,0,89,91,134,120,51,132.91,355,5.00,25.00,-990.00
2024-05-19 09:08:41.248869,0,0,-1,0,0,0,89,91,134,120,51,132.89,355,48.00,-15.00,-951.00
2024-05-19 09:08:41.292410,0,0,-1,0,0,0,89,91,135,120,51,132.92,355,-69.00,24.00,-977.00
2024-05-19 09:08:41.453765,0,0,-1,0,0,0,89,91,136,120,51,132.96,355,1.00,26.00,-1006.00
2024-05-19 09:08:41.496341,0,0,-1,0,0,0,89,91,136,120,51,132.93,355,31.00,-2.00,-948.00
2024-05-19 09:08:41.658460,0,0,-1,0,0,0,89,90,134,120,51,133.02,355,-119.00,66.00,-1017.00
2024-05-19 09:08:41.700279,0,0,-1,0,0,0,89,90,134,120,51,132.98,355,37.00,-11.00,-1034.00
2024-05-19 09:08:41.802202,0,0,-1,0,0,0,89,90,132,120,51,132.99,355,70.00,-13.00,-1044.00
2024-05-19 09:08:41.965535,0,0,-1,0,0,0,89,90,133,120,51,132.96,355,0.00,11.00,-966.00
2024-05-19 09:08:42.007695,-5,0,-1,0,0,0,89,90,133,120,51,132.93,355,-41.00,29.00,-981.00
2024-05-19 09:08:42.108148,-8,0,-2,1,0,0,89,90,132,120,51,132.85,356,-118.00,62.00,-987.00
2024-05-19 09:08:42.210160,-8,0,-2,3,0,0,89,90,132,120,51,132.79,356,-73.00,10.00,-1091.00
2024-05-19 09:08:42.375076,-8,0,-2,4,0,0,89,90,130,120,51,132.80,356,-16.00,-11.00,-934.00
2024-05-19 09:08:42.414245,-7,0,-2,6,0,1,89,90,128,110,51,132.77,356,-83.00,5.00,-1037.00
2024-05-19 09:08:42.579861,-5,0,-2,6,0,0,89,90,128,110,51,132.73,356,-68.00,28.00,-1021.00
2024-05-19 09:08:42.618118,-4,0,-2,7,0,0,88,91,128,110,51,132.68,356,-60.00,-6.00,-1109.00
2024-05-19 09:08:42.784742,-4,0,-2,7,0,0,88,91,128,110,51,132.69,356,-12.00,-18.00,-938.00
2024-05-19 09:08:42.822155,0,0,-2,7,0,0,88,91,128,110,51,132.68,356,-43.00,-8.00,-1048.00
2024-05-19 09:08:42.989508,2,0,-2,7,0,0,88,91,127,110,51,132.62,356,-92.00,-12.00,-924.00
2024-05-19 09:08:43.026120,3,0,-2,6,0,0,88,91,127,110,51,132.69,356,-72.00,-8.00,-999.00
2024-05-19 09:08:43.128090,4,0,-2,5,0,0,88,91,127,110,51,132.63,357,-87.00,-2.00,-979.00
2024-05-19 09:08:43.296715,3,0,-2,4,0,0,88,91,125,110,51,132.58,357,-6.00,-7.00,-1085.00
2024-05-19 09:08:43.332161,1,0,-2,3,0,0,88,91,125,110,51,132.64,357,-103.00,4.00,-964.00
2024-05-19 09:08:43.383073,0,0,-2,2,0,0,88,91,124,110,51,132.65,357,-125.00,13.00,-964.00
2024-05-19 09:08:43.501493,-1,0,-2,2,0,0,88,91,125,110,51,132.58,357,14.00,-15.00,-1073.00
2024-05-19 09:08:43.587070,-2,0,-2,2,0,0,88,90,125,110,51,132.76,357,-21.00,6.00,-1040.00
2024-05-19 09:08:43.706222,-1,0,-2,2,0,0,88,90,126,110,51,132.69,357,3.00,3.00,-1023.00
2024-05-19 09:08:43.798770,-1,0,-2,2,0,0,88,90,127,110,51,132.75,357,-10.00,-20.00,-1007.00
2024-05-19 09:08:43.893042,0,0,-2,2,0,0,88,90,128,110,51,132.79,357,-43.00,34.00,-982.00
2024-05-19 09:08:44.014346,1,1,-2,2,0,0,88,90,130,110,51,132.72,357,-116.00,28.00,-1028.00
2024-05-19 09:08:44.097785,0,0,-2,0,0,0,88,90,132,110,51,132.81,358,-4.00,-20.00,-1027.00
2024-05-19 09:08:44.218254,-1,0,-2,1,0,-1,88,90,134,110,51,132.71,358,-119.00,9.00,-1037.00
2024-05-19 09:08:44.303219,2,0,-2,0,0,-1,88,90,135,120,51,132.74,358,-56.00,7.00,-1011.00
2024-05-19 09:08:44.403708,0,0,-2,0,0,0,88,90,136,120,51,132.74,358,-55.00,29.00,-964.00
2024-05-19 09:08:44.525723,0,0,-2,0,0,0,88,90,136,120,51,132.72,358,-22.00,-5.00,-856.00
2024-05-19 09:08:44.610711,-1,0,-2,0,0,0,88,90,136,120,51,132.79,358,-3.00,-14.00,-931.00
2024-05-19 09:08:44.710840,-1,0,-2,0,0,0,88,90,136,120,51,132.85,358,-18.00,-11.00,-950.00
2024-05-19 09:08:44.812032,-2,0,-2,0,0,0,88,90,135,120,51,132.88,358,-86.00,31.00,-909.00
2024-05-19 09:08:44.913820,-1,0,-2,0,0,0,88,90,134,120,51,132.82,358,42.00,-8.00,-965.00
2024-05-19 09:08:45.019816,-1,0,-2,0,0,1,88,90,132,120,51,132.81,358,-11.00,2.00,-1075.00
2024-05-19 09:08:45.121998,0,0,-2,0,0,1,88,90,131,120,51,132.79,359,-16.00,11.00,-1040.00
2024-05-19 09:08:45.222575,0,0,-2,0,0,1,88,90,131,120,51,132.78,359,-46.00,17.00,-1099.00
2024-05-19 09:08:45.324423,0,0,-2,0,0,0,88,90,131,110,51,132.79,359,-19.00,6.00,-1080.00
2024-05-19 09:08:45.424157,-1,0,-2,0,0,0,88,90,131,110,51,132.76,359,19.00,-27.00,-959.00
2024-05-19 09:08:45.549613,-1,0,-2,0,0,0,88,90,131,110,51,132.88,359,-37.00,-2.00,-985.00
2024-05-19 09:08:45.628223,0,0,-2,0,0,0,88,90,132,110,51,132.78,359,0.00,0.00,-1066.00
2024-05-19 09:08:45.754541,-2,0,-2,0,0,0,88,90,133,110,51,132.73,359,-70.00,30.00,-919.00
2024-05-19 09:08:45.832327,-2,0,-2,0,0,0,88,90,133,110,51,132.74,359,-48.00,14.00,-1010.00
2024-05-19 09:08:45.959524,-1,0,-2,0,0,0,88,90,134,120,51,132.78,359,-2.00,-10.00,-1083.00
2024-05-19 09:08:46.036125,-1,1,-2,0,0,0,88,90,134,120,51,132.83,359,-14.00,6.00,-976.00
2024-05-19 09:08:46.164100,0,1,-2,0,0,0,88,90,133,120,51,132.85,360,-3.00,-1.00,-982.00
2024-05-19 09:08:46.240158,0,1,-2,0,0,0,88,90,133,120,51,132.85,360,-41.00,19.00,-970.00
2024-05-19 09:08:46.355389,0,0,-2,0,0,0,88,90,132,120,51,132.82,360,-9.00,2.00,-985.00
2024-05-19 09:08:46.443875,0,0,-2,0,0,0,88,90,130,120,51,132.74,360,-30.00,-14.00,-912.00
2024-05-19 09:08:46.573470,0,0,-2,0,0,0,88,90,129,120,51,132.69,360,-38.00,34.00,-1023.00
2024-05-19 09:08:46.647971,7,-2,-2,-1,0,1,88,90,129,110,51,132.68,360,-21.00,16.00,-986.00
2024-05-19 09:08:46.778286,7,-1,-2,-2,0,0,88,90,127,110,51,132.75,360,-37.00,0.00,-1110.00
2024-05-19 09:08:46.851986,7,-1,-2,-4,0,0,88,90,127,110,51,132.83,360,18.00,-2.00,-1098.00
2024-05-19 09:08:46.983095,6,0,-2,-5,0,0,88,90,126,110,51,132.76,360,-19.00,22.00,-1028.00
2024-05-19 09:08:47.056224,5,0,-2,-6,0,0,88,90,126,110,51,132.85,361,-36.00,2.00,-1098.00
2024-05-19 09:08:47.187978,4,0,-2,-6,0,0,88,90,125,110,51,132.92,361,-31.00,5.00,-1025.00
2024-05-19 09:08:47.208900,4,-1,-2,-7,0,0,88,90,125,110,51,132.81,361,-6.00,16.00,-868.00
2024-05-19 09:08:47.392697,2,-1,-1,-8,0,0,88,90,125,110,51,132.83,361,77.00,0.00,-1095.00
2024-05-19 09:08:47.412897,0,-1,-1,-8,0,0,88,90,125,110,51,132.81,361,-55.00,57.00,-963.00
2024-05-19 09:08:47.597808,-1,0,-1,-7,0,0,88,90,125,110,51,132.85,361,-4.00,0.00,-957.00
2024-05-19 09:08:47.617104,-4,0,-1,-6,0,0,88,90,126,110,51,132.79,361,-31.00,3.00,-966.00
2024-05-19 09:08:47.802308,-5,0,-1,-5,0,0,88,90,126,110,51,132.72,361,-15.00,25.00,-1068.00
2024-05-19 09:08:47.820904,-3,0,-1,-4,0,0,88,90,127,110,51,132.76,361,71.00,-32.00,-995.00
2024-05-19 09:08:48.007095,-1,0,-1,-3,0,0,88,90,127,110,51,132.72,361,16.00,-11.00,-995.00
2024-05-19 09:08:48.025112,-1,0,-1,-3,0,0,88,90,127,110,51,132.79,362,-18.00,19.00,-1103.00
2024-05-19 09:08:48.211889,0,0,-1,-2,0,0,88,90,126,110,51,132.76,362,-57.00,26.00,-973.00
2024-05-19 09:08:48.228899,0,0,-1,-2,0,0,88,90,126,110,51,132.83,362,71.00,-45.00,-970.00
2024-05-19 09:08:48.420827,0,0,-1,-2,0,0,88,90,126,110,51,132.82,362,12.00,11.00,-1029.00
2024-05-19 09:08:48.433298,0,0,-1,-2,0,0,88,90,125,110,51,132.80,362,10.00,18.00,-1061.00
2024-05-19 09:08:48.621475,0,0,-1,-2,0,0,88,90,124,110,51,132.77,362,-66.00,55.00,-1025.00
2024-05-19 09:08:48.636901,0,0,-1,-2,0,0,88,90,123,110,51,132.68,362,-2.00,-22.00,-948.00
2024-05-19 09:08:48.827238,0,0,-1,-2,0,0,88,90,122,110,51,132.76,362,37.00,-6.00,-1009.00
2024-05-19 09:08:48.842521,0,0,-1,-1,0,0,88,90,122,110,50,132.79,362,17.00,7.00,-1016.00
2024-05-19 09:08:48.942914,0,0,-1,-1,0,0,88,90,121,110,50,132.79,362,-15.00,-20.00,-1002.00
2024-05-19 09:08:49.044858,0,0,-1,-1,0,0,88,90,121,110,50,132.81,363,-60.00,32.00,-1040.00
2024-05-19 09:08:49.146807,-3,0,-1,-1,0,0,88,90,121,110,50,132.81,363,-47.00,11.00,-1028.00
2024-05-19 09:08:49.338278,-3,0,-1,0,0,0,88,90,120,110,50,132.70,363,-3.00,-3.00,-992.00
2024-05-19 09:08:49.350781,-1,0,-1,0,0,0,88,90,120,110,50,132.74,363,15.00,-1.00,-972.00
2024-05-19 09:08:49.543490,0,0,-1,0,0,0,88,90,119,110,50,132.74,363,32.00,-15.00,-1000.00
2024-05-19 09:08:49.556681,0,0,-1,0,0,0,88,90,118,110,50,132.72,363,-46.00,28.00,-1002.00
2024-05-19 09:08:49.657224,0,0,-1,0,0,0,88,90,118,110,50,132.71,363,-62.00,34.00,-1053.00
2024-05-19 09:08:49.850284,0,0,-1,0,0,0,88,90,118,110,50,132.69,363,-52.00,76.00,-1084.00
2024-05-19 09:08:49.860756,0,0,-1,0,0,0,88,90,118,110,50,132.66,363,-92.00,115.00,-1000.00
2024-05-19 09:08:50.055716,0,-1,-1,0,0,0,88,90,118,110,50,132.63,363,-19.00,-5.00,-1024.00
2024-05-19 09:08:50.064884,0,0,-1,0,0,0,88,90,118,110,50,132.64,364,9.00,8.00,-1036.00
2024-05-19 09:08:50.261616,0,0,-1,0,0,0,88,90,118,110,50,132.67,364,-39.00,18.00,-1050.00
2024-05-19 09:08:50.269083,0,0,-1,0,0,0,88,90,119,110,50,132.74,364,20.00,-44.00,-1022.00
2024-05-19 09:08:50.464868,0,0,-1,0,0,0,88,90,119,110,50,132.69,364,-32.00,34.00,-1030.00
2024-05-19 09:08:50.472988,0,-1,-1,0,0,0,88,90,120,110,50,132.80,364,58.00,-67.00,-997.00
2024-05-19 09:08:50.669635,0,-1,-1,0,0,0,88,90,121,110,50,132.77,364,-85.00,92.00,-1098.00
2024-05-19 09:08:50.677632,0,-1,-1,0,0,0,88,90,121,110,50,132.69,364,12.00,-17.00,-998.00
2024-05-19 09:08:50.874417,0,-1,-1,0,0,0,88,90,122,110,50,132.71,364,-109.00,54.00,-998.00
2024-05-19 09:08:50.880949,0,0,-1,0,0,0,88,90,122,110,50,132.74,364,55.00,-63.00,-983.00
2024-05-19 09:08:51.079813,0,0,-1,0,0,0,88,90,122,110,50,132.70,364,41.00,-50.00,-924.00
2024-05-19 09:08:51.084888,0,0,-1,0,0,0,88,90,123,110,50,132.76,365,15.00,-12.00,-968.00
2024-05-19 09:08:51.135863,0,0,-1,0,0,0,88,90,122,110,50,132.81,365,17.00,26.00,-946.00
2024-05-19 09:08:51.284072,0,0,-1,0,0,0,88,90,122,110,50,132.82,365,-43.00,49.00,-1032.00
2024-05-19 09:08:51.340324,0,0,-1,0,0,0,88,90,122,110,50,132.82,365,84.00,-34.00,-1040.00
2024-05-19 09:08:51.441782,0,-1,-1,0,0,0,88,90,122,110,50,132.77,365,-3.00,66.00,-985.00
2024-05-19 09:08:51.594160,0,-5,-1,0,0,0,88,90,123,110,50,132.90,365,56.00,-54.00,-939.00
2024-05-19 09:08:51.795826,0,-8,-1,0,0,0,89,89,124,110,50,132.81,365,34.00,30.00,-949.00
2024-05-19 09:08:51.795908,0,-8,-2,0,-1,0,89,89,124,110,49,132.78,365,-30.00,63.00,-1044.00
2024-05-19 09:08:51.852468,0,-7,-2,0,-2,0,89,89,123,110,49,132.84,365,-5.00,42.00,-1055.00
2024-05-19 09:08:51.952891,0,-3,-2,0,-3,0,89,89,124,110,49,132.81,365,-28.00,72.00,-1028.00
2024-05-19 09:08:52.053807,1,-1,-2,0,-3,-1,89,89,125,110,49,132.81,366,77.00,40.00,-1064.00
2024-05-19 09:08:52.208180,2,-1,-2,0,-3,-1,89,89,126,110,49,132.84,366,33.00,34.00,-998.00
2024-05-19 09:08:52.257706,1,-1,-2,0,-2,-1,89,89,127,110,49,132.80,366,-32.00,52.00,-999.00
2024-05-19 09:08:52.410281,1,-1,-2,0,-2,0,89,89,126,120,49,132.80,366,62.00,4.00,-1014.00
2024-05-19 09:08:52.461777,2,-1,-2,0,-2,0,89,89,127,120,49,132.77,366,111.00,8.00,-999.00
2024-05-19 09:08:52.615072,2,-1,-2,0,-2,0,89,89,126,120,49,132.74,366,33.00,34.00,-901.00
2024-05-19 09:08:52.665706,2,0,-2,0,-2,0,88,89,125,110,49,132.76,366,-75.00,71.00,-1017.00
2024-05-19 09:08:52.819809,2,0,-2,0,-2,0,88,89,125,110,49,132.73,366,-60.00,37.00,-991.00
2024-05-19 09:08:52.869647,3,0,-2,0,-2,0,88,89,124,110,49,132.84,366,1.00,39.00,-1007.00
2024-05-19 09:08:53.025768,2,0,-2,0,-2,0,88,89,123,110,49,132.76,366,72.00,26.00,-1100.00
2024-05-19 09:08:53.073694,2,0,-2,0,-2,0,88,89,122,110,49,132.73,367,76.00,-17.00,-939.00
2024-05-19 09:08:53.229482,2,0,-2,0,-2,0,88,89,122,110,49,132.78,367,34.00,23.00,-1106.00
2024-05-19 09:08:53.277646,1,0,-2,-1,-2,0,88,89,120,110,49,132.75,367,-54.00,29.00,-1015.00
2024-05-19 09:08:53.434198,-1,0,-2,-1,-2,0,88,89,118,110,49,132.71,367,41.00,22.00,-942.00
2024-05-19 09:08:53.481659,-2,-1,-2,0,-2,0,88,89,117,110,49,132.70,367,29.00,-9.00,-1159.00
2024-05-19 09:08:53.639133,0,4,-2,0,-2,0,88,89,116,110,49,132.67,367,-1.00,48.00,-985.00
2024-05-19 09:08:53.685803,0,3,-2,0,0,0,88,90,114,110,49,132.71,367,-95.00,41.00,-1065.00
2024-05-19 09:08:53.844669,0,0,-2,0,0,0,88,90,112,110,48,132.74,367,0.00,36.00,-1088.00
2024-05-19 09:08:53.889806,0,0,-2,0,0,0,88,90,111,110,48,132.66,367,-51.00,30.00,-932.00
2024-05-19 09:08:54.048871,0,0,-2,0,0,0,88,90,110,110,48,132.73,367,-18.00,48.00,-958.00
2024-05-19 09:08:54.093816,0,0,-2,0,0,0,88,90,110,100,48,132.67,368,23.00,46.00,-1100.00
2024-05-19 09:08:54.253614,0,0,-2,0,0,0,88,90,109,100,48,132.76,368,20.00,-5.00,-1085.00
2024-05-19 09:08:54.297692,0,0,-2,0,0,0,88,90,109,100,48,132.71,368,-23.00,0.00,-989.00
2024-05-19 09:08:54.458669,1,0,-2,0,0,0,88,90,110,100,48,132.71,368,67.00,-2.00,-1011.00
2024-05-19 09:08:54.501856,1,0,-2,0,0,0,88,90,110,100,48,132.75,368,-29.00,27.00,-1117.00
2024-05-19 09:08:54.603733,1,0,-2,0,0,0,88,90,111,100,48,132.71,368,-11.00,53.00,-991.00
2024-05-19 09:08:54.705710,0,0,-2,0,0,0,87,89,112,100,48,132.77,368,-12.00,58.00,-1003.00
2024-05-19 09:08:54.868024,0,0,-2,0,0,0,87,89,113,110,48,132.72,368,21.00,5.00,-981.00
2024-05-19 09:08:54.909754,0,0,-2,0,0,0,87,89,113,110,48,132.78,368,20.00,31.00,-953.00
2024-05-19 09:08:55.072834,1,0,-2,0,0,0,87,89,114,110,48,132.84,368,5.00,10.00,-1030.00
2024-05-19 09:08:55.113632,1,0,-2,0,0,0,87,89,115,110,48,132.83,369,-9.00,21.00,-928.00
2024-05-19 09:08:55.278476,1,-1,-2,0,0,0,87,89,116,110,48,132.81,369,-17.00,16.00,-902.00
2024-05-19 09:08:55.317676,0,0,-2,0,0,0,87,89,116,110,48,132.76,369,-4.00,-3.00,-940.00
2024-05-19 09:08:55.482464,0,0,-2,0,0,0,87,89,117,110,48,132.80,369,32.00,-12.00,-1040.00
2024-05-19 09:08:55.521791,0,0,-2,0,0,0,87,89,117,110,48,132.84,369,-44.00,14.00,-1122.00
2024-05-19 09:08:55.687434,0,-1,-1,0,0,0,87,89,118,110,48,132.87,369,69.00,-5.00,-978.00
2024-05-19 09:08:55.725632,0,-1,-1,0,0,0,88,89,119,110,48,132.87,369,45.00,-19.00,-1024.00
2024-05-19 09:08:55.891853,0,0,-2,0,0,0,88,89,119,110,48,132.82,369,9.00,36.00,-997.00
2024-05-19 09:08:55.929580,0,0,-1,0,0,0,88,89,120,110,48,132.87,369,-78.00,48.00,-952.00
2024-05-19 09:08:56.096696,0,5,-1,0,1,0,88,89,121,110,48,132.83,369,44.00,49.00,-1041.00
2024-05-19 09:08:56.133656,0,5,-1,0,2,0,88,89,122,110,48,132.82,370,-49.00,28.00,-1056.00
2024-05-19 09:08:56.184528,0,3,-1,0,3,0,88,89,121,110,48,132.84,370,12.00,13.00,-995.00
2024-05-19 09:08:56.301482,0,1,-1,0,3,0,88,89,121,110,48,132.93,370,-75.00,29.00,-979.00
2024-05-19 09:08:56.388522,0,-1,-1,0,3,0,88,89,122,110,48,132.89,370,-9.00,16.00,-1055.00
2024-05-19 09:08:56.506494,0,-2,-1,0,3,0,88,89,122,110,48,132.85,370,-69.00,56.00,-1041.00
2024-05-19 09:08:56.592406,1,-1,-1,0,3,0,88,89,122,110,48,132.87,370,4.00,15.00,-978.00
2024-05-19 09:08:56.694507,1,-1,-1,0,2,0,88,90,122,110,48,132.82,370,18.00,18.00,-945.00
2024-05-19 09:08:56.813757,1,-1,-1,0,2,0,88,90,122,110,48,132.87,370,31.00,13.00,-995.00
2024-05-19 09:08:56.898695,0,-1,-1,0,2,0,88,90,123,110,48,132.80,370,88.00,-3.00,-982.00
2024-05-19 09:08:57.018275,0,0,-1,0,2,0,88,90,123,110,48,132.84,370,124.00,-24.00,-969.00
2024-05-19 09:08:57.102736,0,-1,-1,0,2,0,88,90,122,110,48,132.85,371,32.00,7.00,-1022.00
2024-05-19 09:08:57.223069,0,0,-1,0,2,0,88,90,123,110,48,132.80,371,42.00,-10.00,-949.00
2024-05-19 09:08:57.307697,0,-1,-1,0,2,0,88,90,123,110,48,132.87,371,-4.00,15.00,-1016.00
2024-05-19 09:08:57.427878,0,0,-1,0,2,0,88,90,123,110,48,132.85,371,74.00,-2.00,-1011.00
2024-05-19 09:08:57.512285,1,-1,-1,0,2,0,88,90,123,110,48,132.93,371,-13.00,13.00,-1000.00
2024-05-19 09:08:57.612651,1,-2,-1,0,2,0,88,90,123,110,48,132.89,371,3.00,30.00,-1038.00
2024-05-19 09:08:57.716587,0,-3,-1,0,1,0,87,90,122,110,48,132.90,371,60.00,15.00,-1000.00
2024-05-19 09:08:57.817051,0,-5,-1,0,1,0,87,90,123,110,47,132.83,371,111.00,-39.00,-931.00
2024-05-19 09:08:57.919573,0,-3,-1,0,0,0,87,90,123,110,47,132.93,371,36.00,31.00,-1040.00
2024-05-19 09:08:58.021910,2,-1,-2,0,0,0,87,90,124,110,47,132.86,371,-34.00,50.00,-1072.00
2024-05-19 09:08:58.124911,6,-1,-2,0,0,0,87,90,125,110,47,132.84,372,110.00,-15.00,-973.00
2024-05-19 09:08:58.227852,5,-1,-2,0,0,0,87,90,125,110,47,132.87,372,66.00,-7.00,-951.00
2024-05-19 09:08:58.328393,2,-1,-2,-1,0,0,87,90,124,110,47,132.88,372,18.00,25.00,-1040.00
2024-05-19 09:08:58.429847,-3,0,-2,-1,0,0,87,90,125,110,47,132.83,372,4.00,7.00,-950.00
2024-05-19 09:08:58.531548,0,-1,-2,0,0,0,87,90,125,110,47,132.94,372,71.00,7.00,-963.00
2024-05-19 09:08:58.656853,0,0,-2,0,0,0,87,90,126,110,47,132.85,372,64.00,23.00,-954.00
2024-05-19 09:08:58.735725,1,-1,-2,0,0,0,88,90,128,110,47,132.91,372,-36.00,41.00,-1087.00
2024-05-19 09:08:58.862152,0,-1,-2,0,0,0,88,90,130,110,47,132.96,372,0.00,13.00,-1069.00
2024-05-19 09:08:58.940019,0,-1,-2,0,0,0,88,90,131,110,47,132.90,372,39.00,32.00,-999.00
2024-05-19 09:08:59.066664,0,-1,-2,0,0,0,88,90,133,120,47,132.96,373,-17.00,26.00,-948.00
2024-05-19 09:08:59.143514,1,0,-2,0,0,-1,88,90,136,120,47,132.95,373,14.00,39.00,-1067.00
2024-05-19 09:08:59.271234,0,-1,-2,0,0,-1,88,90,137,120,47,132.98,373,-8.00,22.00,-938.00
2024-05-19 09:08:59.347705,0,0,-2,0,0,0,88,90,138,120,47,133.04,373,44.00,26.00,-837.00
2024-05-19 09:08:59.476016,0,-1,-2,0,0,0,88,90,138,120,47,133.00,373,4.00,26.00,-1044.00
2024-05-19 09:08:59.551665,0,-2,-2,0,0,0,88,90,138,120,47,132.97,373,36.00,8.00,-972.00
2024-05-19 09:08:59.653661,0,-2,-2,0,0,0,88,90,138,120,47,132.94,373,-15.00,75.00,-957.00
2024-05-19 09:08:59.783499,0,-2,-2,0,0,0,88,90,137,120,47,132.97,373,-11.00,41.00,-905.00
2024-05-19 09:08:59.857506,0,-2,-2,0,0,1,88,90,136,120,47,132.97,373,41.00,22.00,-942.00
2024-05-19 09:08:59.988601,0,-2,-2,0,0,1,88,90,134,120,47,132.93,373,-13.00,56.00,-1067.00
2024-05-19 09:09:00.010458,0,-2,-2,0,0,1,88,90,132,120,47,132.95,374,50.00,25.00,-995.00
2024-05-19 09:09:00.112467,0,-2,-2,0,0,0,88,90,132,120,47,132.92,374,-60.00,78.00,-1017.00
2024-05-19 09:09:00.228874,0,-1,-2,0,0,0,88,90,131,120,47,132.98,374,-17.00,69.00,-921.00
2024-05-19 09:09:00.316678,0,-1,-2,0,0,0,88,90,130,110,47,133.00,374,72.00,39.00,-1005.00
2024-05-19 09:09:00.499837,0,-1,2,0,0,0,88,90,130,110,47,132.98,374,-21.00,21.00,-1080.00
2024-05-19 09:09:00.520570,0,-1,7,0,0,0,88,90,130,110,47,132.95,374,2.00,25.00,-1004.00
2024-05-19 09:09:00.636971,0,-1,12,0,0,0,88,90,130,110,47,132.89,374,-18.00,54.00,-1051.00
2024-05-19 09:09:00.724344,0,-1,17,0,0,0,88,90,130,110,47,132.95,374,29.00,34.00,-1033.00
2024-05-19 09:09:00.909451,0,-2,23,0,0,0,88,90,129,110,47,132.88,374,-10.00,34.00,-1063.00
2024-05-19 09:09:00.928346,0,-2,28,0,0,0,88,90,130,110,47,132.91,374,5.00,28.00,-1031.00
2024-05-19 09:09:01.114612,0,-2,33,0,0,0,88,90,130,120,47,132.86,375,51.00,65.00,-966.00
2024-05-19 09:09:01.132326,0,-2,39,0,0,0,88,90,129,120,47,132.89,375,64.00,18.00,-1003.00
2024-05-19 09:09:01.319046,0,-3,44,0,0,0,88,90,128,120,47,132.88,375,-19.00,34.00,-1020.00
2024-05-19 09:09:01.336319,1,-3,50,0,0,0,88,90,128,120,47,132.98,375,9.00,61.00,-974.00
2024-05-19 09:09:01.523852,1,-2,56,0,0,0,88,90,127,120,47,132.86,375,78.00,46.00,-988.00
2024-05-19 09:09:01.540260,1,-2,61,0,0,0,88,90,126,110,47,132.90,375,46.00,15.00,-1063.00
2024-05-19 09:09:01.728625,1,-1,67,0,0,0,88,90,126,110,47,132.85,375,79.00,49.00,-945.00
2024-05-19 09:09:01.744268,1,-1,73,0,0,0,87,89,125,110,47,132.89,375,6.00,77.00,-1054.00
2024-05-19 09:09:01.933412,2,-1,79,0,0,0,87,89,124,110,47,132.85,375,19.00,8.00,-988.00
2024-05-19 09:09:01.948272,2,-1,85,0,0,0,87,89,124,110,47,132.82,375,37.00,48.00,-1047.00
2024-05-19 09:09:02.138673,2,-1,90,0,0,0,87,89,123,110,47,132.80,376,1.00,33.00,-1147.00
2024-05-19 09:09:02.152297,2,0,96,0,0,0,87,89,122,110,47,132.82,376,-2.00,-2.00,-978.00
2024-05-19 09:09:02.343023,2,0,102,0,0,0,87,89,122,110,47,132.89,376,33.00,9.00,-945.00
2024-05-19 09:09:02.356277,2,0,108,0,0,0,87,89,122,110,47,132.84,376,100.00,-46.00,-1004.00
2024-05-19 09:09:02.547852,2,0,113,0,0,0,87,89,122,110,47,132.87,376,78.00,-18.00,-1054.00
2024-05-19 09:09:02.560266,2,0,119,0,0,0,87,89,123,110,47,132.82,376,76.00,-55.00,-1011.00
2024-05-19 09:09:02.752661,2,1,124,0,0,0,87,89,123,110,47,132.81,376,59.00,0.00,-1085.00
2024-05-19 09:09:02.764172,2,1,130,0,0,0,87,90,123,110,47,132.84,376,85.00,-16.00,-998.00
2024-05-19 09:09:02.957769,2,1,135,0,0,0,87,90,124,110,47,132.91,376,36.00,-37.00,-1004.00
2024-05-19 09:09:02.968249,2,1,140,0,0,0,87,90,125,110,47,132.85,376,20.00,-8.00,-1042.00
2024-05-19 09:09:03.162659,1,1,146,0,0,0,87,90,125,110,47,132.86,377,30.00,6.00,-964.00
2024-05-19 09:09:03.173214,1,1,151,0,0,0,87,90,126,110,47,132.85,377,61.00,-47.00,-1040.00
2024-05-19 09:09:03.367041,2,1,157,0,0,0,87,90,126,110,47,132.92,377,55.00,-22.00,-923.00
2024-05-19 09:09:03.377217,2,1,163,0,0,0,87,90,127,110,47,132.89,377,48.00,6.00,-963.00
2024-05-19 09:09:03.571824,1,1,170,0,0,0,87,90,127,110,47,132.97,377,12.00,-26.00,-965.00
2024-05-19 09:09:03.571914,1,1,176,0,0,0,87,90,128,110,47,132.96,377,81.00,-33.00,-1022.00
2024-05-19 09:09:03.632260,0,1,-177,0,0,0,87,90,128,110,47,132.92,377,-30.00,-43.00,-974.00
2024-05-19 09:09:03.785228,0,1,-171,0,0,0,87,90,128,110,47,132.98,377,1.00,1.00,-1011.00
2024-05-19 09:09:03.836323,0,0,-165,0,0,0,87,90,129,110,46,132.97,377,-50.00,-20.00,-954.00
2024-05-19 09:09:03.938334,0,1,-159,0,0,0,87,90,131,110,46,132.97,377,9.00,-41.00,-1019.00
2024-05-19 09:09:04.083829,0,1,-152,0,0,0,87,90,131,110,46,133.03,378,-9.00,-9.00,-932.00
2024-05-19 09:09:04.142179,0,1,-146,0,0,0,87,90,131,110,46,133.00,378,-39.00,-18.00,-954.00
2024-05-19 09:09:04.288670,0,2,-140,0,0,0,87,90,133,120,46,133.01,378,25.00,-53.00,-1021.00
2024-05-19 09:09:04.346144,-1,2,-134,0,0,0,87,90,133,120,46,132.99,378,-20.00,-17.00,-940.00
2024-05-19 09:09:04.493435,-1,2,-128,0,0,0,87,90,133,120,46,132.98,378,27.00,0.00,-940.00
2024-05-19 09:09:04.550079,-1,1,-122,0,0,0,87,90,133,120,46,133.02,378,-80.00,-21.00,-1031.00
2024-05-19 09:09:04.698231,-2,1,-116,0,0,0,87,90,134,120,46,132.98,378,-61.00,-5.00,-1011.00
2024-05-19 09:09:04.754417,-2,1,-110,0,0,0,88,89,134,120,46,132.94,378,-64.00,6.00,-1021.00
2024-05-19 09:09:04.903014,-2,1,-104,0,0,0,88,89,134,120,46,132.95,378,-55.00,-28.00,-984.00
2024-05-19 09:09:04.958336,-2,0,-99,0,0,0,88,89,134,120,46,132.92,378,-21.00,-45.00,-1037.00
2024-05-19 09:09:05.108100,-2,0,-93,0,0,0,88,89,134,120,46,132.84,379,-83.00,-7.00,-1033.00
2024-05-19 09:09:05.163192,-2,1,-87,0,0,0,88,89,134,120,46,132.89,379,-54.00,5.00,-966.00
2024-05-19 09:09:05.314764,-2,1,-81,0,0,0,88,89,134,120,46,132.83,379,-12.00,-26.00,-1083.00
2024-05-19 09:09:05.367708,-2,0,-76,0,0,0,88,89,133,120,46,132.76,379,-75.00,22.00,-1034.00
2024-05-19 09:09:05.517416,-2,0,-70,0,0,0,88,89,133,120,46,132.79,379,-60.00,-10.00,-950.00
2024-05-19 09:09:05.573603,-3,0,-65,0,0,0,88,89,133,120,46,132.90,379,-43.00,-18.00,-1068.00
2024-05-19 09:09:05.674000,-3,0,-59,0,0,0,88,89,132,120,46,132.86,379,-34.00,4.00,-1000.00
2024-05-19 09:09:05.775087,-3,0,-53,0,0,0,87,90,132,120,46,132.94,379,-61.00,-2.00,-949.00
2024-05-19 09:09:05.927011,-3,0,-48,0,0,0,87,90,132,120,46,132.94,379,-83.00,-24.00,-1061.00
2024-05-19 09:09:05.979165,-3,0,-42,0,0,0,87,90,131,120,46,132.98,379,-70.00,-11.00,-1052.00
2024-05-19 09:09:06.133239,-3,0,-37,0,0,0,87,90,131,120,46,132.95,380,-48.00,-2.00,-993.00
2024-05-19 09:09:06.184601,-3,0,-31,0,0,0,87,90,130,120,46,132.87,380,-14.00,32.00,-959.00
2024-05-19 09:09:06.285323,-3,0,-25,0,0,0,87,90,129,120,46,132.91,380,-46.00,32.00,-990.00
2024-05-19 09:09:06.439340,-3,0,-19,0,0,0,87,90,129,120,46,132.87,380,9.00,19.00,-998.00
2024-05-19 09:09:06.489210,-2,0,-15,0,0,0,87,90,129,120,46,132.91,380,-14.00,10.00,-963.00
2024-05-19 09:09:06.641058,-2,-1,-12,0,0,0,87,90,128,110,46,132.97,380,1.00,34.00,-981.00
2024-05-19 09:09:06.693231,-2,0,-9,0,0,0,87,90,127,110,46,132.97,380,-37.00,17.00,-1042.00
2024-05-19 09:09:06.848620,-2,-1,-8,0,0,0,87,91,127,110,46,132.89,380,-52.00,23.00,-1037.00
2024-05-19 09:09:06.897105,-2,-1,-7,0,0,0,87,91,126,110,46,132.86,380,-50.00,22.00,-1035.00
2024-05-19 09:09:07.053420,-2,0,-6,0,0,0,87,91,125,110,46,132.90,380,-72.00,7.00,-1069.00
2024-05-19 09:09:07.101235,-2,0,-6,0,0,0,87,91,125,110,46,132.78,381,-94.00,15.00,-1043.00
2024-05-19 09:09:07.262085,-2,0,-5,0,0,0,87,91,123,110,46,132.92,381,-67.00,-11.00,-1021.00
2024-05-19 09:09:07.305969,-2,0,-4,0,0,0,87,91,123,110,46,132.90,381,-85.00,16.00,-1030.00
2024-05-19 09:09:07.463612,-2,0,-4,0,0,0,87,91,122,110,46,132.90,381,-57.00,46.00,-1090.00
2024-05-19 09:09:07.510046,-2,0,-3,0,0,0,87,91,122,110,46,132.90,381,-35.00,8.00,-986.00
2024-05-19 09:09:07.667954,-2,-1,-3,0,0,0,87,91,122,110,46,132.93,381,2.00,3.00,-1019.00
2024-05-19 09:09:07.714064,-2,-1,-3,0,0,0,87,91,121,110,46,132.94,381,-11.00,20.00,-911.00
2024-05-19 09:09:07.873076,-1,0,-2,0,0,0,87,90,121,110,45,132.92,381,-49.00,37.00,-984.00
2024-05-19 09:09:07.918346,-2,-1,-2,0,0,0,87,90,121,110,45,132.90,381,36.00,10.00,-1025.00
2024-05-19 09:09:08.077590,-1,-1,-2,0,0,0,87,90,121,110,45,132.87,381,-45.00,17.00,-1058.00
2024-05-19 09:09:08.077842,-1,0,-1,0,0,0,87,90,121,110,45,132.92,382,-43.00,42.00,-975.00
2024-05-19 09:09:08.173146,-1,-1,-1,0,0,0,87,90,121,110,45,132.94,382,-38.00,47.00,-1034.00
2024-05-19 09:09:08.282394,-1,0,-2,0,0,0,87,90,121,110,45,132.87,382,-32.00,-3.00,-1023.00
2024-05-19 09:09:08.377552,-1,-1,-2,0,0,0,87,90,121,110,45,132.81,382,-64.00,2.00,-1079.00
2024-05-19 09:09:08.487193,-1,-1,-2,0,0,0,87,90,122,110,45,132.85,382,-43.00,17.00,-1025.00
2024-05-19 09:09:08.581159,-1,-1,-2,0,0,0,87,90,122,110,45,132.91,382,-17.00,29.00,-1006.00
2024-05-19 09:09:08.691976,-1,-2,-2,0,0,0,87,90,123,110,45,132.90,382,-20.00,17.00,-994.00
2024-05-19 09:09:08.785180,0,-1,-2,0,0,0,88,89,124,110,45,132.84,382,-11.00,20.00,-1033.00
2024-05-19 09:09:08.896711,-1,-1,-2,0,0,0,88,89,125,110,45,132.94,382,-21.00,28.00,-1031.00
2024-05-19 09:09:08.989256,-1,-2,-1,0,0,0,88,89,125,110,45,132.97,382,19.00,21.00,-1045.00
2024-05-19 09:09:09.101932,-1,-2,-1,0,0,0,88,89,125,110,45,132.95,383,-79.00,45.00,-974.00
2024-05-19 09:09:09.193195,-1,-2,-1,0,0,0,88,89,126,110,45,132.98,383,-23.00,43.00,-1045.00
2024-05-19 09:09:09.306315,-1,-2,-2,0,0,0,88,89,126,110,45,133.00,383,-67.00,54.00,-953.00
2024-05-19 09:09:09.397080,-1,-2,-2,0,0,0,88,89,126,110,45,132.90,383,53.00,11.00,-941.00
2024-05-19 09:09:09.511060,-1,-2,-3,0,0,0,88,89,126,110,45,132.96,383,-91.00,84.00,-1051.00
2024-05-19 09:09:09.601458,-1,-2,-8,0,0,0,88,89,126,110,45,132.95,383,-5.00,32.00,-1034.00
2024-05-19 09:09:09.703053,0,-1,-13,0,0,0,88,89,126,110,45,132.98,383,-84.00,49.00,-992.00
2024-05-19 09:09:09.818651,-1,-1,-18,0,0,0,87,89,126,110,45,133.04,383,16.00,21.00,-1002.00
2024-05-19 09:09:09.910162,-2,-1,-24,0,0,0,87,89,127,110,45,132.97,383,35.00,15.00,-930.00
2024-05-19 09:09:10.009043,-2,-1,-29,0,0,0,87,89,127,110,45,133.02,383,40.00,6.00,-1087.00
2024-05-19 09:09:10.111292,0,-2,-35,1,0,0,87,89,128,110,45,132.97,384,-8.00,42.00,-1012.00
2024-05-19 09:09:10.227874,0,-2,-41,0,0,0,87,89,129,110,45,133.03,384,-41.00,49.00,-981.00
2024-05-19 09:09:10.315612,0,-2,-47,0,0,0,87,89,130,110,45,132.99,384,-44.00,45.00,-976.00
2024-05-19 09:09:10.432876,-1,-2,-53,0,0,0,87,89,130,110,45,133.05,384,-58.00,37.00,-978.00
2024-05-19 09:09:10.518967,0,-2,-58,0,0,0,87,89,131,110,45,132.94,384,-5.00,46.00,-1043.00
2024-05-19 09:09:10.637459,-1,-2,-64,0,0,0,87,89,132,110,45,132.97,384,-14.00,-5.00,-1006.00
2024-05-19 09:09:10.723882,-1,-1,-70,0,0,0,87,89,132,110,45,132.91,384,38.00,-18.00,-997.00
2024-05-19 09:09:10.842259,-1,-1,-76,0,0,0,88,89,133,110,45,132.96,384,-46.00,29.00,-971.00
2024-05-19 09:09:10.927067,-1,0,-82,0,0,0,88,89,133,120,45,133.00,384,12.00,0.00,-960.00
2024-05-19 09:09:11.047071,-1,0,-87,0,0,0,88,89,133,120,45,133.03,384,-82.00,34.00,-990.00
2024-05-19 09:09:11.131303,-1,0,-93,0,0,0,88,89,134,120,45,132.98,385,-71.00,8.00,-1028.00
2024-05-19 09:09:11.251860,-2,0,-99,0,0,0,88,89,133,120,45,132.98,385,-36.00,2.00,-1012.00
2024-05-19 09:09:11.336499,-1,0,-105,0,0,0,88,89,133,120,45,132.95,385,10.00,-20.00,-1020.00
2024-05-19 09:09:11.385935,-1,0,-111,0,0,0,88,89,133,120,45,132.92,385,-18.00,7.00,-1026.00
2024-05-19 09:09:11.559068,-1,1,-117,0,0,0,88,89,132,120,45,132.92,385,2.00,-30.00,-981.00
2024-05-19 09:09:11.589912,-2,1,-123,0,0,0,88,89,131,120,45,132.91,385,-11.00,-32.00,-1024.00
2024-05-19 09:09:11.763849,-1,1,-129,0,0,0,88,89,130,120,45,132.94,385,1.00,-4.00,-1090.00
2024-05-19 09:09:11.793905,-1,0,-135,0,0,0,87,90,130,120,45,133.05,385,-46.00,23.00,-891.00
2024-05-19 09:09:11.968520,-1,1,-140,0,0,0,87,90,128,110,45,132.97,385,-9.00,5.00,-957.00
2024-05-19 09:09:11.998078,-2,0,-146,0,0,0,87,90,128,110,45,132.99,385,-20.00,-27.00,-1063.00
2024-05-19 09:09:12.100852,0,0,-151,0,0,0,87,90,127,110,45,132.98,386,48.00,-31.00,-999.00
2024-05-19 09:09:12.275751,0,1,-157,0,0,0,87,90,128,110,45,132.92,386,-76.00,3.00,-1093.00
2024-05-19 09:09:12.303743,0,0,-163,0,0,0,87,90,127,110,45,132.97,386,25.00,-34.00,-1025.00
2024-05-19 09:09:12.480693,-1,1,-169,0,0,0,87,90,127,110,45,133.02,386,-31.00,12.00,-949.00
2024-05-19 09:09:12.507874,-1,1,-175,0,0,0,87,90,127,110,45,133.01,386,81.00,-19.00,-976.00
2024-05-19 09:09:12.648215,-1,1,178,0,0,0,87,90,127,110,45,132.99,386,-19.00,-4.00,-1014.00
2024-05-19 09:09:12.711859,0,1,171,0,0,0,87,90,126,110,45,132.99,386,-15.00,-10.00,-1088.00
2024-05-19 09:09:12.891993,1,0,159,0,0,0,87,90,127,110,45,132.96,386,-32.00,-37.00,-1067.00
2024-05-19 09:09:12.915730,1,0,154,0,0,0,87,90,126,110,45,132.96,386,-73.00,23.00,-1030.00
2024-05-19 09:09:13.095068,0,0,148,0,0,0,87,90,124,110,45,132.92,387,13.00,19.00,-993.00
2024-05-19 09:09:13.119750,0,0,142,0,0,0,87,90,125,110,45,132.90,387,32.00,-2.00,-1019.00
2024-05-19 09:09:13.302769,1,0,136,0,0,0,87,90,125,110,45,133.00,387,-7.00,1.00,-899.00
2024-05-19 09:09:13.323746,0,0,131,0,0,0,87,90,125,110,45,132.95,387,26.00,-5.00,-1073.00
2024-05-19 09:09:13.504933,2,0,125,0,0,0,87,90,126,110,45,132.86,387,52.00,10.00,-1035.00
2024-05-19 09:09:13.527832,3,0,119,0,0,0,87,90,126,110,45,132.98,387,91.00,-29.00,-1018.00
2024-05-19 09:09:13.709788,3,0,114,0,0,0,87,90,126,110,45,132.97,387,116.00,-25.00,-1015.00
2024-05-19 09:09:13.731847,3,0,108,0,0,0,87,90,127,110,45,132.98,387,70.00,-5.00,-919.00
2024-05-19 09:09:13.914571,3,0,102,0,0,0,88,90,127,110,44,132.94,387,-6.00,43.00,-902.00
2024-05-19 09:09:13.935860,3,0,97,0,0,0,88,90,129,110,44,133.01,387,115.00,-8.00,-1000.00
2024-05-19 09:09:14.119032,3,0,91,0,0,0,88,90,128,110,44,133.02,388,79.00,6.00,-981.00
2024-05-19 09:09:14.139924,2,0,85,0,0,0,88,90,128,110,44,132.99,388,76.00,10.00,-889.00
2024-05-19 09:09:14.323863,2,0,79,0,0,0,88,90,127,110,44,132.99,388,87.00,32.00,-1030.00
2024-05-19 09:09:14.343778,2,0,73,0,0,0,88,90,127,110,44,132.99,388,-21.00,36.00,-1028.00
2024-05-19 09:09:14.528662,1,0,67,0,0,0,88,90,127,110,44,133.00,388,-12.00,30.00,-1017.00
2024-05-19 09:09:14.547561,0,0,60,0,0,0,88,90,127,110,44,132.93,388,-16.00,32.00,-1041.00
2024-05-19 09:09:14.733453,0,0,54,0,0,0,88,90,127,110,44,132.96,388,-13.00,65.00,-1006.00
2024-05-19 09:09:14.751767,1,0,47,0,0,0,88,90,127,110,44,132.98,388,-27.00,56.00,-1039.00
2024-05-19 09:09:14.938281,2,-1,40,0,0,0,88,90,127,110,44,132.99,388,13.00,50.00,-965.00
2024-05-19 09:09:14.955770,2,-1,34,0,0,0,88,90,129,110,44,133.01,388,51.00,29.00,-1064.00
2024-05-19 09:09:15.143054,2,-2,27,0,0,0,88,90,129,110,44,132.99,389,-62.00,47.00,-1001.00
2024-05-19 09:09:15.159747,2,-2,20,0,0,0,88,90,129,110,44,132.99,389,23.00,38.00,-1019.00
2024-05-19 09:09:15.347887,2,-3,14,0,0,0,88,90,129,110,44,133.00,389,-29.00,26.00,-978.00
2024-05-19 09:09:15.363820,1,-3,9,0,0,0,88,90,129,110,44,132.99,389,-8.00,28.00,-1021.00
2024-05-19 09:09:15.414725,0,-2,6,0,0,0,88,90,130,110,44,132.96,389,-4.00,45.00,-996.00
2024-05-19 09:09:15.552660,0,-2,3,0,0,0,88,90,130,110,44,132.96,389,-7.00,0.00,-1021.00
2024-05-19 09:09:15.618721,0,-2,1,0,0,0,88,90,130,110,44,132.97,389,-1.00,45.00,-983.00
2024-05-19 09:09:15.720994,0,-2,0,0,0,0,88,90,130,110,44,133.03,389,-39.00,51.00,-1032.00
2024-05-19 09:09:15.873730,0,-1,-1,-1,0,0,88,90,131,110,44,133.02,389,-14.00,46.00,-1008.00
2024-05-19 09:09:16.064834,0,-1,-1,-1,0,0,88,90,131,110,44,133.02,389,-14.00,37.00,-978.00
2024-05-19 09:09:16.077839,0,-1,-2,-1,0,0,88,90,132,110,44,133.12,390,-47.00,37.00,-1002.00
2024-05-19 09:09:16.128743,-1,-1,-1,-1,0,0,88,90,132,110,44,133.12,390,4.00,33.00,-1025.00
2024-05-19 09:09:16.270350,-1,0,-1,-1,0,0,88,90,132,120,44,133.06,390,-29.00,54.00,-1049.00
2024-05-19 09:09:16.332789,-1,0,-1,-1,0,0,88,90,132,120,44,133.05,390,-65.00,87.00,-971.00
2024-05-19 09:09:16.474330,-1,-1,-1,0,0,0,88,90,132,120,44,133.13,390,-22.00,51.00,-840.00
2024-05-19 09:09:16.536892,-1,-1,-1,0,0,0,88,90,132,120,44,133.06,390,-41.00,29.00,-986.00
2024-05-19 09:09:16.679664,0,-1,-1,0,0,0,88,90,131,120,44,133.00,390,7.00,35.00,-930.00
2024-05-19 09:09:16.740782,0,-1,-2,0,0,0,88,90,131,120,44,133.06,390,16.00,39.00,-1062.00
2024-05-19 09:09:16.883952,0,-1,-2,0,0,0,87,89,131,110,44,133.07,390,-8.00,29.00,-997.00
2024-05-19 09:09:16.944708,0,-2,-2,0,0,0,87,89,130,110,44,133.09,390,-52.00,30.00,-1094.00
2024-05-19 09:09:17.051552,0,-1,-1,0,0,0,87,89,130,110,44,133.08,391,-54.00,40.00,-1052.00
2024-05-19 09:09:17.149734,0,-1,-1,0,0,0,87,89,130,110,44,133.02,391,4.00,35.00,-974.00
2024-05-19 09:09:17.293514,0,-1,-1,0,0,0,87,89,131,110,44,133.10,391,22.00,24.00,-1106.00
2024-05-19 09:09:17.353875,0,-1,-1,0,0,0,87,89,131,110,44,133.06,391,-16.00,31.00,-931.00
2024-05-19 09:09:17.498260,0,-1,-1,0,0,0,87,89,131,110,44,132.97,391,8.00,45.00,-951.00
2024-05-19 09:09:17.557828,0,-1,-1,0,0,0,87,89,131,110,44,133.11,391,-62.00,57.00,-1049.00
2024-05-19 09:09:17.703501,0,-1,-1,0,0,0,87,89,131,120,44,133.10,391,-48.00,36.00,-1061.00
2024-05-19 09:09:17.761947,-1,-1,-1,0,0,0,87,89,130,120,44,133.10,391,-16.00,35.00,-1044.00
2024-05-19 09:09:17.907767,-1,-1,-1,0,0,0,88,89,130,120,44,133.10,391,-17.00,24.00,-1022.00
2024-05-19 09:09:17.965707,-1,-1,-1,0,0,0,88,89,130,120,44,133.11,391,6.00,14.00,-996.00
2024-05-19 09:09:18.112807,-1,-1,-1,0,0,0,88,89,130,110,44,133.07,392,40.00,17.00,-1089.00
2024-05-19 09:09:18.169778,0,-1,-1,0,0,0,88,89,129,120,44,133.07,392,-9.00,38.00,-983.00
2024-05-19 09:09:18.317472,0,-1,-1,0,0,0,88,89,129,110,44,133.11,392,-2.00,57.00,-998.00
2024-05-19 09:09:18.373755,0,-2,-1,0,0,0,88,89,127,110,44,133.08,392,-60.00,47.00,-996.00
2024-05-19 09:09:18.522318,0,-2,-1,0,0,0,88,89,126,110,44,133.08,392,-25.00,52.00,-1005.00
2024-05-19 09:09:18.578103,0,-2,-1,0,0,0,88,89,125,110,44,132.98,392,50.00,32.00,-1036.00
2024-05-19 09:09:18.681265,0,-2,-1,0,0,0,88,89,124,110,44,133.02,392,7.00,23.00,-975.00
2024-05-19 09:09:18.781930,0,-2,-1,0,0,0,88,89,123,110,44,133.05,392,-52.00,79.00,-1073.00
2024-05-19 09:09:18.883801,0,-2,-1,0,0,0,88,89,123,110,43,133.02,392,22.00,63.00,-983.00
2024-05-19 09:09:19.034577,0,-2,-1,0,0,0,88,89,123,110,43,133.04,392,76.00,3.00,-992.00
2024-05-19 09:09:19.087777,1,-2,-1,0,0,0,88,89,122,110,43,133.01,393,-27.00,51.00,-942.00
2024-05-19 09:09:19.239458,1,-2,-1,0,0,0,88,89,122,110,43,132.98,393,-19.00,63.00,-1001.00
2024-05-19 09:09:19.295660,1,-2,-1,0,0,0,88,89,123,110,43,133.06,393,10.00,36.00,-999.00
2024-05-19 09:09:19.394609,1,-2,-1,0,0,0,88,89,124,110,43,132.99,393,-26.00,89.00,-1116.00
2024-05-19 09:09:19.445602,1,-2,-2,0,0,0,88,89,124,110,43,133.11,393,64.00,3.00,-959.00
2024-05-19 09:09:19.648630,1,-1,-2,0,0,0,88,89,125,110,43,132.97,393,-73.00,62.00,-1042.00
2024-05-19 09:09:19.649539,0,-1,-2,0,0,0,88,89,127,110,43,133.01,393,-56.00,54.00,-1010.00
2024-05-19 09:09:19.854141,0,-1,-2,0,0,0,88,89,129,110,43,133.03,393,-21.00,43.00,-992.00
2024-05-19 09:09:19.854351,0,0,-2,0,0,0,87,90,132,110,43,133.07,393,6.00,17.00,-930.00
2024-05-19 09:09:19.955835,0,0,-2,0,0,0,87,90,133,110,43,133.05,393,11.00,27.00,-1033.00
2024-05-19 09:09:20.058101,0,0,-2,0,0,0,87,90,136,110,43,133.14,394,-35.00,45.00,-1019.00
2024-05-19 09:09:20.160385,0,-1,-2,0,0,0,87,90,139,120,43,133.10,394,12.00,34.00,-1126.00
2024-05-19 09:09:20.263088,0,0,-2,0,0,0,87,90,143,120,43,133.12,394,19.00,25.00,-925.00
2024-05-19 09:09:20.365597,0,0,-2,0,0,-1,87,90,145,120,43,133.16,394,15.00,5.00,-962.00
2024-05-19 09:09:20.465657,0,0,-2,0,0,-1,87,90,146,120,43,133.18,394,57.00,-5.00,-905.00
2024-05-19 09:09:20.567644,0,0,-1,0,0,-1,87,90,148,120,43,133.28,394,44.00,-7.00,-949.00
2024-05-19 09:09:20.672740,0,-2,-1,0,0,0,87,90,149,120,43,133.29,394,-5.00,56.00,-1018.00
2024-05-19 09:09:20.771571,-1,-2,-1,0,1,0,87,90,150,130,43,133.16,394,-27.00,44.00,-895.00
2024-05-19 09:09:20.877580,0,-3,-2,0,1,0,88,90,150,130,43,133.31,394,-53.00,28.00,-923.00
2024-05-19 09:09:20.976626,-1,-4,-2,-1,0,0,88,90,149,130,43,133.16,394,66.00,27.00,-997.00
2024-05-19 09:09:21.083355,-2,-3,-2,0,0,1,88,90,148,130,43,133.24,395,-72.00,59.00,-972.00
2024-05-19 09:09:21.180960,-1,-3,-1,0,0,0,88,90,148,130,43,133.21,395,-11.00,21.00,-970.00
2024-05-19 09:09:21.287078,-1,-3,-1,0,0,1,88,90,147,130,43,133.13,395,32.00,10.00,-1027.00
2024-05-19 09:09:21.384952,-2,-2,-2,0,0,1,88,90,145,120,43,133.21,395,-40.00,30.00,-997.00
2024-05-19 09:09:21.492717,-1,-1,-2,0,0,1,88,90,144,120,43,133.27,395,-76.00,65.00,-983.00
2024-05-19 09:09:21.588621,-1,-1,-1,0,0,1,88,90,142,120,43,133.20,395,29.00,35.00,-955.00
2024-05-19 09:09:21.690631,-2,-2,-1,0,0,1,88,90,142,120,43,133.15,395,-74.00,77.00,-1010.00
2024-05-19 09:09:21.799125,-1,-2,-1,0,0,1,88,90,139,120,42,133.19,395,-13.00,71.00,-901.00
2024-05-19 09:09:21.894582,-2,-3,-2,0,0,1,87,90,139,120,42,133.18,395,-84.00,86.00,-960.00
2024-05-19 09:09:22.003930,-1,-3,-2,0,0,1,87,90,137,120,42,133.11,395,85.00,-8.00,-1036.00
2024-05-19 09:09:22.098747,-2,-3,-1,0,0,0,87,90,137,120,42,133.10,396,55.00,11.00,-921.00
2024-05-19 09:09:22.200739,0,-2,-1,0,0,1,87,90,136,120,42,133.22,396,25.00,24.00,-1083.00
2024-05-19 09:09:22.311436,0,-2,-1,0,0,0,87,90,135,120,42,133.11,396,-19.00,56.00,-1075.00
2024-05-19 09:09:22.404498,0,-2,-1,0,0,0,87,90,136,120,42,133.09,396,-29.00,48.00,-926.00
2024-05-19 09:09:22.515934,-1,-2,-1,0,0,0,87,90,135,120,42,133.10,396,27.00,41.00,-996.00
2024-05-19 09:09:22.608511,-1,-3,-1,0,0,0,87,90,134,120,42,133.05,396,-60.00,68.00,-973.00
2024-05-19 09:09:22.720737,0,-3,-2,0,0,0,87,90,135,120,42,133.04,396,48.00,10.00,-1053.00
2024-05-19 09:09:22.812724,-1,-4,-2,0,0,0,87,90,134,120,42,133.06,396,53.00,21.00,-1011.00
2024-05-19 09:09:22.925647,0,-3,-2,0,0,0,87,90,133,120,42,133.12,396,-57.00,67.00,-976.00
2024-05-19 09:09:23.016487,0,-2,-1,0,0,0,87,90,133,120,42,133.09,396,-77.00,66.00,-992.00
2024-05-19 09:09:23.118653,-1,-3,-1,0,0,0,87,90,133,120,42,133.06,397,-1.00,41.00,-1031.00
2024-05-19 09:09:23.169340,-2,-3,-1,0,0,0,87,90,132,120,42,133.03,397,97.00,1.00,-956.00
2024-05-19 09:09:23.335086,-2,-3,-1,0,0,0,87,90,131,110,42,133.04,397,-43.00,29.00,-959.00
2024-05-19 09:09:23.373454,-2,-3,-1,0,0,0,87,90,131,110,42,133.02,397,-86.00,67.00,-998.00
2024-05-19 09:09:23.539808,-2,-2,-1,0,0,0,87,90,130,110,42,132.97,397,23.00,51.00,-1067.00
2024-05-19 09:09:23.577576,-1,-3,-1,0,0,0,87,90,129,110,42,133.04,397,89.00,34.00,-1005.00
2024-05-19 09:09:23.744756,-1,-3,-2,0,0,0,87,90,128,110,42,132.94,397,-75.00,67.00,-1026.00
2024-05-19 09:09:23.781425,0,-3,-2,0,0,0,87,90,127,110,42,132.84,397,-56.00,84.00,-959.00
2024-05-19 09:09:23.949683,-1,-3,-2,0,0,0,88,90,127,110,42,132.96,397,-11.00,34.00,-993.00
2024-05-19 09:09:23.985834,-2,-3,-2,0,0,0,88,90,127,110,42,132.99,397,15.00,-3.00,-986.00
2024-05-19 09:09:24.154603,0,-3,-2,0,0,0,88,90,127,110,42,132.98,398,-2.00,72.00,-1027.00
2024-05-19 09:09:24.189669,0,-2,-2,0,0,0,88,90,128,110,42,133.01,398,-101.00,66.00,-1006.00
2024-05-19 09:09:24.358969,0,-3,-2,0,0,0,88,90,128,110,42,133.00,398,22.00,35.00,-1028.00
