TS,pitch,roll,yaw,vgx,vgy,vgz,templ,temph,tof,h,bat,baro,time,agx,agy,agz
2024-06-07 00:35:22.369090,0,0,0,0,0,0,55,58,10,0,66,120.30,0,5.00,0.00,-998.00
2024-06-07 00:35:22.479104,0,0,0,0,0,0,56,58,10,0,66,120.27,0,4.00,1.00,-1000.00
2024-06-07 00:35:22.568941,0,0,0,0,0,0,56,58,10,0,66,120.28,0,4.00,0.00,-999.00
2024-06-07 00:35:22.643929,0,0,0,0,0,0,56,58,10,0,66,120.33,0,4.00,0.00,-1001.00
2024-06-07 00:35:22.796317,0,0,0,0,0,0,56,58,10,0,66,120.28,0,4.00,0.00,-999.00
2024-06-07 00:35:22.857802,0,0,0,0,0,0,56,58,10,0,66,120.26,0,4.00,1.00,-998.00
2024-06-07 00:35:22.925503,0,0,0,0,0,0,56,58,10,0,66,120.28,0,2.00,0.00,-1000.00
2024-06-07 00:35:23.080479,0,0,0,0,0,0,56,58,10,0,66,120.34,0,5.00,0.00,-1000.00
2024-06-07 00:35:23.223805,0,0,0,0,0,0,56,58,10,0,66,120.24,0,5.00,0.00,-997.00
2024-06-07 00:35:23.232450,0,0,0,0,0,0,56,58,10,0,66,120.33,0,6.00,1.00,-1002.00
2024-06-07 00:35:23.387843,0,0,0,0,0,0,56,58,10,0,66,120.34,0,5.00,0.00,-998.00
2024-06-07 00:35:23.530964,0,0,0,0,0,0,55,58,10,0,66,120.34,0,4.00,1.00,-1000.00
2024-06-07 00:35:23.537857,0,0,0,0,0,0,55,58,10,0,66,120.24,0,5.00,0.00,-1001.00
2024-06-07 00:35:23.695168,0,0,0,0,0,0,55,58,10,0,66,120.27,0,5.00,0.00,-997.00
2024-06-07 00:35:23.838293,0,0,0,0,0,0,55,58,10,0,66,120.32,0,3.00,1.00,-1002.00
2024-06-07 00:35:23.843810,0,0,0,0,0,0,55,58,10,0,66,120.29,0,5.00,1.00,-999.00
2024-06-07 00:35:24.003055,0,0,0,0,0,0,55,58,10,0,66,120.33,0,4.00,1.00,-998.00
2024-06-07 00:35:24.145472,0,0,0,0,0,0,55,58,10,0,66,120.31,0,5.00,0.00,-999.00
2024-06-07 00:35:24.149533,0,0,0,0,0,0,55,58,10,0,66,120.28,0,5.00,0.00,-999.00
2024-06-07 00:35:24.309303,0,0,0,0,0,0,55,58,10,0,66,120.33,0,5.00,1.00,-998.00
2024-06-07 00:35:24.452854,0,0,0,0,0,0,55,58,10,0,66,120.28,0,6.00,1.00,-999.00
2024-06-07 00:35:24.455515,0,0,0,0,0,0,57,58,10,0,66,120.30,0,3.00,0.00,-998.00
2024-06-07 00:35:24.616432,0,0,0,0,0,0,57,58,10,0,66,120.26,0,4.00,0.00,-998.00
2024-06-07 00:35:24.770735,0,0,0,0,0,0,57,58,10,0,66,120.35,0,3.00,1.00,-998.00
2024-06-07 00:35:24.770910,0,0,0,0,0,0,57,58,10,0,66,120.29,0,3.00,2.00,-999.00
2024-06-07 00:35:24.887622,0,0,0,0,0,0,57,58,10,0,66,120.30,0,4.00,1.00,-998.00
2024-06-07 00:35:24.965240,0,0,0,0,0,0,57,58,10,0,66,120.30,0,4.00,0.00,-997.00
2024-06-07 00:35:25.117868,0,0,0,0,0,0,57,58,10,0,66,120.33,0,3.00,1.00,-997.00
2024-06-07 00:35:25.169545,0,0,0,0,0,0,57,58,10,0,66,120.28,0,5.00,1.00,-1000.00
2024-06-07 00:35:25.322370,0,0,0,0,0,0,57,58,10,0,66,120.28,0,5.00,1.00,-999.00
2024-06-07 00:35:25.373354,0,0,0,0,0,0,57,58,10,0,66,120.31,0,4.00,1.00,-999.00
2024-06-07 00:35:25.476582,0,0,0,0,0,0,56,59,10,0,66,120.31,0,5.00,0.00,-998.00
2024-06-07 00:35:25.577555,0,0,0,0,0,0,56,59,10,0,66,120.27,0,4.00,2.00,-999.00
2024-06-07 00:35:25.731827,0,0,0,0,0,0,56,59,10,0,66,120.33,0,5.00,1.00,-1001.00
2024-06-07 00:35:25.781756,0,0,0,0,0,0,56,59,10,0,66,120.35,0,5.00,1.00,-998.00
2024-06-07 00:35:25.883350,0,0,0,0,0,0,56,59,10,0,66,120.31,0,3.00,0.00,-997.00
2024-06-07 00:35:25.934523,0,0,0,0,0,0,56,59,10,0,66,120.31,0,15.00,0.00,-999.00
2024-06-07 00:35:26.038988,0,0,0,0,0,0,56,59,10,0,66,120.31,0,8.00,-3.00,-998.00
2024-06-07 00:35:26.138633,0,0,0,0,0,0,56,59,10,0,66,120.31,0,-10.00,-19.00,-987.00
2024-06-07 00:35:26.243863,0,0,0,0,0,0,56,59,10,0,66,120.31,0,-18.00,-29.00,-973.00
2024-06-07 00:35:26.342675,0,0,-1,0,0,0,56,59,10,0,66,120.31,0,57.00,-22.00,-1010.00
2024-06-07 00:35:26.448600,-2,3,-2,0,0,0,57,59,10,0,66,120.31,0,-11.00,-26.00,-1163.00
2024-06-07 00:35:26.546786,-3,5,-3,0,0,-1,57,59,13,0,66,120.31,0,37.00,15.00,-1332.00
2024-06-07 00:35:26.653450,-2,4,-2,1,1,-4,57,59,13,0,66,120.31,0,40.00,11.00,-1275.00
2024-06-07 00:35:26.750401,1,0,-2,2,2,-5,57,59,15,0,66,120.52,0,-57.00,6.00,-967.00
2024-06-07 00:35:26.858045,5,-6,-3,1,1,-7,57,59,23,0,66,120.84,0,-53.00,-37.00,-1074.00
2024-06-07 00:35:26.954372,3,-4,-2,0,0,-7,57,59,31,0,66,120.83,1,45.00,-42.00,-1101.00
2024-06-07 00:35:27.062921,2,-2,-2,0,0,-7,57,59,40,10,66,120.90,1,19.00,-2.00,-1000.00
2024-06-07 00:35:27.159868,2,0,-2,0,0,-6,57,59,48,10,66,121.00,1,-48.00,6.00,-919.00
2024-06-07 00:35:27.267793,1,0,-2,0,0,-5,57,59,56,20,66,121.06,1,16.00,11.00,-984.00
2024-06-07 00:35:27.362466,0,0,-2,-1,0,-5,57,59,63,20,66,121.15,1,-6.00,28.00,-904.00
2024-06-07 00:35:27.472601,0,-1,-2,0,0,-4,57,60,68,30,66,121.25,1,-40.00,24.00,-890.00
2024-06-07 00:35:27.566571,0,0,-2,0,0,-3,57,60,73,30,66,121.26,1,-12.00,28.00,-870.00
2024-06-07 00:35:27.677638,0,0,-2,0,0,-1,57,60,77,40,66,121.33,1,2.00,4.00,-867.00
2024-06-07 00:35:27.770422,0,0,-2,0,0,-1,57,60,79,40,66,121.35,1,3.00,16.00,-931.00
2024-06-07 00:35:27.882205,0,0,-2,0,0,0,57,60,82,40,66,121.39,1,33.00,-3.00,-937.00
2024-06-07 00:35:27.974379,0,0,-2,0,0,0,57,60,83,40,66,121.35,2,-10.00,13.00,-952.00
2024-06-07 00:35:28.086885,0,0,-2,0,0,0,57,60,85,40,66,121.44,2,-26.00,23.00,-1012.00
2024-06-07 00:35:28.178675,0,0,-2,0,0,0,57,60,85,40,66,121.38,2,-32.00,4.00,-928.00
2024-06-07 00:35:28.291673,0,0,-2,0,0,0,57,60,86,40,66,121.47,2,15.00,11.00,-995.00
2024-06-07 00:35:28.382317,0,0,-2,0,0,0,57,60,87,40,66,121.39,2,-20.00,7.00,-928.00
2024-06-07 00:35:28.496435,0,0,-2,0,0,0,57,60,88,40,66,121.43,2,12.00,12.00,-990.00
2024-06-07 00:35:28.587216,0,0,-2,0,0,0,57,60,88,40,66,121.44,2,39.00,-9.00,-994.00
2024-06-07 00:35:28.701209,0,0,-2,0,0,0,57,60,88,50,66,121.43,2,19.00,0.00,-1018.00
2024-06-07 00:35:28.790223,0,0,-2,0,0,0,57,60,89,50,66,121.44,2,0.00,14.00,-970.00
2024-06-07 00:35:28.906005,0,0,-2,0,0,0,57,60,89,50,66,121.43,2,13.00,6.00,-996.00
2024-06-07 00:35:28.994864,0,0,-2,0,0,0,57,60,88,50,66,121.47,3,-32.00,19.00,-950.00
2024-06-07 00:35:29.110811,0,0,-2,0,0,0,57,60,88,50,66,121.43,3,18.00,1.00,-1011.00
2024-06-07 00:35:29.199260,0,0,-2,0,0,0,57,60,87,50,66,121.41,3,32.00,-6.00,-1017.00
2024-06-07 00:35:29.315541,0,0,-2,0,0,0,57,60,86,50,66,121.37,3,30.00,18.00,-1023.00
2024-06-07 00:35:29.402816,0,0,-2,0,0,0,57,60,85,50,66,121.37,3,42.00,-22.00,-1054.00
2024-06-07 00:35:29.520410,0,0,-2,0,0,0,57,60,84,50,66,121.38,3,-25.00,28.00,-1012.00
2024-06-07 00:35:29.607553,0,0,-2,0,0,0,57,60,83,50,66,121.36,3,-1.00,1.00,-995.00
2024-06-07 00:35:29.726819,0,0,-2,0,0,0,57,60,82,50,66,121.31,3,18.00,0.00,-933.00
2024-06-07 00:35:29.810259,0,0,-2,0,0,0,57,60,80,40,66,121.32,3,-13.00,12.00,-981.00
2024-06-07 00:35:29.862037,0,0,-2,0,0,1,57,60,79,40,66,121.36,3,6.00,1.00,-1061.00
2024-06-07 00:35:30.032368,0,0,-2,0,0,0,57,60,78,40,66,121.31,4,54.00,-16.00,-1038.00
2024-06-07 00:35:30.066228,0,0,-2,0,0,0,57,60,77,40,66,121.35,4,32.00,15.00,-1130.00
2024-06-07 00:35:30.237178,0,0,-2,0,0,0,57,60,77,40,66,121.36,4,-6.00,19.00,-1044.00
2024-06-07 00:35:30.270214,0,0,-2,0,0,0,57,60,76,40,66,121.32,4,-16.00,6.00,-1003.00
2024-06-07 00:35:30.442316,0,0,-2,0,0,0,57,60,76,40,66,121.32,4,-4.00,-4.00,-1027.00
2024-06-07 00:35:30.474164,0,0,-2,0,0,0,57,59,76,40,65,121.31,4,-43.00,9.00,-906.00
2024-06-07 00:35:30.649066,0,0,-2,0,0,0,57,59,76,40,65,121.29,4,-7.00,-3.00,-1018.00
2024-06-07 00:35:30.678048,0,0,-2,0,0,0,57,59,75,40,65,121.27,4,1.00,3.00,-959.00
2024-06-07 00:35:30.851544,0,0,-2,0,0,0,57,59,75,40,65,121.26,4,-19.00,6.00,-1001.00
2024-06-07 00:35:30.882009,0,0,-2,0,0,0,57,59,75,40,65,121.29,4,-10.00,4.00,-991.00
2024-06-07 00:35:31.056371,0,0,-2,0,0,0,57,59,75,40,65,121.35,5,15.00,-4.00,-1059.00
2024-06-07 00:35:31.085948,0,0,-2,0,0,0,57,59,76,40,65,121.29,5,66.00,-35.00,-1069.00
2024-06-07 00:35:31.261114,1,0,-2,0,0,0,57,59,77,40,65,121.31,5,28.00,-19.00,-945.00
2024-06-07 00:35:31.289967,1,0,-2,0,0,0,57,59,77,40,65,121.31,5,-46.00,8.00,-949.00
2024-06-07 00:35:31.467253,0,0,-2,0,0,0,57,59,78,40,65,121.28,5,-2.00,5.00,-1060.00
2024-06-07 00:35:31.494219,0,0,-2,0,0,0,58,60,78,40,65,121.31,5,36.00,1.00,-983.00
2024-06-07 00:35:31.671056,0,0,-2,0,0,0,58,60,79,40,65,121.36,5,14.00,-14.00,-970.00
2024-06-07 00:35:31.698131,0,0,-2,0,0,0,58,60,79,40,65,121.37,5,42.00,10.00,-986.00
2024-06-07 00:35:31.875698,0,0,-2,0,0,0,58,60,80,40,65,121.33,5,-9.00,-6.00,-959.00
2024-06-07 00:35:31.902046,0,0,-2,0,0,0,58,60,79,40,65,121.34,5,27.00,-5.00,-979.00
2024-06-07 00:35:32.080521,0,0,-2,0,0,0,58,60,80,40,65,121.31,6,6.00,21.00,-983.00
2024-06-07 00:35:32.105973,0,0,-2,0,0,0,58,60,80,40,65,121.31,6,2.00,9.00,-1014.00
2024-06-07 00:35:32.285449,0,0,-2,0,0,0,58,60,80,40,65,121.33,6,-15.00,20.00,-1013.00
2024-06-07 00:35:32.310468,0,0,-2,0,0,0,58,60,80,40,65,121.38,6,10.00,11.00,-1004.00
2024-06-07 00:35:32.489966,0,0,-2,0,0,0,58,60,80,40,65,121.40,6,19.00,8.00,-1014.00
2024-06-07 00:35:32.514079,0,0,-2,0,0,0,57,60,80,40,64,121.35,6,-28.00,-3.00,-998.00
2024-06-07 00:35:32.697258,0,0,-2,0,0,0,57,60,80,40,64,121.32,6,8.00,2.00,-967.00
2024-06-07 00:35:32.718020,0,0,-2,0,0,0,57,60,80,40,64,121.32,6,48.00,-13.00,-1085.00
2024-06-07 00:35:32.899845,0,0,-2,0,0,0,57,60,80,40,64,121.37,6,11.00,5.00,-1005.00
2024-06-07 00:35:32.921958,0,0,-2,0,0,0,57,60,80,40,64,121.37,6,-15.00,27.00,-993.00
2024-06-07 00:35:33.104337,0,0,-2,0,0,0,57,60,80,40,64,121.43,7,17.00,-7.00,-941.00
2024-06-07 00:35:33.128330,0,0,-2,0,0,0,57,60,79,40,64,121.34,7,16.00,-8.00,-1023.00
2024-06-07 00:35:33.228155,0,0,-2,0,0,0,57,60,79,40,64,121.36,7,-4.00,5.00,-956.00
2024-06-07 00:35:33.329918,0,0,-2,0,0,0,57,60,79,40,64,121.40,7,18.00,-35.00,-1037.00
2024-06-07 00:35:33.380811,0,0,-2,0,0,0,57,60,80,40,64,121.38,7,-3.00,6.00,-1016.00
2024-06-07 00:35:33.534093,0,0,-2,0,0,0,58,61,80,40,64,121.40,7,64.00,-8.00,-1064.00
2024-06-07 00:35:33.584735,0,0,-2,0,0,0,58,61,80,40,64,121.34,7,19.00,-13.00,-969.00
2024-06-07 00:35:33.718826,0,0,-2,0,0,0,58,61,81,40,64,121.37,7,32.00,-11.00,-1043.00
2024-06-07 00:35:33.789051,0,0,-2,0,0,0,58,61,81,40,64,121.31,7,50.00,13.00,-1052.00
2024-06-07 00:35:33.923611,0,0,-2,0,0,0,58,61,81,40,64,121.45,7,16.00,-4.00,-1052.00
2024-06-07 00:35:33.992655,0,0,-2,0,0,0,58,61,81,40,64,121.46,8,-5.00,3.00,-969.00
2024-06-07 00:35:34.128372,0,0,-2,0,0,0,58,61,81,40,64,121.45,8,-8.00,18.00,-958.00
2024-06-07 00:35:34.197399,0,0,-2,0,0,0,58,61,81,40,64,121.47,8,-2.00,2.00,-977.00
2024-06-07 00:35:34.333544,0,0,-2,0,0,0,58,61,81,40,64,121.36,8,24.00,-6.00,-1035.00
2024-06-07 00:35:34.401627,0,0,-2,0,0,0,58,61,82,40,64,121.41,8,10.00,1.00,-1019.00
2024-06-07 00:35:34.537971,0,0,-2,0,0,0,59,61,82,40,63,121.40,8,-23.00,24.00,-965.00
2024-06-07 00:35:34.604617,0,0,-2,0,0,0,59,61,82,40,63,121.35,8,55.00,-30.00,-999.00
2024-06-07 00:35:34.742717,0,0,-2,0,0,0,59,61,82,40,63,121.33,8,8.00,0.00,-993.00
2024-06-07 00:35:34.808716,0,0,-2,0,0,0,59,61,82,40,63,121.36,8,-45.00,35.00,-985.00
2024-06-07 00:35:34.948014,0,0,-2,0,0,0,59,61,82,40,63,121.37,8,49.00,2.00,-993.00
2024-06-07 00:35:35.012604,0,0,-2,0,0,0,59,61,83,40,63,121.38,9,25.00,-21.00,-982.00
2024-06-07 00:35:35.114543,0,0,-2,0,0,0,59,61,82,40,63,121.44,9,17.00,-9.00,-1061.00
2024-06-07 00:35:35.254573,0,0,-2,0,0,0,59,61,82,40,63,121.40,9,2.00,-26.00,-985.00
2024-06-07 00:35:35.318678,0,0,-2,0,0,0,59,61,83,40,63,121.40,9,28.00,13.00,-1086.00
2024-06-07 00:35:35.459347,0,0,-2,0,0,0,59,61,84,40,63,121.31,9,-21.00,3.00,-1053.00
2024-06-07 00:35:35.522499,0,0,-2,0,0,-1,58,61,86,50,63,121.42,9,-36.00,3.00,-1137.00
2024-06-07 00:35:35.664174,0,0,-2,0,0,-2,58,61,89,50,63,121.47,9,27.00,-4.00,-1122.00
2024-06-07 00:35:35.726602,0,0,-2,0,0,-3,58,61,92,50,63,121.43,9,31.00,-2.00,-1027.00
2024-06-07 00:35:35.828455,0,0,-2,0,0,-4,58,61,97,50,63,121.45,9,45.00,-9.00,-1094.00
2024-06-07 00:35:35.971325,0,0,-2,0,0,-4,58,61,101,60,63,121.49,9,-4.00,5.00,-1014.00
2024-06-07 00:35:36.032432,0,0,-2,0,0,-5,58,61,105,60,63,121.54,10,16.00,0.00,-1044.00
2024-06-07 00:35:36.135001,0,0,-2,0,0,-5,58,61,110,70,63,121.67,10,32.00,11.00,-1002.00
2024-06-07 00:35:36.236433,0,0,-2,0,0,-5,58,61,116,70,63,121.64,10,7.00,-16.00,-1021.00
2024-06-07 00:35:36.338753,0,0,-2,0,0,-5,58,61,121,80,63,121.72,10,-8.00,0.00,-994.00
2024-06-07 00:35:36.483333,0,0,-2,0,0,-5,58,61,126,80,63,121.83,10,1.00,-8.00,-1002.00
2024-06-07 00:35:36.543122,0,0,-2,0,0,-5,59,61,131,90,62,121.79,10,-31.00,21.00,-966.00
2024-06-07 00:35:36.688127,0,0,-2,0,0,-4,59,61,136,90,62,121.91,10,-14.00,20.00,-994.00
2024-06-07 00:35:36.746391,0,0,-2,0,0,-4,59,61,140,100,62,121.91,10,27.00,-7.00,-977.00
2024-06-07 00:35:36.892909,0,0,-2,0,0,-4,59,61,144,100,62,121.96,10,8.00,2.00,-999.00
2024-06-07 00:35:36.951424,0,0,-2,0,0,-4,59,61,148,110,62,121.99,10,8.00,17.00,-929.00
2024-06-07 00:35:37.002823,0,0,-2,0,0,-3,59,61,153,110,62,122.10,11,11.00,-14.00,-989.00
2024-06-07 00:35:37.214818,0,0,-2,0,0,-3,59,61,155,110,62,122.11,11,8.00,29.00,-887.00
2024-06-07 00:35:37.215982,0,0,-2,0,0,-3,59,61,159,120,62,122.16,11,38.00,-18.00,-984.00
2024-06-07 00:35:37.357682,0,0,-2,0,0,-2,59,61,163,120,62,122.17,11,-11.00,-3.00,-990.00
2024-06-07 00:35:37.490873,0,0,-2,0,0,-2,59,61,165,120,62,122.25,11,14.00,-8.00,-988.00
2024-06-07 00:35:37.514217,0,0,-2,0,0,-2,59,61,168,130,62,122.21,11,22.00,-9.00,-979.00
2024-06-07 00:35:37.675241,0,0,-2,0,0,-2,59,61,171,130,62,122.28,11,-14.00,8.00,-894.00
2024-06-07 00:35:37.746108,0,0,-2,0,0,-1,59,61,173,130,62,122.25,11,-7.00,0.00,-978.00
2024-06-07 00:35:37.865933,0,0,-2,0,0,-1,59,61,176,130,62,122.26,11,48.00,4.00,-1090.00
2024-06-07 00:35:37.920877,0,0,-2,0,0,-1,59,61,177,140,62,122.20,11,18.00,-11.00,-980.00
2024-06-07 00:35:38.042045,0,0,-2,0,0,-1,59,61,179,140,62,122.29,12,-23.00,3.00,-943.00
2024-06-07 00:35:38.186261,0,0,-2,0,0,-1,59,61,181,140,62,122.31,12,11.00,-11.00,-985.00
2024-06-07 00:35:38.225581,0,0,-2,0,0,-1,59,61,182,140,62,122.39,12,17.00,-1.00,-958.00
2024-06-07 00:35:38.440312,0,0,-2,0,0,0,59,61,183,140,62,122.33,12,3.00,20.00,-963.00
2024-06-07 00:35:38.440474,0,0,-2,0,0,0,59,61,183,140,62,122.38,12,58.00,-19.00,-976.00
2024-06-07 00:35:38.583218,0,0,-2,0,0,0,60,61,184,140,61,122.35,12,-4.00,3.00,-987.00
2024-06-07 00:35:38.634073,0,0,-2,0,0,0,60,61,184,140,61,122.34,12,9.00,-4.00,-996.00
2024-06-07 00:35:38.747080,0,0,-2,0,0,0,60,61,185,140,61,122.39,12,-12.00,7.00,-1007.00
2024-06-07 00:35:38.890905,0,0,-2,0,0,0,60,61,187,140,61,122.37,12,21.00,0.00,-1019.00
2024-06-07 00:35:38.941004,0,0,-2,0,0,0,60,61,188,140,61,122.35,13,-23.00,8.00,-1015.00
2024-06-07 00:35:39.054650,0,0,-2,0,0,0,60,61,187,150,61,122.40,13,-10.00,19.00,-1009.00
2024-06-07 00:35:39.208516,0,0,-2,0,0,0,60,61,187,150,61,122.35,13,13.00,4.00,-1001.00
2024-06-07 00:35:39.245686,0,0,-2,0,0,0,60,61,188,150,61,122.39,13,17.00,-9.00,-956.00
2024-06-07 00:35:39.347460,0,0,-2,0,0,0,60,61,189,150,61,122.31,13,29.00,19.00,-987.00
2024-06-07 00:35:39.453060,0,0,-2,0,0,0,60,61,187,150,61,122.38,13,0.00,-9.00,-974.00
2024-06-07 00:35:39.551958,0,0,-2,0,0,0,60,62,186,150,61,122.33,13,11.00,2.00,-963.00
2024-06-07 00:35:39.661455,0,0,-2,0,0,0,60,62,186,150,61,122.30,13,25.00,7.00,-960.00
2024-06-07 00:35:39.755537,0,0,-2,0,0,0,60,62,186,140,61,122.33,13,15.00,-5.00,-1000.00
2024-06-07 00:35:39.857631,0,0,-2,0,0,0,60,62,186,140,61,122.28,13,-10.00,4.00,-989.00
2024-06-07 00:35:39.965748,0,0,-2,0,0,0,60,62,184,140,61,122.36,14,42.00,-13.00,-1015.00
2024-06-07 00:35:40.061568,0,0,-2,0,0,0,60,62,186,140,61,122.32,14,-13.00,23.00,-911.00
2024-06-07 00:35:40.169822,0,0,-2,0,0,0,60,62,186,140,61,122.28,14,0.00,7.00,-1010.00
2024-06-07 00:35:40.265419,0,0,-2,0,0,0,60,62,184,140,61,122.30,14,38.00,-7.00,-986.00
2024-06-07 00:35:40.367773,0,0,-2,0,0,0,60,62,184,140,61,122.35,14,-9.00,24.00,-994.00
2024-06-07 00:35:40.477785,0,0,-2,0,0,0,60,62,184,140,61,122.28,14,12.00,-1.00,-992.00
2024-06-07 00:35:40.574159,0,0,-2,0,0,0,60,62,182,140,60,122.30,14,-5.00,12.00,-959.00
2024-06-07 00:35:40.674557,0,0,-2,0,0,1,60,62,181,140,60,122.28,14,10.00,2.00,-949.00
2024-06-07 00:35:40.775968,0,0,-2,0,0,1,60,62,178,140,60,122.21,14,3.00,0.00,-970.00
2024-06-07 00:35:40.886770,0,0,-2,0,0,2,60,62,177,140,60,122.26,14,-15.00,17.00,-957.00
2024-06-07 00:35:40.979241,0,0,-2,0,0,2,60,62,174,140,60,122.17,15,-10.00,11.00,-908.00
2024-06-07 00:35:41.093580,0,0,-2,0,0,2,60,62,171,130,60,122.14,15,0.00,-4.00,-986.00
2024-06-07 00:35:41.132917,0,0,-2,0,0,3,60,62,169,130,60,122.21,15,35.00,-21.00,-1035.00
2024-06-07 00:35:41.295897,0,0,-2,0,0,3,60,62,167,130,60,122.18,15,3.00,-4.00,-963.00
2024-06-07 00:35:41.337205,0,0,-2,0,0,2,60,62,163,120,60,122.08,15,2.00,3.00,-1017.00
2024-06-07 00:35:41.438361,0,0,-2,0,0,2,60,62,162,120,60,122.11,15,53.00,-14.00,-1057.00
2024-06-07 00:35:41.540333,0,0,-2,0,0,2,60,63,160,120,60,122.10,15,-4.00,10.00,-1003.00
2024-06-07 00:35:41.641981,0,0,-2,0,0,2,60,63,156,120,60,122.08,15,22.00,-4.00,-1026.00
2024-06-07 00:35:41.809099,0,0,-2,0,0,1,60,63,154,120,60,122.06,15,30.00,-6.00,-1004.00
2024-06-07 00:35:41.846864,0,0,-2,0,0,1,60,63,152,110,60,122.11,15,15.00,-10.00,-1006.00
2024-06-07 00:35:41.962476,0,0,-2,0,0,1,60,63,150,110,60,122.10,16,43.00,-13.00,-1036.00
2024-06-07 00:35:42.050022,0,0,-2,0,0,1,60,63,147,110,60,122.05,16,-5.00,5.00,-1002.00
2024-06-07 00:35:42.218178,0,0,-2,0,0,1,60,63,146,110,60,121.97,16,-21.00,-9.00,-1072.00
2024-06-07 00:35:42.259680,0,0,-2,0,0,1,60,63,144,110,60,122.03,16,26.00,-3.00,-1026.00
2024-06-07 00:35:42.356353,0,0,-2,0,0,1,60,63,143,110,60,121.97,16,-31.00,13.00,-1018.00
2024-06-07 00:35:42.525085,0,0,-2,0,0,1,60,63,142,100,60,121.86,16,5.00,4.00,-1016.00
2024-06-07 00:35:42.560115,0,0,-2,0,0,1,60,63,140,100,59,121.94,16,-5.00,-1.00,-1014.00
2024-06-07 00:35:42.729535,0,0,-2,0,0,1,60,63,139,100,59,121.91,16,-5.00,-7.00,-1002.00
2024-06-07 00:35:42.763947,0,0,-2,0,0,1,60,63,137,100,59,121.92,16,4.00,-1.00,-974.00
2024-06-07 00:35:42.934593,0,0,-2,0,0,0,60,63,137,100,59,121.78,16,-33.00,35.00,-958.00
2024-06-07 00:35:42.969131,0,0,-2,0,0,0,60,63,135,100,59,121.85,17,-8.00,5.00,-1046.00
2024-06-07 00:35:43.139578,0,0,-2,0,0,0,60,63,135,100,59,121.92,17,4.00,9.00,-1010.00
2024-06-07 00:35:43.172428,0,0,-2,0,0,0,60,63,135,100,59,121.90,17,-33.00,12.00,-998.00
2024-06-07 00:35:43.344425,0,0,-2,0,0,0,60,63,135,100,59,121.88,17,20.00,0.00,-1021.00
2024-06-07 00:35:43.376070,0,0,-2,0,0,0,60,63,135,100,59,121.82,17,-4.00,-6.00,-1018.00
2024-06-07 00:35:43.548687,0,0,-2,0,0,0,60,63,134,100,59,121.89,17,-12.00,2.00,-997.00
2024-06-07 00:35:43.579933,0,0,-2,0,0,0,61,63,134,100,59,121.87,17,45.00,-19.00,-1032.00
2024-06-07 00:35:43.753932,0,0,-2,0,0,0,61,63,135,100,59,121.83,17,2.00,19.00,-1008.00
2024-06-07 00:35:43.784291,0,0,-2,0,0,0,61,63,135,100,59,121.90,17,14.00,-17.00,-1016.00
2024-06-07 00:35:43.885911,0,0,-2,0,0,0,61,63,135,100,59,121.96,17,-7.00,-1.00,-1001.00
2024-06-07 00:35:44.061031,0,0,-2,0,0,0,61,63,135,100,59,121.87,18,-6.00,3.00,-1005.00
2024-06-07 00:35:44.089883,0,0,-2,0,0,0,61,63,135,100,59,121.84,18,2.00,-11.00,-1029.00
2024-06-07 00:35:44.266835,0,0,-2,0,0,0,61,63,135,100,59,121.89,18,8.00,0.00,-1095.00
2024-06-07 00:35:44.294645,0,0,-2,0,0,0,61,63,134,100,59,121.82,18,4.00,-5.00,-986.00
2024-06-07 00:35:44.395831,0,0,-2,0,0,0,61,63,135,100,59,121.80,18,6.00,0.00,-978.00
2024-06-07 00:35:44.572722,0,0,-2,0,0,0,61,63,135,100,58,121.90,18,45.00,-19.00,-1016.00
2024-06-07 00:35:44.600181,0,0,-2,0,0,0,61,63,135,100,58,121.82,18,-12.00,0.00,-980.00
2024-06-07 00:35:44.777555,0,0,-2,0,0,0,61,63,135,100,58,121.85,18,30.00,0.00,-1033.00
2024-06-07 00:35:44.803983,0,0,-2,0,0,0,61,63,135,100,58,121.85,18,11.00,0.00,-1011.00
2024-06-07 00:35:44.938514,0,0,-2,0,0,0,61,63,136,100,58,121.86,18,6.00,-20.00,-1052.00
2024-06-07 00:35:44.957670,0,0,-2,0,0,0,61,63,136,100,58,121.86,19,6.00,-14.00,-1000.00
2024-06-07 00:35:45.085330,0,0,-2,0,0,0,61,63,136,100,58,121.96,19,-6.00,19.00,-970.00
2024-06-07 00:35:45.161018,-4,0,-2,0,0,0,61,63,138,100,58,121.86,19,-14.00,17.00,-977.00
2024-06-07 00:35:45.289696,-8,0,-2,1,0,0,61,63,140,100,58,121.83,19,6.00,-13.00,-1006.00
2024-06-07 00:35:45.365093,-8,0,-2,2,0,0,61,63,142,100,58,121.83,19,-44.00,21.00,-1006.00
2024-06-07 00:35:45.494545,-8,0,-2,4,0,0,61,63,141,100,58,121.82,19,-12.00,-3.00,-1026.00
2024-06-07 00:35:45.569687,-7,0,-2,5,0,0,61,63,138,100,58,121.87,19,-17.00,0.00,-1022.00
2024-06-07 00:35:45.699036,-6,-1,-2,6,0,0,61,63,138,100,58,121.76,19,-63.00,3.00,-978.00
2024-06-07 00:35:45.773751,-6,0,-2,7,0,0,61,63,138,100,58,121.87,19,-40.00,-1.00,-989.00
2024-06-07 00:35:45.875002,-5,0,-2,7,0,0,61,63,138,100,58,121.89,19,-58.00,21.00,-1020.00
2024-06-07 00:35:46.006480,-3,-1,-2,7,0,0,61,63,137,100,58,121.84,20,-58.00,18.00,-1007.00
2024-06-07 00:35:46.078857,0,-1,-2,7,0,0,61,63,136,100,58,121.81,20,-81.00,3.00,-972.00
2024-06-07 00:35:46.210998,2,0,-2,7,0,0,61,63,136,100,58,121.82,20,-43.00,2.00,-983.00
2024-06-07 00:35:46.282945,4,0,-2,6,0,0,61,63,137,100,58,121.93,20,-48.00,0.00,-1042.00
2024-06-07 00:35:46.386070,4,0,-2,5,0,0,61,63,136,100,58,121.86,20,-32.00,6.00,-1028.00
2024-06-07 00:35:46.486663,3,0,-2,4,0,0,61,63,137,100,57,121.99,20,-16.00,7.00,-971.00
2024-06-07 00:35:46.620895,1,0,-2,3,0,0,62,64,137,100,57,121.96,20,-14.00,-1.00,-1001.00
2024-06-07 00:35:46.691260,0,0,-2,2,0,0,62,64,136,100,57,121.90,20,-23.00,4.00,-993.00
2024-06-07 00:35:46.825420,0,-1,-2,2,0,0,62,64,136,100,57,121.85,20,-24.00,7.00,-1002.00
2024-06-07 00:35:46.894994,0,-2,-2,2,0,0,62,64,136,100,57,121.88,20,-32.00,17.00,-1030.00
2024-06-07 00:35:47.030202,0,-2,-2,2,0,0,62,64,135,100,57,121.89,21,-34.00,20.00,-1004.00
2024-06-07 00:35:47.098952,0,-2,-2,2,0,0,62,64,135,100,57,121.92,21,-13.00,-11.00,-998.00
2024-06-07 00:35:47.234982,0,-2,-2,2,-1,0,62,64,135,100,57,121.87,21,-6.00,-14.00,-993.00
2024-06-07 00:35:47.302939,0,-1,-2,1,-1,0,62,64,135,100,57,121.89,21,-2.00,-5.00,-1039.00
2024-06-07 00:35:47.404912,0,2,-2,1,-1,0,62,64,135,100,57,121.84,21,23.00,10.00,-940.00
2024-06-07 00:35:47.542047,4,1,-2,1,0,0,62,64,135,100,57,122.00,21,11.00,-37.00,-1032.00
2024-06-07 00:35:47.608912,2,0,-2,0,0,0,62,64,136,100,57,121.90,21,-3.00,0.00,-1018.00
2024-06-07 00:35:47.747331,1,0,-2,0,0,0,62,64,135,100,57,121.95,21,10.00,2.00,-992.00
2024-06-07 00:35:47.813104,0,0,-2,0,0,0,62,64,135,100,57,121.87,21,0.00,9.00,-1009.00
2024-06-07 00:35:47.951850,0,0,-2,0,0,0,62,64,134,100,57,121.88,21,15.00,0.00,-968.00
2024-06-07 00:35:48.017830,0,0,-2,0,0,0,62,64,134,100,57,121.93,22,33.00,-7.00,-1029.00
2024-06-07 00:35:48.156718,0,0,-2,0,0,0,62,64,133,100,57,121.91,22,5.00,1.00,-983.00
2024-06-07 00:35:48.220921,0,0,-2,0,0,0,62,64,133,100,57,121.94,22,22.00,-18.00,-1010.00
2024-06-07 00:35:48.361723,0,0,-2,0,0,0,62,64,134,100,57,121.89,22,-1.00,11.00,-1004.00
2024-06-07 00:35:48.424531,0,0,-2,0,0,0,62,64,133,100,57,121.87,22,15.00,3.00,-1060.00
2024-06-07 00:35:48.566552,0,0,-2,0,0,0,62,64,133,100,56,121.94,22,-1.00,28.00,-987.00
2024-06-07 00:35:48.628563,0,0,-2,0,0,0,62,65,134,100,56,121.89,22,33.00,3.00,-1029.00
2024-06-07 00:35:48.771171,0,0,-2,0,0,0,62,65,134,100,56,121.93,22,-14.00,1.00,-974.00
2024-06-07 00:35:48.832913,0,0,-2,0,0,0,62,65,134,100,56,121.97,22,-1.00,11.00,-1047.00
2024-06-07 00:35:48.883574,0,0,-2,0,0,0,62,65,134,100,56,121.91,22,6.00,8.00,-989.00
2024-06-07 00:35:49.078218,0,0,-2,0,0,0,62,65,134,100,56,121.94,23,-20.00,16.00,-958.00
2024-06-07 00:35:49.087584,0,0,-2,0,0,0,62,65,134,100,56,121.96,23,-7.00,7.00,-1099.00
2024-06-07 00:35:49.283053,0,0,-2,0,0,0,62,65,134,100,56,121.88,23,-16.00,4.00,-983.00
2024-06-07 00:35:49.291561,0,0,-2,0,0,0,62,65,134,100,56,121.88,23,11.00,0.00,-975.00
2024-06-07 00:35:49.393505,0,0,-2,0,0,0,62,65,135,100,56,121.84,23,0.00,-25.00,-1006.00
2024-06-07 00:35:49.559947,0,0,-2,0,0,0,62,65,136,100,56,121.85,23,29.00,-22.00,-993.00
2024-06-07 00:35:49.597410,0,0,-2,0,0,0,62,65,134,100,56,121.92,23,2.00,22.00,-988.00
2024-06-07 00:35:49.794878,0,0,-2,0,0,0,62,65,134,100,56,121.87,23,47.00,-3.00,-975.00
2024-06-07 00:35:49.803694,4,0,-2,0,0,0,62,65,135,100,56,121.99,23,-1.00,-6.00,-1016.00
2024-06-07 00:35:49.904142,8,0,-2,0,0,0,62,65,135,100,56,121.88,23,-1.00,22.00,-1034.00
2024-06-07 00:35:50.101928,8,0,-2,-2,0,0,62,65,136,100,56,121.96,24,19.00,4.00,-991.00
2024-06-07 00:35:50.107381,8,0,-2,-3,0,0,62,65,136,100,56,121.96,24,30.00,1.00,-1018.00
2024-06-07 00:35:50.307252,8,0,-2,-5,0,0,62,65,136,90,56,121.93,24,72.00,-10.00,-1061.00
2024-06-07 00:35:50.313592,7,0,-2,-6,0,0,62,65,136,90,56,121.85,24,38.00,19.00,-1002.00
2024-06-07 00:35:50.413671,5,0,-2,-7,0,0,62,65,135,90,56,121.86,24,49.00,8.00,-990.00
2024-06-07 00:35:50.613900,4,0,-2,-7,0,0,62,65,135,90,55,121.84,24,37.00,-3.00,-966.00
2024-06-07 00:35:50.617718,3,0,-2,-8,0,0,63,65,135,90,55,121.91,24,69.00,4.00,-988.00
2024-06-07 00:35:50.719570,0,0,-2,-7,0,0,63,65,135,100,55,121.89,24,69.00,4.00,-1014.00
2024-06-07 00:35:50.822249,-2,0,-2,-7,0,0,63,65,136,100,55,121.90,24,44.00,-2.00,-952.00
2024-06-07 00:35:50.923254,-4,0,-2,-6,0,0,63,65,136,100,55,121.89,24,36.00,10.00,-1007.00
2024-06-07 00:35:51.025643,-4,0,-2,-4,0,0,63,65,136,100,55,121.91,25,89.00,-22.00,-1032.00
2024-06-07 00:35:51.127539,-2,0,-2,-3,0,0,63,65,137,100,55,121.86,25,12.00,15.00,-990.00
2024-06-07 00:35:51.229810,0,0,-2,-3,0,0,63,65,136,100,55,121.92,25,64.00,-9.00,-1016.00
2024-06-07 00:35:51.433437,0,0,-2,-3,0,0,63,65,136,100,55,121.94,25,12.00,-6.00,-987.00
2024-06-07 00:35:51.434176,0,0,-2,-2,0,0,63,65,136,100,55,121.99,25,36.00,-5.00,-995.00
2024-06-07 00:35:51.535340,0,0,-2,-2,0,0,63,65,136,100,55,121.99,25,8.00,13.00,-997.00
2024-06-07 00:35:51.638296,0,0,-2,-2,0,0,63,65,136,100,55,121.90,25,42.00,-9.00,-1018.00
2024-06-07 00:35:51.740691,0,0,-2,-2,0,0,63,65,135,100,55,121.97,25,1.00,-1.00,-1035.00
2024-06-07 00:35:51.842675,-3,0,-2,-2,0,0,63,65,136,100,55,121.95,25,31.00,-5.00,-973.00
2024-06-07 00:35:51.943383,-4,0,-2,-1,0,0,63,65,136,100,55,121.97,25,8.00,5.00,-1013.00
2024-06-07 00:35:52.115866,-2,0,-2,0,0,0,63,65,136,100,55,121.94,26,-1.00,10.00,-938.00
2024-06-07 00:35:52.147604,-1,0,-2,0,0,0,63,65,136,100,55,121.97,26,26.00,-1.00,-1024.00
2024-06-07 00:35:52.266248,0,0,-2,0,0,0,63,65,135,100,55,122.00,26,40.00,-6.00,-1017.00
2024-06-07 00:35:52.377571,0,0,-2,0,0,0,63,65,137,100,55,121.95,26,12.00,-5.00,-981.00
2024-06-07 00:35:52.402685,0,0,-2,0,0,0,63,65,137,100,55,121.98,26,-18.00,-2.00,-968.00
2024-06-07 00:35:52.525045,0,0,-2,0,0,0,63,65,137,100,54,122.01,26,3.00,-2.00,-1006.00
2024-06-07 00:35:52.606688,0,0,-2,0,0,0,63,65,137,100,54,121.94,26,18.00,0.00,-1001.00
2024-06-07 00:35:52.765290,0,0,-2,0,0,0,63,65,137,100,54,121.96,26,4.00,0.00,-996.00
2024-06-07 00:35:52.866825,0,0,-2,0,0,0,63,65,136,100,54,122.00,26,-10.00,-7.00,-967.00
2024-06-07 00:35:53.011879,0,0,-2,0,0,0,63,65,137,100,54,121.98,26,-12.00,11.00,-1029.00
2024-06-07 00:35:53.014643,0,0,-2,0,0,0,63,65,137,100,54,121.96,27,29.00,-2.00,-1091.00
2024-06-07 00:35:53.222967,0,0,-2,0,0,0,63,65,137,100,54,121.98,27,12.00,-1.00,-982.00
2024-06-07 00:35:53.223125,0,0,-2,0,0,0,63,65,136,100,54,122.00,27,-7.00,0.00,-1002.00
2024-06-07 00:35:53.366036,0,0,-2,0,0,0,63,65,137,100,54,122.01,27,14.00,-9.00,-1097.00
2024-06-07 00:35:53.510392,0,0,-2,0,0,0,63,65,138,100,54,122.02,27,-10.00,9.00,-1009.00
2024-06-07 00:35:53.524289,0,0,-2,0,0,0,63,65,138,100,54,122.04,27,-4.00,7.00,-907.00
2024-06-07 00:35:53.653267,0,0,-2,0,0,0,64,65,138,100,54,122.03,27,13.00,-2.00,-1002.00
2024-06-07 00:35:53.799335,0,0,-2,0,0,0,64,65,138,100,54,122.00,27,-17.00,0.00,-945.00
2024-06-07 00:35:53.953460,0,0,-2,0,0,0,64,65,138,100,54,122.06,27,0.00,3.00,-986.00
2024-06-07 00:35:53.953800,0,0,-2,0,0,0,64,65,139,100,54,122.04,28,0.00,4.00,-1010.00
2024-06-07 00:35:54.034714,0,0,-2,0,0,0,64,65,139,100,54,121.98,28,-24.00,10.00,-951.00
2024-06-07 00:35:54.197911,0,-4,-2,0,0,0,64,65,140,100,54,122.00,28,1.00,20.00,-1001.00
2024-06-07 00:35:54.239437,0,-8,-2,0,-1,0,64,65,141,100,54,122.07,28,-3.00,-8.00,-994.00
2024-06-07 00:35:54.402687,0,-6,-2,0,-2,0,64,65,142,100,54,122.02,28,23.00,-3.00,-987.00
2024-06-07 00:35:54.443460,0,-4,-2,0,-3,0,64,65,143,100,54,122.01,28,-10.00,4.00,-948.00
2024-06-07 00:35:54.607509,0,-1,-2,0,-4,0,64,65,142,100,53,122.09,28,12.00,21.00,-1000.00
2024-06-07 00:35:54.646055,0,1,-2,0,-4,0,63,66,143,100,53,122.02,28,-5.00,2.00,-967.00
2024-06-07 00:35:54.812286,0,1,-2,0,-3,0,63,66,143,100,53,122.01,28,-36.00,37.00,-939.00
2024-06-07 00:35:54.850732,0,0,-2,0,-2,0,63,66,144,100,53,121.98,28,2.00,10.00,-1060.00
2024-06-07 00:35:55.017920,0,0,-2,0,-2,0,63,66,143,100,53,122.01,29,37.00,19.00,-1002.00
2024-06-07 00:35:55.054250,0,-1,-2,0,-2,0,63,66,143,100,53,121.99,29,11.00,3.00,-978.00
2024-06-07 00:35:55.222218,0,-1,-2,0,-2,0,63,66,143,100,53,122.01,29,-3.00,-8.00,-939.00
2024-06-07 00:35:55.257894,0,-1,-2,0,-2,0,63,66,143,100,53,122.01,29,7.00,24.00,-1054.00
2024-06-07 00:35:55.426633,0,-1,-2,0,-2,0,63,66,142,100,53,121.98,29,22.00,9.00,-1008.00
2024-06-07 00:35:55.461797,0,0,-2,0,-2,0,63,66,141,100,53,122.02,29,10.00,15.00,-1000.00
2024-06-07 00:35:55.631420,0,0,-2,0,-2,0,63,66,141,100,53,122.02,29,-11.00,32.00,-1004.00
2024-06-07 00:35:55.669360,0,0,-2,0,-2,0,64,66,140,100,53,122.00,29,39.00,6.00,-1023.00
2024-06-07 00:35:55.767928,0,0,-2,0,-2,0,64,66,140,100,53,122.02,29,-25.00,8.00,-986.00
2024-06-07 00:35:55.938859,0,0,-2,0,-2,0,64,66,140,100,53,122.02,29,5.00,30.00,-1013.00
2024-06-07 00:35:55.972070,0,0,-2,0,-2,0,64,66,139,100,53,121.91,30,-13.00,19.00,-914.00
2024-06-07 00:35:56.144125,0,1,-2,0,-2,0,64,66,139,100,53,121.99,30,7.00,-20.00,-1091.00
2024-06-07 00:35:56.176501,0,5,-2,0,-1,0,64,66,139,100,53,122.01,30,22.00,6.00,-971.00
2024-06-07 00:35:56.348403,0,2,-2,0,0,0,64,66,138,100,53,122.01,30,23.00,-11.00,-1019.00
2024-06-07 00:35:56.379961,0,1,-2,0,0,0,64,66,137,100,53,122.01,30,13.00,-5.00,-1077.00
2024-06-07 00:35:56.430958,0,0,-2,0,0,0,64,66,138,100,53,121.98,30,31.00,0.00,-1057.00
2024-06-07 00:35:56.554051,0,0,-2,0,0,0,64,66,138,100,52,121.96,30,-19.00,2.00,-861.00
2024-06-07 00:35:56.757825,0,0,-2,0,0,0,64,66,138,100,52,122.03,30,-41.00,-3.00,-918.00
2024-06-07 00:35:56.758166,0,0,-2,0,0,0,64,66,138,100,52,122.02,30,-34.00,0.00,-828.00
2024-06-07 00:35:56.838954,0,0,-2,0,0,0,64,66,138,100,52,122.04,30,-42.00,-12.00,-964.00
2024-06-07 00:35:56.963811,0,0,-2,0,0,0,64,66,138,100,52,122.03,31,32.00,-19.00,-1126.00
2024-06-07 00:35:57.043154,0,0,-2,0,0,0,64,66,139,100,52,121.97,31,56.00,-15.00,-1044.00
2024-06-07 00:35:57.167473,0,0,-2,0,0,0,64,66,140,100,52,122.04,31,-13.00,-13.00,-938.00
2024-06-07 00:35:57.247301,0,0,-2,0,0,0,64,66,139,100,52,122.05,31,-41.00,-14.00,-948.00
2024-06-07 00:35:57.372291,0,0,-2,0,0,0,64,66,139,100,52,122.06,31,39.00,-20.00,-999.00
2024-06-07 00:35:57.450861,0,0,-2,0,0,0,64,66,139,100,52,122.00,31,37.00,-31.00,-1056.00
2024-06-07 00:35:57.577364,0,0,-2,0,0,0,64,66,140,100,52,122.08,31,-53.00,23.00,-996.00
2024-06-07 00:35:57.654838,0,0,-2,0,0,0,65,67,140,100,52,122.05,31,28.00,-30.00,-959.00
2024-06-07 00:35:57.781749,0,0,-2,0,0,0,65,67,140,100,52,122.11,31,0.00,-2.00,-1010.00
2024-06-07 00:35:57.859268,0,0,-2,0,0,0,65,67,139,100,52,122.09,31,4.00,-13.00,-958.00
2024-06-07 00:35:57.986637,0,0,-2,0,0,0,65,67,140,100,52,122.08,32,8.00,4.00,-971.00
2024-06-07 00:35:58.065536,0,0,-2,0,0,0,65,67,139,100,52,122.09,32,-12.00,4.00,-978.00
2024-06-07 00:35:58.164917,0,0,-2,0,0,0,65,67,139,100,52,122.05,32,25.00,-16.00,-997.00
2024-06-07 00:35:58.294502,0,0,-2,0,0,0,65,67,139,100,52,122.07,32,-63.00,0.00,-944.00
2024-06-07 00:35:58.369119,0,0,-2,0,0,0,65,67,139,100,52,122.08,32,58.00,-31.00,-1088.00
2024-06-07 00:35:58.498718,0,0,-2,0,0,0,65,67,138,100,52,122.02,32,-3.00,-13.00,-998.00
2024-06-07 00:35:58.572561,0,4,-2,0,0,0,65,67,140,100,51,122.04,32,19.00,-21.00,-1013.00
2024-06-07 00:35:58.703353,0,8,-2,0,1,0,65,67,140,100,51,122.02,32,50.00,-17.00,-1049.00
2024-06-07 00:35:58.776824,0,6,-2,0,2,0,65,67,138,100,51,122.05,32,20.00,-36.00,-1032.00
2024-06-07 00:35:58.908144,0,4,-2,0,3,0,65,67,137,100,51,121.99,32,-19.00,8.00,-941.00
2024-06-07 00:35:58.980651,0,1,-2,0,4,0,65,67,135,100,51,122.06,33,2.00,-26.00,-945.00
2024-06-07 00:35:59.113656,0,-1,-2,0,4,0,65,67,133,100,51,122.03,33,46.00,-71.00,-951.00
2024-06-07 00:35:59.184687,0,-1,-2,0,3,0,65,67,133,100,51,122.02,33,31.00,-31.00,-997.00
2024-06-07 00:35:59.317675,0,0,-2,0,3,0,65,67,132,100,51,121.99,33,-49.00,2.00,-1045.00
2024-06-07 00:35:59.388855,0,0,-2,0,2,0,65,67,131,100,51,121.97,33,-16.00,-4.00,-954.00
2024-06-07 00:35:59.522466,0,0,-2,0,2,0,65,67,130,100,51,122.03,33,37.00,-39.00,-984.00
2024-06-07 00:35:59.592614,0,0,-2,0,2,0,65,67,130,100,51,122.02,33,15.00,-13.00,-1033.00
2024-06-07 00:35:59.727640,0,0,-2,0,2,0,64,67,129,90,51,122.05,33,-4.00,-2.00,-967.00
2024-06-07 00:35:59.796568,0,0,-2,0,3,0,64,67,128,90,51,121.94,33,-4.00,-18.00,-1051.00
2024-06-07 00:35:59.932090,0,-1,-2,0,3,0,64,67,127,90,51,122.03,33,25.00,-23.00,-985.00
2024-06-07 00:36:00.001228,0,-5,-2,0,2,0,64,67,128,90,51,121.95,34,-41.00,-16.00,-990.00
2024-06-07 00:36:00.136883,0,-4,-2,0,1,0,64,67,127,90,51,121.98,34,-40.00,-3.00,-1071.00
2024-06-07 00:36:00.204704,0,-2,-2,0,0,0,64,67,127,90,51,121.93,34,-29.00,10.00,-957.00
2024-06-07 00:36:00.342448,0,-1,-2,0,0,0,64,67,127,90,51,121.98,34,-2.00,18.00,-927.00
2024-06-07 00:36:00.359757,0,-1,-2,0,0,0,64,67,128,90,51,122.02,34,40.00,-4.00,-1038.00
2024-06-07 00:36:00.459637,0,0,-2,0,0,0,64,67,128,90,50,122.03,34,22.00,-21.00,-1045.00
2024-06-07 00:36:00.649320,0,0,-2,0,0,0,64,67,128,90,50,121.98,34,47.00,-19.00,-1018.00
2024-06-07 00:36:00.663821,0,-1,-2,0,0,0,64,66,129,90,50,121.96,34,-10.00,18.00,-947.00
2024-06-07 00:36:00.856319,0,-1,-2,0,0,0,64,66,129,90,50,121.97,34,-32.00,45.00,-933.00
2024-06-07 00:36:00.867616,0,-1,-2,0,0,0,64,66,129,90,50,122.01,34,-22.00,14.00,-889.00
2024-06-07 00:36:01.058470,0,-1,-2,0,0,0,64,66,129,90,50,121.96,35,-1.00,20.00,-1000.00
2024-06-07 00:36:01.071442,0,-1,-2,0,0,0,64,66,130,90,50,122.00,35,-50.00,17.00,-974.00
2024-06-07 00:36:01.263468,0,-1,-2,0,0,0,64,66,130,90,50,122.01,35,19.00,-2.00,-1038.00
2024-06-07 00:36:01.275584,0,-1,-2,0,0,0,64,66,131,90,50,122.03,35,1.00,35.00,-1038.00
2024-06-07 00:36:01.468561,0,-1,-2,0,0,0,64,66,131,90,50,121.95,35,-49.00,28.00,-977.00
2024-06-07 00:36:01.479496,0,-1,-2,0,0,0,64,66,133,90,50,122.00,35,4.00,-3.00,-1023.00
2024-06-07 00:36:01.663116,0,-1,-2,0,0,0,64,66,134,90,50,122.07,35,68.00,-31.00,-988.00
2024-06-07 00:36:01.683439,0,-1,-2,0,0,0,65,67,135,90,50,122.13,35,64.00,8.00,-1104.00
2024-06-07 00:36:01.877854,0,-1,-2,0,0,0,65,67,136,100,50,122.08,35,-13.00,12.00,-955.00
2024-06-07 00:36:01.887427,0,0,-2,0,0,0,65,67,137,100,50,122.06,35,42.00,-11.00,-1033.00
2024-06-07 00:36:02.083228,0,0,-2,0,0,0,65,67,138,100,50,122.00,36,-38.00,1.00,-971.00
2024-06-07 00:36:02.091753,0,0,-2,0,0,0,65,67,140,100,50,122.13,36,5.00,8.00,-1051.00
2024-06-07 00:36:02.193538,0,-1,-2,0,0,0,65,67,139,100,50,122.09,36,29.00,-7.00,-992.00
2024-06-07 00:36:02.364064,0,-1,-2,0,0,0,65,67,141,100,50,122.03,36,-26.00,7.00,-965.00
2024-06-07 00:36:02.397807,0,-1,2,0,0,0,65,67,143,100,50,122.10,36,16.00,1.00,-933.00
2024-06-07 00:36:02.595202,0,-1,7,0,0,0,65,67,143,100,49,122.11,36,-34.00,24.00,-1012.00
2024-06-07 00:36:02.601697,0,-1,13,0,0,0,65,67,144,100,49,122.12,36,-3.00,-13.00,-988.00
2024-06-07 00:36:02.799184,0,-1,19,0,0,0,65,68,144,100,49,122.12,36,5.00,-5.00,-998.00
2024-06-07 00:36:02.807005,0,0,25,0,0,0,65,68,144,100,49,122.14,36,65.00,7.00,-1060.00
2024-06-07 00:36:02.908745,0,0,31,0,0,0,65,68,143,100,49,122.17,36,3.00,-24.00,-934.00
2024-06-07 00:36:03.009584,0,0,38,0,0,0,65,68,144,100,49,122.18,37,25.00,-15.00,-944.00
2024-06-07 00:36:03.208773,0,0,44,0,0,0,65,68,143,100,49,122.05,37,-26.00,9.00,-984.00
2024-06-07 00:36:03.213317,0,0,50,0,0,0,65,68,142,100,49,122.09,37,-45.00,14.00,-899.00
2024-06-07 00:36:03.413800,0,0,56,0,0,0,65,68,141,100,49,122.11,37,23.00,12.00,-940.00
2024-06-07 00:36:03.417224,0,0,62,0,0,0,65,68,141,100,49,122.10,37,50.00,7.00,-1073.00
2024-06-07 00:36:03.618287,0,0,68,0,0,0,65,68,140,100,49,122.09,37,-7.00,2.00,-975.00
2024-06-07 00:36:03.621575,1,0,74,0,0,0,65,68,139,100,49,122.06,37,11.00,27.00,-905.00
2024-06-07 00:36:03.723305,1,0,80,0,0,0,65,68,139,100,49,122.11,37,0.00,10.00,-1002.00
2024-06-07 00:36:03.825279,0,0,86,0,0,0,65,68,137,100,49,122.01,37,4.00,20.00,-939.00
2024-06-07 00:36:03.927276,0,0,92,0,0,0,65,68,137,100,49,122.03,37,14.00,10.00,-1071.00
2024-06-07 00:36:04.130626,0,0,97,0,0,0,65,68,136,100,49,122.02,38,52.00,-32.00,-977.00
2024-06-07 00:36:04.131618,0,0,103,0,0,0,65,68,135,100,49,122.07,38,-7.00,-1.00,-973.00
2024-06-07 00:36:04.335089,0,0,109,0,0,0,65,68,136,100,49,122.09,38,56.00,-31.00,-1012.00
2024-06-07 00:36:04.335321,0,0,115,0,0,0,65,68,135,100,49,122.04,38,10.00,9.00,-1018.00
2024-06-07 00:36:04.389782,0,0,121,0,0,0,65,68,134,100,49,122.01,38,0.00,28.00,-935.00
2024-06-07 00:36:04.488372,0,0,127,0,0,0,65,68,133,100,48,122.02,38,-16.00,2.00,-904.00
2024-06-07 00:36:04.642284,0,0,133,0,0,0,65,68,133,100,48,122.03,38,-42.00,27.00,-933.00
2024-06-07 00:36:04.744761,0,0,139,0,0,0,66,67,132,100,48,121.99,38,-16.00,31.00,-1000.00
2024-06-07 00:36:04.794918,0,0,145,0,0,0,66,67,133,100,48,122.00,38,-25.00,21.00,-1079.00
2024-06-07 00:36:04.949474,0,0,151,0,0,0,66,67,132,100,48,122.00,38,10.00,-7.00,-1024.00
2024-06-07 00:36:04.998843,0,0,157,0,0,0,66,67,132,100,48,122.00,39,-6.00,-4.00,-1017.00
2024-06-07 00:36:05.156590,0,1,163,0,0,0,66,67,132,100,48,121.96,39,-19.00,13.00,-1040.00
2024-06-07 00:36:05.203534,0,1,169,0,0,0,66,67,132,100,48,122.00,39,-14.00,2.00,-955.00
2024-06-07 00:36:05.359075,0,1,175,0,0,0,66,67,132,100,48,121.91,39,20.00,7.00,-1100.00
2024-06-07 00:36:05.406412,0,1,-178,0,0,0,66,67,132,100,48,122.04,39,-25.00,-4.00,-987.00
2024-06-07 00:36:05.563855,0,1,-172,0,0,0,66,67,132,100,48,122.02,39,-50.00,21.00,-975.00
2024-06-07 00:36:05.610104,0,1,-166,0,0,0,66,67,131,100,48,121.97,39,-12.00,9.00,-951.00
2024-06-07 00:36:05.770352,0,1,-160,0,0,0,66,68,132,100,48,121.99,39,-12.00,0.00,-891.00
2024-06-07 00:36:05.816037,0,1,-154,0,0,0,66,68,132,100,48,121.94,39,28.00,-23.00,-1113.00
2024-06-07 00:36:05.916098,0,0,-148,0,0,0,66,68,133,100,48,121.94,39,26.00,-20.00,-1077.00
2024-06-07 00:36:06.075805,0,0,-142,0,0,0,66,68,133,100,48,122.02,40,38.00,1.00,-1050.00
2024-06-07 00:36:06.120575,0,0,-136,0,0,0,66,68,133,100,48,121.98,40,38.00,-8.00,-1010.00
2024-06-07 00:36:06.280510,0,0,-130,0,0,0,66,68,133,100,48,121.93,40,-55.00,16.00,-929.00
2024-06-07 00:36:06.323956,0,0,-123,0,0,0,66,68,134,100,48,121.98,40,-22.00,16.00,-998.00
2024-06-07 00:36:06.426006,0,0,-117,0,0,0,66,68,133,100,48,121.97,40,-5.00,0.00,-1150.00
2024-06-07 00:36:06.590773,-1,0,-111,0,0,0,66,68,134,100,47,122.05,40,-27.00,7.00,-959.00
2024-06-07 00:36:06.630618,-1,0,-105,0,0,0,66,68,133,100,47,121.98,40,4.00,-3.00,-995.00
2024-06-07 00:36:06.792537,-1,0,-99,0,0,0,66,67,133,100,47,122.02,40,-24.00,36.00,-918.00
2024-06-07 00:36:06.834381,0,0,-93,0,0,0,66,67,133,100,47,121.99,40,19.00,14.00,-994.00
2024-06-07 00:36:07.111691,0,0,-87,0,0,0,66,67,134,100,47,122.04,40,16.00,-8.00,-1047.00
2024-06-07 00:36:07.111775,0,0,-81,0,0,0,66,67,134,100,47,122.05,41,67.00,-10.00,-1046.00
2024-06-07 00:36:07.141387,0,0,-75,0,0,0,66,67,134,100,47,122.05,41,-24.00,1.00,-1023.00
2024-06-07 00:36:07.344402,0,0,-69,0,0,0,66,67,134,100,47,122.06,41,-7.00,23.00,-1092.00
2024-06-07 00:36:07.344456,0,0,-63,0,0,0,66,67,134,100,47,122.06,41,69.00,-20.00,-1043.00
2024-06-07 00:36:07.445875,0,0,-57,0,0,0,66,67,134,100,47,122.04,41,-8.00,32.00,-979.00
2024-06-07 00:36:07.581288,0,0,-51,0,0,0,66,67,135,100,47,122.08,41,0.00,19.00,-944.00
2024-06-07 00:36:07.662204,0,0,-45,0,0,0,66,67,134,100,47,122.05,41,-40.00,4.00,-1034.00
2024-06-07 00:36:07.758451,0,0,-32,0,0,0,66,69,134,100,47,122.04,41,84.00,-10.00,-1100.00
2024-06-07 00:36:07.853871,0,0,-26,0,0,0,66,69,134,100,47,122.02,41,1.00,-22.00,-1103.00
2024-06-07 00:36:07.994976,0,0,-20,0,0,0,66,69,134,100,47,122.09,42,19.00,5.00,-971.00
2024-06-07 00:36:08.058176,0,0,-16,0,0,0,66,69,134,100,47,122.10,42,31.00,9.00,-1040.00
2024-06-07 00:36:08.237659,0,0,-13,0,0,0,66,69,134,100,47,122.05,42,-16.00,7.00,-1107.00
2024-06-07 00:36:08.261948,0,0,-10,0,0,0,66,69,134,100,47,122.07,42,50.00,-5.00,-1068.00
2024-06-07 00:36:08.381337,0,0,-8,0,0,0,66,69,134,100,47,122.09,42,4.00,11.00,-937.00
2024-06-07 00:36:08.416415,0,0,-6,0,0,0,66,69,133,100,47,121.99,42,-45.00,45.00,-880.00
2024-06-07 00:36:08.544446,0,0,-5,0,0,0,66,69,134,100,46,122.07,42,41.00,11.00,-1039.00
2024-06-07 00:36:08.687477,0,0,-4,0,0,0,66,69,133,100,46,122.05,42,-18.00,12.00,-966.00
2024-06-07 00:36:08.727495,0,0,-4,0,0,0,66,69,133,100,46,122.08,42,11.00,0.00,-1051.00
2024-06-07 00:36:08.851539,0,0,-4,0,0,0,66,69,133,100,46,122.16,42,-53.00,30.00,-1033.00
2024-06-07 00:36:08.925097,0,0,-4,0,0,0,66,69,132,100,46,122.11,43,62.00,-15.00,-922.00
2024-06-07 00:36:09.045423,0,0,-4,0,0,0,66,69,133,100,46,122.14,43,-36.00,18.00,-1011.00
2024-06-07 00:36:09.128983,0,0,-4,0,0,0,66,69,132,100,46,122.06,43,-20.00,24.00,-1023.00
2024-06-07 00:36:09.250188,0,0,-4,0,0,0,66,69,132,100,46,122.06,43,4.00,1.00,-1014.00
2024-06-07 00:36:09.332986,0,0,-4,0,0,0,66,69,132,90,46,122.12,43,8.00,9.00,-975.00
2024-06-07 00:36:09.435006,0,-1,-4,0,0,0,66,69,132,90,46,122.12,43,-22.00,8.00,-967.00
2024-06-07 00:36:09.557436,0,-1,-4,0,0,0,66,69,133,90,46,122.08,43,36.00,15.00,-1087.00
2024-06-07 00:36:09.638865,0,-1,-4,0,0,0,66,69,132,90,46,122.12,43,38.00,-27.00,-1006.00
2024-06-07 00:36:09.762188,0,0,-4,0,0,0,66,69,133,90,46,122.15,43,3.00,12.00,-1061.00
2024-06-07 00:36:09.843270,0,0,-4,0,0,0,66,69,134,100,46,122.15,43,1.00,10.00,-956.00
2024-06-07 00:36:09.967039,0,0,-4,0,0,0,66,69,135,100,46,122.12,44,37.00,2.00,-1033.00
2024-06-07 00:36:10.046747,0,0,-4,0,0,0,66,69,134,100,46,122.09,44,-82.00,66.00,-909.00
2024-06-07 00:36:10.172114,0,0,-4,0,0,0,66,69,135,100,46,122.14,44,10.00,19.00,-981.00
2024-06-07 00:36:10.250863,0,0,-4,0,0,0,66,69,136,100,46,122.16,44,6.00,-2.00,-1050.00
2024-06-07 00:36:10.377485,0,0,-4,0,0,0,66,69,137,100,46,122.17,44,-81.00,43.00,-968.00
2024-06-07 00:36:10.454761,0,0,-4,0,0,0,66,69,137,100,46,122.13,44,1.00,28.00,-890.00
2024-06-07 00:36:10.581777,0,-1,-4,0,0,0,66,69,138,100,45,122.21,44,-5.00,28.00,-1032.00
2024-06-07 00:36:10.658907,0,-1,-4,0,0,0,66,69,139,100,45,122.24,44,36.00,-16.00,-1119.00
2024-06-07 00:36:10.760715,0,-1,-4,0,0,0,67,69,139,100,45,122.18,44,-21.00,12.00,-904.00
2024-06-07 00:36:10.888429,0,-1,-6,0,0,0,67,69,139,100,45,122.19,44,-7.00,28.00,-1036.00
2024-06-07 00:36:10.964739,0,0,-12,0,0,0,67,69,141,100,45,122.24,45,43.00,0.00,-998.00
2024-06-07 00:36:11.093220,0,0,-18,0,0,0,67,69,140,100,45,122.21,45,-6.00,22.00,-970.00
2024-06-07 00:36:11.169243,0,0,-23,0,0,0,67,69,142,100,45,122.24,45,13.00,17.00,-875.00
2024-06-07 00:36:11.298053,0,0,-29,0,0,0,67,69,142,100,45,122.22,45,0.00,25.00,-1014.00
2024-06-07 00:36:11.372721,1,0,-35,0,0,0,67,69,142,100,45,122.24,45,-66.00,44.00,-987.00
2024-06-07 00:36:11.474723,0,-1,-41,0,0,0,67,69,141,100,45,122.23,45,-84.00,50.00,-823.00
2024-06-07 00:36:11.605214,0,0,-47,0,0,0,67,69,142,100,45,122.21,45,49.00,-10.00,-1011.00
2024-06-07 00:36:11.680127,0,0,-53,0,0,0,67,69,141,100,45,122.24,45,-22.00,14.00,-992.00
2024-06-07 00:36:11.780671,0,0,-59,0,0,0,66,70,140,100,45,122.25,45,-40.00,29.00,-899.00
2024-06-07 00:36:11.912376,0,0,-65,0,0,0,66,70,139,100,45,122.26,45,19.00,0.00,-1055.00
2024-06-07 00:36:11.984494,0,0,-71,0,0,0,66,70,139,100,45,122.18,46,0.00,0.00,-1014.00
2024-06-07 00:36:12.117759,-1,0,-77,0,0,0,66,70,137,100,45,122.19,46,56.00,-17.00,-961.00
2024-06-07 00:36:12.189574,0,0,-83,0,0,0,66,70,136,100,45,122.17,46,54.00,-1.00,-997.00
2024-06-07 00:36:12.326073,0,0,-89,0,0,0,66,70,136,100,45,122.19,46,39.00,-13.00,-1035.00
2024-06-07 00:36:12.393137,0,0,-94,0,0,0,66,70,136,100,45,122.17,46,53.00,-28.00,-1120.00
2024-06-07 00:36:12.526784,0,0,-100,0,0,0,66,70,135,100,45,122.22,46,-25.00,11.00,-1012.00
2024-06-07 00:36:12.545467,0,0,-106,0,0,0,66,70,136,100,44,122.18,46,29.00,-20.00,-1034.00
2024-06-07 00:36:12.731456,0,1,-112,0,0,0,66,70,136,100,44,122.19,46,-32.00,19.00,-963.00
2024-06-07 00:36:12.800516,0,0,-117,0,0,0,67,70,136,100,44,122.15,46,43.00,-3.00,-953.00
2024-06-07 00:36:12.937316,0,0,-123,0,0,0,67,70,136,100,44,122.16,46,8.00,1.00,-1027.00
2024-06-07 00:36:13.004534,0,0,-129,0,0,0,67,70,137,100,44,122.18,47,-27.00,18.00,-1029.00
2024-06-07 00:36:13.055507,0,1,-135,0,0,0,67,70,137,100,44,122.29,47,33.00,3.00,-943.00
2024-06-07 00:36:13.243479,0,1,-141,0,0,0,67,70,138,100,44,122.20,47,-27.00,9.00,-1002.00
2024-06-07 00:36:13.259555,0,1,-146,0,0,0,67,70,138,100,44,122.23,47,29.00,6.00,-889.00
2024-06-07 00:36:13.448264,0,1,-152,0,0,0,67,70,139,100,44,122.24,47,35.00,-2.00,-1043.00
2024-06-07 00:36:13.463522,0,1,-158,0,0,0,67,70,139,100,44,122.29,47,-22.00,56.00,-860.00
2024-06-07 00:36:13.653048,0,1,-164,0,0,0,67,70,140,100,44,122.34,47,40.00,-29.00,-1084.00
2024-06-07 00:36:13.667727,0,1,-170,0,0,0,67,70,141,100,44,122.32,47,-24.00,18.00,-1071.00
2024-06-07 00:36:13.857910,0,1,-176,0,0,0,68,69,143,100,44,122.33,47,-3.00,49.00,-875.00
2024-06-07 00:36:13.871472,0,1,177,0,0,0,68,69,144,100,44,122.32,47,37.00,5.00,-970.00
2024-06-07 00:36:14.062698,1,0,171,0,0,0,68,69,146,100,44,122.31,48,90.00,-27.00,-1052.00
2024-06-07 00:36:14.077774,1,0,165,0,0,0,68,69,148,100,44,122.42,48,6.00,12.00,-942.00
2024-06-07 00:36:14.177467,1,1,158,0,0,0,68,69,148,100,44,122.34,48,16.00,10.00,-993.00
2024-06-07 00:36:14.369894,0,0,152,0,0,0,68,69,150,100,44,122.32,48,28.00,11.00,-1014.00
2024-06-07 00:36:14.381331,0,0,146,0,0,0,68,69,151,100,44,122.34,48,15.00,18.00,-896.00
2024-06-07 00:36:14.483397,0,0,140,0,0,0,68,69,152,110,43,122.32,48,-36.00,31.00,-915.00
2024-06-07 00:36:14.677095,0,0,134,0,0,0,68,69,151,110,43,122.32,48,-19.00,2.00,-936.00
2024-06-07 00:36:14.687851,1,0,128,0,0,0,68,69,152,110,43,122.32,48,24.00,-7.00,-1017.00
2024-06-07 00:36:14.881847,1,0,122,0,0,0,67,70,152,110,43,122.33,48,43.00,4.00,-985.00
2024-06-07 00:36:14.891370,1,0,116,0,0,0,67,70,151,110,43,122.35,48,16.00,7.00,-889.00
2024-06-07 00:36:15.086682,1,0,110,0,0,0,67,70,149,110,43,122.30,49,0.00,28.00,-929.00
2024-06-07 00:36:15.095328,1,0,105,0,0,1,67,70,147,110,43,122.33,49,87.00,-31.00,-970.00
2024-06-07 00:36:15.292130,0,0,99,0,0,1,67,70,146,100,43,122.32,49,-61.00,45.00,-942.00
2024-06-07 00:36:15.300031,0,0,93,0,0,1,67,70,144,100,43,122.24,49,40.00,-5.00,-1047.00
2024-06-07 00:36:15.496268,0,0,87,0,0,1,67,70,143,100,43,122.26,49,-27.00,59.00,-904.00
2024-06-07 00:36:15.503351,1,0,81,0,0,0,67,70,141,100,43,122.24,49,-23.00,28.00,-934.00
2024-06-07 00:36:15.700995,1,0,75,0,0,0,67,70,140,100,43,122.25,49,-1.00,20.00,-1037.00
2024-06-07 00:36:15.707921,1,0,69,0,0,0,67,70,140,100,43,122.22,49,31.00,25.00,-973.00
2024-06-07 00:36:15.907066,1,0,64,0,0,0,67,69,138,100,43,122.23,49,33.00,-9.00,-1081.00
2024-06-07 00:36:15.912841,0,0,58,0,0,0,67,69,137,100,43,122.16,49,42.00,18.00,-945.00
2024-06-07 00:36:16.013319,0,0,52,0,0,0,67,69,135,100,43,122.10,50,-17.00,-11.00,-902.00
2024-06-07 00:36:16.213008,0,0,46,0,0,0,67,69,134,100,43,122.13,50,44.00,-32.00,-1075.00
2024-06-07 00:36:16.217263,0,0,41,0,0,0,67,69,134,100,43,122.09,50,27.00,-4.00,-1011.00
2024-06-07 00:36:16.418005,0,0,35,0,0,0,67,69,132,100,43,122.12,50,44.00,7.00,-989.00
2024-06-07 00:36:16.421310,0,0,29,0,0,0,67,69,131,100,43,122.13,50,13.00,9.00,-1015.00
2024-06-07 00:36:16.525965,0,0,23,0,0,0,67,69,129,100,42,122.08,50,82.00,-20.00,-968.00
2024-06-07 00:36:16.625346,0,0,17,0,0,0,67,69,128,100,42,122.09,50,88.00,-14.00,-1102.00
2024-06-07 00:36:16.727582,0,0,12,0,0,0,67,69,127,100,42,122.07,50,1.00,14.00,-1072.00
2024-06-07 00:36:16.930430,0,0,8,0,0,0,68,70,126,100,42,122.04,50,-10.00,20.00,-1034.00
2024-06-07 00:36:16.931183,0,0,5,0,0,0,68,70,126,90,42,122.11,50,-3.00,-3.00,-964.00
2024-06-07 00:36:16.982208,0,0,3,0,0,0,68,70,125,90,42,122.05,51,62.00,-12.00,-968.00
2024-06-07 00:36:17.134909,0,0,1,0,0,0,68,70,124,90,42,122.05,51,58.00,1.00,-1023.00
2024-06-07 00:36:17.187452,0,0,0,0,0,0,68,70,123,90,42,122.02,51,-17.00,10.00,-1135.00
2024-06-07 00:36:17.339685,0,0,0,0,0,0,68,70,122,90,42,121.95,51,3.00,-8.00,-1096.00
2024-06-07 00:36:17.390209,0,0,-1,0,0,0,68,70,120,90,42,121.96,51,-47.00,24.00,-1054.00
2024-06-07 00:36:17.492301,0,0,-2,0,0,0,68,70,119,90,42,122.01,51,-64.00,53.00,-806.00
2024-06-07 00:36:17.646747,0,0,-2,0,0,0,68,70,118,90,42,122.02,51,32.00,-23.00,-1031.00
2024-06-07 00:36:17.696318,0,0,-2,0,0,0,68,70,118,90,42,121.94,51,-31.00,8.00,-1010.00
2024-06-07 00:36:17.798861,-1,0,-2,0,0,0,68,71,118,90,42,121.98,51,8.00,-29.00,-1184.00
2024-06-07 00:36:17.953856,-1,0,-2,0,0,0,68,71,118,90,42,121.99,51,30.00,-7.00,-1070.00
2024-06-07 00:36:18.002198,-1,0,-2,0,0,0,68,71,118,90,42,122.03,52,-51.00,30.00,-994.00
2024-06-07 00:36:18.158651,-1,0,-2,0,0,0,68,71,119,90,42,121.99,52,-54.00,9.00,-1029.00
2024-06-07 00:36:18.206300,0,0,-2,0,0,0,68,71,120,90,42,121.95,52,28.00,14.00,-1084.00
2024-06-07 00:36:18.363749,0,0,-2,0,0,0,68,71,121,90,42,121.98,52,-83.00,36.00,-942.00
2024-06-07 00:36:18.412424,0,0,-2,0,0,-1,68,71,123,90,42,121.98,52,17.00,-4.00,-982.00
2024-06-07 00:36:18.512228,0,0,-2,0,0,0,68,71,125,90,41,122.06,52,-36.00,25.00,-975.00
2024-06-07 00:36:18.670673,0,0,-2,0,0,0,68,71,127,90,41,122.00,52,-15.00,13.00,-1034.00
2024-06-07 00:36:18.716186,0,0,-2,0,0,0,68,71,130,90,41,122.09,52,-32.00,44.00,-874.00
2024-06-07 00:36:18.875506,0,0,-2,0,0,0,68,70,131,90,41,122.12,52,5.00,2.00,-1119.00
2024-06-07 00:36:18.920115,0,0,-2,0,0,-1,68,70,135,90,41,122.10,52,-65.00,33.00,-964.00
2024-06-07 00:36:19.080299,0,0,-2,0,0,-1,68,70,139,90,41,122.10,53,22.00,-3.00,-1025.00
2024-06-07 00:36:19.124203,-1,0,-2,0,0,-1,68,70,142,100,41,122.18,53,23.00,-23.00,-1155.00
2024-06-07 00:36:19.285626,-1,-1,-2,0,0,-1,68,70,145,100,41,122.24,53,20.00,12.00,-938.00
2024-06-07 00:36:19.328146,-1,-1,-2,0,0,-1,68,70,147,100,41,122.20,53,-33.00,17.00,-1016.00
2024-06-07 00:36:19.444922,-1,-1,-2,0,0,-1,68,70,150,100,41,122.24,53,17.00,-18.00,-913.00
2024-06-07 00:36:19.532486,-1,-1,-2,0,0,-1,68,70,152,100,41,122.24,53,-14.00,7.00,-957.00
2024-06-07 00:36:19.695457,0,0,-2,0,0,0,68,70,153,110,41,122.24,53,19.00,12.00,-983.00
2024-06-07 00:36:19.736068,0,0,-2,0,0,0,68,70,154,110,41,122.25,53,-9.00,-8.00,-887.00
2024-06-07 00:36:19.838025,0,0,-2,0,0,0,68,69,155,110,41,122.29,53,-26.00,9.00,-1013.00
2024-06-07 00:36:20.001763,0,0,-2,0,0,0,68,69,155,110,41,122.28,53,0.00,12.00,-968.00
2024-06-07 00:36:20.042952,0,-1,-2,0,0,0,68,69,155,110,41,122.28,54,-3.00,9.00,-1025.00
2024-06-07 00:36:20.206558,0,-1,-2,0,0,0,68,69,155,110,41,122.26,54,-37.00,14.00,-916.00
2024-06-07 00:36:20.248450,0,-1,-2,0,0,0,68,69,155,110,41,122.30,54,2.00,11.00,-928.00
2024-06-07 00:36:20.348623,0,-1,-2,0,0,0,68,69,155,110,41,122.30,54,47.00,-10.00,-1031.00
2024-06-07 00:36:20.399356,0,0,-2,0,0,0,68,69,153,110,41,122.29,54,-9.00,-19.00,-1090.00
2024-06-07 00:36:20.500954,0,0,-2,0,0,0,68,69,153,110,40,122.22,54,-27.00,-17.00,-908.00
2024-06-07 00:36:20.616195,0,0,-2,0,0,1,68,69,150,110,40,122.31,54,78.00,-19.00,-1031.00
2024-06-07 00:36:20.756525,0,-1,-2,0,0,0,68,69,149,110,40,122.28,54,-1.00,3.00,-1129.00
2024-06-07 00:36:20.923565,0,-1,-2,0,0,1,69,70,147,110,40,122.19,54,0.00,15.00,-1026.00
2024-06-07 00:36:20.923736,0,-1,-2,0,0,1,69,70,145,100,40,122.24,55,-47.00,21.00,-935.00
2024-06-07 00:36:21.011142,0,-1,-2,0,0,1,69,70,143,100,40,122.21,55,11.00,8.00,-1056.00
2024-06-07 00:36:21.128161,0,-1,-2,0,0,1,69,70,142,100,40,122.23,55,33.00,17.00,-1120.00
2024-06-07 00:36:21.216342,0,-1,-2,0,0,1,69,70,139,100,40,122.20,55,-10.00,23.00,-992.00
2024-06-07 00:36:21.333154,0,-1,-2,0,0,1,69,70,139,100,40,122.24,55,-46.00,15.00,-996.00
2024-06-07 00:36:21.422029,0,-1,-2,0,0,0,69,70,137,100,40,122.16,55,51.00,-32.00,-1122.00
2024-06-07 00:36:21.523670,0,-1,-2,0,0,0,69,70,136,100,40,122.10,55,16.00,-8.00,-1061.00
2024-06-07 00:36:21.623540,0,-1,-2,0,0,0,69,70,135,100,40,122.18,55,-17.00,3.00,-1113.00
2024-06-07 00:36:21.742406,0,0,-2,0,0,0,69,70,134,100,40,122.12,55,1.00,15.00,-1007.00
2024-06-07 00:36:21.827203,0,-1,-2,0,0,0,68,71,133,100,40,122.10,55,-50.00,47.00,-920.00
2024-06-07 00:36:21.947571,0,-1,-2,0,0,0,68,71,132,100,40,122.15,56,25.00,-17.00,-1146.00
2024-06-07 00:36:22.115400,0,-1,-2,0,0,0,68,71,132,90,40,122.09,56,18.00,-5.00,-1080.00
2024-06-07 00:36:22.132866,0,-1,-2,0,0,0,68,71,131,90,40,122.05,56,47.00,7.00,-1006.00
2024-06-07 00:36:22.255157,0,-1,-2,0,0,0,68,71,131,90,40,122.09,56,35.00,5.00,-1028.00
2024-06-07 00:36:22.369993,0,-1,-2,0,0,0,68,71,130,90,40,122.08,56,51.00,-2.00,-1044.00
2024-06-07 00:36:22.482680,0,-1,-2,0,0,0,68,71,130,90,40,122.11,56,-30.00,-15.00,-955.00
2024-06-07 00:36:22.541068,0,-1,-2,0,0,0,68,71,130,90,39,122.11,56,-29.00,5.00,-911.00
2024-06-07 00:36:22.869099,0,-1,-2,0,0,0,68,71,130,90,39,122.13,56,26.00,-29.00,-1079.00
2024-06-07 00:36:22.869321,0,-1,-2,0,0,0,68,71,131,90,39,122.17,56,-26.00,2.00,-906.00
2024-06-07 00:36:22.869375,0,-1,-2,0,0,0,68,70,131,90,39,122.13,56,10.00,-5.00,-984.00
2024-06-07 00:36:22.971241,0,-1,-2,0,0,0,68,70,132,90,39,122.13,57,0.00,-39.00,-1014.00
2024-06-07 00:36:23.103762,0,-1,-2,0,0,0,68,70,133,90,39,122.09,57,-9.00,5.00,-981.00
2024-06-07 00:36:23.166556,0,-1,-2,0,0,0,68,70,133,90,39,122.13,57,-31.00,46.00,-955.00
2024-06-07 00:36:23.308453,0,-1,-2,0,0,0,68,70,134,100,39,122.14,57,7.00,2.00,-1129.00
2024-06-07 00:36:23.451857,0,-1,-2,0,0,0,68,70,135,100,39,122.20,57,0.00,-26.00,-1066.00
2024-06-07 00:36:23.459215,0,-1,-2,0,0,0,68,70,136,100,39,122.17,57,0.00,13.00,-956.00
2024-06-07 00:36:23.596531,0,-1,-2,0,0,0,68,70,136,100,39,122.16,57,36.00,8.00,-1078.00
2024-06-07 00:36:23.740263,0,-1,-2,0,0,0,68,70,137,100,39,122.16,57,49.00,7.00,-1007.00
2024-06-07 00:36:23.764812,0,-1,-2,0,0,0,68,70,137,100,39,122.14,57,11.00,-29.00,-971.00
2024-06-07 00:36:23.903856,0,-1,-2,0,0,0,68,71,136,100,39,122.17,57,-12.00,-1.00,-959.00
2024-06-07 00:36:24.058275,0,-1,-2,0,0,0,68,71,136,100,39,122.13,58,35.00,-38.00,-956.00
2024-06-07 00:36:24.070683,0,-1,-2,0,0,0,68,71,136,100,39,122.14,58,0.00,10.00,-988.00
2024-06-07 00:36:24.190429,0,-1,-2,0,0,0,68,71,136,100,39,122.13,58,-9.00,29.00,-977.00
2024-06-07 00:36:24.223736,0,-1,-2,0,0,0,68,71,137,100,39,122.16,58,11.00,33.00,-1056.00
2024-06-07 00:36:24.405386,0,-1,-2,0,0,0,68,71,136,100,39,122.19,58,37.00,16.00,-1020.00
2024-06-07 00:36:24.427642,0,-1,-2,0,0,0,68,71,136,100,39,122.20,58,35.00,-18.00,-1039.00
2024-06-07 00:36:24.529693,0,-1,-2,0,0,0,68,71,136,100,38,122.20,58,-7.00,10.00,-1008.00
2024-06-07 00:36:24.712353,0,-1,-2,0,0,0,68,71,136,100,38,122.18,58,17.00,-13.00,-1144.00
2024-06-07 00:36:24.737696,0,-1,-2,0,0,0,68,71,136,100,38,122.10,58,3.00,12.00,-1006.00
2024-06-07 00:36:24.835729,0,-1,-2,0,0,0,68,71,136,100,38,122.13,58,0.00,-14.00,-1105.00
2024-06-07 00:36:25.019378,0,-1,-2,0,0,0,68,71,135,100,38,122.15,59,14.00,4.00,-1028.00
2024-06-07 00:36:25.039694,0,-1,-2,0,0,0,68,71,135,100,38,122.14,59,-9.00,13.00,-943.00
2024-06-07 00:36:25.224005,0,-1,-2,0,0,0,68,71,134,100,38,122.17,59,-32.00,1.00,-893.00
2024-06-07 00:36:25.243618,0,-1,-2,0,0,0,68,71,135,100,38,122.10,59,-39.00,22.00,-1002.00
2024-06-07 00:36:25.428733,0,-1,-2,0,0,0,68,71,134,100,38,122.14,59,-33.00,19.00,-942.00
2024-06-07 00:36:25.447636,0,-1,-2,0,0,0,68,71,134,100,38,122.09,59,0.00,22.00,-1000.00
2024-06-07 00:36:25.549529,0,-1,-2,0,0,0,68,71,134,100,38,122.09,59,21.00,-1.00,-968.00
2024-06-07 00:36:25.736289,0,-1,-2,0,0,0,68,71,134,100,38,122.13,59,29.00,-7.00,-994.00
2024-06-07 00:36:25.753544,0,-1,-2,0,0,0,68,71,134,100,38,122.19,59,-57.00,6.00,-961.00
2024-06-07 00:36:25.855575,0,-1,-2,0,0,0,69,71,134,100,38,122.08,59,0.00,-1.00,-1022.00
2024-06-07 00:36:26.043352,0,-1,-2,0,0,0,69,71,134,100,38,122.14,60,-47.00,12.00,-1007.00
2024-06-07 00:36:26.059753,0,-1,-2,0,0,0,69,71,134,100,38,122.19,60,5.00,-31.00,-997.00
2024-06-07 00:36:26.247932,0,-1,-2,0,0,0,69,71,133,100,38,122.13,60,-10.00,1.00,-960.00
2024-06-07 00:36:26.263856,0,-1,-2,0,0,0,69,71,132,100,38,122.14,60,30.00,12.00,-990.00
2024-06-07 00:36:26.452893,0,-1,-2,0,0,0,69,71,132,100,38,122.20,60,12.00,21.00,-1093.00
2024-06-07 00:36:26.467463,0,0,-2,0,-1,0,69,71,132,100,38,122.15,60,-5.00,3.00,-1027.00
2024-06-07 00:36:26.657554,0,0,-2,0,0,0,69,71,131,100,37,122.11,60,-5.00,-16.00,-1005.00
2024-06-07 00:36:26.671479,0,0,-2,0,0,0,69,71,131,100,37,122.13,60,-2.00,-26.00,-1060.00
2024-06-07 00:36:26.862684,0,0,-2,0,0,0,69,71,130,90,37,122.09,60,-13.00,21.00,-1018.00
2024-06-07 00:36:26.875477,0,0,-2,0,0,0,70,72,130,90,37,122.18,60,-6.00,6.00,-1058.00
2024-06-07 00:36:27.067343,0,0,-2,0,0,0,70,72,130,90,37,122.03,61,12.00,5.00,-966.00
2024-06-07 00:36:27.079415,0,-1,-2,0,0,0,70,72,130,90,37,122.10,61,-21.00,2.00,-1002.00
2024-06-07 00:36:27.271956,0,-1,-2,0,0,0,70,72,130,90,37,122.11,61,9.00,-4.00,-1046.00
2024-06-07 00:36:27.283450,0,0,-2,0,0,0,70,72,130,90,37,122.14,61,-19.00,13.00,-1043.00
2024-06-07 00:36:27.476827,0,0,-2,0,0,0,70,72,131,90,37,122.16,61,-28.00,-4.00,-966.00
2024-06-07 00:36:27.487906,0,0,-2,0,0,0,70,72,131,90,37,122.06,61,11.00,-16.00,-968.00
2024-06-07 00:36:27.681529,0,0,-2,0,0,0,70,72,130,90,37,122.10,61,14.00,-38.00,-942.00
2024-06-07 00:36:27.681742,0,-1,-2,0,0,0,70,72,130,90,37,122.14,61,9.00,-4.00,-932.00
2024-06-07 00:36:27.743524,0,-1,-2,0,0,0,70,72,130,90,37,122.11,61,44.00,23.00,-1022.00
2024-06-07 00:36:27.988658,0,-1,-2,0,0,0,70,72,131,90,37,122.08,61,20.00,-3.00,-1015.00
2024-06-07 00:36:27.998452,0,-1,-2,0,0,0,70,72,130,90,37,122.10,62,-21.00,13.00,-983.00
2024-06-07 00:36:28.193471,0,-1,-2,0,0,0,70,72,131,90,37,122.14,62,0.00,11.00,-920.00
2024-06-07 00:36:28.193689,0,-1,-2,0,0,0,70,72,131,90,37,122.11,62,28.00,4.00,-1042.00
2024-06-07 00:36:28.253416,0,-1,-2,0,0,0,70,72,131,90,37,122.22,62,-35.00,9.00,-1035.00
2024-06-07 00:36:28.398294,0,0,-2,0,0,0,70,72,132,90,37,122.15,62,-11.00,-11.00,-980.00
2024-06-07 00:36:28.458248,0,0,-2,0,0,0,70,72,133,90,36,122.21,62,-5.00,-6.00,-1027.00
2024-06-07 00:36:28.559315,0,0,-2,0,0,0,70,72,133,100,36,122.24,62,32.00,-23.00,-1037.00
2024-06-07 00:36:28.705617,0,0,-2,0,0,0,70,72,134,100,36,122.17,62,-1.00,1.00,-1033.00
2024-06-07 00:36:28.764237,0,0,-2,0,0,0,70,72,134,100,36,122.19,62,-8.00,-25.00,-1041.00
2024-06-07 00:36:28.910280,0,0,-2,0,0,0,70,72,134,100,36,122.13,62,22.00,-14.00,-1044.00
2024-06-07 00:36:28.968105,0,0,-2,0,0,0,70,72,135,100,36,122.26,63,22.00,-20.00,-1066.00
2024-06-07 00:36:29.115018,0,0,-2,0,0,0,70,72,135,100,36,122.21,63,25.00,-18.00,-1117.00
2024-06-07 00:36:29.172065,0,0,-2,0,0,0,70,72,135,100,36,122.26,63,-27.00,34.00,-998.00
2024-06-07 00:36:29.319814,0,0,-2,0,0,0,70,72,136,100,36,122.20,63,17.00,-18.00,-1030.00
2024-06-07 00:36:29.376276,0,0,-2,0,0,0,70,72,136,100,36,122.22,63,-48.00,30.00,-916.00
2024-06-07 00:36:29.524800,0,0,-2,0,0,0,70,72,135,100,36,122.23,63,-28.00,-1.00,-930.00
2024-06-07 00:36:29.581035,0,0,-2,0,0,0,70,72,136,100,36,122.17,63,-26.00,17.00,-999.00
2024-06-07 00:36:29.681487,0,0,-2,0,0,0,70,72,136,100,36,122.30,63,-37.00,15.00,-985.00
2024-06-07 00:36:29.783289,0,-1,-2,0,0,0,70,72,135,100,36,122.16,63,-18.00,14.00,-901.00
2024-06-07 00:36:29.885227,0,-1,-2,0,0,0,70,72,136,100,36,122.26,63,58.00,-8.00,-1023.00
2024-06-07 00:36:30.036821,0,0,-2,0,0,0,70,72,135,100,36,122.22,64,11.00,22.00,-1011.00
2024-06-07 00:36:30.089179,0,0,-2,0,0,0,70,72,135,100,36,122.25,64,-1.00,-16.00,-919.00
2024-06-07 00:36:30.243940,0,0,-2,0,0,0,70,72,136,100,36,122.28,64,-4.00,6.00,-1084.00
2024-06-07 00:36:30.293217,0,0,-2,0,0,0,70,72,135,100,36,122.22,64,2.00,10.00,-854.00
2024-06-07 00:36:30.446152,0,0,-2,0,0,0,70,72,135,100,36,122.31,64,17.00,-16.00,-1033.00
2024-06-07 00:36:30.498013,0,0,-2,0,0,0,70,72,134,100,35,122.26,64,-1.00,14.00,-898.00
2024-06-07 00:36:30.650923,0,0,-2,0,0,0,70,72,133,100,35,122.24,64,12.00,-44.00,-1011.00
2024-06-07 00:36:30.701476,0,0,-2,0,0,0,70,72,134,100,35,122.29,64,-82.00,7.00,-900.00
