TS,pitch,roll,yaw,vgx,vgy,vgz,templ,temph,tof,h,bat,baro,time,agx,agy,agz
2024-06-07 00:36:57.478595,0,0,2,0,0,0,72,75,10,0,32,120.73,70,5.00,1.00,-999.00
2024-06-07 00:36:57.529129,0,0,2,0,0,0,72,75,10,0,32,120.74,70,1.00,2.00,-1000.00
2024-06-07 00:36:57.667364,0,0,2,0,0,0,72,75,10,0,32,120.74,70,4.00,1.00,-1000.00
2024-06-07 00:36:57.733067,0,0,2,0,0,0,72,75,10,0,32,120.71,70,1.00,2.00,-1000.00
2024-06-07 00:36:57.835361,0,0,2,0,0,0,72,75,10,0,32,120.65,70,1.00,3.00,-998.00
2024-06-07 00:36:57.990724,0,0,2,0,0,0,72,75,10,0,32,120.75,70,3.00,3.00,-1000.00
2024-06-07 00:36:58.039096,0,0,2,0,0,0,73,75,10,0,32,120.71,70,4.00,4.00,-998.00
2024-06-07 00:36:58.195319,0,0,2,0,0,0,73,75,10,0,32,120.74,70,3.00,2.00,-998.00
2024-06-07 00:36:58.243004,0,0,2,0,0,0,73,75,10,0,32,120.72,70,2.00,3.00,-998.00
2024-06-07 00:36:58.400198,0,0,2,0,0,0,73,75,10,0,32,120.72,70,3.00,4.00,-1000.00
2024-06-07 00:36:58.447073,0,0,2,0,0,0,73,75,10,0,32,120.69,70,2.00,4.00,-999.00
2024-06-07 00:36:58.605105,0,0,2,0,0,0,73,75,10,0,32,120.75,70,3.00,2.00,-1000.00
2024-06-07 00:36:58.650949,0,0,2,0,0,0,73,75,10,0,32,120.76,70,4.00,2.00,-999.00
2024-06-07 00:36:58.809855,0,0,2,0,0,0,73,75,10,0,32,120.78,70,4.00,1.00,-1001.00
2024-06-07 00:36:58.854921,0,0,2,0,0,0,73,75,10,0,32,120.70,70,3.00,2.00,-999.00
2024-06-07 00:36:59.014665,0,0,2,0,0,0,73,75,10,0,32,120.68,70,2.00,3.00,-999.00
2024-06-07 00:36:59.059105,0,0,2,0,0,0,73,75,10,0,32,120.73,70,2.00,2.00,-1000.00
2024-06-07 00:36:59.219439,0,0,2,0,0,0,73,75,10,0,32,120.76,70,1.00,2.00,-1002.00
2024-06-07 00:36:59.219639,0,0,2,0,0,0,73,75,10,0,32,120.70,70,3.00,3.00,-1000.00
2024-06-07 00:36:59.314095,0,0,2,0,0,0,73,75,10,0,32,120.75,70,3.00,1.00,-998.00
2024-06-07 00:36:59.424621,0,0,2,0,0,0,73,75,10,0,32,120.67,70,3.00,3.00,-997.00
2024-06-07 00:36:59.518073,0,0,2,0,0,0,73,75,10,0,32,120.73,70,2.00,3.00,-1002.00
2024-06-07 00:36:59.619874,0,0,2,0,0,0,73,75,10,0,32,120.75,70,3.00,2.00,-1001.00
2024-06-07 00:36:59.731466,0,0,2,0,0,0,73,75,10,0,32,120.72,70,3.00,1.00,-1000.00
2024-06-07 00:36:59.824154,0,0,2,0,0,0,73,75,10,0,32,120.75,70,2.00,2.00,-997.00
2024-06-07 00:36:59.936379,0,0,2,0,0,0,73,75,10,0,32,120.70,70,3.00,3.00,-1000.00
2024-06-07 00:37:00.027987,0,0,2,0,0,0,73,75,10,0,32,120.72,70,2.00,3.00,-1000.00
2024-06-07 00:37:00.141380,0,0,2,0,0,0,73,75,10,0,32,120.71,70,3.00,2.00,-1001.00
2024-06-07 00:37:00.231967,0,0,2,0,0,0,73,75,10,0,32,120.69,70,2.00,3.00,-999.00
2024-06-07 00:37:00.333810,0,0,2,0,0,0,73,75,10,0,32,120.70,70,3.00,1.00,-1002.00
2024-06-07 00:37:00.448090,0,0,2,0,0,0,73,75,10,0,32,120.70,70,7.00,-2.00,-997.00
2024-06-07 00:37:00.537810,0,0,2,0,0,0,73,75,10,0,32,120.70,70,2.00,0.00,-1003.00
2024-06-07 00:37:00.639792,0,0,1,0,0,0,73,75,10,0,32,120.70,70,-27.00,-15.00,-993.00
2024-06-07 00:37:00.741622,0,0,1,0,0,0,73,75,10,0,32,120.70,70,-16.00,21.00,-991.00
2024-06-07 00:37:00.843805,0,0,0,0,0,0,73,75,10,0,32,120.70,70,14.00,-18.00,-946.00
2024-06-07 00:37:00.960010,-3,4,0,0,0,-1,73,75,10,0,32,120.70,70,19.00,-3.00,-1119.00
2024-06-07 00:37:01.048074,-3,5,0,0,1,-3,73,76,10,0,32,120.70,70,-60.00,30.00,-1219.00
2024-06-07 00:37:01.165146,-1,1,0,1,2,-5,73,76,10,0,32,120.70,71,67.00,-5.00,-1267.00
2024-06-07 00:37:01.254636,3,-4,0,1,2,-7,73,76,14,10,32,121.09,71,-69.00,30.00,-1005.00
2024-06-07 00:37:01.355206,4,-6,0,0,1,-7,73,76,20,20,32,121.30,71,-51.00,-45.00,-1111.00
2024-06-07 00:37:01.456445,2,-3,0,0,0,-7,73,76,27,20,32,121.33,71,-68.00,10.00,-975.00
2024-06-07 00:37:01.557767,0,-2,0,0,0,-7,73,76,34,30,32,121.32,71,43.00,-1.00,-1058.00
2024-06-07 00:37:01.659697,0,-1,0,0,0,-7,73,76,41,40,32,121.36,71,40.00,6.00,-1040.00
2024-06-07 00:37:01.779112,0,-1,0,0,0,-6,73,76,48,40,32,121.40,71,45.00,-22.00,-902.00
2024-06-07 00:37:01.863853,0,0,0,0,-1,-5,73,76,53,50,32,121.56,71,-23.00,12.00,-902.00
2024-06-07 00:37:01.984024,1,0,0,0,-1,-3,73,76,58,50,32,121.64,71,68.00,-18.00,-954.00
2024-06-07 00:37:02.067730,1,0,0,0,0,-3,73,76,64,50,32,121.61,71,28.00,-13.00,-888.00
2024-06-07 00:37:02.188827,0,0,0,0,0,-2,73,76,66,60,32,121.71,72,5.00,13.00,-843.00
2024-06-07 00:37:02.271674,0,0,0,0,0,-1,73,76,68,60,32,121.70,72,70.00,-35.00,-1029.00
2024-06-07 00:37:02.393602,0,0,0,0,0,0,73,76,70,60,32,121.71,72,14.00,-28.00,-929.00
2024-06-07 00:37:02.475972,1,1,0,0,0,0,73,76,71,60,32,121.81,72,-19.00,13.00,-954.00
2024-06-07 00:37:02.598486,0,0,0,0,0,0,73,76,72,60,32,121.84,72,47.00,1.00,-1038.00
2024-06-07 00:37:02.679600,1,0,0,0,0,0,73,76,74,60,32,121.79,72,39.00,-9.00,-1009.00
2024-06-07 00:37:02.730741,2,0,0,0,0,0,73,76,75,60,32,121.78,72,-31.00,-3.00,-990.00
2024-06-07 00:37:02.905578,1,0,0,0,0,-1,73,76,77,60,32,121.85,72,37.00,-25.00,-1036.00
2024-06-07 00:37:02.934610,1,0,0,0,0,-1,73,76,78,60,32,121.81,72,-2.00,43.00,-953.00
2024-06-07 00:37:03.110386,1,0,0,0,0,-1,73,76,80,70,32,121.83,72,14.00,-10.00,-957.00
2024-06-07 00:37:03.141432,0,0,0,0,0,-1,73,76,81,70,32,121.85,73,37.00,-2.00,-936.00
2024-06-07 00:37:03.240589,0,0,0,0,0,0,73,76,82,70,32,121.81,73,17.00,16.00,-983.00
2024-06-07 00:37:03.417901,0,0,0,0,0,0,73,76,83,70,32,121.84,73,-62.00,12.00,-976.00
2024-06-07 00:37:03.444405,0,0,0,0,0,0,73,76,83,70,32,121.83,73,28.00,-9.00,-964.00
2024-06-07 00:37:03.622408,0,0,0,0,0,0,73,76,84,70,32,121.90,73,16.00,5.00,-990.00
2024-06-07 00:37:03.648944,0,0,0,0,0,0,73,76,83,70,32,121.79,73,60.00,-24.00,-983.00
2024-06-07 00:37:03.750849,0,0,0,0,0,0,73,76,83,70,32,121.87,73,-4.00,53.00,-1003.00
2024-06-07 00:37:03.852831,0,0,0,0,0,0,73,76,83,70,32,121.91,73,-14.00,-13.00,-982.00
2024-06-07 00:37:04.032048,0,0,0,0,0,0,73,76,82,70,32,121.92,73,1.00,16.00,-887.00
2024-06-07 00:37:04.056599,0,0,0,0,0,0,74,76,82,70,32,121.93,73,-35.00,11.00,-1010.00
2024-06-07 00:37:04.236757,0,0,0,0,0,0,74,76,81,70,32,121.83,74,14.00,18.00,-1088.00
2024-06-07 00:37:04.260869,0,0,0,0,0,0,74,76,81,70,32,121.83,74,1.00,3.00,-965.00
2024-06-07 00:37:04.441533,0,0,0,0,0,0,74,76,81,70,32,121.81,74,2.00,13.00,-1037.00
2024-06-07 00:37:04.464455,0,0,0,0,0,0,74,76,80,70,32,121.78,74,55.00,-9.00,-1056.00
2024-06-07 00:37:04.646423,0,0,0,0,0,0,74,76,80,70,32,121.83,74,45.00,2.00,-1061.00
2024-06-07 00:37:04.669427,0,0,0,0,0,0,74,76,80,70,32,121.86,74,26.00,0.00,-1100.00
2024-06-07 00:37:04.851820,0,0,0,0,0,0,74,76,79,70,32,121.88,74,11.00,9.00,-1051.00
2024-06-07 00:37:04.873402,0,0,0,0,0,0,74,76,80,70,32,121.88,74,0.00,-15.00,-1022.00
2024-06-07 00:37:05.055930,0,0,0,0,0,0,74,76,80,70,32,121.85,74,-15.00,-9.00,-1015.00
2024-06-07 00:37:05.077448,0,0,0,0,0,0,74,76,80,70,32,121.83,74,-17.00,-1.00,-966.00
2024-06-07 00:37:05.261049,0,0,0,0,0,0,74,76,80,70,32,121.83,75,-39.00,4.00,-1009.00
2024-06-07 00:37:05.282011,0,0,0,0,0,0,74,76,81,70,32,121.84,75,-31.00,37.00,-1044.00
2024-06-07 00:37:05.465482,0,0,0,0,0,0,74,76,81,70,32,121.76,75,30.00,9.00,-1001.00
2024-06-07 00:37:05.485905,0,0,0,0,0,0,74,76,81,70,32,121.84,75,9.00,24.00,-932.00
2024-06-07 00:37:05.670936,0,0,0,0,0,0,74,76,82,70,32,121.89,75,-11.00,16.00,-967.00
2024-06-07 00:37:05.689799,0,0,0,0,0,0,74,76,82,70,32,121.94,75,-9.00,-37.00,-1026.00
2024-06-07 00:37:05.875016,0,0,0,0,0,0,74,76,83,70,32,121.90,75,-24.00,-6.00,-1042.00
2024-06-07 00:37:05.896620,0,0,0,0,0,0,74,76,83,70,32,121.88,75,-2.00,22.00,-1029.00
2024-06-07 00:37:05.995817,0,0,0,0,0,0,74,76,84,70,32,121.94,75,20.00,3.00,-1010.00
2024-06-07 00:37:06.182708,0,0,0,0,0,0,73,75,84,70,32,121.92,75,4.00,0.00,-1011.00
2024-06-07 00:37:06.202146,0,0,0,0,0,0,73,75,84,70,32,121.85,76,2.00,-5.00,-920.00
2024-06-07 00:37:06.303073,0,0,0,0,0,0,73,75,84,70,32,121.91,76,-6.00,-4.00,-1050.00
2024-06-07 00:37:06.403470,0,0,0,0,0,0,73,75,84,70,32,121.96,76,1.00,-22.00,-992.00
2024-06-07 00:37:06.454968,0,0,0,0,0,0,73,75,84,70,32,121.88,76,16.00,28.00,-958.00
2024-06-07 00:37:06.592188,0,0,0,0,0,0,73,75,84,70,32,121.87,76,-20.00,37.00,-888.00
2024-06-07 00:37:06.658592,0,0,0,0,0,0,73,75,84,70,32,121.85,76,26.00,-18.00,-934.00
2024-06-07 00:37:06.760460,0,0,0,0,0,0,73,75,84,70,32,121.98,76,32.00,3.00,-930.00
2024-06-07 00:37:06.899158,0,0,0,0,0,0,73,75,84,70,32,121.93,76,8.00,-8.00,-1045.00
2024-06-07 00:37:06.964329,0,0,0,0,0,0,73,75,84,70,32,121.82,76,-19.00,4.00,-958.00
2024-06-07 00:37:07.103914,0,0,0,0,0,0,73,75,84,70,32,121.91,76,39.00,17.00,-1052.00
2024-06-07 00:37:07.220570,0,0,0,0,0,0,73,75,84,70,32,121.89,77,-15.00,5.00,-1074.00
2024-06-07 00:37:07.362424,0,0,0,0,0,0,73,75,84,70,32,121.88,77,-35.00,31.00,-947.00
2024-06-07 00:37:07.372626,0,0,0,0,0,0,73,75,84,70,32,121.92,77,-13.00,-10.00,-913.00
2024-06-07 00:37:07.498340,0,0,0,0,0,0,73,75,83,70,32,121.90,77,11.00,-6.00,-1059.00
2024-06-07 00:37:07.651179,0,0,0,0,0,0,73,75,83,70,32,121.87,77,-29.00,2.00,-959.00
2024-06-07 00:37:07.715459,0,0,0,0,0,0,73,75,83,70,32,121.89,77,22.00,2.00,-958.00
2024-06-07 00:37:07.832933,0,0,0,0,0,0,73,75,84,70,32,121.95,77,9.00,-8.00,-985.00
2024-06-07 00:37:07.921348,0,0,0,0,0,0,73,75,84,70,32,121.83,77,-13.00,-17.00,-1067.00
2024-06-07 00:37:07.987638,0,0,0,0,0,0,73,75,84,70,32,121.88,77,-1.00,36.00,-1025.00
2024-06-07 00:37:08.101806,0,0,0,0,0,0,72,76,84,70,32,121.94,77,-36.00,32.00,-953.00
2024-06-07 00:37:08.287212,0,0,0,0,0,0,72,76,83,70,32,121.91,78,37.00,7.00,-1045.00
2024-06-07 00:37:08.290807,0,0,0,0,0,0,72,76,85,70,32,121.92,78,-48.00,20.00,-1126.00
2024-06-07 00:37:08.392510,0,0,0,0,0,-2,72,76,87,70,32,121.93,78,12.00,27.00,-1061.00
2024-06-07 00:37:08.530820,0,0,0,0,0,-3,72,76,89,80,32,122.07,78,11.00,12.00,-1148.00
2024-06-07 00:37:08.597029,0,0,0,0,0,-3,72,76,93,80,32,121.97,78,-10.00,23.00,-1032.00
2024-06-07 00:37:08.752955,0,0,0,0,0,-4,72,76,97,80,32,122.07,78,40.00,-14.00,-1040.00
2024-06-07 00:37:08.896397,0,0,0,0,0,-5,72,76,102,90,32,122.09,78,5.00,0.00,-1030.00
2024-06-07 00:37:08.902059,0,0,0,0,0,-5,72,76,107,90,32,122.19,78,-50.00,1.00,-891.00
2024-06-07 00:37:09.060225,0,0,0,0,0,-5,72,76,112,100,32,122.11,78,12.00,-6.00,-975.00
2024-06-07 00:37:09.203920,0,0,0,0,0,-5,74,76,121,110,32,122.23,78,-8.00,3.00,-1181.00
2024-06-07 00:37:09.208519,0,0,0,0,0,-5,74,76,126,110,32,122.28,79,9.00,13.00,-961.00
2024-06-07 00:37:09.368154,0,0,0,0,0,-5,74,76,131,120,32,122.37,79,-8.00,22.00,-1048.00
2024-06-07 00:37:09.423410,0,0,0,0,0,-5,74,76,138,120,32,122.43,79,-18.00,5.00,-1004.00
2024-06-07 00:37:09.514256,0,0,0,0,0,-5,74,76,142,130,32,122.50,79,21.00,-12.00,-1127.00
2024-06-07 00:37:09.665546,0,0,0,0,0,-5,74,76,147,130,32,122.51,79,36.00,-14.00,-913.00
2024-06-07 00:37:09.718140,0,0,0,0,0,-4,74,76,150,140,32,122.55,79,23.00,17.00,-940.00
2024-06-07 00:37:09.820023,0,0,0,0,0,-3,74,76,153,140,32,122.63,79,-27.00,7.00,-929.00
2024-06-07 00:37:09.970862,0,0,0,0,0,-3,74,76,157,140,32,122.59,79,11.00,-11.00,-991.00
2024-06-07 00:37:10.024896,0,0,0,0,0,-3,74,76,158,150,32,122.66,79,65.00,-31.00,-948.00
2024-06-07 00:37:10.175744,0,0,0,0,0,-2,73,76,161,150,32,122.61,79,35.00,-13.00,-1067.00
2024-06-07 00:37:10.228043,0,0,0,0,0,-2,73,76,162,150,32,122.65,80,30.00,-18.00,-963.00
2024-06-07 00:37:10.381511,0,0,0,0,0,-2,73,76,163,150,32,122.67,80,69.00,-35.00,-1121.00
2024-06-07 00:37:10.432024,0,0,0,0,0,-2,73,76,163,160,32,122.64,80,44.00,1.00,-991.00
2024-06-07 00:37:10.483140,0,0,0,0,0,-1,73,76,164,160,32,122.69,80,32.00,14.00,-960.00
2024-06-07 00:37:10.586152,0,0,0,0,0,0,73,76,163,160,32,122.68,80,-37.00,27.00,-1088.00
2024-06-07 00:37:10.687895,0,0,0,0,0,0,73,76,164,160,32,122.69,80,7.00,-18.00,-1031.00
2024-06-07 00:37:10.790607,0,0,0,0,0,0,73,76,165,160,32,122.67,80,30.00,-6.00,-1060.00
2024-06-07 00:37:10.892492,0,0,0,0,0,0,73,76,165,160,32,122.66,80,15.00,19.00,-962.00
2024-06-07 00:37:10.994557,0,0,0,0,0,0,73,76,168,160,32,122.76,80,2.00,5.00,-1079.00
2024-06-07 00:37:11.204305,0,0,0,0,0,0,73,76,169,160,32,122.78,80,20.00,33.00,-910.00
2024-06-07 00:37:11.212555,0,0,0,0,0,0,73,76,172,160,32,122.77,81,52.00,-18.00,-1101.00
2024-06-07 00:37:11.299933,0,0,0,0,0,-1,73,76,175,160,32,122.74,81,41.00,-23.00,-1070.00
2024-06-07 00:37:11.404444,1,0,0,0,0,-2,73,76,179,160,32,122.76,81,-16.00,5.00,-938.00
2024-06-07 00:37:11.503944,1,0,0,0,0,-2,73,76,179,160,32,122.78,81,-15.00,18.00,-836.00
2024-06-07 00:37:11.609973,0,0,0,0,0,-2,73,76,181,170,32,122.75,81,50.00,-39.00,-964.00
2024-06-07 00:37:11.708907,0,0,0,0,0,-1,73,76,180,170,32,122.81,81,18.00,11.00,-925.00
2024-06-07 00:37:11.811255,0,0,0,0,0,-1,73,76,182,170,32,122.80,81,5.00,-5.00,-946.00
2024-06-07 00:37:11.920045,0,-1,0,0,0,0,73,76,181,170,32,122.78,81,-8.00,41.00,-886.00
2024-06-07 00:37:12.015175,0,0,0,0,0,0,73,76,182,170,32,122.86,81,36.00,4.00,-1046.00
2024-06-07 00:37:12.121230,-1,-1,0,0,0,0,73,75,183,170,32,122.80,81,10.00,6.00,-971.00
2024-06-07 00:37:12.220342,0,0,0,0,0,0,73,75,184,170,32,122.82,82,14.00,-4.00,-1043.00
2024-06-07 00:37:12.326105,0,-1,0,0,0,0,73,75,186,170,32,122.78,82,-31.00,27.00,-999.00
2024-06-07 00:37:12.423135,0,0,0,0,0,0,73,75,185,170,32,122.81,82,-62.00,4.00,-1108.00
2024-06-07 00:37:12.531943,-1,0,0,0,0,-1,73,75,188,170,32,122.83,82,41.00,-10.00,-919.00
2024-06-07 00:37:12.627278,-1,0,0,0,0,0,73,75,188,170,32,122.84,82,58.00,-34.00,-1178.00
2024-06-07 00:37:12.728961,0,0,0,0,0,0,73,75,188,170,32,122.86,82,-55.00,26.00,-923.00
2024-06-07 00:37:12.838080,0,0,0,0,0,0,73,75,187,170,32,122.82,82,-67.00,27.00,-938.00
2024-06-07 00:37:12.932926,1,0,0,0,0,0,73,75,188,170,32,122.91,82,24.00,-7.00,-1011.00
2024-06-07 00:37:13.043008,1,0,0,0,0,0,73,75,187,180,32,122.83,82,-11.00,15.00,-1031.00
2024-06-07 00:37:13.137010,1,0,0,0,0,0,73,76,187,170,32,122.89,82,22.00,14.00,-983.00
2024-06-07 00:37:13.247708,1,0,0,0,0,0,73,76,186,180,32,122.93,83,25.00,-20.00,-1103.00
2024-06-07 00:37:13.340876,0,0,0,0,0,0,73,76,185,170,32,122.77,83,-92.00,44.00,-874.00
2024-06-07 00:37:13.453602,0,0,0,0,0,1,73,76,183,170,32,122.82,83,32.00,6.00,-1082.00
2024-06-07 00:37:13.544722,0,0,0,0,0,0,73,76,182,170,32,122.84,83,21.00,-15.00,-998.00
2024-06-07 00:37:13.647073,1,0,0,0,0,0,73,76,181,170,32,122.84,83,-21.00,23.00,-941.00
2024-06-07 00:37:13.698952,1,0,0,0,0,0,73,76,179,170,32,122.80,83,16.00,4.00,-1003.00
2024-06-07 00:37:13.863771,1,0,0,0,0,0,73,76,177,170,32,122.81,83,-5.00,40.00,-897.00
2024-06-07 00:37:13.903699,1,0,0,0,0,1,73,76,176,170,32,122.72,83,21.00,0.00,-891.00
2024-06-07 00:37:14.066735,0,0,0,0,0,2,73,76,175,170,32,122.73,83,79.00,-20.00,-1027.00
2024-06-07 00:37:14.160396,0,0,0,0,0,2,73,76,173,160,32,122.67,84,22.00,-2.00,-1038.00
2024-06-07 00:37:14.211070,0,0,0,0,0,2,73,76,172,160,32,122.66,84,27.00,0.00,-1014.00
2024-06-07 00:37:14.313803,1,0,0,0,0,2,73,76,171,160,32,122.63,84,-15.00,31.00,-939.00
2024-06-07 00:37:14.412991,0,0,0,0,0,2,73,76,169,160,32,122.59,84,6.00,-4.00,-1075.00
2024-06-07 00:37:14.515126,-1,0,0,0,0,2,73,76,168,150,32,122.64,84,-7.00,10.00,-944.00
2024-06-07 00:37:14.681954,-1,0,0,0,0,2,73,76,167,150,32,122.63,84,-12.00,36.00,-1107.00
2024-06-07 00:37:14.718619,0,-1,0,0,0,2,73,76,164,150,32,122.66,84,2.00,3.00,-953.00
2024-06-07 00:37:14.886636,0,0,0,0,0,1,73,76,165,150,32,122.60,84,53.00,-7.00,-1133.00
2024-06-07 00:37:14.922923,0,0,0,0,0,1,73,76,164,150,32,122.64,84,-21.00,39.00,-926.00
2024-06-07 00:37:15.091210,0,0,0,0,0,1,73,76,163,150,32,122.62,84,-18.00,36.00,-1051.00
2024-06-07 00:37:15.127089,0,0,0,0,0,0,73,76,163,150,32,122.66,85,25.00,8.00,-1025.00
2024-06-07 00:37:15.296132,0,0,0,0,0,0,73,76,162,150,32,122.68,85,-42.00,7.00,-947.00
2024-06-07 00:37:15.330769,0,0,0,0,0,0,73,76,161,150,32,122.64,85,-35.00,18.00,-939.00
2024-06-07 00:37:15.500250,0,0,0,0,0,0,73,76,160,150,32,122.58,85,38.00,-56.00,-1017.00
2024-06-07 00:37:15.534577,0,0,0,0,0,1,73,76,158,140,32,122.56,85,-23.00,2.00,-998.00
2024-06-07 00:37:15.636624,0,0,0,0,0,1,73,76,155,140,32,122.41,85,25.00,5.00,-954.00
2024-06-07 00:37:15.738641,0,0,0,0,0,1,73,76,153,140,32,122.52,85,-23.00,4.00,-941.00
2024-06-07 00:37:15.841103,0,0,0,0,0,1,73,76,151,140,32,122.54,85,-4.00,1.00,-994.00
2024-06-07 00:37:16.012244,0,0,0,0,0,1,73,76,149,140,32,122.43,85,-5.00,3.00,-974.00
2024-06-07 00:37:16.049789,0,0,0,0,0,2,73,76,145,140,32,122.49,85,57.00,5.00,-972.00
2024-06-07 00:37:16.146487,1,0,0,0,0,1,73,75,142,130,32,122.50,86,1.00,5.00,-1069.00
2024-06-07 00:37:16.319290,0,0,0,0,0,2,73,75,140,130,32,122.47,86,-9.00,43.00,-1016.00
2024-06-07 00:37:16.350446,0,0,0,0,0,2,73,75,137,130,32,122.37,86,2.00,8.00,-1043.00
2024-06-07 00:37:16.452709,0,0,0,0,0,2,73,75,134,130,32,122.38,86,29.00,-7.00,-985.00
2024-06-07 00:37:16.628643,0,0,0,0,0,1,73,75,131,120,32,122.36,86,8.00,40.00,-1084.00
2024-06-07 00:37:16.656829,0,0,0,0,0,1,73,75,130,120,32,122.34,86,-17.00,-3.00,-1037.00
2024-06-07 00:37:16.831495,0,0,0,0,0,0,73,75,127,120,32,122.31,86,14.00,33.00,-1050.00
2024-06-07 00:37:16.860616,0,0,0,0,0,0,73,75,127,120,32,122.28,86,22.00,-23.00,-1053.00
2024-06-07 00:37:17.036627,0,0,0,0,0,0,73,75,127,120,32,122.33,86,0.00,0.00,-1097.00
2024-06-07 00:37:17.064626,0,0,0,0,0,0,73,75,127,120,32,122.33,86,-11.00,9.00,-1024.00
2024-06-07 00:37:17.241552,0,0,0,0,0,0,73,76,126,120,32,122.32,87,47.00,9.00,-1073.00
2024-06-07 00:37:17.269404,0,0,0,0,0,0,73,76,126,120,32,122.32,87,-9.00,-3.00,-980.00
2024-06-07 00:37:17.448163,0,0,0,0,0,0,73,76,127,120,32,122.38,87,-11.00,19.00,-978.00
2024-06-07 00:37:17.472726,0,0,0,0,0,0,73,76,126,120,32,122.32,87,-9.00,1.00,-1028.00
2024-06-07 00:37:17.651043,0,0,0,0,0,0,73,76,126,120,32,122.41,87,38.00,1.00,-960.00
2024-06-07 00:37:17.676617,0,0,0,0,0,0,73,76,126,120,32,122.39,87,12.00,5.00,-1028.00
2024-06-07 00:37:17.728427,0,0,0,0,0,0,73,76,127,120,32,122.36,87,34.00,16.00,-1027.00
2024-06-07 00:37:17.829797,0,0,0,0,0,0,73,76,128,120,32,122.35,87,-3.00,-6.00,-1018.00
2024-06-07 00:37:17.961726,0,0,0,0,0,0,73,76,128,120,32,122.41,87,-24.00,5.00,-963.00
2024-06-07 00:37:18.033583,0,0,0,0,0,0,73,76,128,120,32,122.32,87,21.00,-7.00,-969.00
2024-06-07 00:37:18.163474,0,0,0,0,0,0,74,76,129,120,32,122.39,88,13.00,4.00,-1031.00
2024-06-07 00:37:18.237695,0,0,0,0,0,0,74,76,129,120,32,122.40,88,46.00,24.00,-961.00
2024-06-07 00:37:18.367551,0,0,0,0,0,0,74,76,130,120,32,122.38,88,24.00,0.00,-1008.00
2024-06-07 00:37:18.441747,0,0,0,0,0,0,74,76,131,120,32,122.39,88,5.00,7.00,-872.00
2024-06-07 00:37:18.545527,0,0,0,0,0,0,74,76,131,120,32,122.45,88,-6.00,17.00,-961.00
2024-06-07 00:37:18.645360,-6,-1,0,0,0,0,74,76,132,120,32,122.40,88,15.00,17.00,-917.00
2024-06-07 00:37:18.748549,-8,0,0,1,0,0,74,76,134,120,32,122.44,88,16.00,-11.00,-1140.00
2024-06-07 00:37:18.879736,-8,0,0,3,0,0,74,76,137,120,32,122.39,88,-13.00,-14.00,-970.00
2024-06-07 00:37:18.951675,-7,0,0,4,0,0,74,76,137,120,32,122.44,88,3.00,10.00,-1031.00
2024-06-07 00:37:19.084786,-7,0,0,5,0,0,74,76,136,120,32,122.31,88,12.00,11.00,-991.00
2024-06-07 00:37:19.156139,-6,0,0,6,0,0,74,76,138,120,32,122.37,89,-67.00,28.00,-1024.00
2024-06-07 00:37:19.288880,-6,0,0,7,0,0,74,76,136,120,32,122.35,89,-11.00,-13.00,-1051.00
2024-06-07 00:37:19.360084,-4,0,0,7,0,0,74,76,137,120,32,122.37,89,-48.00,33.00,-943.00
2024-06-07 00:37:19.494408,-3,0,0,7,0,0,74,76,137,120,32,122.29,89,-72.00,39.00,-919.00
2024-06-07 00:37:19.563370,0,0,0,7,0,0,74,76,137,120,32,122.23,89,-28.00,2.00,-1084.00
2024-06-07 00:37:19.665352,2,0,0,7,0,0,74,76,138,120,32,122.34,89,2.00,-21.00,-1019.00
2024-06-07 00:37:19.800967,4,0,0,6,0,0,74,76,137,120,32,122.39,89,-72.00,-3.00,-1068.00
2024-06-07 00:37:19.869301,4,0,0,4,0,0,74,76,138,120,32,122.27,89,-19.00,22.00,-1014.00
2024-06-07 00:37:20.005763,2,1,0,3,0,0,74,76,138,120,32,122.39,89,7.00,7.00,-977.00
2024-06-07 00:37:20.074911,1,1,0,3,0,0,74,76,138,120,32,122.36,89,12.00,-18.00,-1073.00
2024-06-07 00:37:20.175289,0,1,0,2,0,0,74,77,138,120,32,122.35,90,-39.00,0.00,-901.00
2024-06-07 00:37:20.277250,0,1,0,2,0,0,74,77,138,120,32,122.35,90,47.00,-57.00,-1160.00
2024-06-07 00:37:20.415340,0,0,0,2,0,0,74,77,138,120,32,122.42,90,-5.00,-7.00,-1073.00
2024-06-07 00:37:20.481562,0,0,0,2,0,0,74,77,138,120,32,122.37,90,5.00,29.00,-916.00
2024-06-07 00:37:20.620335,0,-1,0,2,0,0,74,77,137,120,32,122.37,90,-80.00,29.00,-974.00
2024-06-07 00:37:20.686548,0,-2,0,2,0,0,74,77,137,120,32,122.40,90,-52.00,-3.00,-985.00
2024-06-07 00:37:20.787280,0,0,0,2,0,0,74,77,134,120,32,122.41,90,14.00,14.00,-982.00
2024-06-07 00:37:20.927313,1,0,0,2,0,0,74,77,134,120,32,122.38,90,-24.00,5.00,-896.00
2024-06-07 00:37:20.991172,5,0,0,1,0,0,74,77,133,120,32,122.40,90,13.00,5.00,-1023.00
2024-06-07 00:37:21.093424,2,0,0,0,0,1,74,77,130,120,32,122.40,90,53.00,-45.00,-1109.00
2024-06-07 00:37:21.235233,1,0,0,0,0,0,74,76,128,120,32,122.32,91,0.00,-4.00,-950.00
2024-06-07 00:37:21.297380,0,0,0,0,0,1,74,76,126,120,32,122.36,91,-44.00,15.00,-966.00
2024-06-07 00:37:21.439342,0,0,0,0,0,1,74,76,125,120,32,122.33,91,94.00,-57.00,-1213.00
2024-06-07 00:37:21.501324,1,0,0,0,0,0,74,76,124,120,32,122.34,91,5.00,-3.00,-1038.00
2024-06-07 00:37:21.552144,1,0,0,0,0,0,74,76,123,120,32,122.33,91,42.00,6.00,-1011.00
2024-06-07 00:37:21.654138,0,0,0,0,0,0,74,76,122,120,32,122.30,91,12.00,-20.00,-1017.00
2024-06-07 00:37:21.756559,0,0,0,0,0,0,74,76,121,110,32,122.30,91,24.00,45.00,-938.00
2024-06-07 00:37:21.858277,-1,0,0,0,0,0,74,76,119,110,32,122.38,91,59.00,-12.00,-1178.00
2024-06-07 00:37:22.271654,0,0,0,0,0,0,74,76,119,110,32,122.27,91,-29.00,21.00,-1021.00
2024-06-07 00:37:22.271950,0,0,0,0,0,0,74,76,118,110,32,122.33,91,52.00,1.00,-967.00
2024-06-07 00:37:22.272960,0,0,0,0,0,0,74,76,118,110,32,122.35,92,-32.00,20.00,-1014.00
2024-06-07 00:37:22.273198,-1,0,0,0,0,0,74,76,117,110,32,122.26,92,8.00,19.00,-1065.00
2024-06-07 00:37:22.388088,-2,0,0,0,0,0,74,76,116,110,32,122.26,92,49.00,0.00,-1019.00
2024-06-07 00:37:22.539716,0,0,0,0,0,0,74,76,114,110,32,122.25,92,-27.00,23.00,-975.00
2024-06-07 00:37:22.620588,0,0,0,0,0,0,74,76,113,110,32,122.29,92,-62.00,60.00,-915.00
2024-06-07 00:37:22.720643,-1,0,0,0,0,0,74,76,112,110,32,122.26,92,18.00,0.00,-1030.00
2024-06-07 00:37:22.792171,-2,0,0,0,0,0,74,76,112,110,32,122.30,92,-31.00,17.00,-951.00
2024-06-07 00:37:22.889733,0,0,0,0,0,0,74,76,112,110,32,122.30,92,36.00,33.00,-1053.00
2024-06-07 00:37:23.042117,0,0,0,0,0,0,74,76,114,110,32,122.30,92,13.00,0.00,-934.00
2024-06-07 00:37:23.107868,0,0,0,0,0,0,74,76,115,110,32,122.27,92,-2.00,4.00,-1020.00
2024-06-07 00:37:23.250972,0,0,0,0,0,0,74,76,117,110,32,122.27,93,58.00,-11.00,-1012.00
2024-06-07 00:37:23.285897,5,0,0,0,0,-1,74,76,120,110,32,122.27,93,8.00,-18.00,-1072.00
2024-06-07 00:37:23.500169,9,0,0,-1,0,-1,74,76,124,110,32,122.38,93,4.00,-6.00,-1060.00
2024-06-07 00:37:23.500233,8,0,0,-2,0,-1,74,76,126,110,32,122.38,93,-59.00,11.00,-984.00
2024-06-07 00:37:23.643634,8,0,0,-4,0,-2,74,76,129,120,32,122.37,93,45.00,7.00,-928.00
2024-06-07 00:37:23.805560,8,0,0,-5,0,-1,74,76,128,120,32,122.41,93,46.00,2.00,-1074.00
2024-06-07 00:37:23.805855,7,0,0,-5,0,-1,74,76,130,120,32,122.36,93,102.00,-26.00,-889.00
2024-06-07 00:37:23.948656,7,1,0,-6,0,0,74,76,132,120,32,122.45,93,78.00,-7.00,-982.00
2024-06-07 00:37:24.112442,5,0,0,-7,0,0,74,76,130,120,32,122.44,93,66.00,-10.00,-888.00
2024-06-07 00:37:24.112503,5,0,0,-7,0,0,74,76,130,120,32,122.45,93,-25.00,37.00,-973.00
2024-06-07 00:37:24.204076,1,0,0,-8,0,0,75,76,130,120,32,122.39,94,15.00,10.00,-824.00
2024-06-07 00:37:24.306994,-2,0,0,-7,0,0,75,76,130,120,32,122.43,94,21.00,1.00,-1008.00
2024-06-07 00:37:24.408674,-3,0,0,-6,0,0,75,76,132,120,32,122.46,94,121.00,-3.00,-1104.00
2024-06-07 00:37:24.512097,-4,0,0,-5,0,0,75,76,133,120,32,122.47,94,45.00,7.00,-990.00
2024-06-07 00:37:24.613927,-3,1,0,-4,0,0,75,76,135,120,32,122.44,94,-12.00,23.00,-909.00
2024-06-07 00:37:24.713796,-1,1,0,-3,0,-1,75,76,134,120,32,122.49,94,51.00,20.00,-1197.00
2024-06-07 00:37:24.818383,-1,1,0,-3,0,-1,75,76,136,120,32,122.47,94,2.00,32.00,-1038.00
2024-06-07 00:37:24.918817,0,1,0,-2,0,0,75,76,135,130,32,122.51,94,33.00,14.00,-992.00
2024-06-07 00:37:25.019795,0,1,0,-2,0,0,75,76,134,130,32,122.47,94,-14.00,14.00,-895.00
2024-06-07 00:37:25.123800,0,1,0,-2,0,0,75,76,133,130,32,122.44,94,2.00,8.00,-944.00
2024-06-07 00:37:25.223857,0,1,0,-2,1,0,74,76,133,120,32,122.41,95,40.00,6.00,-1001.00
2024-06-07 00:37:25.330662,0,1,0,-2,1,0,74,76,132,120,32,122.47,95,23.00,8.00,-1043.00
2024-06-07 00:37:25.427823,-1,1,0,-2,1,0,74,76,130,120,32,122.40,95,-5.00,32.00,-989.00
2024-06-07 00:37:25.535074,-2,2,0,-1,1,0,74,76,130,120,32,122.37,95,24.00,27.00,-890.00
2024-06-07 00:37:25.631844,-3,0,0,-1,1,1,74,76,129,120,32,122.36,95,34.00,-35.00,-1189.00
2024-06-07 00:37:25.739882,-1,-5,0,0,1,0,74,76,126,120,32,122.39,95,33.00,-5.00,-959.00
2024-06-07 00:37:25.786420,0,-1,0,0,0,0,74,76,125,120,32,122.38,95,-42.00,34.00,-964.00
2024-06-07 00:37:25.887003,0,0,0,0,0,0,74,76,123,120,32,122.43,95,9.00,-1.00,-996.00
2024-06-07 00:37:26.047905,0,0,0,0,0,0,74,76,122,120,32,122.37,95,50.00,-22.00,-1178.00
2024-06-07 00:37:26.091206,0,0,0,0,0,0,74,76,122,120,32,122.40,95,-28.00,13.00,-917.00
2024-06-07 00:37:26.252580,1,0,0,0,0,0,74,77,121,120,32,122.41,96,14.00,28.00,-1170.00
2024-06-07 00:37:26.295120,0,0,0,0,0,0,74,77,122,120,32,122.41,96,-33.00,23.00,-1061.00
2024-06-07 00:37:26.457097,0,0,0,0,0,0,74,77,123,120,32,122.38,96,8.00,0.00,-1042.00
2024-06-07 00:37:26.499028,-2,0,0,-1,0,-1,74,77,123,120,32,122.35,96,-23.00,9.00,-823.00
2024-06-07 00:37:26.661726,-2,0,0,0,0,-1,74,77,123,120,32,122.43,96,14.00,13.00,-957.00
2024-06-07 00:37:26.703380,-1,0,0,0,0,0,74,77,122,120,32,122.42,96,20.00,18.00,-944.00
2024-06-07 00:37:26.866279,0,0,0,0,0,0,74,77,121,120,32,122.40,96,58.00,5.00,-1070.00
2024-06-07 00:37:26.907699,0,0,0,0,0,0,74,77,120,120,32,122.43,96,-36.00,17.00,-870.00
2024-06-07 00:37:27.071254,0,0,0,0,0,0,74,77,119,120,32,122.39,96,6.00,7.00,-1176.00
2024-06-07 00:37:27.111248,0,0,0,0,0,0,74,77,119,120,32,122.39,96,64.00,-17.00,-914.00
2024-06-07 00:37:27.276625,0,0,0,0,0,0,74,76,118,120,32,122.42,97,52.00,-13.00,-1056.00
2024-06-07 00:37:27.315163,0,0,0,0,0,0,74,76,116,120,32,122.39,97,1.00,40.00,-902.00
2024-06-07 00:37:27.481163,0,1,0,0,0,1,74,76,115,120,32,122.40,97,-35.00,60.00,-1011.00
2024-06-07 00:37:27.530501,0,0,0,0,0,0,74,76,114,110,32,122.34,97,-40.00,14.00,-1010.00
2024-06-07 00:37:27.620903,0,0,0,0,0,0,74,76,114,110,32,122.44,97,2.00,0.00,-1010.00
2024-06-07 00:37:27.724204,0,0,0,0,0,0,74,76,114,110,32,122.41,97,-22.00,19.00,-1066.00
2024-06-07 00:37:27.829226,0,0,0,0,0,0,74,76,116,110,32,122.36,97,51.00,-21.00,-1135.00
2024-06-07 00:37:27.929582,0,0,0,0,0,-1,74,76,117,110,32,122.38,97,10.00,33.00,-938.00
2024-06-07 00:37:28.031746,1,-5,0,0,0,-1,74,76,122,110,32,122.40,97,-35.00,-2.00,-1032.00
2024-06-07 00:37:28.132095,1,-9,0,0,-1,-1,74,76,122,110,32,122.38,97,27.00,-1.00,-1066.00
2024-06-07 00:37:28.234391,0,-6,0,0,-3,-1,74,76,121,110,32,122.44,98,43.00,29.00,-902.00
2024-06-07 00:37:28.336492,0,-3,0,0,-3,0,74,76,120,120,32,122.34,98,0.00,50.00,-844.00
2024-06-07 00:37:28.504642,0,-1,0,0,-3,0,74,76,119,120,32,122.39,98,22.00,40.00,-988.00
2024-06-07 00:37:28.540891,0,0,0,0,-3,0,74,76,118,120,32,122.42,98,40.00,-14.00,-1000.00
2024-06-07 00:37:28.710477,0,0,0,0,-3,0,74,76,118,120,32,122.45,98,-66.00,39.00,-961.00
2024-06-07 00:37:28.743629,0,0,0,0,-2,0,74,76,117,120,32,122.40,98,42.00,2.00,-1023.00
2024-06-07 00:37:28.915342,0,0,0,0,-2,0,74,76,115,110,32,122.38,98,19.00,10.00,-1014.00
2024-06-07 00:37:28.915489,0,0,0,0,-2,0,74,76,115,110,32,122.44,98,-11.00,15.00,-974.00
2024-06-07 00:37:28.998590,0,0,0,0,-2,0,74,76,115,110,32,122.37,98,36.00,25.00,-918.00
2024-06-07 00:37:29.222062,0,0,0,0,-2,0,74,76,115,110,32,122.46,98,18.00,18.00,-1050.00
2024-06-07 00:37:29.253515,0,0,0,0,-2,0,75,76,116,110,32,122.39,99,15.00,27.00,-955.00
2024-06-07 00:37:29.426121,0,1,0,0,-2,0,75,76,118,110,32,122.47,99,1.00,38.00,-1031.00
2024-06-07 00:37:29.426173,-1,2,0,0,-1,-1,75,76,120,110,32,122.48,99,30.00,35.00,-1162.00
2024-06-07 00:37:29.508776,-3,3,0,0,-1,-1,75,76,122,110,32,122.44,99,68.00,-15.00,-998.00
2024-06-07 00:37:29.630997,-3,1,0,1,0,-1,75,76,125,110,32,122.45,99,36.00,11.00,-1052.00
2024-06-07 00:37:29.712488,-1,0,0,1,0,-1,75,76,127,120,32,122.51,99,-30.00,30.00,-1017.00
2024-06-07 00:37:29.815030,1,0,0,1,0,-1,75,76,128,120,32,122.48,99,25.00,-8.00,-908.00
2024-06-07 00:37:29.938486,4,0,0,1,0,-1,75,76,131,120,32,122.49,99,0.00,3.00,-875.00
2024-06-07 00:37:30.018804,2,0,0,0,0,0,75,76,132,120,32,122.60,99,-14.00,-6.00,-943.00
2024-06-07 00:37:30.143070,1,0,0,0,0,0,75,76,132,120,32,122.48,100,39.00,-26.00,-1034.00
2024-06-07 00:37:30.222889,1,1,0,0,0,0,74,77,132,120,32,122.51,100,91.00,-11.00,-1079.00
2024-06-07 00:37:30.348047,1,0,0,0,0,0,74,77,132,120,32,122.51,100,29.00,-16.00,-1117.00
2024-06-07 00:37:30.426596,1,1,0,0,0,0,74,77,132,120,32,122.57,100,8.00,0.00,-926.00
2024-06-07 00:37:30.552984,1,1,0,0,0,0,74,77,131,120,32,122.57,100,59.00,-19.00,-989.00
2024-06-07 00:37:30.631027,1,1,0,0,0,0,74,77,130,120,32,122.53,100,-10.00,19.00,-862.00
2024-06-07 00:37:30.732535,0,0,0,0,0,0,74,77,127,120,32,122.53,100,16.00,-8.00,-960.00
2024-06-07 00:37:30.861027,0,0,0,0,0,0,74,77,126,120,32,122.51,100,-18.00,12.00,-912.00
2024-06-07 00:37:30.936589,0,0,0,0,0,0,74,77,125,120,32,122.48,100,24.00,11.00,-1055.00
2024-06-07 00:37:31.064607,0,0,0,0,0,0,74,77,124,120,32,122.49,100,-1.00,4.00,-872.00
2024-06-07 00:37:31.140533,0,0,0,0,0,0,74,77,123,110,32,122.45,101,-56.00,20.00,-992.00
2024-06-07 00:37:31.269842,0,0,0,0,0,0,74,77,122,110,32,122.48,101,25.00,-2.00,-928.00
2024-06-07 00:37:31.344810,0,0,0,0,0,0,74,77,122,110,32,122.54,101,-58.00,43.00,-1068.00
2024-06-07 00:37:31.474140,0,0,0,0,0,0,74,77,122,110,32,122.48,101,28.00,11.00,-1031.00
2024-06-07 00:37:31.548494,0,0,0,0,0,0,74,77,123,110,32,122.48,101,-77.00,18.00,-1063.00
2024-06-07 00:37:31.679087,0,0,0,0,0,0,74,77,123,110,32,122.46,101,-31.00,21.00,-851.00
2024-06-07 00:37:31.752452,0,0,0,0,0,0,74,77,123,110,32,122.53,101,15.00,0.00,-955.00
2024-06-07 00:37:31.854319,0,0,0,0,0,0,74,77,124,110,32,122.51,101,-78.00,30.00,-955.00
2024-06-07 00:37:31.988414,0,0,0,0,0,0,74,77,124,120,32,122.48,101,56.00,-29.00,-1057.00
2024-06-07 00:37:32.058982,0,0,0,0,0,0,74,77,125,120,32,122.50,101,-11.00,-3.00,-1092.00
2024-06-07 00:37:32.190874,0,0,0,0,0,0,74,77,126,120,32,122.54,102,-37.00,19.00,-934.00
2024-06-07 00:37:32.262648,0,5,0,0,0,0,75,77,129,120,32,122.53,102,-19.00,25.00,-1039.00
2024-06-07 00:37:32.395681,0,8,0,0,1,0,75,77,132,120,32,122.48,102,-74.00,22.00,-890.00
2024-06-07 00:37:32.466638,0,5,0,0,3,0,75,77,132,120,32,122.49,102,20.00,32.00,-882.00
2024-06-07 00:37:32.600446,0,2,0,0,3,-1,75,77,134,120,32,122.45,102,-42.00,30.00,-1057.00
2024-06-07 00:37:32.671816,0,0,0,0,3,-1,75,77,136,120,32,122.58,102,27.00,-5.00,-1110.00
2024-06-07 00:37:32.773959,0,0,0,0,3,0,75,77,137,120,32,122.54,102,18.00,-35.00,-915.00
2024-06-07 00:37:32.907675,1,0,0,0,3,0,75,77,138,120,32,122.52,102,-60.00,9.00,-972.00
2024-06-07 00:37:32.926211,0,0,0,0,3,0,75,77,139,120,32,122.55,102,-5.00,-7.00,-1012.00
2024-06-07 00:37:33.112459,0,0,0,0,2,0,75,77,139,120,32,122.58,102,-15.00,9.00,-907.00
2024-06-07 00:37:33.130661,0,0,0,0,2,0,75,77,139,120,32,122.60,103,2.00,13.00,-912.00
2024-06-07 00:37:33.317239,0,0,0,0,2,0,75,77,139,130,32,122.65,103,3.00,-9.00,-1053.00
2024-06-07 00:37:33.334063,0,0,0,0,2,0,75,77,138,120,32,122.56,103,30.00,-19.00,-1058.00
2024-06-07 00:37:33.521895,0,0,0,0,2,0,75,77,139,120,32,122.57,103,28.00,-28.00,-901.00
2024-06-07 00:37:33.538256,0,0,0,0,2,0,75,77,137,120,32,122.58,103,36.00,0.00,-886.00
2024-06-07 00:37:33.727496,1,0,0,0,2,0,75,77,138,120,32,122.51,103,-15.00,1.00,-960.00
2024-06-07 00:37:33.743167,3,0,0,0,1,0,75,77,139,120,32,122.64,103,64.00,-28.00,-1069.00
2024-06-07 00:37:33.844186,4,0,0,0,1,0,75,77,139,120,32,122.55,103,29.00,-13.00,-1036.00
2024-06-07 00:37:34.033948,3,0,0,0,1,0,75,77,139,120,32,122.56,103,-51.00,9.00,-1025.00
2024-06-07 00:37:34.048147,2,0,0,0,1,0,75,77,137,120,32,122.56,103,37.00,-18.00,-917.00
2024-06-07 00:37:34.238739,2,1,0,0,1,0,75,77,136,120,32,122.49,104,48.00,-36.00,-946.00
2024-06-07 00:37:34.252167,2,1,0,0,1,0,75,77,134,120,32,122.44,104,20.00,-15.00,-1098.00
2024-06-07 00:37:34.443901,1,0,0,-1,1,0,75,77,132,120,32,122.42,104,19.00,17.00,-925.00
2024-06-07 00:37:34.456906,-2,-2,0,-1,2,1,75,77,130,120,32,122.53,104,-34.00,10.00,-892.00
2024-06-07 00:37:34.648720,-1,-4,0,0,1,0,75,77,129,120,32,122.50,104,0.00,3.00,-1007.00
2024-06-07 00:37:34.660713,0,-2,0,0,0,0,75,77,128,120,32,122.46,104,57.00,-7.00,-1017.00
2024-06-07 00:37:34.762899,0,0,0,0,0,0,75,77,127,120,32,122.41,104,40.00,-6.00,-1078.00
2024-06-07 00:37:35.058121,1,0,0,0,0,0,75,77,126,120,32,122.48,104,80.00,-19.00,-1001.00
2024-06-07 00:37:35.058475,1,0,0,0,0,0,75,77,127,120,32,122.39,104,-10.00,20.00,-1011.00
2024-06-07 00:37:35.070418,0,0,0,0,0,0,75,77,126,120,32,122.46,104,-14.00,1.00,-1067.00
2024-06-07 00:37:35.171969,0,0,0,0,0,0,75,77,127,120,32,122.42,105,34.00,3.00,-1023.00
2024-06-07 00:37:35.272848,-1,0,0,0,0,0,76,77,128,120,32,122.41,105,-8.00,0.00,-984.00
2024-06-07 00:37:35.374024,-1,0,0,0,0,0,76,77,129,120,32,122.48,105,-11.00,-13.00,-999.00
2024-06-07 00:37:35.570716,-1,0,0,0,0,0,76,77,130,120,32,122.51,105,23.00,-15.00,-1080.00
2024-06-07 00:37:35.579252,-1,1,0,0,0,0,76,77,133,120,32,122.55,105,-17.00,-19.00,-922.00
2024-06-07 00:37:35.776146,-1,0,0,0,0,0,76,77,135,120,32,122.56,105,3.00,-6.00,-1216.00
2024-06-07 00:37:35.782061,0,0,0,0,0,-1,76,77,138,120,32,122.53,105,-60.00,16.00,-1033.00
2024-06-07 00:37:35.979984,0,0,0,0,0,-1,76,77,141,120,32,122.59,105,22.00,-3.00,-858.00
2024-06-07 00:37:35.987498,0,0,0,0,0,-1,76,77,143,120,32,122.50,105,32.00,1.00,-1010.00
2024-06-07 00:37:36.190175,0,0,0,0,0,-1,76,77,145,130,32,122.56,105,87.00,-14.00,-982.00
2024-06-07 00:37:36.191688,1,0,0,0,0,0,76,77,147,130,32,122.64,106,0.00,-1.00,-920.00
2024-06-07 00:37:36.389636,1,0,0,0,0,0,75,77,147,130,32,122.61,106,-25.00,-2.00,-894.00
2024-06-07 00:37:36.394088,1,0,0,0,0,0,75,77,147,130,32,122.66,106,-9.00,20.00,-991.00
2024-06-07 00:37:36.596764,1,0,0,0,0,0,75,77,148,130,32,122.56,106,22.00,-19.00,-933.00
2024-06-07 00:37:36.597956,1,0,0,0,0,0,75,77,147,130,32,122.62,106,-27.00,48.00,-892.00
2024-06-07 00:37:36.700006,1,0,0,0,0,1,75,77,146,130,32,122.63,106,-15.00,29.00,-957.00
2024-06-07 00:37:36.750974,0,0,0,0,0,1,75,77,146,130,32,122.64,106,24.00,-17.00,-1062.00
2024-06-07 00:37:36.901421,0,-1,5,0,0,1,75,77,146,130,32,122.61,106,4.00,13.00,-1129.00
2024-06-07 00:37:36.954964,1,0,11,0,0,1,75,77,145,130,32,122.64,106,-18.00,26.00,-1100.00
2024-06-07 00:37:37.111959,1,0,17,0,0,0,75,77,145,130,32,122.61,106,16.00,-5.00,-969.00
2024-06-07 00:37:37.158948,1,0,23,0,0,0,75,77,146,130,32,122.71,107,-22.00,32.00,-1011.00
2024-06-07 00:37:37.324506,0,0,29,0,0,0,75,77,146,130,32,122.61,107,7.00,-14.00,-1053.00
2024-06-07 00:37:37.440558,0,0,35,0,0,0,75,77,148,130,32,122.68,107,-28.00,15.00,-957.00
2024-06-07 00:37:37.465880,0,0,41,0,0,0,75,77,148,130,32,122.59,107,91.00,5.00,-1000.00
2024-06-07 00:37:37.591511,0,0,47,0,0,0,75,77,149,130,32,122.66,107,-31.00,7.00,-993.00
2024-06-07 00:37:37.672997,0,0,53,0,0,0,75,77,149,130,32,122.64,107,-52.00,23.00,-932.00
2024-06-07 00:37:37.771026,0,0,59,0,0,0,75,77,149,130,32,122.58,107,-20.00,20.00,-871.00
2024-06-07 00:37:37.934172,0,0,65,0,0,0,75,77,147,130,32,122.61,107,-23.00,7.00,-1032.00
2024-06-07 00:37:38.088677,0,0,70,0,0,0,75,77,147,130,32,122.61,107,-44.00,23.00,-934.00
2024-06-07 00:37:38.089625,0,0,76,0,0,0,75,77,147,130,32,122.58,107,20.00,16.00,-1002.00
2024-06-07 00:37:38.294682,0,0,82,0,0,0,75,77,146,130,32,122.61,108,41.00,-15.00,-1012.00
2024-06-07 00:37:38.296263,0,1,88,0,0,1,74,78,145,130,32,122.55,108,8.00,9.00,-1026.00
2024-06-07 00:37:38.384524,0,1,94,0,0,0,74,78,143,130,32,122.53,108,26.00,-25.00,-1118.00
2024-06-07 00:37:38.550267,0,1,100,0,0,0,74,78,141,130,32,122.60,108,-26.00,3.00,-998.00
2024-06-07 00:37:38.693635,0,1,106,0,0,0,74,78,140,130,32,122.55,108,37.00,4.00,-993.00
2024-06-07 00:37:38.693911,0,1,111,0,0,0,74,78,138,130,32,122.49,108,6.00,-17.00,-924.00
2024-06-07 00:37:38.857426,0,1,117,0,0,1,74,78,134,120,32,122.50,108,-34.00,16.00,-989.00
2024-06-07 00:37:39.001183,-1,1,123,0,0,1,74,78,132,120,32,122.47,108,-17.00,29.00,-958.00
2024-06-07 00:37:39.001390,-1,1,129,0,0,1,74,78,130,120,32,122.48,108,16.00,-5.00,-1071.00
2024-06-07 00:37:39.167468,0,0,135,0,0,1,74,78,129,120,32,122.46,108,-42.00,36.00,-1030.00
2024-06-07 00:37:39.220632,-1,0,141,0,0,1,74,78,127,120,32,122.39,109,-22.00,22.00,-1024.00
2024-06-07 00:37:39.303174,-1,0,147,0,0,0,75,77,126,120,32,122.41,109,-18.00,-3.00,-1115.00
2024-06-07 00:37:39.461001,0,0,153,0,0,0,75,77,124,120,32,122.39,109,-26.00,27.00,-1096.00
2024-06-07 00:37:39.507498,0,0,159,0,0,0,75,77,124,110,32,122.39,109,-8.00,4.00,-979.00
2024-06-07 00:37:39.667834,0,0,164,0,0,0,75,77,123,110,32,122.35,109,38.00,14.00,-1028.00
2024-06-07 00:37:39.710638,0,0,170,0,0,0,75,77,123,110,32,122.41,109,-25.00,33.00,-988.00
2024-06-07 00:37:39.812672,0,0,176,0,0,0,75,77,123,110,32,122.39,109,-14.00,36.00,-1091.00
2024-06-07 00:37:39.972997,0,0,-177,0,0,0,75,77,122,110,32,122.36,109,24.00,2.00,-1077.00
2024-06-07 00:37:40.016705,0,0,-172,0,0,0,75,77,122,110,32,122.39,109,7.00,7.00,-966.00
2024-06-07 00:37:40.179292,0,0,-166,0,0,0,75,77,122,110,32,122.36,109,-22.00,28.00,-966.00
2024-06-07 00:37:40.221905,0,0,-160,0,0,0,75,77,123,110,32,122.30,110,-27.00,27.00,-956.00
2024-06-07 00:37:40.382568,0,0,-154,0,0,0,75,78,124,110,32,122.36,110,17.00,-2.00,-1039.00
2024-06-07 00:37:40.424775,0,0,-148,0,0,0,75,78,124,110,32,122.38,110,-4.00,-3.00,-1051.00
2024-06-07 00:37:40.587277,0,0,-142,0,0,0,75,78,124,110,32,122.41,110,49.00,-28.00,-1024.00
2024-06-07 00:37:40.587347,0,0,-136,0,0,0,75,78,125,110,32,122.36,110,-19.00,-10.00,-963.00
2024-06-07 00:37:40.679785,0,0,-130,0,0,0,75,78,126,110,32,122.40,110,-22.00,30.00,-935.00
2024-06-07 00:37:40.792115,0,0,-124,0,0,0,75,78,127,120,32,122.43,110,-38.00,20.00,-911.00
2024-06-07 00:37:40.883631,0,0,-118,0,0,0,75,78,127,120,32,122.38,110,43.00,-15.00,-976.00
2024-06-07 00:37:40.997497,0,0,-112,0,0,0,75,78,128,120,32,122.42,110,6.00,31.00,-1070.00
2024-06-07 00:37:41.088146,0,0,-107,0,0,0,75,78,128,120,32,122.35,110,-31.00,-7.00,-987.00
2024-06-07 00:37:41.201614,0,0,-100,0,0,0,75,78,130,120,32,122.44,111,12.00,11.00,-992.00
2024-06-07 00:37:41.291891,0,0,-95,0,0,0,75,78,130,120,32,122.40,111,-6.00,27.00,-1012.00
2024-06-07 00:37:41.406895,0,0,-89,0,0,0,75,78,131,120,32,122.41,111,73.00,11.00,-1031.00
2024-06-07 00:37:41.495591,0,0,-83,0,0,0,75,78,131,120,32,122.42,111,2.00,-2.00,-1048.00
2024-06-07 00:37:41.612159,0,0,-77,0,0,0,75,78,132,120,32,122.44,111,-54.00,15.00,-842.00
2024-06-07 00:37:41.700397,0,0,-71,0,0,0,75,78,133,120,32,122.44,111,14.00,-4.00,-954.00
2024-06-07 00:37:41.816219,0,0,-65,0,0,0,75,78,134,120,32,122.42,111,-41.00,12.00,-898.00
2024-06-07 00:37:41.904403,0,0,-59,0,0,0,75,78,136,120,32,122.40,111,0.00,7.00,-941.00
2024-06-07 00:37:42.029390,0,0,-53,0,0,0,75,78,135,120,32,122.43,111,7.00,-6.00,-1020.00
2024-06-07 00:37:42.110215,0,0,-47,0,0,0,75,78,136,120,32,122.46,111,-13.00,-14.00,-936.00
2024-06-07 00:37:42.210138,0,0,-41,0,0,0,75,78,136,120,32,122.36,112,-18.00,31.00,-973.00
2024-06-07 00:37:42.328115,0,0,-35,0,0,0,75,77,135,120,32,122.42,112,42.00,-1.00,-935.00
2024-06-07 00:37:42.413873,0,0,-29,0,0,0,75,77,133,120,32,122.44,112,75.00,3.00,-1054.00
2024-06-07 00:37:42.534212,0,0,-23,0,0,0,75,77,133,120,32,122.41,112,-14.00,10.00,-1067.00
2024-06-07 00:37:42.618103,0,0,-17,0,0,0,75,77,131,120,32,122.43,112,24.00,-7.00,-1001.00
2024-06-07 00:37:42.719364,0,0,-13,0,0,0,75,77,131,120,32,122.41,112,5.00,0.00,-1072.00
2024-06-07 00:37:42.839957,0,0,-9,0,0,0,75,77,130,120,32,122.40,112,104.00,-20.00,-1031.00
2024-06-07 00:37:42.923587,0,0,-7,0,0,0,75,77,129,120,32,122.38,112,-20.00,11.00,-1009.00
2024-06-07 00:37:43.045181,0,0,-5,0,0,0,75,77,128,120,32,122.34,112,47.00,-18.00,-1149.00
2024-06-07 00:37:43.127466,0,0,-4,0,0,0,75,77,126,120,32,122.33,112,-33.00,13.00,-1017.00
2024-06-07 00:37:43.250695,0,0,-2,0,0,0,75,77,126,120,32,122.31,113,-76.00,24.00,-840.00
2024-06-07 00:37:43.331398,0,0,-2,0,0,0,75,78,124,120,32,122.33,113,12.00,10.00,-1011.00
2024-06-07 00:37:43.454321,0,0,-1,0,0,0,75,78,122,120,32,122.29,113,-35.00,-7.00,-999.00
2024-06-07 00:37:43.535510,0,0,-1,0,0,0,75,78,121,110,32,122.31,113,24.00,-32.00,-981.00
2024-06-07 00:37:43.659693,0,0,-1,0,0,0,75,78,121,110,32,122.33,113,57.00,4.00,-1027.00
2024-06-07 00:37:43.739279,0,0,-1,0,0,0,75,78,120,110,32,122.27,113,-18.00,25.00,-1034.00
2024-06-07 00:37:43.841620,1,0,-1,0,0,0,75,78,119,110,32,122.31,113,13.00,19.00,-980.00
2024-06-07 00:37:43.968642,0,0,-1,0,0,0,75,78,119,110,32,122.35,113,-25.00,39.00,-949.00
2024-06-07 00:37:44.045438,0,0,-1,0,0,0,75,78,119,110,32,122.28,113,36.00,-13.00,-1041.00
2024-06-07 00:37:44.097168,0,0,-1,0,0,0,75,78,118,110,32,122.23,113,70.00,-16.00,-1055.00
2024-06-07 00:37:44.273740,0,0,-1,0,0,0,75,78,117,110,32,122.27,114,19.00,12.00,-1029.00
2024-06-07 00:37:44.351352,0,0,-1,0,0,0,76,77,117,110,32,122.28,114,32.00,-18.00,-1038.00
2024-06-07 00:37:44.478589,0,0,-1,0,0,0,76,77,117,110,32,122.28,114,67.00,0.00,-1018.00
2024-06-07 00:37:44.504500,0,0,-1,0,0,0,76,77,118,110,32,122.27,114,-2.00,-14.00,-1067.00
2024-06-07 00:37:44.683532,0,0,-1,0,0,0,76,77,119,110,32,122.30,114,0.00,8.00,-1000.00
2024-06-07 00:37:44.709844,0,0,-1,0,0,0,76,77,119,110,32,122.31,114,-29.00,19.00,-1045.00
2024-06-07 00:37:44.888459,0,0,-1,0,0,0,76,77,120,110,32,122.26,114,-26.00,-8.00,-960.00
2024-06-07 00:37:44.913245,0,0,-1,0,0,0,76,77,120,110,32,122.30,114,43.00,-1.00,-1012.00
2024-06-07 00:37:45.092912,0,0,-1,0,0,0,76,77,120,110,32,122.34,114,-20.00,1.00,-1037.00
2024-06-07 00:37:45.118402,0,0,-1,0,0,0,76,77,121,110,32,122.31,115,26.00,-22.00,-1059.00
2024-06-07 00:37:45.297639,0,0,-1,0,0,0,76,77,122,110,32,122.33,115,-2.00,2.00,-955.00
2024-06-07 00:37:45.321330,0,0,-1,0,0,0,76,77,123,120,32,122.36,115,11.00,13.00,-1031.00
2024-06-07 00:37:45.488312,0,0,-1,0,0,0,76,77,124,120,32,122.34,115,55.00,-14.00,-1017.00
2024-06-07 00:37:45.525279,1,0,-1,0,0,0,76,77,126,120,32,122.32,115,21.00,25.00,-990.00
2024-06-07 00:37:45.707141,1,0,-3,0,0,0,76,77,127,120,32,122.39,115,8.00,13.00,-921.00
2024-06-07 00:37:45.729582,1,0,-8,0,0,0,76,77,128,120,32,122.42,115,53.00,-3.00,-924.00
2024-06-07 00:37:45.832282,0,0,-14,0,0,0,76,77,128,120,32,122.42,115,70.00,-15.00,-1088.00
2024-06-07 00:37:46.014679,0,0,-20,0,0,0,76,77,130,120,32,122.47,115,-4.00,14.00,-927.00
2024-06-07 00:37:46.035226,0,0,-25,0,0,0,76,77,130,120,32,122.43,115,-21.00,24.00,-1084.00
2024-06-07 00:37:46.219071,0,0,-31,0,0,0,76,77,130,120,32,122.40,116,-23.00,9.00,-1006.00
2024-06-07 00:37:46.239220,-1,0,-37,0,1,0,76,77,132,120,32,122.44,116,-20.00,25.00,-956.00
2024-06-07 00:37:46.423944,-1,0,-43,0,0,0,76,78,133,120,32,122.44,116,80.00,-7.00,-996.00
2024-06-07 00:37:46.443189,0,-1,-48,0,0,0,76,78,134,120,32,122.34,116,-7.00,33.00,-1099.00
2024-06-07 00:37:46.628757,0,-1,-54,0,0,0,76,78,134,120,32,122.40,116,-19.00,12.00,-1050.00
2024-06-07 00:37:46.647031,1,0,-60,0,0,0,76,78,134,120,32,122.49,116,5.00,9.00,-890.00
2024-06-07 00:37:46.749820,1,0,-66,0,0,0,76,78,135,120,32,122.45,116,-59.00,33.00,-1034.00
2024-06-07 00:37:46.935909,1,-1,-72,0,0,0,76,78,135,120,32,122.45,116,12.00,-6.00,-946.00
2024-06-07 00:37:46.953180,1,-1,-78,0,0,0,76,78,135,120,32,122.45,116,-25.00,14.00,-997.00
2024-06-07 00:37:47.140754,0,-1,-84,0,0,0,76,78,135,120,32,122.40,116,6.00,4.00,-1019.00
2024-06-07 00:37:47.157170,1,0,-90,0,0,0,76,78,135,120,32,122.42,117,-6.00,16.00,-883.00
2024-06-07 00:37:47.345462,1,0,-97,0,0,0,76,78,134,120,32,122.41,117,-11.00,30.00,-1026.00
2024-06-07 00:37:47.361262,0,0,-103,0,0,0,76,78,134,120,32,122.42,117,-28.00,0.00,-959.00
2024-06-07 00:37:47.550245,0,0,-109,0,0,0,76,78,133,120,32,122.42,117,0.00,6.00,-1038.00
2024-06-07 00:37:47.565146,0,0,-115,0,0,0,76,78,131,120,32,122.43,117,33.00,2.00,-1020.00
2024-06-07 00:37:47.616102,0,0,-121,0,0,0,76,78,130,120,32,122.41,117,-63.00,36.00,-990.00
2024-06-07 00:37:47.755100,0,0,-127,0,0,0,76,78,129,120,32,122.40,117,-7.00,25.00,-977.00
2024-06-07 00:37:47.820406,0,0,-133,0,0,0,76,78,128,120,32,122.34,117,52.00,-31.00,-1049.00
2024-06-07 00:37:47.960201,0,0,-139,0,0,0,76,78,126,120,32,122.37,117,-27.00,24.00,-985.00
2024-06-07 00:37:48.024078,-1,0,-146,0,0,0,76,78,125,120,32,122.34,117,21.00,-9.00,-967.00
2024-06-07 00:37:48.164659,-1,0,-152,0,0,0,76,78,124,120,32,122.33,118,15.00,-1.00,-1020.00
2024-06-07 00:37:48.228092,0,0,-158,0,0,0,76,78,124,110,32,122.33,118,-24.00,0.00,-980.00
2024-06-07 00:37:48.369473,0,0,-164,0,0,0,75,78,123,110,32,122.37,118,29.00,-13.00,-1024.00
2024-06-07 00:37:48.432036,0,0,-170,0,0,0,75,78,123,110,32,122.32,118,-69.00,45.00,-1038.00
2024-06-07 00:37:48.574177,0,0,-176,0,0,0,75,78,124,110,32,122.34,118,17.00,11.00,-958.00
2024-06-07 00:37:48.636034,0,0,177,0,0,0,75,78,125,110,32,122.36,118,0.00,-8.00,-947.00
2024-06-07 00:37:48.737900,1,0,171,0,0,0,75,78,126,110,32,122.36,118,27.00,-31.00,-1042.00
2024-06-07 00:37:48.881613,0,0,165,0,0,0,75,78,126,120,32,122.33,118,27.00,-3.00,-1117.00
2024-06-07 00:37:48.942349,0,0,158,0,0,0,75,78,126,120,32,122.33,118,13.00,2.00,-954.00
2024-06-07 00:37:49.044957,0,0,152,0,0,0,75,78,126,120,32,122.30,118,-19.00,0.00,-936.00
2024-06-07 00:37:49.147463,0,0,146,0,0,0,75,78,126,120,32,122.32,119,-28.00,30.00,-900.00
2024-06-07 00:37:49.249812,0,0,140,0,0,0,75,78,125,120,32,122.32,119,-29.00,14.00,-1018.00
2024-06-07 00:37:49.351794,0,0,134,0,0,0,76,78,124,120,32,122.30,119,10.00,34.00,-1039.00
2024-06-07 00:37:49.452652,0,0,128,0,0,0,76,78,124,110,32,122.34,119,-19.00,32.00,-1007.00
2024-06-07 00:37:49.554897,0,0,122,0,0,0,76,78,124,110,32,122.33,119,13.00,6.00,-1044.00
2024-06-07 00:37:49.700562,0,0,116,0,0,0,76,78,125,110,32,122.35,119,37.00,-25.00,-1067.00
2024-06-07 00:37:49.757937,0,0,110,0,0,0,76,78,126,110,32,122.30,119,-12.00,30.00,-1113.00
2024-06-07 00:37:49.905618,0,0,104,0,0,0,76,78,127,110,32,122.35,119,-48.00,6.00,-928.00
2024-06-07 00:37:49.961949,0,0,98,0,0,0,76,78,127,120,32,122.34,119,4.00,-28.00,-1112.00
2024-06-07 00:37:50.110179,0,0,91,0,0,-1,76,78,129,120,32,122.32,119,3.00,-20.00,-1027.00
2024-06-07 00:37:50.166386,0,0,85,0,0,-1,76,78,130,120,32,122.35,120,-13.00,-21.00,-1011.00
2024-06-07 00:37:50.315271,0,1,79,0,0,-1,76,78,130,120,32,122.37,120,3.00,-7.00,-947.00
2024-06-07 00:37:50.369817,0,1,73,0,0,0,77,79,131,120,32,122.35,120,-82.00,2.00,-912.00
2024-06-07 00:37:50.521644,0,1,67,0,0,0,77,79,129,120,32,122.40,120,31.00,-4.00,-958.00
2024-06-07 00:37:50.575452,0,0,61,0,0,0,77,79,130,120,32,122.37,120,44.00,-2.00,-925.00
2024-06-07 00:37:50.676314,1,0,55,0,0,0,77,79,128,120,32,122.38,120,27.00,-5.00,-1047.00
2024-06-07 00:37:50.778281,1,0,49,0,0,0,77,79,127,120,32,122.33,120,46.00,-27.00,-1057.00
2024-06-07 00:37:50.929697,0,0,43,0,0,0,77,79,127,120,32,122.38,120,-47.00,27.00,-994.00
2024-06-07 00:37:50.981819,0,0,36,0,0,0,77,79,127,120,32,122.35,120,-28.00,-5.00,-964.00
2024-06-07 00:37:51.138108,0,0,30,0,0,0,77,79,127,120,32,122.33,120,-12.00,11.00,-988.00
2024-06-07 00:37:51.187665,0,0,24,0,0,0,77,79,127,120,32,122.32,121,14.00,-14.00,-1042.00
2024-06-07 00:37:51.288216,0,0,18,0,0,0,77,79,127,120,32,122.34,121,11.00,-7.00,-936.00
2024-06-07 00:37:51.441597,0,0,13,0,0,0,76,78,128,120,32,122.43,121,48.00,-12.00,-1022.00
2024-06-07 00:37:51.493052,0,0,9,0,0,0,76,78,129,120,32,122.45,121,-1.00,22.00,-915.00
2024-06-07 00:37:51.646487,0,0,6,0,0,0,76,78,130,120,32,122.40,121,-4.00,25.00,-1006.00
2024-06-07 00:37:51.695988,0,0,4,0,0,0,76,78,131,120,32,122.40,121,7.00,-5.00,-961.00
2024-06-07 00:37:51.850799,0,0,3,0,0,0,76,78,131,120,32,122.39,121,55.00,-10.00,-1050.00
2024-06-07 00:37:51.901069,0,0,2,0,0,0,76,78,133,120,32,122.42,121,12.00,-16.00,-999.00
2024-06-07 00:37:51.951447,0,0,1,0,0,0,76,78,134,120,32,122.47,121,54.00,-3.00,-981.00
2024-06-07 00:37:52.111243,0,0,0,0,0,0,76,78,134,120,32,122.45,121,39.00,23.00,-1013.00
2024-06-07 00:37:52.165964,0,0,0,0,0,0,76,78,134,120,32,122.43,122,-32.00,-7.00,-1031.00
2024-06-07 00:37:52.257679,0,0,0,0,0,0,76,78,135,120,32,122.44,122,5.00,-14.00,-938.00
2024-06-07 00:37:52.363695,0,0,0,0,0,0,76,79,134,120,32,122.42,122,5.00,13.00,-967.00
2024-06-07 00:37:52.461258,0,0,0,0,0,0,76,79,134,120,32,122.43,122,40.00,-3.00,-974.00
2024-06-07 00:37:52.564129,0,0,0,0,0,0,76,79,134,120,32,122.43,122,15.00,35.00,-1055.00
2024-06-07 00:37:52.802850,0,0,0,0,0,0,76,79,134,120,32,122.41,122,-3.00,11.00,-926.00
2024-06-07 00:37:52.803244,0,0,0,0,0,0,76,79,134,120,32,122.44,122,55.00,-19.00,-1070.00
2024-06-07 00:37:52.868723,0,0,0,0,0,0,76,79,134,120,32,122.45,122,-22.00,-1.00,-1062.00
2024-06-07 00:37:53.008093,0,0,0,0,0,0,76,79,133,120,32,122.44,122,-13.00,21.00,-860.00
2024-06-07 00:37:53.151110,0,0,0,0,0,0,76,79,133,120,32,122.40,122,-7.00,29.00,-992.00
2024-06-07 00:37:53.174947,0,0,0,0,0,0,76,79,134,120,32,122.41,123,-34.00,16.00,-1007.00
2024-06-07 00:37:53.295880,0,0,0,0,0,0,76,79,134,120,32,122.43,123,-7.00,4.00,-944.00
2024-06-07 00:37:53.438748,0,0,0,0,0,0,76,78,133,120,32,122.41,123,33.00,4.00,-1031.00
2024-06-07 00:37:53.481046,0,0,0,0,0,0,76,78,133,120,32,122.41,123,35.00,9.00,-1043.00
2024-06-07 00:37:53.603105,0,0,0,0,0,0,76,78,133,120,32,122.46,123,17.00,-9.00,-1107.00
2024-06-07 00:37:53.746044,0,0,0,0,0,0,76,78,134,120,32,122.43,123,12.00,-12.00,-1043.00
2024-06-07 00:37:53.786933,0,0,0,0,0,0,76,78,133,120,32,122.41,123,23.00,-13.00,-1040.00
2024-06-07 00:37:53.910710,0,0,0,0,0,0,76,78,134,120,32,122.39,123,0.00,-2.00,-1049.00
2024-06-07 00:37:54.053611,0,0,0,0,0,0,76,78,134,120,32,122.40,123,-8.00,21.00,-1075.00
2024-06-07 00:37:54.093909,0,0,0,0,0,0,76,78,134,120,32,122.41,123,-47.00,-19.00,-1054.00
2024-06-07 00:37:54.216970,0,0,0,0,0,0,76,78,135,120,32,122.38,124,0.00,12.00,-961.00
2024-06-07 00:37:54.360316,0,0,0,0,0,0,76,78,136,120,32,122.33,124,26.00,-7.00,-1096.00
2024-06-07 00:37:54.402463,0,0,0,0,0,0,77,78,136,120,32,122.45,124,10.00,43.00,-943.00
2024-06-07 00:37:54.524122,0,0,0,0,0,0,77,78,137,120,32,122.39,124,0.00,-32.00,-1048.00
2024-06-07 00:37:54.678464,0,0,0,0,0,0,77,78,137,120,32,122.45,124,-25.00,45.00,-1059.00
2024-06-07 00:37:54.706478,0,0,0,0,0,0,77,78,138,120,32,122.47,124,6.00,-26.00,-1024.00
2024-06-07 00:37:54.808856,0,0,0,0,0,0,77,78,138,120,32,122.47,124,7.00,12.00,-990.00
2024-06-07 00:37:54.911608,0,0,0,0,0,0,77,78,139,120,32,122.45,124,26.00,-40.00,-1095.00
2024-06-07 00:37:55.011623,0,0,0,0,0,0,77,78,140,120,32,122.49,124,-30.00,-2.00,-949.00
2024-06-07 00:37:55.127993,0,0,0,0,0,0,77,78,140,120,32,122.49,124,-11.00,6.00,-972.00
2024-06-07 00:37:55.216750,0,0,0,0,0,0,77,78,141,130,32,122.44,125,13.00,-17.00,-900.00
2024-06-07 00:37:55.333032,0,0,0,0,0,0,77,78,141,130,32,122.46,125,-60.00,9.00,-902.00
2024-06-07 00:37:55.419997,0,0,0,0,0,0,77,78,140,120,32,122.46,125,27.00,-24.00,-928.00
2024-06-07 00:37:55.538102,0,0,0,0,0,0,77,78,141,120,32,122.49,125,28.00,9.00,-981.00
2024-06-07 00:37:55.572505,0,0,0,0,0,0,77,78,141,120,32,122.50,125,38.00,-11.00,-1091.00
2024-06-07 00:37:55.742141,0,0,0,0,0,0,77,78,140,120,32,122.41,125,-41.00,24.00,-985.00
2024-06-07 00:37:55.777470,0,0,0,0,0,0,77,78,140,120,32,122.46,125,-29.00,17.00,-1037.00
2024-06-07 00:37:55.946932,0,0,0,0,0,0,77,78,139,120,32,122.47,125,7.00,-5.00,-960.00
2024-06-07 00:37:55.982515,0,0,0,0,0,0,77,78,139,120,32,122.40,125,-62.00,19.00,-833.00
2024-06-07 00:37:56.152080,0,0,0,0,0,0,77,78,138,120,32,122.35,125,-14.00,-7.00,-1083.00
2024-06-07 00:37:56.185547,0,0,0,0,0,0,77,78,136,120,32,122.36,126,8.00,-21.00,-969.00
2024-06-07 00:37:56.358109,0,0,0,0,0,0,77,78,135,120,32,122.34,126,-5.00,8.00,-1112.00
2024-06-07 00:37:56.390142,0,0,0,0,0,0,77,79,133,120,32,122.37,126,31.00,34.00,-886.00
2024-06-07 00:37:56.565748,0,0,0,0,0,0,77,79,132,120,31,122.27,126,7.00,2.00,-956.00
2024-06-07 00:37:56.594073,1,0,0,0,0,1,77,79,130,120,31,122.32,126,-57.00,-17.00,-997.00
2024-06-07 00:37:56.766002,1,0,0,0,0,0,77,79,127,120,31,122.32,126,-19.00,25.00,-983.00
2024-06-07 00:37:56.797850,0,0,0,0,0,1,77,79,126,120,31,122.31,126,66.00,-15.00,-945.00
2024-06-07 00:37:56.970875,0,0,0,0,0,1,77,79,124,120,31,122.25,126,-9.00,1.00,-925.00
2024-06-07 00:37:57.001454,0,0,0,0,0,1,77,79,124,120,31,122.24,126,15.00,-10.00,-1157.00
2024-06-07 00:37:57.103452,0,0,0,0,0,0,77,79,123,110,31,122.28,126,47.00,21.00,-982.00
2024-06-07 00:37:57.278755,0,0,0,0,0,0,77,79,124,110,31,122.19,127,8.00,-5.00,-1078.00
2024-06-07 00:37:57.307402,0,0,0,0,0,0,77,79,124,110,31,122.26,127,98.00,-9.00,-1055.00
2024-06-07 00:37:57.482996,0,0,0,0,0,0,76,79,124,110,31,122.24,127,-25.00,25.00,-1034.00
2024-06-07 00:37:57.511854,0,0,0,0,0,0,76,79,125,110,31,122.24,127,22.00,-15.00,-1051.00
2024-06-07 00:37:57.687586,0,0,0,0,0,0,76,79,126,110,31,122.30,127,30.00,-2.00,-1105.00
2024-06-07 00:37:57.715387,0,0,0,0,0,0,76,79,129,110,31,122.28,127,54.00,-42.00,-975.00
2024-06-07 00:37:57.817281,0,0,0,0,0,0,76,79,129,120,31,122.27,127,38.00,0.00,-1060.00
2024-06-07 00:37:57.920787,0,0,0,0,0,-1,76,79,131,120,31,122.33,127,6.00,-6.00,-1063.00
2024-06-07 00:37:58.078004,0,0,0,0,0,0,76,79,133,120,31,122.34,127,22.00,-7.00,-992.00
2024-06-07 00:37:58.123779,0,0,0,0,0,0,76,79,134,120,31,122.34,127,10.00,-35.00,-1067.00
2024-06-07 00:37:58.301969,0,0,0,0,0,-1,76,79,135,120,31,122.32,128,-38.00,5.00,-940.00
2024-06-07 00:37:58.327389,0,0,0,0,0,0,76,79,135,120,31,122.36,128,-35.00,17.00,-936.00
2024-06-07 00:37:58.506780,0,0,0,0,0,0,76,79,136,120,31,122.30,128,-44.00,16.00,-979.00
2024-06-07 00:37:58.531743,-1,0,0,0,0,0,76,79,135,120,31,122.32,128,38.00,-1.00,-1007.00
2024-06-07 00:37:58.711565,-1,0,0,0,0,0,76,79,134,120,31,122.31,128,30.00,-19.00,-1084.00
2024-06-07 00:37:58.735308,0,0,0,0,0,0,76,79,134,120,31,122.30,128,27.00,-13.00,-994.00
2024-06-07 00:37:58.916512,0,0,0,0,0,0,76,79,132,120,31,122.27,128,-49.00,19.00,-1017.00
2024-06-07 00:37:58.939614,0,0,0,0,0,0,76,79,132,120,31,122.22,128,-28.00,3.00,-931.00
2024-06-07 00:37:58.990457,0,0,0,0,0,0,76,79,131,120,31,122.29,128,27.00,-5.00,-1002.00
2024-06-07 00:37:59.107649,0,0,0,0,0,0,76,79,130,120,31,122.31,128,31.00,2.00,-1045.00
2024-06-07 00:37:59.194691,0,0,0,0,0,0,76,79,130,120,31,122.20,129,-51.00,20.00,-1072.00
2024-06-07 00:37:59.326055,0,0,0,0,0,0,76,79,129,120,31,122.34,129,43.00,-21.00,-1142.00
2024-06-07 00:37:59.449278,0,0,0,0,0,0,76,79,129,120,31,122.23,129,-11.00,3.00,-999.00
2024-06-07 00:37:59.633113,0,0,0,0,0,0,76,79,128,120,31,122.23,129,-29.00,6.00,-979.00
2024-06-07 00:37:59.633313,0,0,0,0,0,0,76,79,128,120,31,122.25,129,-22.00,8.00,-1005.00
2024-06-07 00:37:59.704254,0,0,0,0,0,0,76,79,127,120,31,122.20,129,6.00,-4.00,-973.00
2024-06-07 00:37:59.806630,0,0,0,0,0,0,76,79,127,120,31,122.22,129,-14.00,17.00,-1090.00
2024-06-07 00:37:59.940678,0,0,0,0,0,0,76,79,126,120,31,122.19,129,73.00,-14.00,-1073.00
2024-06-07 00:38:00.010444,0,0,0,0,0,0,76,79,126,120,31,122.28,129,-16.00,-2.00,-1056.00
2024-06-07 00:38:00.112138,0,0,0,0,0,0,76,79,127,120,31,122.22,130,-19.00,16.00,-994.00
2024-06-07 00:38:00.247507,0,0,0,0,0,0,76,79,127,120,31,122.19,130,-26.00,22.00,-952.00
2024-06-07 00:38:00.316252,0,0,0,0,0,0,76,79,127,120,31,122.19,130,-51.00,-3.00,-989.00
2024-06-07 00:38:00.452286,0,0,0,0,0,0,77,79,128,120,31,122.23,130,-2.00,7.00,-1079.00
2024-06-07 00:38:00.520997,0,0,0,0,0,0,77,79,128,120,31,122.21,130,30.00,-7.00,-1017.00
2024-06-07 00:38:00.657114,0,0,0,0,0,0,77,79,129,120,31,122.18,130,18.00,-18.00,-953.00
2024-06-07 00:38:00.724240,0,0,0,0,0,0,77,79,131,120,31,122.23,130,-45.00,-2.00,-939.00
2024-06-07 00:38:00.863979,0,0,0,0,0,0,77,79,130,120,31,122.25,130,17.00,-11.00,-971.00
2024-06-07 00:38:00.928027,0,0,0,0,0,0,77,79,131,120,31,122.18,130,44.00,-45.00,-958.00
2024-06-07 00:38:01.077876,0,0,0,0,0,0,77,79,131,120,31,122.23,130,8.00,-1.00,-1010.00
2024-06-07 00:38:01.132835,0,0,0,0,0,0,77,79,131,120,31,122.23,131,-29.00,35.00,-843.00
2024-06-07 00:38:01.271382,0,0,0,0,0,0,77,79,131,120,31,122.31,131,-18.00,8.00,-1044.00
2024-06-07 00:38:01.336454,0,0,0,0,0,0,77,79,132,120,31,122.26,131,31.00,-14.00,-1134.00
2024-06-07 00:38:01.477422,0,0,0,0,0,0,76,79,132,120,31,122.25,131,11.00,-21.00,-992.00
2024-06-07 00:38:01.541038,0,0,0,0,0,0,76,79,132,120,31,122.23,131,61.00,-16.00,-1117.00
2024-06-07 00:38:01.681752,0,0,0,0,0,0,76,79,132,120,31,122.26,131,-32.00,24.00,-1016.00
2024-06-07 00:38:01.744421,0,0,0,0,0,0,76,79,132,120,31,122.22,131,-35.00,32.00,-1031.00
2024-06-07 00:38:01.846625,0,0,0,0,0,0,76,79,132,120,31,122.18,131,-64.00,3.00,-958.00
2024-06-07 00:38:01.988271,0,0,0,0,0,0,76,79,132,120,31,122.20,131,-23.00,-12.00,-923.00
2024-06-07 00:38:02.050824,-1,0,0,0,0,0,76,79,132,120,31,122.24,131,-8.00,-24.00,-951.00
2024-06-07 00:38:02.152020,-1,0,0,0,0,0,76,79,132,120,31,122.22,132,69.00,-31.00,-1028.00
2024-06-07 00:38:02.295797,0,0,0,0,0,0,76,79,132,120,31,122.24,132,-4.00,26.00,-907.00
2024-06-07 00:38:02.356762,0,0,0,0,0,0,76,79,132,120,31,122.27,132,-17.00,3.00,-981.00
2024-06-07 00:38:02.458783,0,0,0,0,0,0,76,79,133,120,31,122.21,132,42.00,7.00,-997.00
2024-06-07 00:38:02.561622,0,0,0,0,0,0,76,79,135,120,31,122.24,132,-1.00,-8.00,-1076.00
2024-06-07 00:38:02.663800,0,0,0,0,0,0,76,79,136,120,31,122.22,132,67.00,-34.00,-1002.00
2024-06-07 00:38:02.713680,1,0,0,0,0,0,76,79,138,120,31,122.24,132,-29.00,27.00,-923.00
2024-06-07 00:38:02.814996,0,0,0,0,0,-1,76,79,140,120,31,122.23,132,48.00,-10.00,-1085.00
2024-06-07 00:38:03.012241,0,0,0,0,0,0,76,79,141,120,31,122.32,132,-21.00,17.00,-907.00
2024-06-07 00:38:03.020151,0,0,0,0,0,0,76,79,143,120,31,122.25,132,13.00,1.00,-914.00
2024-06-07 00:38:03.121769,0,0,0,0,0,0,76,79,144,130,31,122.33,133,28.00,-20.00,-1018.00
2024-06-07 00:38:03.319759,0,0,0,0,0,0,76,79,145,130,31,122.35,133,12.00,14.00,-900.00
2024-06-07 00:38:03.327598,0,0,0,0,0,0,76,79,147,130,31,122.33,133,19.00,-7.00,-1048.00
2024-06-07 00:38:03.427551,0,0,0,0,0,0,76,78,148,130,31,122.37,133,-23.00,32.00,-986.00
2024-06-07 00:38:03.626603,0,0,0,0,0,0,76,78,147,130,31,122.31,133,-6.00,1.00,-924.00
2024-06-07 00:38:03.630949,-1,0,0,0,0,0,76,78,147,130,31,122.35,133,-6.00,-9.00,-930.00
2024-06-07 00:38:03.832131,-1,0,0,0,0,0,76,78,145,130,31,122.37,133,-2.00,11.00,-996.00
2024-06-07 00:38:03.834947,-1,0,0,0,0,1,76,78,145,130,31,122.31,133,40.00,19.00,-935.00
2024-06-07 00:38:03.936971,0,0,0,0,0,1,76,78,144,130,31,122.34,133,-7.00,-3.00,-980.00
2024-06-07 00:38:04.039079,0,0,0,0,0,0,76,78,142,130,31,122.26,133,35.00,-14.00,-1045.00
2024-06-07 00:38:04.141720,0,0,0,0,0,1,76,78,142,130,31,122.30,134,-13.00,-5.00,-1043.00
2024-06-07 00:38:04.242849,-1,0,0,0,0,1,76,78,142,120,31,122.36,134,-5.00,5.00,-887.00
2024-06-07 00:38:04.447788,0,0,0,0,0,0,76,78,142,120,31,122.26,134,-28.00,28.00,-977.00
2024-06-07 00:38:04.447967,0,0,0,0,0,1,76,79,143,120,31,122.38,134,-37.00,63.00,-920.00
2024-06-07 00:38:04.651048,-1,0,0,0,0,0,76,79,144,120,31,122.31,134,-92.00,44.00,-1039.00
2024-06-07 00:38:04.651231,0,-1,0,0,0,0,76,79,145,120,31,122.34,134,27.00,-7.00,-1096.00
2024-06-07 00:38:04.754907,0,-1,0,1,0,0,76,79,146,130,31,122.38,134,39.00,-31.00,-938.00
2024-06-07 00:38:04.856005,2,0,0,1,0,0,76,79,149,130,31,122.35,134,-21.00,22.00,-982.00
2024-06-07 00:38:04.957301,1,0,0,0,0,0,76,79,149,130,31,122.31,134,-52.00,22.00,-933.00
2024-06-07 00:38:05.060787,0,0,0,0,0,0,76,79,149,130,31,122.35,134,-26.00,4.00,-939.00
2024-06-07 00:38:05.162858,1,0,0,0,0,0,76,79,151,130,31,122.38,135,-50.00,0.00,-1069.00
2024-06-07 00:38:05.262828,0,-1,0,0,0,0,76,79,149,130,31,122.37,135,20.00,-20.00,-995.00
2024-06-07 00:38:05.364727,1,0,0,0,0,0,76,79,149,130,31,122.35,135,18.00,-2.00,-936.00
2024-06-07 00:38:05.470241,1,0,0,0,0,0,77,80,149,130,31,122.39,135,-48.00,16.00,-966.00
