TS,pitch,roll,yaw,vgx,vgy,vgz,templ,temph,tof,h,bat,baro,time,agx,agy,agz
2024-06-07 00:38:27.996840,0,0,2,0,0,0,78,80,10,0,31,120.84,140,2.00,2.00,-998.00
2024-06-07 00:38:28.062788,0,0,2,0,0,0,78,80,10,0,31,120.82,140,0.00,3.00,-1001.00
2024-06-07 00:38:28.163150,0,0,2,0,0,0,78,80,10,0,31,120.79,140,2.00,2.00,-1000.00
2024-06-07 00:38:28.304034,0,0,2,0,0,0,78,80,10,0,31,120.75,140,2.00,2.00,-999.00
2024-06-07 00:38:28.367114,0,0,2,0,0,0,78,80,10,0,31,120.79,140,0.00,3.00,-1000.00
2024-06-07 00:38:28.508584,0,0,2,0,0,0,78,80,10,0,31,120.75,140,2.00,2.00,-1002.00
2024-06-07 00:38:28.570991,0,0,2,0,0,0,78,81,10,0,31,120.80,140,4.00,1.00,-1000.00
2024-06-07 00:38:28.713504,0,0,2,0,0,0,78,81,10,0,31,120.79,140,2.00,2.00,-1000.00
2024-06-07 00:38:28.774828,0,0,2,0,0,0,78,81,10,0,31,120.82,140,2.00,2.00,-999.00
2024-06-07 00:38:28.876966,0,0,2,0,0,0,78,81,10,0,31,120.79,140,3.00,2.00,-999.00
2024-06-07 00:38:29.020719,0,0,2,0,0,0,78,81,10,0,31,120.75,140,2.00,2.00,-1000.00
2024-06-07 00:38:29.080930,0,0,2,0,0,0,78,81,10,0,31,120.80,140,2.00,2.00,-999.00
2024-06-07 00:38:29.184355,0,0,2,0,0,0,78,81,10,0,31,120.79,140,1.00,2.00,-998.00
2024-06-07 00:38:29.328049,0,0,2,0,0,0,78,81,10,0,31,120.83,140,2.00,2.00,-1002.00
2024-06-07 00:38:29.387493,0,0,2,0,0,0,78,81,10,0,31,120.84,140,4.00,2.00,-1001.00
2024-06-07 00:38:29.532768,0,0,2,0,0,0,78,81,10,0,31,120.84,140,2.00,2.00,-1003.00
2024-06-07 00:38:29.590968,0,0,2,0,0,0,78,81,10,0,31,120.81,140,2.00,2.00,-999.00
2024-06-07 00:38:29.692960,0,0,2,0,0,0,78,81,10,0,31,120.84,140,2.00,3.00,-1000.00
2024-06-07 00:38:29.840679,0,0,2,0,0,0,78,81,10,0,31,120.83,140,2.00,1.00,-1000.00
2024-06-07 00:38:29.897009,0,0,2,0,0,0,78,81,10,0,31,120.84,140,1.00,1.00,-1000.00
2024-06-07 00:38:29.998721,0,0,2,0,0,0,78,81,10,0,31,120.82,140,2.00,2.00,-1002.00
2024-06-07 00:38:30.146973,0,0,2,0,0,0,78,81,10,0,31,120.82,140,0.00,5.00,-997.00
2024-06-07 00:38:30.202702,0,0,2,0,0,0,78,81,10,0,31,120.82,140,4.00,0.00,-1001.00
2024-06-07 00:38:30.351782,0,0,2,0,0,0,78,81,10,0,31,120.82,140,30.00,-17.00,-1000.00
2024-06-07 00:38:30.406704,0,0,2,0,0,0,78,81,10,0,31,120.82,140,5.00,27.00,-1004.00
2024-06-07 00:38:30.508583,0,0,1,0,0,0,78,81,10,0,31,120.82,140,-3.00,7.00,-995.00
2024-06-07 00:38:30.659046,0,1,1,0,0,0,79,80,10,0,31,120.82,141,-51.00,-12.00,-1083.00
2024-06-07 00:38:30.715002,-3,4,0,0,0,0,79,80,10,0,31,120.82,141,7.00,4.00,-1206.00
2024-06-07 00:38:30.814698,-2,6,0,1,1,-2,79,80,10,0,31,120.82,141,45.00,25.00,-1237.00
2024-06-07 00:38:30.866459,-1,1,0,1,2,-4,79,80,12,0,31,120.82,141,-17.00,7.00,-1254.00
2024-06-07 00:38:30.968028,2,-4,0,1,2,-5,79,80,17,0,31,121.28,141,-72.00,6.00,-1046.00
2024-06-07 00:38:31.170888,4,-6,0,0,1,-6,79,80,23,0,31,121.36,141,-18.00,-15.00,-1070.00
2024-06-07 00:38:31.171533,1,-3,0,0,0,-6,79,80,31,0,31,121.46,141,-45.00,-5.00,-1003.00
2024-06-07 00:38:31.273695,0,-1,0,0,0,-6,79,80,40,0,31,121.56,141,49.00,-25.00,-964.00
2024-06-07 00:38:31.377057,0,0,0,0,0,-5,79,80,49,10,31,121.47,141,63.00,-1.00,-1040.00
2024-06-07 00:38:31.478218,2,0,0,0,0,-5,79,80,58,10,31,121.62,141,-5.00,17.00,-907.00
2024-06-07 00:38:31.581291,1,0,0,0,-1,-4,79,80,69,10,31,121.77,142,33.00,-11.00,-908.00
2024-06-07 00:38:31.682838,0,0,0,0,0,-3,79,80,76,20,31,121.80,142,32.00,-19.00,-950.00
2024-06-07 00:38:31.785401,0,0,0,0,0,-3,79,80,83,20,31,121.89,142,-14.00,10.00,-934.00
2024-06-07 00:38:31.885453,0,0,0,0,0,-2,79,80,88,30,31,121.94,142,-18.00,12.00,-885.00
2024-06-07 00:38:31.990043,0,0,0,0,0,-1,79,80,93,30,31,121.98,142,-35.00,14.00,-885.00
2024-06-07 00:38:32.089539,0,0,0,0,0,-1,79,80,97,30,31,122.05,142,18.00,-5.00,-831.00
2024-06-07 00:38:32.191603,0,1,0,0,0,0,79,80,100,40,31,122.06,142,13.00,-5.00,-804.00
2024-06-07 00:38:32.300538,0,0,0,0,0,0,79,80,101,40,31,122.04,142,-24.00,-4.00,-993.00
2024-06-07 00:38:32.402410,0,0,1,0,0,0,79,80,104,40,31,122.14,142,-12.00,19.00,-894.00
2024-06-07 00:38:32.502174,0,0,0,0,0,0,79,80,105,40,31,122.19,142,-1.00,8.00,-1009.00
2024-06-07 00:38:32.599561,-1,0,0,0,0,1,79,82,106,50,31,122.23,143,18.00,6.00,-1006.00
2024-06-07 00:38:32.707214,-1,0,0,0,0,1,79,82,107,50,31,122.19,143,33.00,-22.00,-1073.00
2024-06-07 00:38:32.803586,0,0,0,0,0,1,79,82,107,50,31,122.24,143,77.00,-35.00,-1001.00
2024-06-07 00:38:32.911677,0,0,0,0,0,1,79,82,108,50,31,122.23,143,-29.00,16.00,-923.00
2024-06-07 00:38:33.008492,1,1,0,0,0,1,79,82,109,50,31,122.21,143,4.00,2.00,-977.00
2024-06-07 00:38:33.116457,1,1,0,0,0,1,79,82,107,50,31,122.25,143,0.00,-9.00,-986.00
2024-06-07 00:38:33.212502,0,0,0,0,0,1,79,82,106,50,31,122.22,143,-37.00,18.00,-930.00
2024-06-07 00:38:33.322036,0,0,0,0,0,1,79,82,103,50,31,122.14,143,12.00,3.00,-866.00
2024-06-07 00:38:33.416675,0,0,0,0,0,2,79,82,101,50,31,122.12,143,-40.00,36.00,-875.00
2024-06-07 00:38:33.525984,0,0,0,0,0,2,79,82,96,50,31,122.11,143,77.00,-25.00,-1064.00
2024-06-07 00:38:33.620433,0,0,0,0,0,2,78,81,92,50,31,122.08,144,5.00,7.00,-1050.00
2024-06-07 00:38:33.731096,0,0,0,0,0,2,78,81,90,40,31,122.02,144,-51.00,20.00,-1108.00
2024-06-07 00:38:33.824835,0,0,0,0,0,2,78,81,86,40,31,122.03,144,-29.00,11.00,-993.00
2024-06-07 00:38:33.935609,0,0,0,0,0,1,78,81,83,40,31,121.97,144,-58.00,15.00,-928.00
2024-06-07 00:38:34.028442,0,0,0,0,0,2,78,81,81,40,31,121.96,144,-132.00,37.00,-1046.00
2024-06-07 00:38:34.140443,0,0,0,0,0,1,78,81,78,40,31,121.93,144,25.00,-25.00,-1043.00
2024-06-07 00:38:34.232738,0,0,0,0,0,1,78,81,75,30,31,121.92,144,18.00,-7.00,-983.00
2024-06-07 00:38:34.336103,0,0,0,0,0,1,78,81,72,30,31,121.84,144,-69.00,37.00,-958.00
2024-06-07 00:38:34.436608,0,0,0,0,0,1,78,81,70,30,31,121.90,144,9.00,-24.00,-1017.00
2024-06-07 00:38:34.488569,0,0,0,0,0,1,78,81,68,30,31,121.84,144,55.00,-23.00,-1079.00
2024-06-07 00:38:34.652351,-1,0,0,0,0,0,78,82,65,30,31,121.78,145,15.00,-15.00,-1070.00
2024-06-07 00:38:34.691388,0,0,0,0,0,0,78,82,63,20,31,121.84,145,27.00,10.00,-867.00
2024-06-07 00:38:34.857021,0,0,0,0,0,0,78,82,60,20,31,121.80,145,33.00,9.00,-915.00
2024-06-07 00:38:34.895367,0,1,0,0,0,1,78,82,57,20,31,121.77,145,5.00,11.00,-960.00
2024-06-07 00:38:35.061953,0,0,0,0,0,1,78,82,56,20,31,121.78,145,-6.00,16.00,-1140.00
2024-06-07 00:38:35.099362,0,0,0,0,0,0,78,82,55,20,31,121.80,145,-30.00,1.00,-992.00
2024-06-07 00:38:35.201326,0,0,0,0,0,0,78,82,55,10,31,121.85,145,-12.00,23.00,-1068.00
2024-06-07 00:38:35.369160,0,0,0,0,0,0,78,82,55,10,31,121.79,145,-9.00,-15.00,-1103.00
2024-06-07 00:38:35.405237,0,0,0,0,0,-1,78,82,55,10,31,121.77,145,79.00,-25.00,-1002.00
2024-06-07 00:38:35.573962,-1,0,0,0,0,-1,78,82,56,10,31,121.80,145,0.00,-18.00,-1037.00
2024-06-07 00:38:35.609272,0,0,0,0,0,-1,79,81,56,10,31,121.80,146,8.00,-45.00,-1083.00
2024-06-07 00:38:35.778960,0,0,0,0,0,-1,79,81,57,10,31,121.88,146,5.00,10.00,-1093.00
2024-06-07 00:38:35.813227,0,0,0,0,0,-1,79,81,57,10,31,121.83,146,-28.00,-3.00,-1022.00
2024-06-07 00:38:35.983543,0,0,0,0,0,-1,79,81,58,20,31,121.85,146,-82.00,5.00,-1021.00
2024-06-07 00:38:36.017247,0,0,0,0,0,-1,79,81,58,20,31,121.90,146,-2.00,-31.00,-968.00
2024-06-07 00:38:36.188755,0,0,0,0,0,-1,79,81,59,20,31,121.92,146,20.00,-32.00,-988.00
2024-06-07 00:38:36.221310,0,0,0,0,0,-1,79,81,60,20,31,121.90,146,-1.00,-9.00,-1004.00
2024-06-07 00:38:36.393240,0,0,0,0,0,-1,79,81,61,20,31,121.90,146,21.00,-54.00,-955.00
2024-06-07 00:38:36.426000,0,0,0,0,0,-1,79,81,63,20,31,121.96,146,51.00,-1.00,-1084.00
2024-06-07 00:38:36.598512,0,0,0,0,0,-1,79,81,64,20,31,121.95,147,17.00,-8.00,-1035.00
2024-06-07 00:38:36.629303,0,0,0,0,0,-1,78,81,65,20,31,121.94,147,-17.00,3.00,-999.00
2024-06-07 00:38:36.803118,0,0,0,0,0,-1,78,81,66,20,31,121.95,147,-11.00,10.00,-874.00
2024-06-07 00:38:36.833656,0,0,0,0,0,-1,78,81,68,20,31,121.96,147,-25.00,-8.00,-1075.00
2024-06-07 00:38:37.007557,0,0,0,0,0,-1,78,81,70,20,31,122.07,147,29.00,-14.00,-1051.00
2024-06-07 00:38:37.037972,0,0,0,0,0,-1,78,81,72,20,31,122.09,147,32.00,-3.00,-964.00
2024-06-07 00:38:37.225864,0,0,0,0,0,-1,78,81,73,30,31,122.03,147,-37.00,-6.00,-925.00
2024-06-07 00:38:37.241515,0,0,0,0,0,-1,78,81,75,30,31,122.05,147,10.00,18.00,-987.00
2024-06-07 00:38:37.368436,0,0,0,0,0,-1,78,81,77,30,31,122.05,147,-50.00,4.00,-987.00
2024-06-07 00:38:37.506543,0,0,0,0,0,-1,78,81,78,30,31,122.08,147,-53.00,10.00,-1083.00
2024-06-07 00:38:37.560584,0,0,0,0,0,0,78,81,79,30,31,122.15,148,35.00,-1.00,-1020.00
2024-06-07 00:38:37.667243,0,0,0,0,0,0,77,80,81,30,31,122.11,148,-37.00,22.00,-892.00
2024-06-07 00:38:37.751243,0,0,0,0,0,0,77,80,82,30,31,122.12,148,6.00,4.00,-876.00
2024-06-07 00:38:37.853420,0,0,0,0,0,0,77,80,83,30,31,122.12,148,-20.00,-11.00,-968.00
2024-06-07 00:38:38.007154,0,0,0,0,0,0,77,80,84,40,31,122.13,148,69.00,-24.00,-971.00
2024-06-07 00:38:38.076884,0,0,0,0,0,0,77,80,84,40,31,122.20,148,-5.00,-28.00,-885.00
2024-06-07 00:38:38.229428,0,0,0,0,0,0,77,80,85,40,31,122.17,148,-29.00,19.00,-935.00
2024-06-07 00:38:38.229490,0,0,0,0,0,0,77,80,85,40,31,122.15,148,-42.00,21.00,-971.00
2024-06-07 00:38:38.314204,0,0,0,0,0,0,77,80,86,40,31,122.10,148,45.00,-26.00,-997.00
2024-06-07 00:38:38.451957,0,0,1,0,0,0,77,80,86,40,31,122.11,148,-15.00,0.00,-984.00
2024-06-07 00:38:38.595298,0,0,0,0,0,0,77,80,86,40,31,122.14,149,52.00,-31.00,-923.00
2024-06-07 00:38:38.761650,0,0,0,0,0,0,78,81,85,40,31,122.12,149,9.00,-6.00,-1031.00
2024-06-07 00:38:38.771101,0,0,1,0,0,0,78,81,85,40,31,122.12,149,-41.00,26.00,-1002.00
2024-06-07 00:38:38.905989,1,0,0,0,0,0,78,81,84,40,31,122.11,149,-26.00,13.00,-940.00
2024-06-07 00:38:38.924133,0,0,0,0,0,0,78,81,84,40,31,122.15,149,29.00,-14.00,-980.00
2024-06-07 00:38:39.066534,1,0,0,0,0,0,78,81,83,40,31,122.17,149,30.00,-8.00,-1044.00
2024-06-07 00:38:39.220808,0,0,0,0,0,0,78,81,83,30,31,122.19,149,39.00,-21.00,-964.00
2024-06-07 00:38:39.230461,0,0,0,0,0,0,78,81,82,30,31,122.16,149,-52.00,43.00,-941.00
2024-06-07 00:38:39.362534,0,0,0,0,0,0,78,81,82,30,31,122.13,149,23.00,21.00,-1066.00
2024-06-07 00:38:39.434065,0,0,0,0,0,0,78,81,82,30,31,122.18,149,54.00,-24.00,-1055.00
2024-06-07 00:38:39.567585,0,0,0,0,0,0,78,81,81,30,31,122.15,150,-4.00,9.00,-963.00
2024-06-07 00:38:39.638061,0,0,0,0,0,0,78,80,82,30,31,122.14,150,20.00,-8.00,-1100.00
2024-06-07 00:38:39.772285,0,0,0,0,0,0,78,80,82,30,31,122.10,150,-18.00,39.00,-945.00
2024-06-07 00:38:39.842325,0,0,0,0,0,0,78,80,81,30,31,122.13,150,-8.00,13.00,-1034.00
2024-06-07 00:38:39.977161,0,0,0,0,0,0,78,80,81,30,31,122.15,150,-62.00,50.00,-935.00
2024-06-07 00:38:40.046291,0,0,0,0,0,0,78,80,80,30,31,122.10,150,43.00,-32.00,-1023.00
2024-06-07 00:38:40.182171,0,0,0,0,0,0,78,80,79,30,31,122.16,150,9.00,-1.00,-992.00
2024-06-07 00:38:40.250012,0,0,0,0,0,0,78,80,79,30,31,122.08,150,-14.00,5.00,-1088.00
2024-06-07 00:38:40.386812,0,0,0,0,0,0,78,80,78,30,31,122.12,150,27.00,-8.00,-987.00
2024-06-07 00:38:40.455821,0,0,0,0,0,0,78,80,76,30,31,122.10,150,-27.00,33.00,-920.00
2024-06-07 00:38:40.556351,0,1,0,0,0,0,78,80,75,30,31,122.09,151,-23.00,3.00,-1006.00
2024-06-07 00:38:40.657899,0,1,0,0,0,0,79,81,74,30,31,122.03,151,0.00,1.00,-1050.00
2024-06-07 00:38:40.797973,0,0,0,0,0,0,79,81,72,30,31,122.11,151,68.00,-18.00,-930.00
2024-06-07 00:38:40.863233,0,1,0,0,0,0,79,81,71,30,31,122.00,151,45.00,-22.00,-1193.00
2024-06-07 00:38:41.001052,1,0,0,0,0,-1,79,81,71,30,31,122.05,151,-33.00,9.00,-1090.00
2024-06-07 00:38:41.067487,0,0,0,0,0,-1,79,81,71,30,31,122.07,151,12.00,-14.00,-1086.00
2024-06-07 00:38:41.167984,0,0,0,0,0,-2,79,81,73,30,31,122.08,151,21.00,21.00,-877.00
2024-06-07 00:38:41.308279,0,0,0,0,0,-2,79,81,76,30,31,122.13,151,45.00,-16.00,-1080.00
2024-06-07 00:38:41.371845,0,0,0,0,0,-3,79,81,79,30,31,122.15,151,1.00,25.00,-967.00
2024-06-07 00:38:41.513184,-1,0,0,0,0,-3,79,81,84,40,31,122.10,151,-39.00,34.00,-1021.00
2024-06-07 00:38:41.576375,0,0,0,0,0,-4,79,81,89,40,31,122.20,152,70.00,-22.00,-1035.00
2024-06-07 00:38:41.717819,0,0,0,0,0,-5,78,81,96,50,31,122.21,152,39.00,-39.00,-1121.00
2024-06-07 00:38:41.779949,0,0,0,0,0,-6,78,81,102,50,31,122.34,152,-2.00,-24.00,-969.00
2024-06-07 00:38:41.886482,0,0,0,0,0,-6,78,81,109,60,31,122.41,152,-32.00,-7.00,-1043.00
2024-06-07 00:38:41.983903,-1,1,0,0,0,-6,78,81,116,70,31,122.44,152,-21.00,-5.00,-1101.00
2024-06-07 00:38:42.085989,-1,0,0,0,0,-6,78,81,123,70,31,122.48,152,2.00,-3.00,-1017.00
2024-06-07 00:38:42.188892,0,0,0,0,0,-6,78,81,128,80,31,122.57,152,7.00,1.00,-901.00
2024-06-07 00:38:42.291301,0,0,0,0,0,-5,78,81,134,90,31,122.61,152,-75.00,43.00,-953.00
2024-06-07 00:38:42.393455,0,0,0,0,0,-5,78,81,139,90,31,122.69,152,-11.00,-3.00,-925.00
2024-06-07 00:38:42.494584,1,0,0,0,0,-4,78,81,144,100,31,122.67,152,-46.00,8.00,-932.00
2024-06-07 00:38:42.596780,1,0,0,0,0,-4,78,81,147,100,31,122.78,153,5.00,27.00,-898.00
2024-06-07 00:38:42.698483,0,0,0,0,0,-3,78,80,151,100,31,122.80,153,-2.00,10.00,-962.00
2024-06-07 00:38:42.844206,0,0,0,0,0,-2,78,80,155,110,31,122.81,153,6.00,14.00,-916.00
2024-06-07 00:38:42.901732,0,0,0,0,0,-2,78,80,158,110,31,122.85,153,-35.00,5.00,-990.00
2024-06-07 00:38:43.049206,0,0,0,0,0,-2,78,80,159,110,31,122.90,153,67.00,-10.00,-950.00
2024-06-07 00:38:43.106484,0,0,0,0,0,-1,78,80,163,110,31,122.88,153,10.00,30.00,-899.00
2024-06-07 00:38:43.253643,0,0,0,0,0,-1,78,80,166,110,31,122.87,153,2.00,-9.00,-1114.00
2024-06-07 00:38:43.309668,0,0,0,0,0,-2,78,80,169,120,31,122.99,153,52.00,-2.00,-935.00
2024-06-07 00:38:43.360769,0,1,0,0,0,-1,78,80,173,120,31,122.98,153,42.00,6.00,-1111.00
2024-06-07 00:38:43.560975,0,0,0,0,0,-2,78,80,176,120,31,123.04,153,-72.00,29.00,-1014.00
2024-06-07 00:38:43.564627,0,0,0,0,0,-2,78,80,182,130,31,123.03,154,30.00,-11.00,-984.00
2024-06-07 00:38:43.766004,0,0,0,0,0,-1,79,81,181,130,31,123.00,154,-64.00,21.00,-976.00
2024-06-07 00:38:43.769814,0,0,0,0,0,-1,79,81,183,130,31,123.10,154,-16.00,9.00,-905.00
2024-06-07 00:38:43.871724,0,0,0,0,0,-1,79,81,186,130,31,123.09,154,-51.00,14.00,-908.00
2024-06-07 00:38:43.973387,0,0,0,0,0,0,79,81,187,130,31,123.05,154,30.00,10.00,-987.00
2024-06-07 00:38:44.075697,0,0,0,0,0,0,79,81,188,130,31,123.08,154,-5.00,4.00,-1008.00
2024-06-07 00:38:44.177410,0,0,0,0,0,0,79,81,187,130,31,123.11,154,-26.00,38.00,-852.00
2024-06-07 00:38:44.279084,0,0,0,0,0,0,79,81,188,130,31,123.14,154,-5.00,-11.00,-974.00
2024-06-07 00:38:44.380789,0,0,0,0,0,0,79,81,189,130,31,123.14,154,-42.00,24.00,-984.00
2024-06-07 00:38:44.482968,0,0,0,0,0,0,79,81,189,130,31,123.08,154,21.00,-7.00,-928.00
2024-06-07 00:38:44.585107,0,0,0,0,0,0,79,81,190,130,31,123.09,155,25.00,0.00,-964.00
2024-06-07 00:38:44.687765,0,0,0,0,0,0,78,80,193,140,31,123.10,155,-46.00,30.00,-1040.00
2024-06-07 00:38:44.789832,0,0,0,0,0,0,78,80,193,140,31,123.18,155,5.00,-6.00,-1070.00
2024-06-07 00:38:44.892132,0,0,0,0,0,0,78,80,195,140,31,123.20,155,-1.00,-15.00,-1032.00
2024-06-07 00:38:44.995050,0,0,0,0,0,0,78,80,195,140,31,123.13,155,-44.00,50.00,-941.00
2024-06-07 00:38:45.095328,0,0,0,0,0,0,78,80,195,140,31,123.18,155,-55.00,18.00,-961.00
2024-06-07 00:38:45.199477,0,0,0,0,0,0,78,80,195,140,31,123.14,155,-16.00,1.00,-996.00
2024-06-07 00:38:45.299162,0,0,0,0,0,0,78,80,195,140,31,123.15,155,9.00,-11.00,-993.00
2024-06-07 00:38:45.404196,0,0,0,0,0,0,78,80,195,140,31,123.12,155,-29.00,39.00,-812.00
2024-06-07 00:38:45.503177,0,0,0,0,0,0,78,80,193,140,31,123.11,155,-26.00,2.00,-983.00
2024-06-07 00:38:45.604519,0,0,0,0,0,1,78,80,191,140,31,123.14,156,19.00,-4.00,-984.00
2024-06-07 00:38:45.711231,0,1,0,0,0,1,78,81,190,140,31,123.17,156,-7.00,-1.00,-908.00
2024-06-07 00:38:45.808592,0,1,0,0,0,1,78,81,188,140,31,123.10,156,-64.00,27.00,-1020.00
2024-06-07 00:38:45.910887,0,1,0,0,0,1,78,81,186,140,31,123.09,156,26.00,21.00,-960.00
2024-06-07 00:38:46.018360,0,0,0,0,0,1,78,81,186,140,31,123.08,156,-6.00,-10.00,-1097.00
2024-06-07 00:38:46.114564,0,0,0,0,0,1,78,81,181,130,31,122.99,156,-61.00,32.00,-1010.00
2024-06-07 00:38:46.223258,0,0,0,0,0,2,78,81,180,130,31,123.03,156,34.00,2.00,-904.00
2024-06-07 00:38:46.318681,0,0,0,0,0,2,78,81,177,130,31,123.04,156,48.00,-5.00,-1080.00
2024-06-07 00:38:46.429349,0,0,0,0,0,2,78,81,175,130,31,122.98,156,0.00,20.00,-860.00
2024-06-07 00:38:46.522551,0,0,0,0,0,2,78,81,171,120,31,122.88,156,-14.00,16.00,-1096.00
2024-06-07 00:38:46.633149,1,0,0,0,0,2,78,81,167,120,31,122.92,157,15.00,8.00,-1026.00
2024-06-07 00:38:46.726589,0,0,0,0,0,2,78,82,164,120,31,122.92,157,-2.00,-13.00,-905.00
2024-06-07 00:38:46.837600,0,0,0,0,0,3,78,82,161,110,31,122.85,157,25.00,-11.00,-1049.00
2024-06-07 00:38:46.931163,-1,0,0,0,0,2,78,82,157,110,31,122.85,157,-37.00,56.00,-899.00
2024-06-07 00:38:47.042346,-1,0,0,0,0,3,78,82,155,110,31,122.80,157,0.00,-24.00,-1172.00
2024-06-07 00:38:47.134487,-1,0,0,0,0,2,78,82,153,110,31,122.74,157,-28.00,3.00,-836.00
2024-06-07 00:38:47.185618,0,0,0,0,0,2,78,82,150,100,31,122.77,157,19.00,3.00,-1125.00
2024-06-07 00:38:47.349611,0,0,0,0,0,1,78,82,148,100,31,122.73,157,-42.00,18.00,-906.00
2024-06-07 00:38:47.389805,0,0,0,0,0,1,78,82,147,100,31,122.75,157,33.00,13.00,-977.00
2024-06-07 00:38:47.554397,0,0,0,0,0,1,78,82,146,100,31,122.75,157,39.00,-22.00,-1037.00
2024-06-07 00:38:47.593423,0,0,0,0,0,1,78,82,144,100,31,122.71,158,-42.00,-8.00,-1063.00
2024-06-07 00:38:47.760741,0,0,0,0,0,1,78,81,143,100,31,122.71,158,5.00,23.00,-943.00
2024-06-07 00:38:47.797693,0,0,0,0,0,1,78,81,142,90,31,122.68,158,-61.00,24.00,-1096.00
2024-06-07 00:38:47.900332,-1,0,0,0,0,1,78,81,142,90,31,122.76,158,-26.00,0.00,-1165.00
2024-06-07 00:38:48.066470,-2,0,0,0,0,0,78,81,144,90,31,122.63,158,9.00,8.00,-1019.00
2024-06-07 00:38:48.114129,-2,0,0,0,0,0,78,81,143,90,31,122.68,158,10.00,8.00,-953.00
2024-06-07 00:38:48.205506,0,0,0,0,0,0,78,81,143,90,31,122.75,158,-10.00,29.00,-1045.00
2024-06-07 00:38:48.373861,0,0,0,0,0,0,78,81,144,90,31,122.78,158,16.00,11.00,-1042.00
2024-06-07 00:38:48.409405,1,0,0,0,0,0,78,81,144,100,31,122.72,158,-7.00,-2.00,-961.00
2024-06-07 00:38:48.578460,0,0,0,0,0,0,78,81,144,100,31,122.69,158,-1.00,20.00,-854.00
2024-06-07 00:38:48.613777,0,0,0,0,0,0,78,81,143,100,31,122.70,159,37.00,21.00,-991.00
2024-06-07 00:38:48.783313,0,0,0,0,0,0,79,82,142,100,31,122.72,159,-8.00,7.00,-1126.00
2024-06-07 00:38:48.818007,0,0,0,0,0,0,79,82,142,90,31,122.73,159,52.00,-10.00,-913.00
2024-06-07 00:38:48.919827,0,0,0,0,0,0,79,82,141,90,31,122.61,159,24.00,8.00,-1036.00
2024-06-07 00:38:49.091195,0,0,0,0,0,0,79,82,140,90,31,122.72,159,-7.00,4.00,-956.00
2024-06-07 00:38:49.123423,0,0,0,0,0,0,79,82,139,90,31,122.61,159,38.00,-18.00,-1016.00
2024-06-07 00:38:49.295157,0,0,0,0,0,0,79,82,139,90,31,122.67,159,-31.00,9.00,-1016.00
2024-06-07 00:38:49.327352,0,0,0,0,0,0,79,82,139,90,31,122.70,159,-58.00,17.00,-912.00
2024-06-07 00:38:49.500007,0,0,0,0,0,0,79,82,140,90,31,122.69,159,-5.00,-19.00,-1074.00
2024-06-07 00:38:49.531346,0,0,0,0,0,0,79,82,140,90,31,122.67,160,-46.00,4.00,-1007.00
2024-06-07 00:38:49.704845,0,0,0,0,0,0,79,82,140,90,31,122.68,160,3.00,-10.00,-1040.00
2024-06-07 00:38:49.735361,0,0,0,0,0,0,79,81,140,90,31,122.69,160,-35.00,16.00,-1057.00
2024-06-07 00:38:49.837144,0,0,0,0,0,0,79,81,140,90,31,122.65,160,-16.00,51.00,-1059.00
2024-06-07 00:38:49.939223,-2,0,0,0,0,0,79,81,142,90,31,122.72,160,-25.00,21.00,-968.00
2024-06-07 00:38:50.114183,-8,-1,0,0,0,0,79,81,143,90,31,122.64,160,-10.00,28.00,-959.00
2024-06-07 00:38:50.143147,-8,0,0,2,0,0,79,81,145,90,31,122.65,160,-51.00,36.00,-981.00
2024-06-07 00:38:50.319056,-8,0,0,3,0,0,79,81,147,90,31,122.69,160,-22.00,-19.00,-992.00
2024-06-07 00:38:50.347221,-8,0,0,4,0,0,79,81,145,90,31,122.66,160,-88.00,4.00,-952.00
2024-06-07 00:38:50.523873,-8,0,0,5,0,0,79,81,144,100,31,122.65,160,-87.00,40.00,-973.00
2024-06-07 00:38:50.551752,-7,0,0,6,0,0,79,81,146,100,31,122.69,161,-14.00,24.00,-971.00
2024-06-07 00:38:50.729435,-5,0,0,7,0,0,79,81,148,100,31,122.65,161,-58.00,-6.00,-921.00
2024-06-07 00:38:50.756094,-4,0,0,7,0,0,79,81,143,100,31,122.71,161,-32.00,-16.00,-947.00
2024-06-07 00:38:50.933438,-2,0,0,8,0,0,79,81,141,100,31,122.65,161,-66.00,18.00,-1017.00
2024-06-07 00:38:50.959231,0,0,0,7,0,0,79,81,141,100,31,122.60,161,-57.00,23.00,-898.00
2024-06-07 00:38:51.138779,3,0,0,6,0,0,79,81,142,90,31,122.64,161,-24.00,2.00,-938.00
2024-06-07 00:38:51.163358,4,0,0,5,0,0,79,81,141,90,31,122.63,161,-63.00,8.00,-993.00
2024-06-07 00:38:51.343415,3,1,0,4,0,0,79,81,139,90,31,122.63,161,-64.00,11.00,-951.00
2024-06-07 00:38:51.367088,2,2,0,3,0,0,79,81,138,90,31,122.64,161,-15.00,-27.00,-1055.00
2024-06-07 00:38:51.547819,0,2,0,3,0,0,79,81,138,90,31,122.65,161,2.00,-33.00,-1036.00
2024-06-07 00:38:51.547866,0,1,0,3,0,0,79,81,137,90,31,122.64,162,-53.00,29.00,-982.00
2024-06-07 00:38:51.622122,0,0,0,3,0,0,79,81,135,90,31,122.59,162,-44.00,28.00,-1027.00
2024-06-07 00:38:51.752572,0,-1,0,3,0,0,78,81,134,90,31,122.60,162,-12.00,-8.00,-988.00
2024-06-07 00:38:51.826013,0,-1,0,2,0,0,78,81,134,90,31,122.63,162,21.00,-29.00,-971.00
2024-06-07 00:38:51.928435,2,0,0,2,0,0,78,81,134,90,31,122.56,162,0.00,7.00,-951.00
2024-06-07 00:38:52.110431,3,0,0,1,0,0,78,81,135,90,31,122.64,162,38.00,-41.00,-1034.00
2024-06-07 00:38:52.132284,3,0,0,1,0,0,78,81,135,90,31,122.58,162,21.00,-31.00,-1189.00
2024-06-07 00:38:52.277541,1,0,0,0,0,0,78,81,135,90,31,122.60,162,7.00,-25.00,-1052.00
2024-06-07 00:38:52.393748,0,2,0,0,0,0,78,81,136,90,31,122.63,162,13.00,9.00,-995.00
2024-06-07 00:38:52.439916,0,4,0,0,0,0,78,81,137,90,31,122.63,162,-45.00,1.00,-1061.00
2024-06-07 00:38:52.555784,0,1,0,0,1,0,78,81,138,90,31,122.66,163,62.00,-33.00,-939.00
2024-06-07 00:38:52.642151,0,-3,0,0,1,0,78,81,138,90,31,122.67,163,23.00,-13.00,-1055.00
2024-06-07 00:38:52.777375,0,-1,0,0,0,0,78,80,139,90,31,122.63,163,53.00,-8.00,-952.00
2024-06-07 00:38:53.083735,0,0,0,0,0,0,78,80,139,90,31,122.63,163,-3.00,10.00,-889.00
2024-06-07 00:38:53.197243,1,0,0,0,0,0,78,80,139,90,31,122.62,163,-21.00,25.00,-1077.00
2024-06-07 00:38:53.197736,1,0,0,0,0,0,78,80,138,90,31,122.65,163,-9.00,-1.00,-1020.00
2024-06-07 00:38:53.197904,0,0,0,0,0,0,78,80,138,90,31,122.63,163,24.00,-2.00,-999.00
2024-06-07 00:38:53.257165,0,0,0,0,0,0,78,80,137,90,31,122.69,163,9.00,7.00,-938.00
2024-06-07 00:38:53.356220,0,0,0,0,0,0,78,80,136,90,31,122.69,163,-11.00,47.00,-976.00
2024-06-07 00:38:53.504920,0,0,0,0,0,0,78,80,135,90,31,122.62,163,62.00,-24.00,-1070.00
2024-06-07 00:38:53.647650,0,0,0,0,0,0,78,80,135,90,31,122.56,164,56.00,-19.00,-1114.00
2024-06-07 00:38:53.662002,0,0,0,0,0,0,78,80,135,90,31,122.63,164,-1.00,10.00,-990.00
2024-06-07 00:38:53.811918,0,0,0,0,0,0,78,81,135,90,31,122.66,164,-2.00,12.00,-1078.00
2024-06-07 00:38:53.954874,0,0,0,0,0,0,78,81,135,90,31,122.62,164,61.00,-11.00,-979.00
2024-06-07 00:38:53.967981,0,0,0,0,0,0,78,81,136,90,31,122.66,164,31.00,13.00,-919.00
2024-06-07 00:38:54.118720,0,0,0,0,0,0,78,81,137,90,31,122.65,164,-59.00,33.00,-1112.00
2024-06-07 00:38:54.273379,0,0,0,0,0,0,78,81,138,90,31,122.61,164,66.00,-32.00,-1097.00
2024-06-07 00:38:54.274004,0,0,0,0,0,-1,78,81,141,90,31,122.71,164,49.00,-15.00,-977.00
2024-06-07 00:38:54.390293,2,0,0,0,0,0,78,81,143,90,31,122.67,164,87.00,20.00,-993.00
2024-06-07 00:38:54.477832,1,0,0,0,0,0,78,81,143,90,31,122.68,164,0.00,18.00,-981.00
2024-06-07 00:38:54.579848,1,0,0,0,0,0,78,81,145,90,31,122.71,165,77.00,-27.00,-1008.00
2024-06-07 00:38:54.722457,0,0,0,0,0,0,78,81,148,100,31,122.80,165,-37.00,16.00,-1046.00
2024-06-07 00:38:54.783963,2,0,0,0,0,0,78,82,150,100,31,122.72,165,-2.00,0.00,-881.00
2024-06-07 00:38:54.926876,8,0,0,-1,0,0,78,82,152,100,31,122.75,165,-11.00,4.00,-1039.00
2024-06-07 00:38:54.987890,8,0,0,-2,0,0,78,82,153,100,31,122.79,165,44.00,-16.00,-871.00
2024-06-07 00:38:55.090474,8,0,0,-3,0,0,78,82,154,100,31,122.77,165,72.00,-20.00,-991.00
2024-06-07 00:38:55.193142,8,0,0,-4,0,0,78,82,152,100,31,122.73,165,0.00,24.00,-960.00
2024-06-07 00:38:55.295430,7,0,0,-5,0,0,78,82,151,100,31,122.72,165,15.00,14.00,-920.00
2024-06-07 00:38:55.344826,6,0,0,-6,0,0,78,82,149,100,31,122.68,165,111.00,1.00,-997.00
2024-06-07 00:38:55.541592,5,0,0,-7,0,0,78,82,147,100,31,122.64,165,36.00,13.00,-905.00
2024-06-07 00:38:55.548815,4,0,0,-8,0,1,78,82,145,100,31,122.63,166,18.00,28.00,-999.00
2024-06-07 00:38:55.746418,0,0,0,-8,0,1,78,82,143,100,31,122.62,166,16.00,3.00,-1007.00
2024-06-07 00:38:55.755919,-1,0,0,-7,0,0,79,81,142,100,31,122.61,166,32.00,1.00,-873.00
2024-06-07 00:38:55.855961,-3,0,0,-6,0,0,79,81,142,90,31,122.63,166,31.00,20.00,-1034.00
2024-06-07 00:38:55.958235,-4,0,0,-4,0,0,79,81,142,90,31,122.63,166,17.00,-12.00,-1206.00
2024-06-07 00:38:56.059106,-2,0,0,-3,0,0,79,81,142,90,31,122.65,166,15.00,22.00,-903.00
2024-06-07 00:38:56.161058,-1,0,0,-3,0,1,79,81,143,90,31,122.68,166,6.00,33.00,-989.00
2024-06-07 00:38:56.263616,0,0,0,-2,0,0,79,81,143,90,31,122.70,166,-74.00,43.00,-971.00
2024-06-07 00:38:56.365493,0,0,0,-2,0,0,79,81,145,90,31,122.67,166,22.00,-6.00,-1112.00
2024-06-07 00:38:56.565245,0,0,0,-2,0,0,79,81,145,90,31,122.75,166,-56.00,20.00,-975.00
2024-06-07 00:38:56.568807,0,0,0,-3,0,0,79,81,149,90,31,122.70,167,7.00,5.00,-1032.00
2024-06-07 00:38:56.671046,0,0,0,-2,0,-1,79,81,151,100,31,122.73,167,29.00,-24.00,-886.00
2024-06-07 00:38:56.772726,0,0,0,-2,0,0,79,80,152,100,31,122.72,167,-57.00,9.00,-1047.00
2024-06-07 00:38:56.874914,0,0,0,-2,0,-1,79,80,153,100,31,122.78,167,-1.00,-3.00,-916.00
2024-06-07 00:38:56.977381,0,0,0,-2,0,0,79,80,153,100,31,122.76,167,59.00,-26.00,-1032.00
2024-06-07 00:38:57.078719,0,0,0,-1,0,0,79,80,153,100,31,122.81,167,4.00,-2.00,-928.00
2024-06-07 00:38:57.281898,-2,0,0,-1,0,0,79,80,153,100,31,122.80,167,-9.00,20.00,-902.00
2024-06-07 00:38:57.282596,-4,0,0,-1,0,1,79,80,152,100,31,122.70,167,62.00,-8.00,-1000.00
2024-06-07 00:38:57.385772,-1,0,0,0,0,0,79,80,151,100,31,122.73,167,-13.00,25.00,-992.00
2024-06-07 00:38:57.486801,0,0,0,0,0,0,79,80,149,100,31,122.73,167,81.00,-1.00,-1097.00
2024-06-07 00:38:57.589024,0,0,0,0,0,0,79,80,149,100,31,122.64,168,68.00,-35.00,-1022.00
2024-06-07 00:38:57.691708,1,0,0,0,0,0,79,80,148,100,31,122.65,168,1.00,11.00,-949.00
2024-06-07 00:38:57.794348,0,0,0,0,0,0,78,81,146,100,31,122.68,168,108.00,-23.00,-1103.00
2024-06-07 00:38:57.896130,0,0,0,0,0,0,78,81,144,100,31,122.69,168,-34.00,18.00,-956.00
2024-06-07 00:38:57.998896,0,0,0,0,0,0,78,81,141,100,31,122.64,168,16.00,-11.00,-1065.00
2024-06-07 00:38:58.098894,0,0,0,0,0,0,78,81,140,100,31,122.64,168,-2.00,5.00,-970.00
2024-06-07 00:38:58.204726,0,0,0,0,0,0,78,81,136,90,31,122.60,168,10.00,-6.00,-1026.00
2024-06-07 00:38:58.302748,0,0,0,0,0,0,78,81,132,90,31,122.56,168,18.00,-3.00,-882.00
2024-06-07 00:38:58.408513,0,0,0,0,0,1,78,81,130,90,31,122.48,168,-82.00,28.00,-898.00
2024-06-07 00:38:58.508874,0,0,0,0,0,2,78,81,126,90,31,122.47,168,-11.00,0.00,-1134.00
2024-06-07 00:38:58.608872,0,0,0,0,0,1,78,81,124,80,31,122.45,169,-1.00,28.00,-1075.00
2024-06-07 00:38:58.716447,0,0,0,0,0,1,78,81,121,80,31,122.52,169,19.00,-23.00,-1075.00
2024-06-07 00:38:58.812719,0,0,0,0,0,1,78,80,118,80,31,122.46,169,-77.00,38.00,-1009.00
2024-06-07 00:38:58.920439,0,0,0,0,0,0,78,80,118,80,31,122.53,169,27.00,5.00,-1064.00
2024-06-07 00:38:59.016800,0,0,0,0,0,0,78,80,119,80,31,122.49,169,14.00,12.00,-963.00
2024-06-07 00:38:59.125673,0,0,0,0,0,0,78,80,119,80,31,122.45,169,67.00,-51.00,-1130.00
2024-06-07 00:38:59.169886,0,0,0,0,0,-1,78,80,121,80,31,122.43,169,1.00,14.00,-990.00
2024-06-07 00:38:59.330359,0,0,0,0,0,-1,78,80,122,80,31,122.48,169,-6.00,12.00,-831.00
2024-06-07 00:38:59.373497,0,0,0,0,0,0,78,80,123,80,31,122.47,169,32.00,20.00,-1006.00
2024-06-07 00:38:59.535053,0,0,0,0,0,-1,78,80,126,80,31,122.57,169,-2.00,7.00,-911.00
2024-06-07 00:38:59.577493,0,-5,0,0,0,-1,78,80,132,80,31,122.56,170,44.00,1.00,-1014.00
2024-06-07 00:38:59.679785,1,-8,0,0,-1,-1,78,80,133,80,31,122.70,170,0.00,-19.00,-1046.00
2024-06-07 00:38:59.842767,1,-5,0,0,-3,-1,79,80,135,80,31,122.55,170,33.00,35.00,-947.00
2024-06-07 00:38:59.884634,0,-3,0,0,-3,-1,79,80,136,90,31,122.62,170,-1.00,21.00,-1015.00
2024-06-07 00:39:00.046710,0,0,0,0,-3,-1,79,80,139,90,31,122.66,170,-13.00,41.00,-831.00
2024-06-07 00:39:00.088561,0,1,0,0,-3,-1,79,80,141,90,31,122.62,170,2.00,38.00,-853.00
2024-06-07 00:39:00.254488,0,0,0,0,-3,-1,79,80,141,90,31,122.66,170,-11.00,14.00,-949.00
2024-06-07 00:39:00.292680,0,0,0,0,-2,0,79,80,142,100,31,122.62,170,58.00,-1.00,-948.00
2024-06-07 00:39:00.456300,0,0,0,0,-2,0,79,80,143,100,31,122.67,170,48.00,-22.00,-1052.00
2024-06-07 00:39:00.498944,0,0,0,0,-2,0,79,80,143,100,31,122.60,170,-5.00,59.00,-885.00
2024-06-07 00:39:00.598746,0,0,0,0,-2,0,79,80,141,100,31,122.68,171,-17.00,34.00,-1028.00
2024-06-07 00:39:00.700418,0,0,0,0,-2,0,79,80,141,100,31,122.63,171,66.00,-5.00,-1020.00
2024-06-07 00:39:00.865888,0,0,0,0,-2,0,79,80,141,90,31,122.59,171,48.00,-32.00,-1066.00
2024-06-07 00:39:00.904393,1,0,0,0,-2,0,79,80,139,90,31,122.56,171,-23.00,60.00,-920.00
2024-06-07 00:39:01.072596,1,0,0,0,-2,0,79,80,139,90,31,122.63,171,21.00,14.00,-986.00
2024-06-07 00:39:01.109055,1,0,0,0,-2,1,79,80,138,90,31,122.61,171,28.00,-10.00,-1132.00
2024-06-07 00:39:01.275492,1,0,0,0,-2,0,79,80,138,90,31,122.60,171,-41.00,85.00,-948.00
2024-06-07 00:39:01.312647,0,0,0,0,-2,0,79,80,140,90,31,122.65,171,21.00,5.00,-1022.00
2024-06-07 00:39:01.480244,0,4,0,0,-1,0,79,80,141,90,31,122.63,171,-35.00,47.00,-973.00
2024-06-07 00:39:01.516372,0,2,0,0,0,0,79,80,142,90,30,122.72,171,20.00,6.00,-892.00
2024-06-07 00:39:01.685228,0,0,0,0,0,0,79,80,142,90,30,122.69,172,-4.00,10.00,-1050.00
2024-06-07 00:39:01.720539,0,0,0,0,0,0,79,80,144,90,30,122.68,172,4.00,19.00,-964.00
2024-06-07 00:39:01.822596,0,0,0,0,0,0,78,81,144,90,30,122.63,172,-19.00,1.00,-941.00
2024-06-07 00:39:01.992331,0,0,0,0,0,0,78,81,145,100,30,122.62,172,137.00,-38.00,-1113.00
2024-06-07 00:39:02.026346,0,0,0,0,0,0,78,81,145,100,30,122.67,172,-35.00,14.00,-1047.00
2024-06-07 00:39:02.197357,0,0,0,0,0,0,78,81,146,100,30,122.65,172,43.00,15.00,-965.00
2024-06-07 00:39:02.230262,0,0,0,0,0,0,78,81,146,100,30,122.61,172,-26.00,6.00,-1079.00
2024-06-07 00:39:02.402143,0,0,0,0,0,0,78,81,146,100,30,122.62,172,73.00,-18.00,-1124.00
2024-06-07 00:39:02.434571,0,0,0,0,0,0,78,81,146,100,30,122.65,172,-7.00,8.00,-925.00
2024-06-07 00:39:02.606768,0,0,0,0,0,0,78,81,145,100,30,122.64,172,2.00,-3.00,-946.00
2024-06-07 00:39:02.638693,1,0,0,0,0,0,78,81,144,100,30,122.60,173,4.00,-15.00,-973.00
2024-06-07 00:39:02.690070,1,0,0,0,0,0,78,81,142,100,30,122.62,173,94.00,4.00,-970.00
2024-06-07 00:39:02.844191,1,0,0,0,0,1,78,81,141,90,30,122.58,173,-10.00,13.00,-1023.00
2024-06-07 00:39:02.944327,0,-1,0,0,0,1,78,81,138,90,30,122.58,173,23.00,-6.00,-1027.00
2024-06-07 00:39:03.118679,0,0,0,0,0,1,78,81,138,90,30,122.57,173,76.00,-11.00,-1109.00
2024-06-07 00:39:03.148291,1,0,0,0,0,0,78,81,138,90,30,122.58,173,23.00,16.00,-995.00
2024-06-07 00:39:03.323793,2,0,0,0,0,0,78,81,137,90,30,122.52,173,43.00,8.00,-1094.00
2024-06-07 00:39:03.323982,2,0,0,0,0,0,78,81,137,90,30,122.54,173,53.00,-19.00,-1036.00
2024-06-07 00:39:03.404001,1,0,0,0,0,0,78,81,137,90,30,122.57,173,5.00,24.00,-840.00
2024-06-07 00:39:03.505175,0,0,0,0,0,0,78,81,137,90,30,122.58,174,23.00,-24.00,-1042.00
2024-06-07 00:39:03.607040,0,1,0,0,0,0,78,81,135,90,30,122.48,174,-29.00,3.00,-969.00
2024-06-07 00:39:03.732984,0,7,0,0,1,0,78,81,137,90,30,122.61,174,-10.00,26.00,-981.00
2024-06-07 00:39:03.811147,-1,6,0,0,2,0,79,80,139,90,30,122.55,174,-2.00,16.00,-1034.00
2024-06-07 00:39:03.937958,-1,2,0,0,3,0,79,80,137,90,30,122.51,174,-11.00,-27.00,-1012.00
2024-06-07 00:39:04.015163,-1,1,0,0,4,0,79,80,137,90,30,122.54,174,-57.00,-26.00,-899.00
2024-06-07 00:39:04.142540,0,-1,0,0,3,0,79,80,138,90,30,122.56,174,21.00,-71.00,-1026.00
2024-06-07 00:39:04.219134,1,-1,0,0,3,0,79,80,138,90,30,122.59,174,-16.00,-12.00,-887.00
2024-06-07 00:39:04.348329,1,0,0,0,3,0,79,80,139,90,30,122.53,174,19.00,-21.00,-921.00
2024-06-07 00:39:04.423110,0,0,0,0,3,0,79,80,139,90,30,122.53,174,59.00,-10.00,-935.00
2024-06-07 00:39:04.556525,1,0,0,0,2,0,79,80,141,90,30,122.61,175,56.00,-29.00,-1026.00
2024-06-07 00:39:04.630257,0,0,0,0,2,0,79,80,143,90,30,122.59,175,40.00,-10.00,-900.00
2024-06-07 00:39:04.729094,0,0,0,0,2,0,79,80,144,90,30,122.62,175,73.00,-14.00,-962.00
2024-06-07 00:39:04.859665,1,0,0,0,2,-1,79,80,147,90,30,122.59,175,-145.00,45.00,-951.00
2024-06-07 00:39:04.933371,0,0,0,0,2,-1,79,80,148,100,30,122.60,175,4.00,1.00,-947.00
2024-06-07 00:39:05.064741,0,-3,0,0,2,-1,79,80,149,100,30,122.67,175,58.00,-50.00,-982.00
2024-06-07 00:39:05.137038,0,-5,0,0,1,-1,79,80,150,100,30,122.61,175,73.00,-28.00,-961.00
2024-06-07 00:39:05.278234,1,-2,0,0,1,0,79,80,151,100,30,122.65,175,-108.00,8.00,-940.00
2024-06-07 00:39:05.341166,0,-2,0,0,0,0,79,80,150,100,30,122.71,175,-4.00,-10.00,-1053.00
2024-06-07 00:39:05.473813,1,-1,0,0,0,0,79,80,149,100,30,122.63,175,71.00,-7.00,-992.00
2024-06-07 00:39:05.545085,1,0,0,0,0,0,79,80,148,100,29,122.66,176,77.00,-30.00,-952.00
2024-06-07 00:39:05.678621,1,0,0,0,0,1,79,80,147,100,29,122.58,176,11.00,-15.00,-953.00
2024-06-07 00:39:05.749201,1,0,0,0,0,0,79,80,144,100,29,122.59,176,47.00,-23.00,-1017.00
2024-06-07 00:39:05.851158,1,0,0,0,0,1,79,81,143,100,29,122.58,176,-17.00,5.00,-1049.00
2024-06-07 00:39:05.953124,0,0,0,0,0,1,79,81,140,90,29,122.59,176,43.00,-27.00,-974.00
2024-06-07 00:39:06.088222,0,-1,0,0,0,1,79,81,138,90,29,122.54,176,18.00,-3.00,-1034.00
2024-06-07 00:39:06.157687,-1,-1,0,0,0,0,79,81,136,90,29,122.56,176,-9.00,15.00,-1015.00
2024-06-07 00:39:06.293624,-1,-1,0,0,0,0,79,81,135,90,29,122.55,176,-57.00,16.00,-1109.00
2024-06-07 00:39:06.361056,-1,-1,0,0,0,0,79,81,133,90,29,122.53,176,75.00,-31.00,-1161.00
2024-06-07 00:39:06.411858,0,-1,0,0,0,0,79,81,132,90,29,122.48,176,35.00,0.00,-955.00
2024-06-07 00:39:06.587280,0,0,0,0,0,0,79,81,131,90,29,122.54,177,36.00,-26.00,-1197.00
2024-06-07 00:39:06.619448,0,0,0,0,0,0,79,81,130,90,29,122.46,177,-24.00,4.00,-1124.00
2024-06-07 00:39:06.718297,0,0,0,0,0,0,79,81,130,90,29,122.48,177,0.00,-30.00,-1177.00
2024-06-07 00:39:06.907477,0,0,0,0,0,0,78,82,130,90,29,122.51,177,-4.00,23.00,-877.00
2024-06-07 00:39:06.973398,0,0,0,0,0,0,78,82,131,90,29,122.48,177,44.00,-14.00,-980.00
2024-06-07 00:39:07.024126,0,0,0,0,0,0,78,82,132,90,29,122.47,177,20.00,8.00,-1070.00
2024-06-07 00:39:07.217800,0,0,0,0,0,0,78,82,132,90,29,122.52,177,44.00,-15.00,-1026.00
2024-06-07 00:39:07.305258,0,0,0,0,0,0,78,82,133,90,29,122.52,177,24.00,-18.00,-1057.00
2024-06-07 00:39:07.330113,0,0,0,0,0,0,78,82,133,90,29,122.57,177,-48.00,38.00,-881.00
2024-06-07 00:39:07.480600,0,0,2,0,0,0,78,82,135,90,29,122.57,177,-55.00,21.00,-993.00
2024-06-07 00:39:07.559098,0,0,7,0,0,0,78,82,136,90,28,122.57,178,-13.00,30.00,-1008.00
2024-06-07 00:39:07.655058,0,0,13,0,0,0,78,82,137,90,28,122.62,178,42.00,-24.00,-1043.00
2024-06-07 00:39:07.737786,0,0,19,0,0,0,78,82,137,90,28,122.56,178,-19.00,-1.00,-914.00
2024-06-07 00:39:07.942347,0,0,25,0,0,0,79,82,139,90,28,122.61,178,-15.00,-20.00,-1153.00
2024-06-07 00:39:07.943059,-1,0,31,0,0,0,79,82,139,90,28,122.60,178,35.00,-18.00,-1012.00
2024-06-07 00:39:08.123327,0,0,37,0,0,0,79,82,141,90,28,122.62,178,36.00,1.00,-991.00
2024-06-07 00:39:08.145813,0,0,42,0,0,0,79,82,141,90,28,122.59,178,-32.00,25.00,-1064.00
2024-06-07 00:39:08.266741,0,0,48,0,0,0,79,82,142,90,28,122.62,178,-17.00,6.00,-950.00
2024-06-07 00:39:08.410065,1,0,54,0,0,0,79,82,142,90,28,122.59,178,-18.00,-15.00,-1073.00
2024-06-07 00:39:08.559763,0,0,60,0,0,0,79,82,142,100,28,122.58,178,-1.00,-13.00,-907.00
2024-06-07 00:39:08.561118,0,0,65,0,0,0,79,82,142,100,28,122.61,179,-20.00,19.00,-931.00
2024-06-07 00:39:08.700155,0,0,71,0,0,0,79,82,141,100,28,122.62,179,-3.00,-17.00,-903.00
2024-06-07 00:39:08.866688,0,0,83,0,0,0,80,81,141,90,28,122.65,179,5.00,-39.00,-1099.00
2024-06-07 00:39:09.007167,0,0,88,0,0,0,80,81,141,90,28,122.65,179,-19.00,-21.00,-1033.00
2024-06-07 00:39:09.171131,0,0,94,0,0,0,80,81,142,90,28,122.71,179,-20.00,-4.00,-926.00
2024-06-07 00:39:09.171195,0,0,100,0,0,0,80,81,142,90,28,122.66,179,40.00,-16.00,-1036.00
2024-06-07 00:39:09.314541,0,0,106,0,0,0,80,81,143,90,28,122.71,179,-23.00,0.00,-1159.00
2024-06-07 00:39:09.477972,0,0,112,0,0,0,80,81,143,90,28,122.67,179,6.00,-6.00,-1028.00
2024-06-07 00:39:09.478362,0,0,117,0,0,0,80,81,144,90,28,122.63,179,-25.00,2.00,-1023.00
2024-06-07 00:39:09.685432,0,0,123,0,0,0,80,81,145,100,28,122.68,180,-50.00,21.00,-910.00
2024-06-07 00:39:09.785199,0,0,129,0,0,0,80,81,145,100,28,122.63,180,-60.00,26.00,-987.00
2024-06-07 00:39:09.785235,0,0,135,0,0,0,80,81,146,100,28,122.62,180,40.00,13.00,-1042.00
2024-06-07 00:39:09.888669,0,0,141,0,0,0,79,81,146,100,28,122.65,180,35.00,-7.00,-1055.00
2024-06-07 00:39:09.981955,0,0,147,0,0,0,79,81,146,100,28,122.72,180,-29.00,28.00,-927.00
2024-06-07 00:39:10.084032,0,0,152,0,0,0,79,81,146,100,28,122.64,180,14.00,-12.00,-1066.00
2024-06-07 00:39:10.185819,0,0,158,0,0,0,79,81,145,100,28,122.65,180,5.00,-16.00,-919.00
2024-06-07 00:39:10.388701,0,0,164,0,0,0,79,81,144,100,28,122.65,180,-12.00,13.00,-1014.00
2024-06-07 00:39:10.389657,0,0,170,0,0,0,79,81,144,100,28,122.68,180,36.00,-34.00,-1031.00
2024-06-07 00:39:10.593494,0,0,176,0,0,0,79,81,144,100,28,122.66,180,35.00,26.00,-916.00
2024-06-07 00:39:10.594306,0,0,-176,0,0,1,79,81,143,90,28,122.59,181,-57.00,9.00,-1007.00
2024-06-07 00:39:10.644627,0,0,-170,0,0,0,79,81,144,90,28,122.68,181,-43.00,3.00,-1103.00
2024-06-07 00:39:10.798215,0,0,-164,0,0,0,79,81,144,90,28,122.64,181,7.00,-15.00,-1009.00
2024-06-07 00:39:10.848631,-1,0,-158,0,0,0,79,81,144,100,28,122.63,181,10.00,7.00,-1091.00
2024-06-07 00:39:11.007193,0,0,-152,0,0,0,79,81,145,100,28,122.64,181,21.00,16.00,-869.00
2024-06-07 00:39:11.052543,0,0,-146,0,0,0,79,81,144,100,28,122.66,181,5.00,34.00,-846.00
2024-06-07 00:39:11.207874,0,0,-140,0,0,0,79,81,144,100,28,122.64,181,27.00,-32.00,-1071.00
2024-06-07 00:39:11.256635,0,0,-134,0,0,0,79,81,143,100,28,122.67,181,-17.00,0.00,-973.00
2024-06-07 00:39:11.412982,0,0,-129,0,0,0,79,81,144,100,28,122.65,181,64.00,-21.00,-1116.00
2024-06-07 00:39:11.460577,0,0,-123,0,0,0,79,81,144,90,28,122.63,181,-14.00,19.00,-1031.00
2024-06-07 00:39:11.617430,0,0,-117,0,0,0,79,81,144,90,28,122.65,182,-2.00,5.00,-1060.00
2024-06-07 00:39:11.665554,0,0,-111,0,0,0,79,81,144,90,28,122.72,182,-2.00,52.00,-1055.00
2024-06-07 00:39:11.822288,0,0,-105,0,0,0,79,81,144,90,28,122.64,182,-54.00,19.00,-844.00
2024-06-07 00:39:11.868505,0,0,-99,0,0,0,79,81,144,90,28,122.72,182,-15.00,-8.00,-929.00
2024-06-07 00:39:12.028658,0,0,-93,0,0,0,79,81,145,90,28,122.64,182,35.00,-12.00,-965.00
2024-06-07 00:39:12.072470,0,0,-87,0,0,0,79,81,144,90,28,122.69,182,-4.00,3.00,-1086.00
2024-06-07 00:39:12.231837,0,0,-81,0,0,0,79,81,145,100,28,122.71,182,-43.00,16.00,-905.00
2024-06-07 00:39:12.276416,0,0,-75,0,0,0,79,81,145,100,28,122.74,182,4.00,-17.00,-963.00
2024-06-07 00:39:12.436624,0,0,-69,0,0,0,79,81,145,100,28,122.73,182,9.00,45.00,-866.00
2024-06-07 00:39:12.480436,0,0,-63,0,0,0,79,81,146,100,27,122.69,182,-11.00,19.00,-972.00
2024-06-07 00:39:12.590792,0,0,-57,0,0,0,79,81,145,100,27,122.70,183,2.00,34.00,-925.00
2024-06-07 00:39:12.684530,0,0,-52,0,0,0,79,81,145,100,27,122.71,183,-46.00,49.00,-947.00
2024-06-07 00:39:12.846193,0,0,-46,0,0,0,79,81,145,100,27,122.70,183,39.00,-3.00,-998.00
2024-06-07 00:39:12.888468,0,0,-40,0,0,0,79,81,145,100,27,122.71,183,-11.00,6.00,-984.00
2024-06-07 00:39:12.990468,0,0,-34,0,0,0,79,81,145,100,27,122.71,183,-15.00,27.00,-1017.00
2024-06-07 00:39:13.153410,0,0,-28,0,0,0,79,81,145,100,27,122.70,183,-22.00,13.00,-997.00
2024-06-07 00:39:13.195319,0,0,-22,0,0,0,79,81,145,100,27,122.66,183,-3.00,24.00,-1024.00
2024-06-07 00:39:13.358055,0,0,-17,0,0,0,79,81,144,100,27,122.66,183,-28.00,30.00,-970.00
2024-06-07 00:39:13.400410,0,0,-12,0,0,0,79,81,145,100,27,122.71,183,86.00,-15.00,-1028.00
2024-06-07 00:39:13.502161,0,0,-9,0,0,0,79,81,144,100,27,122.68,183,-14.00,4.00,-1039.00
2024-06-07 00:39:13.602929,1,0,-7,0,0,0,79,81,145,100,27,122.66,184,-20.00,33.00,-910.00
2024-06-07 00:39:13.705468,1,0,-5,0,0,0,79,81,145,100,27,122.67,184,65.00,-28.00,-1119.00
2024-06-07 00:39:13.806359,1,0,-3,0,0,0,79,81,144,100,27,122.70,184,23.00,2.00,-963.00
2024-06-07 00:39:13.972533,0,0,-2,0,0,0,80,81,142,100,27,122.62,184,52.00,-24.00,-1025.00
2024-06-07 00:39:14.010277,1,0,-1,0,0,0,80,81,141,100,27,122.71,184,-14.00,18.00,-992.00
2024-06-07 00:39:14.112431,0,0,-1,0,0,0,80,81,138,100,27,122.58,184,-48.00,28.00,-1003.00
2024-06-07 00:39:14.280531,0,0,0,0,0,1,80,81,137,90,27,122.64,184,-22.00,39.00,-896.00
2024-06-07 00:39:14.316935,0,0,-1,0,0,1,80,81,136,90,27,122.62,184,7.00,-15.00,-1053.00
2024-06-07 00:39:14.487465,0,0,-1,0,0,0,80,81,135,90,27,122.64,184,37.00,6.00,-960.00
2024-06-07 00:39:14.487900,1,0,0,0,0,0,80,81,134,90,27,122.59,184,-10.00,-8.00,-1038.00
2024-06-07 00:39:14.573712,1,0,0,0,0,0,80,81,134,90,27,122.63,185,18.00,22.00,-1096.00
2024-06-07 00:39:14.674090,1,0,0,0,0,0,80,81,134,90,27,122.60,185,41.00,-14.00,-992.00
2024-06-07 00:39:14.792561,1,0,0,0,0,0,80,81,134,90,27,122.55,185,52.00,-25.00,-1092.00
2024-06-07 00:39:14.943348,0,0,0,0,0,0,80,82,133,90,27,122.59,185,19.00,13.00,-1050.00
2024-06-07 00:39:14.979616,0,0,0,0,0,0,80,82,132,90,27,122.64,185,-12.00,28.00,-950.00
2024-06-07 00:39:15.099072,0,0,0,0,0,0,80,82,132,90,27,122.61,185,36.00,-4.00,-1038.00
2024-06-07 00:39:15.183416,0,0,0,0,0,0,80,82,130,90,27,122.57,185,86.00,-2.00,-967.00
2024-06-07 00:39:15.305333,1,0,0,0,0,0,80,82,130,90,27,122.63,185,-13.00,30.00,-978.00
2024-06-07 00:39:15.396394,1,0,0,0,0,1,80,82,130,90,27,122.63,185,-62.00,79.00,-1016.00
2024-06-07 00:39:15.489454,1,0,0,0,0,0,80,82,130,90,27,122.59,185,-10.00,5.00,-1024.00
2024-06-07 00:39:15.591583,1,-1,0,0,0,0,80,82,131,90,27,122.66,186,66.00,-13.00,-1048.00
2024-06-07 00:39:15.713320,0,0,0,0,0,0,80,82,132,90,27,122.66,186,-10.00,19.00,-1041.00
2024-06-07 00:39:15.796690,1,0,0,0,0,-1,80,82,134,90,27,122.68,186,24.00,-4.00,-978.00
2024-06-07 00:39:15.918245,2,0,0,0,0,-1,79,81,135,90,27,122.65,186,-7.00,16.00,-899.00
2024-06-07 00:39:16.000505,2,0,0,0,0,0,79,81,134,90,27,122.67,186,61.00,-7.00,-982.00
2024-06-07 00:39:16.103737,0,0,0,0,0,0,79,81,135,90,27,122.68,186,19.00,-1.00,-1039.00
2024-06-07 00:39:16.204214,1,0,0,0,0,0,79,81,136,90,27,122.65,186,-59.00,52.00,-996.00
2024-06-07 00:39:16.305725,1,0,-4,0,0,0,79,81,137,90,27,122.65,186,52.00,16.00,-945.00
2024-06-07 00:39:16.407130,1,0,-9,0,0,0,79,81,137,90,27,122.67,186,-15.00,27.00,-909.00
2024-06-07 00:39:16.532441,1,0,-15,0,0,0,79,81,139,90,27,122.64,186,-8.00,21.00,-1129.00
2024-06-07 00:39:16.611250,0,0,-21,0,0,0,79,81,140,90,27,122.62,187,56.00,-5.00,-1048.00
2024-06-07 00:39:16.737239,0,-1,-27,0,0,0,79,81,141,90,27,122.66,187,-15.00,30.00,-856.00
2024-06-07 00:39:16.815275,1,0,-33,0,0,0,79,81,141,90,27,122.68,187,-52.00,42.00,-912.00
2024-06-07 00:39:16.945037,0,-1,-39,0,0,0,79,81,142,90,27,122.68,187,-36.00,23.00,-1078.00
2024-06-07 00:39:17.019214,-1,-1,-44,0,0,0,79,81,143,90,27,122.66,187,28.00,4.00,-1034.00
2024-06-07 00:39:17.146883,-1,-1,-50,0,0,0,79,81,142,90,27,122.69,187,-73.00,18.00,-1023.00
2024-06-07 00:39:17.223188,0,0,-57,0,0,0,79,81,143,100,27,122.64,187,22.00,15.00,-966.00
2024-06-07 00:39:17.351551,0,0,-63,0,0,0,79,81,144,100,27,122.66,187,25.00,24.00,-1065.00
2024-06-07 00:39:17.427171,1,0,-69,0,0,0,79,81,143,100,27,122.69,187,-12.00,24.00,-921.00
2024-06-07 00:39:17.556353,1,-1,-75,0,0,0,79,81,142,100,26,122.67,187,7.00,13.00,-1081.00
2024-06-07 00:39:17.631118,0,-1,-81,0,0,0,79,81,141,100,26,122.65,188,-8.00,29.00,-1053.00
2024-06-07 00:39:17.761486,0,-1,-86,0,0,0,79,81,141,100,26,122.65,188,12.00,20.00,-924.00
2024-06-07 00:39:17.835037,0,-1,-92,0,0,0,79,81,140,100,26,122.66,188,-33.00,74.00,-852.00
2024-06-07 00:39:17.965939,0,-1,-104,0,0,1,79,82,138,90,26,122.65,188,-115.00,100.00,-1032.00
2024-06-07 00:39:18.039080,0,-1,-110,0,0,0,79,82,135,90,26,122.64,188,15.00,30.00,-1033.00
2024-06-07 00:39:18.171352,0,0,-116,0,0,0,79,82,136,90,26,122.72,188,44.00,-23.00,-1112.00
2024-06-07 00:39:18.242982,0,0,-122,0,0,0,79,82,135,90,26,122.70,188,34.00,11.00,-1028.00
2024-06-07 00:39:18.375474,0,0,-128,0,0,0,79,82,134,90,26,122.69,188,-52.00,45.00,-967.00
2024-06-07 00:39:18.447041,0,0,-134,0,0,0,79,82,135,90,26,122.70,188,-19.00,39.00,-865.00
2024-06-07 00:39:18.582716,0,0,-140,0,0,0,79,82,135,90,26,122.64,189,60.00,21.00,-921.00
2024-06-07 00:39:18.651298,0,0,-145,0,0,0,79,82,136,90,26,122.66,189,24.00,5.00,-1021.00
2024-06-07 00:39:18.701891,0,-1,-151,0,0,0,79,82,136,90,26,122.64,189,59.00,10.00,-1044.00
2024-06-07 00:39:18.887432,0,0,-157,0,0,0,79,82,138,90,26,122.68,189,-22.00,13.00,-1071.00
2024-06-07 00:39:18.905889,0,0,-163,0,0,0,79,81,139,90,26,122.67,189,17.00,1.00,-1082.00
2024-06-07 00:39:19.009801,0,0,-169,0,0,0,79,81,142,90,26,122.73,189,18.00,-1.00,-1107.00
2024-06-07 00:39:19.110189,0,0,-175,0,0,0,79,81,142,90,26,122.63,189,68.00,-39.00,-993.00
2024-06-07 00:39:19.211938,0,0,178,0,0,0,79,81,143,100,26,122.67,189,-31.00,-4.00,-898.00
2024-06-07 00:39:19.399583,0,0,172,0,0,0,79,81,143,100,26,122.71,189,47.00,-18.00,-1053.00
2024-06-07 00:39:19.415977,0,0,167,0,0,0,79,81,144,100,26,122.77,189,34.00,4.00,-872.00
2024-06-07 00:39:19.604362,0,0,161,0,0,0,79,81,145,100,26,122.73,190,21.00,23.00,-930.00
2024-06-07 00:39:19.619956,0,0,155,0,0,0,79,81,146,100,26,122.77,190,72.00,-6.00,-887.00
2024-06-07 00:39:19.809062,0,0,149,0,0,0,79,81,147,100,26,122.69,190,125.00,-51.00,-1021.00
2024-06-07 00:39:19.823988,0,0,143,0,0,0,79,81,147,100,26,122.74,190,36.00,-26.00,-1086.00
2024-06-07 00:39:20.016012,0,0,138,0,0,0,79,81,147,100,26,122.76,190,-27.00,0.00,-1074.00
2024-06-07 00:39:20.028024,0,0,132,0,0,0,79,81,149,100,26,122.76,190,6.00,-14.00,-1038.00
2024-06-07 00:39:20.219401,0,0,126,0,0,0,79,81,146,100,26,122.74,190,-1.00,-18.00,-1030.00
2024-06-07 00:39:20.232745,0,0,120,0,0,0,79,81,146,100,26,122.72,190,70.00,-16.00,-959.00
2024-06-07 00:39:20.423495,0,0,114,0,0,0,79,81,146,100,26,122.77,190,25.00,-1.00,-947.00
2024-06-07 00:39:20.436186,0,0,108,0,0,0,79,81,145,100,26,122.77,190,-25.00,1.00,-1160.00
2024-06-07 00:39:20.628591,0,0,103,0,0,0,79,81,145,100,25,122.79,191,61.00,-39.00,-1010.00
2024-06-07 00:39:20.639754,0,0,97,0,0,0,79,81,144,90,25,122.71,191,31.00,-31.00,-1129.00
2024-06-07 00:39:20.837791,0,0,91,0,0,0,79,81,143,90,25,122.72,191,15.00,-36.00,-1110.00
2024-06-07 00:39:20.844446,0,0,86,0,0,0,79,81,143,90,25,122.70,191,45.00,-39.00,-1160.00
2024-06-07 00:39:21.037852,0,0,80,0,0,0,80,81,143,90,25,122.75,191,101.00,-46.00,-1021.00
2024-06-07 00:39:21.047790,0,0,74,0,0,0,80,81,143,90,25,122.77,191,30.00,-34.00,-986.00
2024-06-07 00:39:21.242647,0,0,68,0,0,0,80,81,142,90,25,122.72,191,42.00,-23.00,-899.00
2024-06-07 00:39:21.251906,0,1,63,0,0,0,80,81,141,90,25,122.70,191,20.00,-11.00,-960.00
2024-06-07 00:39:21.451125,0,1,57,0,0,0,80,81,140,90,25,122.71,191,13.00,4.00,-866.00
2024-06-07 00:39:21.455800,0,1,51,0,0,0,80,81,141,90,25,122.77,191,35.00,-8.00,-966.00
2024-06-07 00:39:21.594676,0,1,45,0,0,0,80,81,139,90,25,122.75,192,51.00,-59.00,-1158.00
2024-06-07 00:39:21.660272,0,1,39,0,0,0,80,81,139,90,25,122.67,192,7.00,-1.00,-983.00
2024-06-07 00:39:21.857620,0,1,34,0,0,0,80,81,140,90,25,122.70,192,74.00,-27.00,-1005.00
2024-06-07 00:39:21.864311,0,0,28,0,0,0,80,81,140,90,25,122.71,192,-14.00,-15.00,-1119.00
2024-06-07 00:39:22.266566,0,0,22,0,0,0,79,82,141,90,25,122.69,192,36.00,-14.00,-1033.00
2024-06-07 00:39:22.266858,1,0,17,0,0,0,79,82,141,90,25,122.62,192,18.00,-3.00,-1064.00
2024-06-07 00:39:22.267093,1,0,12,0,0,0,79,82,140,90,25,122.66,192,59.00,-29.00,-980.00
2024-06-07 00:39:22.273919,2,1,9,0,0,0,79,82,141,90,25,122.64,192,31.00,-2.00,-1072.00
2024-06-07 00:39:22.369231,2,1,7,0,0,0,79,82,142,90,25,122.67,192,-13.00,-8.00,-1075.00
2024-06-07 00:39:22.424974,0,0,5,0,0,0,79,82,140,90,25,122.72,192,15.00,-12.00,-1041.00
2024-06-07 00:39:22.574360,0,0,3,0,0,0,79,82,140,90,25,122.73,193,-31.00,43.00,-846.00
2024-06-07 00:39:22.778605,0,0,2,0,0,0,79,82,139,90,25,122.69,193,24.00,0.00,-1075.00
2024-06-07 00:39:22.779077,0,1,1,0,0,0,79,82,140,90,25,122.67,193,55.00,-11.00,-966.00
2024-06-07 00:39:22.857750,1,1,1,0,0,0,79,82,140,90,25,122.72,193,23.00,-22.00,-1080.00
2024-06-07 00:39:23.015238,1,1,0,0,0,0,80,81,140,90,25,122.59,193,1.00,-12.00,-915.00
2024-06-07 00:39:23.072510,1,1,0,0,0,0,80,81,140,90,25,122.61,193,-63.00,35.00,-957.00
2024-06-07 00:39:23.139006,1,1,0,0,0,0,80,81,140,90,25,122.66,193,71.00,-46.00,-1103.00
2024-06-07 00:39:23.301447,0,1,0,0,0,0,80,81,140,90,25,122.73,193,30.00,-23.00,-990.00
2024-06-07 00:39:23.445997,1,1,0,0,0,0,80,81,141,90,25,122.66,193,28.00,-13.00,-1020.00
2024-06-07 00:39:23.446529,1,1,0,0,0,0,80,81,140,90,25,122.63,193,16.00,5.00,-906.00
2024-06-07 00:39:23.608664,1,1,0,0,0,0,80,81,141,90,25,122.65,194,52.00,-55.00,-1105.00
2024-06-07 00:39:23.752007,1,1,0,0,0,0,80,81,140,90,25,122.65,194,3.00,-24.00,-903.00
2024-06-07 00:39:23.753207,1,1,0,0,0,0,80,81,140,90,25,122.64,194,77.00,-8.00,-1060.00
2024-06-07 00:39:23.916519,1,1,0,0,0,0,80,81,140,90,25,122.73,194,18.00,-7.00,-998.00
2024-06-07 00:39:24.073620,0,0,0,0,0,0,80,81,140,90,25,122.66,194,-23.00,-10.00,-1100.00
2024-06-07 00:39:24.075714,0,0,0,0,0,0,80,81,139,90,25,122.62,194,33.00,-2.00,-993.00
2024-06-07 00:39:24.160262,0,0,0,0,0,0,80,81,139,90,25,122.62,194,41.00,-21.00,-1004.00
2024-06-07 00:39:24.263345,0,0,0,0,0,0,80,81,138,90,25,122.62,194,-15.00,24.00,-994.00
2024-06-07 00:39:24.364362,0,0,0,0,0,1,80,81,137,90,25,122.65,194,60.00,-22.00,-992.00
2024-06-07 00:39:24.466310,0,0,0,0,0,0,80,81,137,90,25,122.62,194,70.00,-17.00,-1033.00
2024-06-07 00:39:24.598011,0,0,0,0,0,0,80,81,137,90,25,122.63,195,56.00,-13.00,-998.00
2024-06-07 00:39:24.669495,1,0,0,0,0,0,80,81,138,90,25,122.62,195,83.00,-42.00,-986.00
2024-06-07 00:39:24.827188,2,1,0,0,0,0,80,81,138,90,25,122.70,195,-14.00,30.00,-932.00
2024-06-07 00:39:24.879334,2,1,0,0,0,0,80,81,139,90,25,122.61,195,-19.00,5.00,-994.00
2024-06-07 00:39:24.975826,0,0,0,0,0,0,79,82,140,90,25,122.70,195,2.00,-8.00,-1006.00
2024-06-07 00:39:25.133754,0,0,0,0,0,0,79,82,142,90,25,122.68,195,-2.00,-29.00,-994.00
2024-06-07 00:39:25.179457,0,0,0,0,0,0,79,82,144,90,25,122.68,195,-5.00,15.00,-900.00
2024-06-07 00:39:25.339236,0,0,0,0,0,0,79,82,147,90,25,122.67,195,66.00,-32.00,-1114.00
2024-06-07 00:39:25.383524,0,0,0,0,0,-1,79,82,150,90,25,122.79,195,44.00,-19.00,-1036.00
2024-06-07 00:39:25.543727,0,0,0,0,0,-1,79,82,153,100,25,122.77,195,12.00,-10.00,-949.00
2024-06-07 00:39:25.587490,0,0,0,0,0,-1,79,82,156,100,25,122.79,196,44.00,-10.00,-998.00
2024-06-07 00:39:25.748420,0,0,0,0,0,-1,79,82,157,100,25,122.81,196,44.00,-38.00,-1027.00
2024-06-07 00:39:25.791493,1,0,0,0,0,0,79,82,159,100,25,122.79,196,-4.00,3.00,-837.00
2024-06-07 00:39:25.842792,1,0,0,0,0,0,79,82,160,100,25,122.85,196,-36.00,27.00,-987.00
2024-06-07 00:39:25.995461,1,0,0,0,0,0,79,81,160,110,25,122.82,196,17.00,2.00,-1019.00
2024-06-07 00:39:26.046431,0,0,0,0,0,0,79,81,159,110,25,122.87,196,8.00,-8.00,-918.00
2024-06-07 00:39:26.157674,0,0,0,0,0,0,79,81,157,110,25,122.88,196,34.00,6.00,-942.00
2024-06-07 00:39:26.250714,0,0,0,0,0,0,79,81,157,100,25,122.80,196,-39.00,-8.00,-942.00
2024-06-07 00:39:26.363360,0,0,0,0,0,0,79,81,156,100,25,122.79,196,27.00,26.00,-905.00
2024-06-07 00:39:26.454602,0,0,0,0,0,1,79,81,155,100,25,122.82,196,14.00,-24.00,-992.00
2024-06-07 00:39:26.567495,1,0,0,0,0,1,79,81,152,100,25,122.76,197,45.00,-21.00,-1038.00
2024-06-07 00:39:26.659629,0,0,0,0,0,1,79,81,152,100,25,122.74,197,4.00,-2.00,-1054.00
2024-06-07 00:39:26.772072,0,0,0,0,0,1,79,81,151,100,25,122.71,197,-41.00,8.00,-1009.00
2024-06-07 00:39:26.863594,0,0,0,0,0,0,79,81,149,100,25,122.71,197,-44.00,52.00,-865.00
2024-06-07 00:39:26.977518,0,0,0,0,0,0,79,81,147,100,25,122.76,197,22.00,26.00,-1008.00
2024-06-07 00:39:27.067456,1,-1,0,0,0,0,79,81,146,100,25,122.75,197,1.00,7.00,-967.00
2024-06-07 00:39:27.181997,1,-1,0,0,0,1,79,81,144,100,25,122.66,197,-59.00,20.00,-896.00
2024-06-07 00:39:27.271218,0,-1,0,0,0,1,79,81,142,100,25,122.75,197,36.00,0.00,-1021.00
2024-06-07 00:39:27.387128,0,-1,0,0,0,1,79,81,142,90,25,122.66,197,-19.00,53.00,-847.00
2024-06-07 00:39:27.476118,0,-1,0,0,0,0,79,81,141,90,25,122.69,197,-46.00,46.00,-966.00
2024-06-07 00:39:27.578145,1,0,0,0,0,0,79,81,142,90,25,122.69,198,7.00,-4.00,-1110.00
2024-06-07 00:39:27.679176,1,0,0,0,0,0,79,81,143,90,25,122.71,198,2.00,-3.00,-1009.00
2024-06-07 00:39:27.796980,2,0,0,0,0,0,79,81,146,90,25,122.71,198,1.00,9.00,-1040.00
2024-06-07 00:39:27.882483,2,0,0,0,0,0,79,81,149,100,25,122.69,198,-15.00,30.00,-1035.00
2024-06-07 00:39:28.001134,1,0,0,0,0,-1,80,82,150,100,25,122.73,198,55.00,-34.00,-1108.00
2024-06-07 00:39:28.086433,0,0,0,0,0,-1,80,82,151,100,25,122.78,198,22.00,5.00,-957.00
2024-06-07 00:39:28.205616,0,0,0,0,0,-1,80,82,154,100,25,122.76,198,10.00,1.00,-886.00
2024-06-07 00:39:28.291480,1,0,0,0,0,-1,80,82,155,100,25,122.71,198,31.00,-14.00,-884.00
2024-06-07 00:39:28.411076,1,0,0,0,0,0,80,82,155,100,25,122.77,198,27.00,16.00,-877.00
2024-06-07 00:39:28.494382,2,0,0,0,0,0,80,82,155,100,25,122.76,198,5.00,-3.00,-982.00
2024-06-07 00:39:28.615145,2,0,0,0,0,0,80,82,154,100,25,122.72,199,-50.00,17.00,-898.00
2024-06-07 00:39:28.699923,1,0,0,0,0,1,80,82,151,100,25,122.71,199,11.00,-6.00,-976.00
2024-06-07 00:39:28.800396,1,0,0,0,0,1,80,82,150,100,25,122.71,199,34.00,2.00,-1003.00
2024-06-07 00:39:28.922674,0,0,0,0,0,1,80,82,148,100,25,122.74,199,-45.00,32.00,-1044.00
2024-06-07 00:39:29.004347,0,-1,0,0,0,1,80,82,147,100,25,122.57,199,23.00,2.00,-1053.00
2024-06-07 00:39:29.127156,0,-1,0,0,0,0,80,82,145,100,25,122.64,199,59.00,1.00,-1007.00
2024-06-07 00:39:29.208573,1,0,0,0,0,0,80,82,145,100,25,122.65,199,19.00,8.00,-967.00
2024-06-07 00:39:29.331964,2,0,0,0,0,1,80,82,145,90,25,122.64,199,15.00,3.00,-1126.00
2024-06-07 00:39:29.413146,1,0,0,0,0,0,80,82,144,90,25,122.70,199,-45.00,24.00,-926.00
2024-06-07 00:39:29.463199,0,0,0,-1,0,0,80,82,144,90,24,122.64,199,0.00,0.00,-1051.00
2024-06-07 00:39:29.642214,0,0,0,0,0,0,80,82,144,90,24,122.62,200,-38.00,42.00,-927.00
2024-06-07 00:39:29.667104,0,0,0,-1,0,0,80,82,144,90,24,122.72,200,-6.00,9.00,-999.00
2024-06-07 00:39:29.844416,-1,0,0,0,0,0,80,82,145,90,24,122.63,200,17.00,13.00,-985.00
2024-06-07 00:39:29.872287,0,0,1,0,0,0,80,82,144,90,24,122.65,200,20.00,-12.00,-1077.00
2024-06-07 00:39:30.048649,1,0,1,0,0,0,79,81,145,90,24,122.74,200,-75.00,58.00,-799.00
2024-06-07 00:39:30.076435,1,-1,1,0,0,0,79,81,146,90,24,122.71,200,93.00,-33.00,-1146.00
2024-06-07 00:39:30.253546,1,-1,0,0,0,0,79,81,147,90,24,122.74,200,9.00,-5.00,-1176.00
2024-06-07 00:39:30.284948,2,0,0,0,0,0,79,81,150,100,24,122.75,200,-29.00,45.00,-864.00
2024-06-07 00:39:30.382514,1,0,0,0,0,0,79,81,151,100,24,122.74,200,-25.00,8.00,-1009.00
2024-06-07 00:39:30.560717,0,-1,0,0,0,0,79,81,153,100,24,122.76,200,43.00,2.00,-974.00
2024-06-07 00:39:30.586302,1,0,0,0,0,0,79,81,157,100,24,122.81,201,27.00,-24.00,-1059.00
2024-06-07 00:39:30.688183,1,0,0,0,0,0,79,81,159,100,24,122.82,201,21.00,3.00,-1042.00
2024-06-07 00:39:30.868686,2,0,0,0,0,-1,79,81,162,100,24,122.79,201,40.00,-9.00,-950.00
2024-06-07 00:39:30.892938,1,0,0,0,0,0,79,81,164,100,24,122.77,201,-1.00,1.00,-951.00
2024-06-07 00:39:31.070700,1,0,0,0,0,0,80,82,164,100,24,122.80,201,29.00,-26.00,-936.00
2024-06-07 00:39:31.096282,1,-1,0,0,0,0,80,82,165,110,24,122.80,201,0.00,-1.00,-919.00
2024-06-07 00:39:31.277982,0,-1,0,0,0,0,80,82,164,110,24,122.80,201,59.00,-1.00,-854.00
2024-06-07 00:39:31.300535,0,-2,0,0,0,0,80,82,163,110,24,122.82,201,-8.00,-10.00,-1070.00
2024-06-07 00:39:31.482376,0,-2,0,0,0,0,80,82,164,110,24,122.75,201,55.00,-6.00,-1017.00
2024-06-07 00:39:31.504193,0,-2,0,0,0,0,80,82,161,100,24,122.72,201,68.00,-25.00,-1056.00
2024-06-07 00:39:31.701196,0,-2,0,0,0,0,80,82,160,100,24,122.78,202,-18.00,3.00,-1014.00
2024-06-07 00:39:31.708611,0,-1,0,0,0,1,80,82,157,100,24,122.83,202,-36.00,38.00,-904.00
2024-06-07 00:39:31.812889,0,-1,0,0,0,1,80,82,156,100,24,122.82,202,51.00,-10.00,-1103.00
2024-06-07 00:39:31.912413,0,-1,0,0,0,0,80,82,153,100,24,122.79,202,9.00,-9.00,-957.00
2024-06-07 00:39:32.096699,0,-1,0,0,0,1,80,82,149,100,24,122.72,202,-8.00,4.00,-968.00
2024-06-07 00:39:32.119304,0,-1,0,0,0,2,80,82,146,100,24,122.68,202,32.00,18.00,-1050.00
2024-06-07 00:39:32.218190,0,-1,0,0,0,2,80,82,144,90,24,122.68,202,-21.00,22.00,-982.00
2024-06-07 00:39:32.403922,0,-2,0,0,0,2,80,82,142,90,24,122.66,202,-9.00,18.00,-950.00
2024-06-07 00:39:32.421927,0,-2,0,0,0,1,80,82,142,90,24,122.71,202,14.00,9.00,-995.00
2024-06-07 00:39:32.608703,0,-2,0,0,0,0,80,82,141,90,24,122.67,202,13.00,32.00,-989.00
2024-06-07 00:39:32.625964,1,-1,0,0,0,0,80,82,142,90,24,122.65,203,-17.00,7.00,-1051.00
2024-06-07 00:39:32.813447,2,-1,0,0,0,0,80,82,142,90,24,122.65,203,37.00,12.00,-985.00
2024-06-07 00:39:32.830677,1,-1,0,0,0,0,80,82,141,90,24,122.70,203,-30.00,-5.00,-1141.00
2024-06-07 00:39:33.018252,1,-1,1,0,0,0,80,82,144,90,24,122.65,203,87.00,-31.00,-1061.00
2024-06-07 00:39:33.033976,0,-1,0,0,0,-1,79,82,145,90,24,122.61,203,-97.00,63.00,-816.00
2024-06-07 00:39:33.136054,0,-1,1,0,0,-1,79,82,145,90,24,122.61,203,-33.00,20.00,-999.00
2024-06-07 00:39:33.187294,0,-1,1,0,0,0,79,82,148,90,24,122.64,203,-86.00,54.00,-956.00
2024-06-07 00:39:33.325741,0,-2,1,0,0,0,79,82,148,90,24,122.61,203,-17.00,56.00,-1052.00
2024-06-07 00:39:33.391988,0,-2,0,0,0,0,79,82,149,90,24,122.66,203,-2.00,18.00,-941.00
2024-06-07 00:39:33.530564,0,-2,1,0,0,0,79,82,151,90,24,122.69,203,78.00,-22.00,-1104.00
2024-06-07 00:39:33.594941,0,-2,1,0,0,0,79,82,151,90,24,122.68,204,-8.00,4.00,-1064.00
2024-06-07 00:39:33.696922,1,-2,0,0,0,0,79,82,153,90,24,122.70,204,51.00,5.00,-1036.00
2024-06-07 00:39:33.799937,1,-1,0,0,0,0,79,82,154,90,24,122.67,204,-106.00,66.00,-934.00
2024-06-07 00:39:33.939789,1,-1,0,0,0,0,79,82,154,100,24,122.73,204,80.00,-40.00,-1117.00
2024-06-07 00:39:34.003264,2,-1,0,0,0,0,80,82,156,100,24,122.76,204,14.00,18.00,-998.00
2024-06-07 00:39:34.146036,1,-1,0,0,0,0,80,82,155,100,24,122.70,204,37.00,-7.00,-956.00
2024-06-07 00:39:34.208195,1,-2,0,0,0,0,80,82,155,100,24,122.78,204,-5.00,-2.00,-1031.00
2024-06-07 00:39:34.349437,1,-1,0,0,0,0,80,82,154,100,24,122.74,204,-39.00,2.00,-903.00
2024-06-07 00:39:34.412878,1,-1,0,0,0,0,80,82,153,100,24,122.73,204,-11.00,0.00,-964.00
2024-06-07 00:39:34.554782,0,-2,0,0,0,0,80,82,152,100,23,122.67,205,28.00,7.00,-1089.00
2024-06-07 00:39:34.616732,1,-1,0,0,0,0,80,82,151,100,23,122.63,205,48.00,-17.00,-811.00
2024-06-07 00:39:34.718004,1,-1,0,0,0,1,80,82,148,100,23,122.65,205,56.00,2.00,-982.00
2024-06-07 00:39:34.821290,1,-1,0,0,0,0,80,82,146,90,23,122.62,205,16.00,20.00,-1136.00
2024-06-07 00:39:34.922472,1,-2,0,0,0,0,80,82,143,90,23,122.59,205,27.00,-3.00,-1084.00
2024-06-07 00:39:35.025834,2,-1,0,0,0,1,79,81,141,90,23,122.65,205,-27.00,21.00,-970.00
2024-06-07 00:39:35.127557,1,-1,1,0,0,1,79,81,138,90,23,122.58,205,-28.00,-15.00,-1129.00
2024-06-07 00:39:35.228524,0,-1,1,0,0,0,79,81,135,90,23,122.50,205,-68.00,60.00,-999.00
2024-06-07 00:39:35.330227,0,-1,1,0,0,0,79,81,134,90,23,122.53,205,81.00,-26.00,-1070.00
2024-06-07 00:39:35.431936,0,-1,1,0,0,0,79,81,132,80,23,122.54,205,-22.00,-4.00,-1088.00
2024-06-07 00:39:35.578959,0,-1,1,0,0,0,79,81,131,80,23,122.53,206,72.00,-2.00,-1054.00
2024-06-07 00:39:35.636057,0,-1,1,0,0,0,79,81,129,80,23,122.47,206,48.00,4.00,-1030.00
2024-06-07 00:39:35.783627,0,-1,1,0,0,0,79,81,128,80,23,122.47,206,-69.00,49.00,-1050.00
2024-06-07 00:39:35.839923,1,-1,1,0,0,0,79,81,128,80,23,122.52,206,21.00,8.00,-980.00
2024-06-07 00:39:35.988202,0,-1,1,0,0,0,79,81,128,80,23,122.43,206,9.00,-10.00,-1080.00
2024-06-07 00:39:36.044181,0,-1,0,0,0,0,79,81,127,80,23,122.44,206,-55.00,48.00,-1006.00
