TS,pitch,roll,yaw,vgx,vgy,vgz,templ,temph,tof,h,bat,baro,time,agx,agy,agz
2024-06-07 00:41:16.151058,0,0,0,0,0,0,75,77,10,0,83,120.74,0,1.00,4.00,-999.00
2024-06-07 00:41:16.185056,0,0,0,0,0,0,75,77,10,0,83,120.79,0,1.00,1.00,-999.00
2024-06-07 00:41:16.287032,0,0,0,0,0,0,75,77,10,0,83,120.76,0,0.00,2.00,-1000.00
2024-06-07 00:41:16.458184,0,0,0,0,0,0,74,76,10,0,83,120.72,0,1.00,1.00,-1001.00
2024-06-07 00:41:16.490930,0,0,0,0,0,0,74,76,10,0,83,120.78,0,0.00,3.00,-1000.00
2024-06-07 00:41:16.662975,0,0,0,0,0,0,74,76,10,0,83,120.78,0,1.00,1.00,-1000.00
2024-06-07 00:41:16.695328,0,0,0,0,0,0,74,76,10,0,83,120.75,0,2.00,2.00,-1001.00
2024-06-07 00:41:16.797035,0,0,0,0,0,0,74,76,10,0,83,120.75,0,0.00,2.00,-997.00
2024-06-07 00:41:16.849044,0,0,0,0,0,0,74,76,10,0,83,120.77,0,2.00,2.00,-1000.00
2024-06-07 00:41:16.958742,0,0,0,0,0,0,74,76,10,0,83,120.74,0,1.00,2.00,-999.00
2024-06-07 00:41:17.053218,0,0,0,0,0,0,74,76,10,0,83,120.76,0,0.00,2.00,-1000.00
2024-06-07 00:41:17.175000,0,0,0,0,0,0,74,76,10,0,83,120.76,0,2.00,3.00,-999.00
2024-06-07 00:41:17.260635,0,0,0,0,0,0,74,76,10,0,83,120.71,0,0.00,2.00,-1000.00
2024-06-07 00:41:17.358964,0,0,0,0,0,0,74,77,10,0,83,120.71,0,0.00,1.00,-1001.00
2024-06-07 00:41:17.482056,0,0,0,0,0,0,74,77,10,0,83,120.74,0,0.00,3.00,-1000.00
2024-06-07 00:41:17.562860,0,0,0,0,0,0,74,77,10,0,83,120.78,0,1.00,4.00,-1000.00
2024-06-07 00:41:17.686952,0,0,0,0,0,0,74,77,10,0,83,120.74,0,0.00,3.00,-998.00
2024-06-07 00:41:17.766904,0,0,0,0,0,0,74,77,10,0,83,120.77,0,1.00,2.00,-1000.00
2024-06-07 00:41:17.892047,0,0,0,0,0,0,74,77,10,0,83,120.73,0,0.00,1.00,-998.00
2024-06-07 00:41:17.970920,0,0,0,0,0,0,74,77,10,0,83,120.71,0,1.00,3.00,-998.00
2024-06-07 00:41:18.078710,0,0,0,0,0,0,74,77,10,0,83,120.80,0,1.00,2.00,-1000.00
2024-06-07 00:41:18.174920,0,0,0,0,0,0,74,77,10,0,83,120.76,0,1.00,2.00,-998.00
2024-06-07 00:41:18.276895,0,0,0,0,0,0,74,77,10,0,83,120.75,0,1.00,3.00,-1002.00
2024-06-07 00:41:18.380660,0,0,0,0,0,0,75,77,10,0,83,120.74,0,0.00,3.00,-1000.00
2024-06-07 00:41:18.480841,0,0,0,0,0,0,75,77,10,0,83,120.70,0,2.00,1.00,-1000.00
2024-06-07 00:41:18.608731,0,0,0,0,0,0,75,77,10,0,83,120.73,0,1.00,2.00,-1000.00
2024-06-07 00:41:18.685135,0,0,0,0,0,0,75,77,10,0,83,120.72,0,1.00,4.00,-1000.00
2024-06-07 00:41:18.814496,0,0,0,0,0,0,75,77,10,0,83,120.77,0,1.00,2.00,-999.00
2024-06-07 00:41:18.888823,0,0,0,0,0,0,75,77,10,0,83,120.73,0,0.00,3.00,-998.00
2024-06-07 00:41:18.990762,0,0,0,0,0,0,75,77,10,0,83,120.80,0,1.00,4.00,-997.00
2024-06-07 00:41:19.120502,0,0,0,0,0,0,75,77,10,0,83,120.78,0,0.00,2.00,-999.00
2024-06-07 00:41:19.194876,0,0,0,0,0,0,75,77,10,0,83,120.74,0,1.00,3.00,-1000.00
2024-06-07 00:41:19.296901,0,0,0,0,0,0,75,77,10,0,83,120.72,0,2.00,3.00,-999.00
2024-06-07 00:41:19.347716,0,0,0,0,0,0,75,77,10,0,83,120.75,0,1.00,3.00,-1000.00
2024-06-07 00:41:19.530186,0,0,0,0,0,0,75,77,10,0,83,120.76,0,1.00,3.00,-998.00
2024-06-07 00:41:19.551677,0,0,0,0,0,0,75,77,10,0,83,120.74,0,1.00,4.00,-1001.00
2024-06-07 00:41:19.735194,0,0,0,0,0,0,75,77,10,0,83,120.72,0,1.00,3.00,-1000.00
2024-06-07 00:41:19.755799,0,0,0,0,0,0,75,77,10,0,83,120.75,0,1.00,3.00,-1000.00
2024-06-07 00:41:19.939631,0,0,0,0,0,0,75,77,10,0,83,120.70,0,0.00,2.00,-997.00
2024-06-07 00:41:19.959756,0,0,0,0,0,0,75,77,10,0,83,120.75,0,0.00,3.00,-998.00
2024-06-07 00:41:20.144444,0,0,0,0,0,0,75,77,10,0,83,120.75,0,1.00,3.00,-1002.00
2024-06-07 00:41:20.163490,0,0,0,0,0,0,75,77,10,0,83,120.75,0,1.00,4.00,-1001.00
2024-06-07 00:41:20.349349,0,0,0,0,0,0,75,77,10,0,83,120.74,0,2.00,1.00,-999.00
2024-06-07 00:41:20.368598,0,0,0,0,0,0,75,77,10,0,83,120.73,0,3.00,3.00,-999.00
2024-06-07 00:41:20.553975,0,0,0,0,0,0,75,77,10,0,83,120.76,0,0.00,2.00,-999.00
2024-06-07 00:41:20.572592,0,0,0,0,0,0,75,77,10,0,83,120.74,0,1.00,1.00,-999.00
2024-06-07 00:41:20.758812,0,0,0,0,0,0,75,77,10,0,83,120.70,0,1.00,4.00,-995.00
2024-06-07 00:41:20.776617,0,0,0,0,0,0,75,77,10,0,83,120.72,0,0.00,2.00,-999.00
2024-06-07 00:41:20.964719,0,0,0,0,0,0,75,77,10,0,83,120.73,0,0.00,3.00,-996.00
2024-06-07 00:41:20.980555,0,0,0,0,0,0,75,77,10,0,83,120.76,0,2.00,3.00,-999.00
2024-06-07 00:41:21.168116,0,0,0,0,0,0,75,77,10,0,83,120.74,0,2.00,3.00,-999.00
2024-06-07 00:41:21.184380,0,0,0,0,0,0,75,77,10,0,83,120.69,0,1.00,3.00,-1000.00
2024-06-07 00:41:21.286462,0,0,0,0,0,0,75,77,10,0,83,120.72,0,0.00,3.00,-1000.00
2024-06-07 00:41:21.475331,0,0,0,0,0,0,74,77,10,0,83,120.72,0,-5.00,9.00,-997.00
2024-06-07 00:41:21.490805,0,0,0,0,0,0,74,77,10,0,83,120.72,0,-12.00,19.00,-992.00
2024-06-07 00:41:21.680167,0,0,0,0,0,0,74,77,10,0,83,120.72,0,4.00,25.00,-1004.00
2024-06-07 00:41:21.694409,0,0,0,0,0,0,74,77,10,0,83,120.72,0,-13.00,-4.00,-991.00
2024-06-07 00:41:21.888514,0,0,0,0,0,0,74,77,10,0,83,120.72,0,22.00,-1.00,-1076.00
2024-06-07 00:41:21.899086,-2,4,0,0,0,-1,74,77,10,0,83,120.72,0,9.00,-14.00,-1178.00
2024-06-07 00:41:22.090657,-3,5,-1,1,1,-3,74,77,10,0,83,120.72,0,13.00,4.00,-1223.00
2024-06-07 00:41:22.205814,0,2,0,1,2,-6,74,77,12,0,83,120.75,0,7.00,-20.00,-1187.00
2024-06-07 00:41:22.205883,4,-4,-1,1,2,-7,74,77,18,10,83,121.26,0,-6.00,-20.00,-1163.00
2024-06-07 00:41:22.350326,3,-5,-1,0,0,-7,74,77,25,20,83,121.31,0,21.00,-29.00,-1005.00
2024-06-07 00:41:22.489428,2,-2,0,0,0,-8,74,78,35,30,83,121.39,1,-56.00,25.00,-917.00
2024-06-07 00:41:22.510386,1,-1,0,0,0,-7,74,78,38,30,83,121.41,1,60.00,-15.00,-1010.00
2024-06-07 00:41:22.561700,0,-1,0,0,0,-7,74,78,45,40,83,121.55,1,-37.00,-2.00,-884.00
2024-06-07 00:41:22.704494,0,0,0,0,0,-6,74,78,51,50,83,121.57,1,35.00,14.00,-900.00
2024-06-07 00:41:22.833756,0,0,0,0,0,-4,74,78,54,50,83,121.56,1,20.00,8.00,-855.00
2024-06-07 00:41:22.947082,0,0,0,0,0,-3,74,78,56,60,83,121.66,1,-35.00,24.00,-913.00
2024-06-07 00:41:22.970334,0,0,0,0,0,-2,74,78,59,60,83,121.72,1,70.00,3.00,-889.00
2024-06-07 00:41:23.096965,0,0,0,0,0,-1,74,78,60,60,83,121.80,1,-58.00,28.00,-985.00
2024-06-07 00:41:23.250175,0,0,0,0,0,-1,74,78,62,60,83,121.75,1,49.00,-17.00,-1028.00
2024-06-07 00:41:23.276654,0,0,0,0,0,-1,74,78,63,60,83,121.66,1,-25.00,41.00,-921.00
2024-06-07 00:41:23.455070,0,0,0,0,0,-1,75,78,64,60,83,121.70,2,-26.00,4.00,-1046.00
2024-06-07 00:41:23.480329,0,0,0,0,0,-1,75,78,66,60,83,121.77,2,-11.00,18.00,-1049.00
2024-06-07 00:41:23.598404,0,0,0,0,0,-1,75,78,67,60,82,121.79,2,-14.00,8.00,-974.00
2024-06-07 00:41:23.741732,-1,0,0,0,0,-1,75,78,68,60,82,121.78,2,-32.00,31.00,-1065.00
2024-06-07 00:41:23.886190,-1,0,0,0,0,-1,75,78,68,60,82,121.76,2,-32.00,20.00,-972.00
2024-06-07 00:41:23.888334,-1,0,0,0,0,-1,75,78,70,70,82,121.80,2,-57.00,39.00,-1078.00
2024-06-07 00:41:24.046114,-1,0,0,0,0,-1,75,78,71,70,82,121.82,2,16.00,-5.00,-1056.00
2024-06-07 00:41:24.200808,0,0,0,0,0,-1,75,78,73,70,82,121.77,2,-32.00,25.00,-991.00
2024-06-07 00:41:24.201731,0,0,0,0,0,-1,75,78,75,70,82,121.84,2,-13.00,30.00,-983.00
2024-06-07 00:41:24.296639,0,0,0,0,0,-1,75,78,77,70,82,121.90,2,78.00,-31.00,-970.00
2024-06-07 00:41:24.444934,1,0,0,0,0,-1,75,77,77,70,82,121.89,3,62.00,-17.00,-966.00
2024-06-07 00:41:24.500301,2,0,0,0,0,-1,75,77,79,70,82,121.91,3,58.00,-11.00,-1015.00
2024-06-07 00:41:24.649739,3,0,0,0,0,-1,75,77,79,70,82,121.85,3,49.00,-37.00,-972.00
2024-06-07 00:41:24.704262,2,0,0,0,0,-1,75,77,79,80,82,121.85,3,36.00,12.00,-996.00
2024-06-07 00:41:24.854531,1,0,0,0,0,0,75,77,78,80,82,121.90,3,70.00,-39.00,-922.00
2024-06-07 00:41:24.909125,0,0,0,0,0,0,75,77,76,80,82,121.88,3,40.00,-9.00,-970.00
2024-06-07 00:41:25.059251,0,0,0,0,0,0,75,77,75,80,82,121.94,3,38.00,-15.00,-964.00
2024-06-07 00:41:25.112267,-1,0,0,0,0,0,75,77,74,70,82,121.84,3,-6.00,47.00,-1025.00
2024-06-07 00:41:25.264111,-1,0,0,0,0,0,75,77,72,70,82,121.76,3,-23.00,33.00,-1008.00
2024-06-07 00:41:25.316193,-2,-1,0,0,0,0,75,77,71,70,82,121.83,3,-64.00,-13.00,-1014.00
2024-06-07 00:41:25.468905,-3,-1,0,0,0,0,76,78,70,70,82,121.86,4,60.00,-20.00,-1051.00
2024-06-07 00:41:25.520207,-2,-1,0,0,0,0,76,78,69,70,82,121.81,4,49.00,-7.00,-999.00
2024-06-07 00:41:25.673684,0,0,0,0,0,0,76,78,69,60,81,121.78,4,-25.00,26.00,-996.00
2024-06-07 00:41:25.724220,0,0,0,0,0,0,76,78,69,60,81,121.83,4,51.00,0.00,-1057.00
2024-06-07 00:41:25.878442,0,0,0,0,0,0,76,78,69,60,81,121.91,4,56.00,-3.00,-1047.00
2024-06-07 00:41:25.929399,0,0,0,0,0,0,76,78,71,70,81,121.90,4,69.00,6.00,-1067.00
2024-06-07 00:41:26.030515,0,0,0,0,0,0,76,78,72,70,81,121.81,4,7.00,-14.00,-1078.00
2024-06-07 00:41:26.081259,0,0,0,0,0,-1,76,78,73,70,81,121.95,4,-106.00,25.00,-949.00
2024-06-07 00:41:26.186146,-1,0,0,0,0,0,76,78,75,70,81,121.98,4,87.00,-18.00,-1020.00
2024-06-07 00:41:26.286267,-1,0,0,0,0,0,76,78,77,70,81,121.91,4,-3.00,12.00,-986.00
2024-06-07 00:41:26.390516,0,0,0,0,0,-1,75,78,78,70,81,121.90,5,11.00,0.00,-1058.00
2024-06-07 00:41:26.490175,0,0,0,0,0,-1,75,78,80,70,81,121.86,5,29.00,-7.00,-968.00
2024-06-07 00:41:26.595398,0,0,0,1,0,-1,75,78,82,70,81,121.96,5,-11.00,-6.00,-923.00
2024-06-07 00:41:26.694205,1,0,0,0,0,0,75,78,83,80,81,121.98,5,27.00,5.00,-1006.00
2024-06-07 00:41:26.800509,0,0,0,0,0,0,75,78,83,80,81,121.96,5,24.00,-22.00,-916.00
2024-06-07 00:41:26.898158,0,0,0,0,0,0,75,78,83,80,81,121.89,5,-6.00,2.00,-991.00
2024-06-07 00:41:27.005581,0,0,0,0,0,0,75,78,84,80,81,121.92,5,16.00,-14.00,-950.00
2024-06-07 00:41:27.102228,0,0,0,0,0,0,75,78,84,80,81,121.98,5,-17.00,9.00,-1018.00
2024-06-07 00:41:27.209748,-1,0,0,0,0,0,75,78,85,80,81,121.89,5,-13.00,10.00,-1048.00
2024-06-07 00:41:27.306069,-1,0,0,0,0,0,75,78,85,80,81,121.96,5,-14.00,11.00,-1067.00
2024-06-07 00:41:27.414832,-1,0,0,0,0,0,75,78,87,80,81,122.00,6,-56.00,4.00,-913.00
2024-06-07 00:41:27.511619,-3,0,0,0,0,0,75,78,87,80,81,122.02,6,-81.00,0.00,-982.00
2024-06-07 00:41:27.619563,-1,0,0,1,0,0,75,78,88,80,80,121.99,6,-50.00,12.00,-873.00
2024-06-07 00:41:27.714075,0,0,0,1,0,0,75,78,89,80,80,122.04,6,24.00,1.00,-965.00
2024-06-07 00:41:27.824641,0,0,0,1,0,0,75,78,92,80,80,122.03,6,-55.00,3.00,-1042.00
2024-06-07 00:41:27.917939,2,0,0,1,0,0,75,78,93,80,80,122.06,6,-65.00,9.00,-959.00
2024-06-07 00:41:28.030251,2,0,0,1,0,-1,75,78,96,80,80,122.08,6,50.00,-21.00,-1048.00
2024-06-07 00:41:28.122036,2,0,0,0,0,0,75,78,96,80,80,122.08,6,-19.00,15.00,-1009.00
2024-06-07 00:41:28.233922,1,0,0,0,0,0,75,78,97,90,80,122.16,6,-28.00,20.00,-878.00
2024-06-07 00:41:28.325870,0,0,0,0,0,-1,75,78,97,90,80,122.15,7,-25.00,-2.00,-962.00
2024-06-07 00:41:28.438737,0,0,0,0,0,-2,75,78,99,90,80,122.13,7,-22.00,18.00,-1026.00
2024-06-07 00:41:28.530306,0,0,0,0,0,-3,75,78,101,90,80,122.19,7,-7.00,21.00,-1080.00
2024-06-07 00:41:28.644062,0,0,0,0,0,-3,75,78,104,100,80,122.18,7,99.00,-9.00,-1103.00
2024-06-07 00:41:28.733901,0,0,0,0,0,-4,75,78,109,100,80,122.25,7,0.00,10.00,-1099.00
2024-06-07 00:41:28.852160,0,0,0,0,0,-5,75,78,112,110,80,122.31,7,70.00,5.00,-1043.00
2024-06-07 00:41:28.939394,-1,0,0,-1,0,-5,75,78,118,110,80,122.28,7,39.00,9.00,-1080.00
2024-06-07 00:41:29.040796,-2,-1,0,-1,0,-4,75,78,123,120,80,122.30,7,-84.00,24.00,-1006.00
2024-06-07 00:41:29.159814,-2,-1,0,0,0,-5,75,78,127,120,80,122.35,7,-14.00,20.00,-1052.00
2024-06-07 00:41:29.244460,-1,0,0,0,0,-5,75,78,133,130,80,122.38,7,13.00,19.00,-978.00
2024-06-07 00:41:29.348108,0,0,0,0,0,-5,75,78,137,130,80,122.38,8,26.00,-3.00,-1027.00
2024-06-07 00:41:29.451314,0,0,0,0,0,-4,75,77,143,140,80,122.52,8,-32.00,0.00,-971.00
2024-06-07 00:41:29.550102,0,0,0,0,0,-4,75,77,148,140,80,122.60,8,35.00,-8.00,-963.00
2024-06-07 00:41:29.668365,0,0,0,0,0,-4,75,77,152,150,79,122.68,8,24.00,20.00,-970.00
2024-06-07 00:41:29.753883,0,0,0,0,0,-4,75,77,156,150,79,122.68,8,13.00,0.00,-905.00
2024-06-07 00:41:29.871921,0,0,0,0,0,-3,75,77,162,150,79,122.72,8,0.00,0.00,-959.00
2024-06-07 00:41:29.907039,0,0,0,0,0,-3,75,77,166,160,79,122.76,8,5.00,-2.00,-1070.00
2024-06-07 00:41:30.077140,0,0,0,0,0,-3,75,77,170,160,79,122.82,8,-44.00,13.00,-927.00
2024-06-07 00:41:30.110995,-1,0,0,0,0,-3,75,77,173,160,79,122.83,8,-17.00,-34.00,-886.00
2024-06-07 00:41:30.281547,-1,0,0,0,0,-2,75,77,177,170,79,122.88,8,-31.00,10.00,-1018.00
2024-06-07 00:41:30.320055,-1,0,0,0,0,-3,75,77,182,170,79,122.91,9,28.00,0.00,-1063.00
2024-06-07 00:41:30.420447,0,0,0,0,0,-3,75,78,188,170,79,122.92,9,15.00,-13.00,-959.00
2024-06-07 00:41:30.519826,0,0,0,0,0,-2,75,78,190,180,79,122.97,9,17.00,0.00,-951.00
2024-06-07 00:41:30.621340,0,0,0,0,0,-2,75,78,193,180,79,122.98,9,-7.00,12.00,-972.00
2024-06-07 00:41:30.794011,0,0,0,0,0,-1,75,78,195,180,79,123.02,9,31.00,-40.00,-869.00
2024-06-07 00:41:30.827033,0,0,0,0,0,-1,75,78,196,180,79,123.03,9,80.00,-19.00,-1056.00
2024-06-07 00:41:30.927375,0,0,0,0,0,0,75,78,198,190,79,123.01,9,-20.00,-2.00,-980.00
2024-06-07 00:41:31.101112,0,0,0,0,0,0,75,78,198,190,79,123.02,9,-8.00,-4.00,-948.00
2024-06-07 00:41:31.132743,0,0,0,0,0,0,75,78,196,190,79,123.01,9,15.00,23.00,-948.00
2024-06-07 00:41:31.235037,0,0,0,0,0,0,75,78,198,190,79,123.01,9,36.00,-3.00,-975.00
2024-06-07 00:41:31.337922,0,0,0,0,0,0,75,78,195,190,79,122.98,10,66.00,-42.00,-994.00
2024-06-07 00:41:31.438412,0,0,0,0,0,0,75,77,195,190,79,122.99,10,-3.00,31.00,-937.00
2024-06-07 00:41:31.613398,0,0,0,0,0,0,75,77,193,190,79,123.04,10,36.00,-15.00,-989.00
2024-06-07 00:41:31.642831,0,0,0,0,0,0,75,77,191,180,78,122.94,10,-12.00,27.00,-1037.00
2024-06-07 00:41:31.743292,0,-1,0,0,0,0,75,77,190,180,78,122.98,10,25.00,-6.00,-1103.00
2024-06-07 00:41:31.920521,0,-1,0,0,0,0,75,77,191,180,78,123.02,10,-7.00,-5.00,-1024.00
2024-06-07 00:41:31.946843,-1,-1,0,0,0,0,75,77,190,180,78,122.95,10,-1.00,-10.00,-1014.00
2024-06-07 00:41:32.049433,0,0,0,0,0,0,75,77,189,180,78,122.91,10,13.00,-6.00,-976.00
2024-06-07 00:41:32.227092,0,0,0,0,0,0,75,77,188,180,78,122.95,10,-7.00,13.00,-1008.00
2024-06-07 00:41:32.253282,0,0,0,0,0,0,75,77,187,180,78,122.92,10,-54.00,13.00,-1026.00
2024-06-07 00:41:32.355337,-1,-1,0,0,0,0,75,77,186,180,78,122.95,11,-45.00,24.00,-1003.00
2024-06-07 00:41:32.534725,-2,-1,0,0,0,0,75,77,187,180,78,122.96,11,46.00,9.00,-1111.00
2024-06-07 00:41:32.559401,-2,0,0,0,0,0,75,77,188,180,78,122.94,11,-40.00,-4.00,-987.00
2024-06-07 00:41:32.661629,-2,0,0,0,0,0,75,77,187,180,78,122.93,11,96.00,-29.00,-1110.00
2024-06-07 00:41:32.841355,0,0,0,0,0,0,75,77,187,180,78,122.94,11,38.00,0.00,-939.00
2024-06-07 00:41:32.866577,0,0,0,0,0,0,75,77,189,180,78,122.97,11,-15.00,26.00,-987.00
2024-06-07 00:41:32.967491,0,0,0,0,0,0,75,77,191,180,78,122.95,11,69.00,8.00,-991.00
2024-06-07 00:41:33.069047,1,0,0,1,0,0,75,77,191,180,78,122.95,11,-49.00,32.00,-974.00
2024-06-07 00:41:33.172350,0,0,0,0,0,1,75,77,191,180,78,122.96,11,-12.00,0.00,-902.00
2024-06-07 00:41:33.274786,0,0,0,0,0,1,75,77,191,180,78,122.98,11,-21.00,34.00,-989.00
2024-06-07 00:41:33.375542,-1,0,0,0,0,1,75,77,190,180,78,122.93,12,26.00,16.00,-993.00
2024-06-07 00:41:33.560246,-1,-1,0,0,0,1,75,78,188,180,78,122.93,12,73.00,8.00,-933.00
2024-06-07 00:41:33.579732,0,0,0,0,0,1,75,78,189,180,77,122.97,12,1.00,10.00,-946.00
2024-06-07 00:41:33.764730,0,0,0,0,0,2,75,78,188,180,77,122.98,12,-13.00,15.00,-990.00
2024-06-07 00:41:33.787541,0,0,0,0,0,1,75,78,187,170,77,122.85,12,20.00,1.00,-1005.00
2024-06-07 00:41:33.840031,0,0,0,0,0,2,75,78,184,170,77,122.89,12,19.00,8.00,-978.00
2024-06-07 00:41:33.940795,-1,-1,0,0,0,2,75,78,182,170,77,122.84,12,-45.00,4.00,-995.00
2024-06-07 00:41:34.039753,-1,-1,0,0,0,2,75,78,182,170,77,122.83,12,-38.00,40.00,-1017.00
2024-06-07 00:41:34.147346,-1,-1,0,0,0,2,75,78,180,170,77,122.77,12,-41.00,11.00,-990.00
2024-06-07 00:41:34.248096,-2,-1,0,0,0,2,75,78,178,170,77,122.76,12,-63.00,25.00,-954.00
2024-06-07 00:41:34.344556,-2,-1,0,0,0,2,75,78,175,170,77,122.79,13,3.00,2.00,-999.00
2024-06-07 00:41:34.479730,0,0,0,1,0,1,75,77,174,160,77,122.73,13,16.00,-8.00,-983.00
2024-06-07 00:41:34.551149,1,0,0,1,0,1,75,77,172,160,77,122.76,13,55.00,0.00,-924.00
2024-06-07 00:41:34.651190,1,0,0,1,0,1,75,77,169,160,77,122.67,13,-20.00,27.00,-1024.00
2024-06-07 00:41:34.752007,0,0,0,0,0,2,75,77,166,160,77,122.61,13,-88.00,19.00,-984.00
2024-06-07 00:41:34.889833,0,0,0,0,0,2,75,77,162,160,77,122.62,13,11.00,-4.00,-957.00
2024-06-07 00:41:34.958683,0,0,0,0,0,2,75,77,158,150,77,122.64,13,10.00,-22.00,-1028.00
2024-06-07 00:41:35.065878,0,0,0,0,0,2,75,77,154,150,77,122.62,13,-7.00,-5.00,-986.00
2024-06-07 00:41:35.167728,0,0,0,0,0,3,75,77,151,150,77,122.62,13,77.00,-14.00,-1004.00
2024-06-07 00:41:35.264516,1,0,0,0,0,3,75,77,147,140,77,122.51,13,65.00,-22.00,-957.00
2024-06-07 00:41:35.364481,1,-1,0,0,0,3,75,77,144,140,77,122.46,14,51.00,-9.00,-1100.00
2024-06-07 00:41:35.503675,0,-1,0,0,0,2,75,77,141,140,77,122.49,14,-17.00,4.00,-1059.00
2024-06-07 00:41:35.568788,0,-1,0,0,0,2,75,77,140,130,76,122.53,14,-20.00,28.00,-1055.00
2024-06-07 00:41:35.709884,-1,-1,0,0,0,1,75,77,137,130,76,122.49,14,84.00,-35.00,-1123.00
2024-06-07 00:41:35.772983,-1,-1,0,0,0,0,75,77,138,130,76,122.49,14,57.00,-20.00,-1030.00
2024-06-07 00:41:35.913926,-1,-1,0,0,0,0,75,77,137,130,76,122.44,14,16.00,-8.00,-1054.00
2024-06-07 00:41:35.976616,-1,-1,0,0,0,0,75,77,137,130,76,122.44,14,-16.00,31.00,-1010.00
2024-06-07 00:41:36.118238,-1,-1,0,0,0,0,75,77,137,130,76,122.43,14,18.00,25.00,-968.00
2024-06-07 00:41:36.180526,-2,-1,0,0,0,0,75,77,137,130,76,122.41,14,-37.00,15.00,-952.00
2024-06-07 00:41:36.324201,-2,-1,0,0,0,0,75,77,137,130,76,122.37,14,-120.00,21.00,-1022.00
2024-06-07 00:41:36.386416,-3,-1,0,0,0,0,75,77,138,130,76,122.40,15,7.00,-17.00,-957.00
2024-06-07 00:41:36.487603,-3,0,0,0,-1,0,75,77,138,130,76,122.30,15,38.00,0.00,-988.00
2024-06-07 00:41:36.588478,-1,0,0,1,-1,0,75,77,136,130,76,122.43,15,-18.00,21.00,-1015.00
2024-06-07 00:41:36.733271,0,0,0,1,-1,0,75,77,136,130,76,122.49,15,0.00,13.00,-1084.00
2024-06-07 00:41:36.792863,0,0,0,1,0,0,75,77,137,130,76,122.49,15,36.00,-36.00,-958.00
2024-06-07 00:41:36.894902,1,0,0,1,0,0,75,77,135,130,76,122.43,15,30.00,-2.00,-937.00
2024-06-07 00:41:37.142790,2,0,0,1,0,0,75,77,135,130,76,122.45,15,-14.00,3.00,-985.00
2024-06-07 00:41:37.258098,1,0,0,0,0,0,75,77,133,130,76,122.44,15,-50.00,37.00,-1092.00
2024-06-07 00:41:37.258331,0,0,0,0,0,0,75,77,133,130,76,122.48,15,0.00,12.00,-941.00
2024-06-07 00:41:37.382115,0,-1,0,0,0,0,75,77,132,130,76,122.42,15,18.00,9.00,-949.00
2024-06-07 00:41:37.404483,0,0,0,0,0,0,75,77,131,130,76,122.44,16,24.00,9.00,-985.00
2024-06-07 00:41:37.530751,0,0,0,0,0,0,75,78,132,130,76,122.42,16,21.00,-18.00,-1047.00
2024-06-07 00:41:37.618413,0,0,0,0,0,0,75,78,133,130,75,122.46,16,99.00,-45.00,-1078.00
2024-06-07 00:41:37.691502,0,0,0,0,0,0,75,78,133,130,75,122.38,16,-52.00,39.00,-991.00
2024-06-07 00:41:37.799927,-3,0,0,0,0,0,75,78,134,130,75,122.40,16,72.00,-3.00,-953.00
2024-06-07 00:41:37.863586,-7,0,0,1,0,0,75,78,136,130,75,122.43,16,-47.00,37.00,-918.00
2024-06-07 00:41:37.965238,-8,0,0,2,0,0,75,78,140,130,75,122.40,16,-4.00,11.00,-957.00
2024-06-07 00:41:38.177210,-8,0,0,4,0,0,75,78,139,130,75,122.45,16,44.00,-7.00,-1028.00
2024-06-07 00:41:38.177603,-7,0,0,5,0,0,75,78,138,130,75,122.43,16,-20.00,-28.00,-931.00
2024-06-07 00:41:38.271560,-6,0,0,6,0,0,75,78,136,130,75,122.40,16,80.00,-36.00,-1004.00
2024-06-07 00:41:38.484905,-5,0,0,7,0,0,75,78,135,130,75,122.32,17,-95.00,49.00,-970.00
2024-06-07 00:41:38.484959,-4,0,0,7,0,0,75,78,135,130,75,122.32,17,-58.00,28.00,-988.00
2024-06-07 00:41:38.627383,-3,0,0,7,0,0,75,78,135,130,75,122.23,17,-62.00,-18.00,-1000.00
2024-06-07 00:41:38.791625,0,0,0,7,0,0,75,78,134,130,75,122.25,17,-89.00,29.00,-963.00
2024-06-07 00:41:38.791689,2,0,0,6,0,0,75,78,134,130,75,122.26,17,-29.00,23.00,-1046.00
2024-06-07 00:41:38.934622,4,0,0,5,0,0,75,78,135,130,75,122.38,17,-21.00,44.00,-1055.00
2024-06-07 00:41:38.985357,3,0,0,4,0,0,75,78,133,130,75,122.38,17,-50.00,20.00,-1049.00
2024-06-07 00:41:39.099580,2,0,0,3,0,0,75,78,133,130,75,122.36,17,8.00,14.00,-952.00
2024-06-07 00:41:39.252941,0,0,0,3,0,0,75,78,132,130,75,122.40,17,-79.00,36.00,-988.00
2024-06-07 00:41:39.291959,0,0,0,2,0,0,75,78,132,130,75,122.42,17,-46.00,23.00,-1065.00
2024-06-07 00:41:39.395496,-1,0,0,2,0,0,75,78,132,130,75,122.39,18,-3.00,-40.00,-926.00
2024-06-07 00:41:39.497397,-1,0,0,2,0,0,75,78,132,130,75,122.38,18,-30.00,41.00,-1045.00
2024-06-07 00:41:39.597188,0,0,0,2,0,0,75,78,132,130,74,122.40,18,-7.00,-2.00,-988.00
2024-06-07 00:41:39.701941,0,0,0,2,0,0,75,78,132,130,74,122.42,18,36.00,30.00,-1004.00
2024-06-07 00:41:39.801379,-1,0,0,2,0,0,75,78,132,130,74,122.44,18,7.00,-2.00,-976.00
2024-06-07 00:41:39.910957,0,0,0,3,0,0,75,78,133,130,74,122.37,18,8.00,11.00,-1007.00
2024-06-07 00:41:40.005120,1,0,0,3,0,0,75,78,135,130,74,122.42,18,-19.00,9.00,-941.00
2024-06-07 00:41:40.111886,5,0,0,2,0,0,75,78,137,130,74,122.43,18,31.00,-16.00,-1122.00
2024-06-07 00:41:40.209460,5,0,0,1,0,0,75,78,137,130,74,122.43,18,-8.00,-11.00,-974.00
2024-06-07 00:41:40.311147,2,0,0,0,0,0,75,78,136,130,74,122.41,18,35.00,-2.00,-983.00
2024-06-07 00:41:40.418947,0,0,0,0,0,0,75,78,136,130,74,122.46,19,-37.00,-3.00,-898.00
2024-06-07 00:41:40.515100,0,0,0,0,0,0,75,78,136,130,74,122.46,19,-31.00,23.00,-1021.00
2024-06-07 00:41:40.623999,-1,0,0,0,0,0,75,78,137,130,74,122.43,19,1.00,9.00,-988.00
2024-06-07 00:41:40.719300,-1,0,0,0,0,0,75,78,138,130,74,122.44,19,53.00,16.00,-1181.00
2024-06-07 00:41:40.828380,0,0,0,0,0,0,75,78,139,130,74,122.38,19,-42.00,23.00,-1019.00
2024-06-07 00:41:40.924168,0,0,0,0,0,0,75,78,139,130,74,122.46,19,75.00,-2.00,-995.00
2024-06-07 00:41:41.028077,0,0,0,0,0,0,75,78,142,130,74,122.45,19,3.00,-11.00,-957.00
2024-06-07 00:41:41.127156,2,0,0,0,0,0,75,78,144,130,74,122.49,19,-21.00,21.00,-970.00
2024-06-07 00:41:41.239105,1,0,0,0,0,0,75,78,145,130,74,122.53,19,75.00,-1.00,-992.00
2024-06-07 00:41:41.280203,1,0,0,0,0,0,75,78,148,130,74,122.59,19,-17.00,14.00,-1015.00
2024-06-07 00:41:41.386004,1,0,0,0,0,0,75,78,149,130,74,122.50,20,33.00,22.00,-1013.00
2024-06-07 00:41:41.545222,1,0,0,0,0,0,76,78,149,140,74,122.50,20,-3.00,12.00,-1032.00
2024-06-07 00:41:41.586411,0,0,0,0,0,0,76,78,152,140,73,122.57,20,0.00,7.00,-985.00
2024-06-07 00:41:41.688916,0,0,0,0,0,0,76,78,153,140,73,122.51,20,-41.00,32.00,-903.00
2024-06-07 00:41:41.790870,0,0,0,0,0,0,76,78,155,140,73,122.54,20,6.00,-29.00,-945.00
2024-06-07 00:41:41.893487,0,0,0,0,0,0,76,78,154,140,73,122.62,20,65.00,-8.00,-1003.00
2024-06-07 00:41:41.997076,0,0,0,0,0,0,76,78,154,140,73,122.57,20,-30.00,30.00,-1010.00
2024-06-07 00:41:42.096439,0,0,0,0,0,0,76,78,155,140,73,122.56,20,-12.00,14.00,-927.00
2024-06-07 00:41:42.264988,0,-1,0,0,0,0,76,78,153,140,73,122.54,20,-30.00,34.00,-940.00
2024-06-07 00:41:42.305178,0,-1,0,0,0,0,76,78,151,140,73,122.52,20,38.00,-13.00,-972.00
2024-06-07 00:41:42.402633,0,0,0,0,0,0,76,78,149,140,73,122.49,21,-23.00,35.00,-826.00
2024-06-07 00:41:42.569010,6,0,0,-1,0,1,76,78,150,140,73,122.55,21,-49.00,19.00,-1028.00
2024-06-07 00:41:42.605922,7,0,0,-2,0,2,76,78,149,140,73,122.54,21,-12.00,21.00,-886.00
2024-06-07 00:41:42.773965,8,0,0,-3,0,1,76,78,147,140,73,122.48,21,-91.00,41.00,-1119.00
2024-06-07 00:41:42.809925,8,0,0,-4,0,0,76,78,146,140,73,122.51,21,95.00,-49.00,-1055.00
2024-06-07 00:41:42.911922,8,0,0,-5,0,0,76,78,146,140,73,122.48,21,75.00,-8.00,-985.00
2024-06-07 00:41:43.081307,7,0,0,-6,0,0,76,78,144,130,73,122.45,21,28.00,-21.00,-1082.00
2024-06-07 00:41:43.115930,6,0,0,-7,0,0,76,78,143,130,73,122.44,21,-4.00,20.00,-941.00
2024-06-07 00:41:43.286417,4,0,0,-8,0,0,76,78,144,130,73,122.41,21,72.00,4.00,-994.00
2024-06-07 00:41:43.320163,2,0,0,-8,0,0,76,78,143,130,73,122.41,22,-2.00,-16.00,-971.00
2024-06-07 00:41:43.490916,-1,0,0,-8,0,0,76,78,141,130,73,122.49,22,116.00,-24.00,-976.00
2024-06-07 00:41:43.524531,-2,0,0,-7,0,0,75,77,142,130,73,122.43,22,-16.00,14.00,-1043.00
2024-06-07 00:41:43.696661,-4,0,0,-5,0,0,75,77,142,130,72,122.45,22,76.00,-33.00,-1053.00
2024-06-07 00:41:43.727867,-3,0,0,-4,0,0,75,77,142,130,72,122.39,22,80.00,-12.00,-1034.00
2024-06-07 00:41:43.900142,-2,0,0,-3,0,0,75,77,142,140,72,122.42,22,70.00,-2.00,-916.00
2024-06-07 00:41:43.932744,-1,0,0,-3,0,0,75,77,141,140,72,122.37,22,13.00,-18.00,-1019.00
2024-06-07 00:41:44.036491,0,0,0,-3,0,0,75,77,141,130,72,122.42,22,65.00,-6.00,-1014.00
2024-06-07 00:41:44.137255,0,-1,0,-3,0,0,75,77,141,130,72,122.43,22,-18.00,13.00,-987.00
2024-06-07 00:41:44.239065,0,0,0,-2,0,0,75,77,140,130,72,122.40,22,-25.00,43.00,-1076.00
2024-06-07 00:41:44.412126,1,0,0,-1,0,0,75,77,141,140,72,122.53,23,67.00,-16.00,-991.00
2024-06-07 00:41:44.442890,2,0,0,-2,0,0,75,77,141,140,72,122.41,23,56.00,-5.00,-1049.00
2024-06-07 00:41:44.626348,1,0,0,-1,0,0,76,78,141,140,72,122.45,23,81.00,-22.00,-930.00
2024-06-07 00:41:44.647361,0,-2,0,-2,0,0,76,78,141,130,72,122.42,23,31.00,13.00,-1111.00
2024-06-07 00:41:44.747856,0,-4,0,-1,0,0,76,78,140,130,72,122.44,23,61.00,-33.00,-879.00
2024-06-07 00:41:44.924123,-1,-4,0,-1,0,1,76,78,139,130,72,122.46,23,-35.00,17.00,-1013.00
2024-06-07 00:41:44.952186,-3,-3,0,-1,-1,0,76,78,138,130,72,122.42,23,2.00,24.00,-1033.00
2024-06-07 00:41:45.129184,-2,-3,0,0,-1,0,76,78,139,130,72,122.38,23,46.00,-20.00,-963.00
2024-06-07 00:41:45.129625,-1,-2,0,0,-1,0,76,78,137,130,72,122.42,23,20.00,10.00,-994.00
2024-06-07 00:41:45.206979,0,2,0,0,-2,0,76,78,136,130,72,122.49,23,-50.00,40.00,-1063.00
2024-06-07 00:41:45.333692,0,3,0,0,-1,0,76,78,137,130,72,122.44,24,-7.00,-1.00,-1036.00
2024-06-07 00:41:45.411436,0,1,0,0,0,0,76,78,137,130,72,122.48,24,29.00,10.00,-1015.00
2024-06-07 00:41:45.564029,-1,0,0,0,0,0,76,78,137,130,72,122.33,24,-10.00,6.00,-1060.00
2024-06-07 00:41:45.614757,0,-1,0,0,0,0,76,78,138,130,71,122.35,24,50.00,11.00,-1010.00
2024-06-07 00:41:45.743377,1,0,0,1,0,0,76,78,139,130,71,122.35,24,45.00,-4.00,-966.00
2024-06-07 00:41:45.819165,2,0,0,1,0,0,76,78,140,130,71,122.36,24,-25.00,-3.00,-920.00
2024-06-07 00:41:45.948180,2,0,0,0,0,0,76,78,139,130,71,122.43,24,-35.00,41.00,-1004.00
2024-06-07 00:41:46.023411,1,0,0,0,0,0,76,78,140,130,71,122.37,24,-52.00,-16.00,-984.00
2024-06-07 00:41:46.155091,0,0,0,0,0,0,76,78,139,130,71,122.40,24,-8.00,9.00,-1000.00
2024-06-07 00:41:46.226725,-1,0,0,-1,0,0,76,78,140,130,71,122.40,24,-33.00,12.00,-992.00
2024-06-07 00:41:46.358410,-2,0,0,-1,0,0,76,78,141,130,71,122.41,25,-31.00,29.00,-1050.00
2024-06-07 00:41:46.430672,-2,-1,0,0,0,0,76,78,141,130,71,122.38,25,10.00,12.00,-1009.00
2024-06-07 00:41:46.563392,-1,-1,0,0,0,0,76,79,141,130,71,122.36,25,-55.00,-14.00,-916.00
2024-06-07 00:41:46.635007,0,0,0,0,0,0,76,79,140,130,71,122.35,25,-15.00,2.00,-1026.00
2024-06-07 00:41:46.768898,0,0,0,0,0,0,76,79,140,130,71,122.35,25,-30.00,1.00,-975.00
2024-06-07 00:41:46.839043,1,0,0,0,0,0,76,79,140,130,71,122.38,25,38.00,-3.00,-969.00
2024-06-07 00:41:46.972117,2,0,0,0,0,0,76,79,139,130,71,122.31,25,68.00,-23.00,-1052.00
2024-06-07 00:41:47.042869,1,0,0,0,0,0,76,79,138,130,71,122.32,25,-6.00,5.00,-940.00
2024-06-07 00:41:47.177383,1,0,0,0,0,0,76,79,137,130,71,122.37,25,5.00,7.00,-953.00
2024-06-07 00:41:47.246665,1,0,0,0,0,1,76,79,135,130,71,122.34,25,-27.00,34.00,-1030.00
2024-06-07 00:41:47.381890,0,-1,0,0,0,1,76,79,132,130,71,122.34,26,-8.00,0.00,-992.00
2024-06-07 00:41:47.453608,0,-1,0,0,0,1,76,79,130,130,71,122.37,26,38.00,-8.00,-1100.00
2024-06-07 00:41:47.560886,0,-1,0,0,0,0,76,78,130,130,71,122.31,26,35.00,-24.00,-1034.00
2024-06-07 00:41:47.661282,-1,-5,0,0,-1,0,76,78,131,130,70,122.40,26,63.00,-8.00,-1036.00
2024-06-07 00:41:47.757318,0,-6,0,0,-1,0,76,78,131,120,70,122.27,26,29.00,-10.00,-1079.00
2024-06-07 00:41:47.894009,0,-5,0,0,-2,0,76,78,131,120,70,122.35,26,-51.00,18.00,-1079.00
2024-06-07 00:41:47.962664,0,-4,0,0,-3,0,76,78,131,130,70,122.35,26,-5.00,18.00,-995.00
2024-06-07 00:41:48.063008,0,-1,0,0,-3,0,76,78,132,130,70,122.34,26,96.00,-14.00,-1044.00
2024-06-07 00:41:48.166605,0,0,0,0,-3,0,76,78,133,130,70,122.36,26,-25.00,42.00,-976.00
2024-06-07 00:41:48.267807,0,0,0,0,-2,0,76,78,134,130,70,122.29,26,-31.00,15.00,-1106.00
2024-06-07 00:41:48.374908,-1,0,0,0,-2,-1,76,78,134,130,70,122.35,27,63.00,-27.00,-961.00
2024-06-07 00:41:48.470369,0,0,0,0,-2,0,76,78,135,130,70,122.37,27,-26.00,9.00,-937.00
2024-06-07 00:41:48.610699,0,0,0,0,-2,0,76,79,135,130,70,122.38,27,57.00,5.00,-988.00
2024-06-07 00:41:48.674416,0,0,0,0,-2,0,76,79,135,130,70,122.34,27,42.00,8.00,-961.00
2024-06-07 00:41:48.815702,1,-1,0,0,-2,0,76,79,135,130,70,122.36,27,-27.00,30.00,-899.00
2024-06-07 00:41:48.878381,0,-1,0,0,-1,0,76,79,133,130,70,122.37,27,41.00,2.00,-993.00
2024-06-07 00:41:49.019945,0,-1,0,0,-1,0,76,79,134,130,70,122.31,27,-19.00,15.00,-1042.00
2024-06-07 00:41:49.082366,0,-2,0,0,-1,0,76,79,133,130,70,122.30,27,-21.00,19.00,-1012.00
2024-06-07 00:41:49.224858,-1,-2,0,0,-1,0,76,79,133,130,70,122.29,27,46.00,8.00,-1085.00
2024-06-07 00:41:49.235775,0,-1,0,0,-2,0,76,79,132,130,70,122.36,27,14.00,2.00,-967.00
2024-06-07 00:41:49.430586,0,-1,0,0,-2,0,76,79,131,130,70,122.32,28,45.00,10.00,-982.00
2024-06-07 00:41:49.439439,1,-1,0,0,-2,0,76,79,131,130,70,122.35,28,61.00,-2.00,-1056.00
2024-06-07 00:41:49.634337,1,-1,0,0,-2,0,75,77,131,130,69,122.31,28,0.00,16.00,-1019.00
2024-06-07 00:41:49.643801,0,-1,0,0,-1,0,75,77,130,130,69,122.28,28,43.00,5.00,-1004.00
2024-06-07 00:41:49.839396,0,-1,0,0,-1,0,75,77,131,130,69,122.36,28,30.00,24.00,-1053.00
2024-06-07 00:41:49.847463,0,-1,0,0,-2,0,75,77,131,130,69,122.31,28,-14.00,0.00,-1008.00
2024-06-07 00:41:49.974232,0,0,0,0,-1,0,75,77,130,130,69,122.30,28,-28.00,39.00,-1073.00
2024-06-07 00:41:50.051558,-2,1,0,0,-1,0,75,77,131,130,69,122.31,28,10.00,19.00,-969.00
2024-06-07 00:41:50.248706,-4,3,0,0,-1,0,75,77,131,130,69,122.21,28,-18.00,11.00,-1007.00
2024-06-07 00:41:50.255369,-3,1,0,0,0,0,75,77,129,130,69,122.18,28,-26.00,17.00,-1006.00
2024-06-07 00:41:50.454293,-2,0,0,1,0,0,75,77,128,130,69,122.22,29,15.00,3.00,-978.00
2024-06-07 00:41:50.459606,2,0,0,1,0,0,75,77,127,130,69,122.25,29,-56.00,-1.00,-1074.00
2024-06-07 00:41:50.658350,2,0,0,0,0,0,75,78,126,130,69,122.25,29,-117.00,26.00,-1008.00
2024-06-07 00:41:50.664108,0,0,0,0,0,0,75,78,125,130,69,122.27,29,46.00,-12.00,-988.00
2024-06-07 00:41:50.765708,0,0,0,0,0,0,75,78,124,130,69,122.27,29,66.00,-17.00,-949.00
2024-06-07 00:41:50.965930,1,0,0,0,0,0,75,78,123,120,69,122.31,29,-6.00,-3.00,-1044.00
2024-06-07 00:41:50.970399,1,0,0,1,0,0,75,78,122,120,69,122.20,29,-1.00,3.00,-967.00
2024-06-07 00:41:51.170629,2,0,0,0,0,0,75,78,123,120,69,122.27,29,82.00,-34.00,-1057.00
2024-06-07 00:41:51.174333,2,0,0,0,0,0,75,78,123,120,69,122.22,29,0.00,13.00,-916.00
2024-06-07 00:41:51.375748,2,0,0,0,0,0,75,78,123,120,69,122.25,29,-6.00,6.00,-1000.00
2024-06-07 00:41:51.378596,1,0,0,0,0,0,75,78,123,120,69,122.26,30,77.00,-21.00,-1084.00
2024-06-07 00:41:51.480770,1,0,0,0,0,0,75,78,123,120,69,122.28,30,-51.00,1.00,-950.00
2024-06-07 00:41:51.583540,0,0,0,0,0,0,76,78,123,120,68,122.28,30,-30.00,20.00,-1060.00
2024-06-07 00:41:51.684952,0,0,0,0,0,0,76,78,124,120,68,122.24,30,17.00,-21.00,-1054.00
2024-06-07 00:41:51.788378,0,0,0,0,0,0,76,78,125,120,68,122.30,30,22.00,-31.00,-1089.00
2024-06-07 00:41:51.888512,0,0,0,0,0,-1,76,78,126,130,68,122.28,30,18.00,-20.00,-986.00
2024-06-07 00:41:52.313350,0,0,0,0,0,-1,76,78,127,130,68,122.28,30,-2.00,22.00,-971.00
2024-06-07 00:41:52.313607,0,0,0,0,0,0,76,78,127,130,68,122.33,30,-69.00,5.00,-1015.00
2024-06-07 00:41:52.313706,0,0,0,0,0,0,76,78,127,130,68,122.26,30,40.00,-15.00,-916.00
2024-06-07 00:41:52.313937,0,-1,0,0,0,0,76,78,127,130,68,122.27,30,-39.00,2.00,-939.00
2024-06-07 00:41:52.434241,0,-1,0,0,0,0,76,78,126,130,68,122.26,31,65.00,-15.00,-988.00
2024-06-07 00:41:52.501250,0,-1,0,0,0,0,76,78,125,130,68,122.25,31,-70.00,30.00,-1006.00
2024-06-07 00:41:52.658611,0,-1,0,0,0,0,76,78,124,130,68,122.23,31,36.00,12.00,-1077.00
2024-06-07 00:41:52.758748,0,-1,0,0,0,0,76,78,124,120,68,122.18,31,-23.00,-7.00,-1029.00
2024-06-07 00:41:52.805964,0,-1,0,0,0,0,76,78,124,120,68,122.23,31,35.00,-50.00,-985.00
2024-06-07 00:41:52.916648,0,3,0,0,0,0,76,78,123,120,68,122.21,31,-31.00,30.00,-949.00
2024-06-07 00:41:53.024200,0,8,0,0,0,0,76,78,125,120,68,122.24,31,-31.00,10.00,-1016.00
2024-06-07 00:41:53.063782,0,8,0,0,2,0,76,78,126,120,68,122.25,31,11.00,2.00,-961.00
2024-06-07 00:41:53.229336,0,5,0,0,3,0,76,78,123,120,68,122.23,31,-17.00,-11.00,-962.00
2024-06-07 00:41:53.266914,0,1,0,0,4,0,76,78,123,120,68,122.27,31,69.00,-24.00,-1097.00
2024-06-07 00:41:53.411829,0,-1,0,0,3,0,76,78,123,120,68,122.25,32,-49.00,7.00,-941.00
2024-06-07 00:41:53.553615,0,-1,0,0,3,0,76,78,123,120,68,122.23,32,-35.00,-8.00,-1059.00
2024-06-07 00:41:53.571487,0,-1,0,0,3,0,76,78,124,120,67,122.26,32,9.00,-14.00,-979.00
2024-06-07 00:41:53.697829,0,0,0,0,2,0,76,78,124,120,67,122.32,32,13.00,-27.00,-1019.00
2024-06-07 00:41:53.843785,0,0,0,0,2,0,76,78,125,120,67,122.35,32,-44.00,1.00,-1041.00
2024-06-07 00:41:53.987075,0,0,0,0,2,0,76,78,127,120,67,122.31,32,29.00,-12.00,-1042.00
2024-06-07 00:41:53.987610,0,0,0,0,2,0,76,78,128,120,67,122.33,32,-67.00,-24.00,-1023.00
2024-06-07 00:41:54.151740,0,0,0,0,2,0,76,78,130,120,67,122.34,32,48.00,-8.00,-997.00
2024-06-07 00:41:54.219879,0,0,0,0,2,0,76,78,130,130,67,122.28,32,39.00,-20.00,-988.00
2024-06-07 00:41:54.285203,0,0,0,0,2,0,76,78,132,130,67,122.37,32,-27.00,-14.00,-968.00
2024-06-07 00:41:54.448107,0,0,0,0,2,0,76,78,133,130,67,122.36,33,-26.00,21.00,-1019.00
2024-06-07 00:41:54.489362,0,0,0,0,2,0,76,78,134,130,67,122.40,33,49.00,-19.00,-969.00
2024-06-07 00:41:54.591361,0,-2,0,0,2,0,76,79,137,130,67,122.43,33,18.00,-31.00,-934.00
2024-06-07 00:41:54.693550,0,-5,0,0,1,0,76,79,137,130,67,122.40,33,-49.00,5.00,-994.00
2024-06-07 00:41:54.795480,0,-3,0,0,1,0,76,79,137,130,67,122.39,33,28.00,19.00,-1011.00
2024-06-07 00:41:54.897993,0,-2,0,0,0,0,76,79,137,130,67,122.38,33,-20.00,13.00,-932.00
2024-06-07 00:41:55.000561,0,-1,0,0,0,0,76,79,137,130,67,122.38,33,-46.00,-15.00,-946.00
2024-06-07 00:41:55.103870,0,0,0,0,0,0,76,79,138,130,67,122.37,33,-15.00,4.00,-1023.00
2024-06-07 00:41:55.204802,0,0,0,0,0,0,76,79,137,130,67,122.38,33,-44.00,7.00,-1021.00
2024-06-07 00:41:55.307669,0,0,0,0,0,0,76,79,137,130,67,122.44,33,1.00,2.00,-981.00
2024-06-07 00:41:55.407184,0,0,0,0,0,0,76,79,136,130,67,122.47,34,-10.00,24.00,-1087.00
2024-06-07 00:41:55.573800,0,0,0,0,0,0,76,79,136,130,67,122.38,34,-36.00,-14.00,-1000.00
2024-06-07 00:41:55.611815,0,0,0,0,0,0,76,78,135,130,66,122.42,34,-14.00,6.00,-975.00
2024-06-07 00:41:55.778149,0,0,0,0,0,0,76,78,135,130,66,122.40,34,-11.00,12.00,-961.00
2024-06-07 00:41:55.815015,0,0,0,0,0,0,76,78,135,130,66,122.32,34,5.00,12.00,-1044.00
2024-06-07 00:41:55.989295,0,0,0,0,0,0,76,78,134,130,66,122.36,34,-21.00,14.00,-1002.00
2024-06-07 00:41:56.018999,0,0,0,0,0,0,76,78,134,130,66,122.35,34,1.00,-18.00,-1006.00
2024-06-07 00:41:56.188368,0,0,0,0,0,0,76,78,135,130,66,122.36,34,45.00,7.00,-961.00
2024-06-07 00:41:56.223130,0,0,0,0,0,0,76,78,135,130,66,122.36,34,-8.00,5.00,-906.00
2024-06-07 00:41:56.392590,0,0,0,0,0,0,76,78,135,130,66,122.35,34,20.00,-15.00,-1037.00
2024-06-07 00:41:56.427081,0,0,0,0,0,0,76,78,135,130,66,122.28,35,-48.00,9.00,-1031.00
2024-06-07 00:41:56.599834,0,0,0,0,0,0,76,78,135,130,66,122.30,35,37.00,20.00,-1037.00
2024-06-07 00:41:56.634180,0,0,0,0,0,0,76,79,134,130,66,122.40,35,20.00,39.00,-960.00
2024-06-07 00:41:56.733489,0,0,0,0,0,0,76,79,134,130,66,122.32,35,44.00,-25.00,-966.00
2024-06-07 00:41:56.784486,0,0,0,0,0,0,76,79,134,130,66,122.43,35,-49.00,12.00,-993.00
2024-06-07 00:41:56.885990,0,0,0,0,0,0,76,79,134,130,66,122.33,35,17.00,-22.00,-984.00
2024-06-07 00:41:57.007178,0,0,3,0,0,0,76,79,134,130,66,122.32,35,-26.00,1.00,-1067.00
2024-06-07 00:41:57.091008,0,0,9,0,0,0,76,79,134,130,66,122.36,35,-32.00,2.00,-1050.00
2024-06-07 00:41:57.211626,0,0,15,0,0,0,76,79,134,130,66,122.34,35,-22.00,15.00,-974.00
2024-06-07 00:41:57.294349,0,0,21,0,0,0,76,79,133,130,66,122.37,35,-46.00,30.00,-1028.00
2024-06-07 00:41:57.416746,0,0,27,0,0,0,76,79,134,130,66,122.31,36,-35.00,1.00,-964.00
2024-06-07 00:41:57.497687,0,0,33,0,0,0,76,79,134,130,66,122.34,36,-43.00,-29.00,-1047.00
2024-06-07 00:41:57.621164,0,0,45,0,0,0,77,78,135,130,65,122.33,36,20.00,19.00,-1039.00
2024-06-07 00:41:57.703810,0,0,51,0,0,0,77,78,135,130,65,122.39,36,19.00,15.00,-1006.00
2024-06-07 00:41:57.803656,0,0,57,0,0,0,77,78,135,130,65,122.35,36,-38.00,12.00,-1083.00
2024-06-07 00:41:57.928405,0,0,63,0,0,0,77,78,135,130,65,122.36,36,4.00,13.00,-992.00
2024-06-07 00:41:58.007705,0,0,69,0,0,0,77,78,135,130,65,122.39,36,14.00,2.00,-1067.00
2024-06-07 00:41:58.134140,0,0,75,0,0,0,77,78,135,130,65,122.35,36,46.00,19.00,-1072.00
2024-06-07 00:41:58.211602,0,0,81,0,0,0,77,78,135,130,65,122.32,36,4.00,13.00,-928.00
2024-06-07 00:41:58.338551,0,0,87,0,0,0,77,78,135,130,65,122.33,37,-28.00,33.00,-938.00
2024-06-07 00:41:58.415975,0,0,93,0,0,0,77,78,135,130,65,122.39,37,50.00,-4.00,-997.00
2024-06-07 00:41:58.542782,0,0,99,0,0,0,77,78,135,130,65,122.41,37,7.00,18.00,-1003.00
2024-06-07 00:41:58.619640,0,0,106,0,0,0,76,79,135,130,65,122.35,37,-5.00,11.00,-937.00
2024-06-07 00:41:58.747976,0,0,112,0,0,0,76,79,135,130,65,122.34,37,-9.00,-26.00,-983.00
2024-06-07 00:41:58.824834,0,0,118,0,0,0,76,79,135,130,65,122.30,37,36.00,1.00,-1105.00
2024-06-07 00:41:58.925618,0,0,124,0,0,0,76,79,133,130,65,122.35,37,6.00,-7.00,-969.00
2024-06-07 00:41:59.054747,0,0,130,0,0,0,76,79,134,130,65,122.32,37,35.00,14.00,-956.00
2024-06-07 00:41:59.129888,0,0,136,0,0,0,76,79,133,130,65,122.38,37,-3.00,-6.00,-976.00
2024-06-07 00:41:59.260062,0,0,142,0,0,0,76,79,133,130,65,122.39,37,9.00,24.00,-1046.00
2024-06-07 00:41:59.333516,0,0,148,0,0,0,76,79,133,130,65,122.32,38,53.00,6.00,-1045.00
2024-06-07 00:41:59.435581,0,0,154,0,0,0,76,79,133,130,65,122.37,38,6.00,24.00,-1059.00
2024-06-07 00:41:59.566734,0,0,160,0,0,0,76,79,132,130,65,122.35,38,-1.00,7.00,-1060.00
2024-06-07 00:41:59.639563,0,0,166,0,0,0,76,79,132,130,64,122.32,38,16.00,-17.00,-967.00
2024-06-07 00:41:59.772815,0,0,172,0,0,0,76,79,132,130,64,122.38,38,-27.00,15.00,-1035.00
2024-06-07 00:41:59.843520,0,0,178,0,0,0,76,79,132,130,64,122.33,38,-4.00,-9.00,-1011.00
2024-06-07 00:41:59.976643,0,0,-175,0,0,0,76,79,132,130,64,122.30,38,39.00,5.00,-1006.00
2024-06-07 00:42:00.047521,0,0,-169,0,0,0,76,79,133,130,64,122.35,38,-12.00,0.00,-991.00
2024-06-07 00:42:00.181151,0,0,-163,0,0,0,76,79,132,130,64,122.34,38,12.00,39.00,-976.00
2024-06-07 00:42:00.251469,0,0,-157,0,0,0,76,79,132,130,64,122.31,38,55.00,6.00,-1034.00
2024-06-07 00:42:00.385915,0,0,-151,0,0,0,76,79,132,130,64,122.32,39,13.00,8.00,-938.00
2024-06-07 00:42:00.405001,0,0,-145,0,0,0,76,79,131,130,64,122.29,39,-19.00,8.00,-1041.00
2024-06-07 00:42:00.591057,0,0,-139,0,0,0,76,79,132,130,64,122.32,39,49.00,-16.00,-990.00
2024-06-07 00:42:00.660335,0,0,-133,0,0,0,77,79,131,130,64,122.34,39,32.00,32.00,-1015.00
2024-06-07 00:42:00.795805,0,0,-127,0,0,0,77,79,132,130,64,122.33,39,3.00,-10.00,-966.00
2024-06-07 00:42:00.865263,0,0,-121,0,0,0,77,79,132,130,64,122.35,39,-42.00,2.00,-997.00
2024-06-07 00:42:00.914672,0,0,-115,0,0,0,77,79,131,130,64,122.34,39,44.00,0.00,-1026.00
2024-06-07 00:42:01.102714,0,0,-109,0,0,0,77,79,131,130,64,122.29,39,-41.00,3.00,-895.00
2024-06-07 00:42:01.118680,0,0,-103,0,0,0,77,79,132,130,64,122.33,39,-35.00,17.00,-1028.00
2024-06-07 00:42:01.307848,0,0,-97,0,0,0,77,79,132,130,64,122.35,39,-49.00,-1.00,-964.00
2024-06-07 00:42:01.322561,0,0,-91,0,0,0,77,79,132,130,64,122.34,40,-36.00,43.00,-944.00
2024-06-07 00:42:01.425309,0,0,-85,0,0,0,77,79,133,130,64,122.37,40,45.00,10.00,-990.00
2024-06-07 00:42:01.615313,0,0,-79,0,0,0,77,79,133,130,64,122.34,40,-19.00,-4.00,-967.00
2024-06-07 00:42:01.628455,0,0,-73,0,0,0,77,79,134,130,63,122.33,40,16.00,-9.00,-1012.00
2024-06-07 00:42:01.819486,0,0,-67,0,0,0,77,79,134,130,63,122.31,40,-10.00,31.00,-943.00
2024-06-07 00:42:01.832687,0,0,-61,0,0,0,77,79,134,130,63,122.42,40,13.00,12.00,-1040.00
2024-06-07 00:42:02.024276,0,0,-54,0,0,0,77,79,135,130,63,122.39,40,11.00,14.00,-980.00
2024-06-07 00:42:02.036839,0,0,-48,0,0,0,77,79,135,130,63,122.34,40,24.00,-9.00,-987.00
2024-06-07 00:42:02.230284,0,0,-42,0,0,0,77,79,136,130,63,122.39,40,44.00,-19.00,-970.00
2024-06-07 00:42:02.240510,0,0,-36,0,0,0,77,79,137,130,63,122.38,40,-8.00,20.00,-996.00
2024-06-07 00:42:02.433819,0,0,-30,0,0,0,77,79,137,130,63,122.41,41,22.00,4.00,-1021.00
2024-06-07 00:42:02.444521,0,0,-24,0,0,0,77,79,138,130,63,122.41,41,16.00,40.00,-965.00
2024-06-07 00:42:02.638642,0,0,-19,0,0,0,77,79,139,130,63,122.40,41,-2.00,7.00,-1072.00
2024-06-07 00:42:02.648520,0,0,-14,0,0,0,77,79,139,130,63,122.43,41,-11.00,12.00,-967.00
2024-06-07 00:42:02.843438,0,0,-11,0,0,0,77,79,139,130,63,122.47,41,-18.00,21.00,-976.00
2024-06-07 00:42:02.859139,0,0,-8,0,0,0,77,79,139,130,63,122.35,41,16.00,12.00,-995.00
2024-06-07 00:42:02.955374,0,0,-6,0,0,0,77,79,139,130,63,122.35,41,41.00,-18.00,-969.00
2024-06-07 00:42:03.150609,0,0,-5,0,0,0,77,79,138,130,63,122.36,41,7.00,-4.00,-999.00
2024-06-07 00:42:03.158351,0,0,-4,0,0,0,77,79,137,130,63,122.38,41,26.00,-8.00,-965.00
2024-06-07 00:42:03.355409,0,0,-3,0,0,0,77,79,137,130,63,122.38,41,-83.00,0.00,-968.00
2024-06-07 00:42:03.362585,0,0,-2,0,0,0,77,79,135,130,63,122.32,42,-35.00,3.00,-967.00
2024-06-07 00:42:03.464538,0,0,-2,0,0,0,77,79,134,130,63,122.34,42,64.00,-5.00,-1027.00
2024-06-07 00:42:03.662752,0,0,-2,0,0,0,77,79,132,130,62,122.30,42,-9.00,2.00,-997.00
2024-06-07 00:42:03.668488,0,0,-2,0,0,1,76,79,131,130,62,122.33,42,-46.00,21.00,-878.00
2024-06-07 00:42:03.770677,0,0,-2,0,0,0,76,79,129,130,62,122.28,42,-34.00,10.00,-1087.00
2024-06-07 00:42:03.873148,0,0,-2,0,0,0,76,79,129,130,62,122.27,42,-9.00,-15.00,-1089.00
2024-06-07 00:42:04.072743,0,0,-2,0,0,0,76,79,128,130,62,122.25,42,21.00,26.00,-1070.00
2024-06-07 00:42:04.078522,0,0,-2,0,0,0,76,79,128,120,62,122.25,42,-5.00,-28.00,-982.00
2024-06-07 00:42:04.179032,0,0,-2,0,0,0,76,79,128,120,62,122.32,42,38.00,-12.00,-993.00
2024-06-07 00:42:04.281438,0,0,-2,0,0,0,76,79,129,130,62,122.24,42,52.00,-9.00,-1096.00
2024-06-07 00:42:04.383061,0,0,-2,0,0,0,76,79,129,130,62,122.35,43,-34.00,0.00,-982.00
2024-06-07 00:42:04.486585,0,0,-2,0,0,0,76,79,130,130,62,122.34,43,-45.00,1.00,-988.00
2024-06-07 00:42:04.587803,0,0,-2,0,0,0,76,79,131,130,62,122.31,43,-12.00,6.00,-1006.00
2024-06-07 00:42:04.691606,0,0,-2,0,0,0,77,79,131,130,62,122.32,43,58.00,-3.00,-925.00
2024-06-07 00:42:04.794214,0,0,-2,0,0,0,77,79,132,130,62,122.26,43,25.00,-6.00,-1025.00
2024-06-07 00:42:04.896478,0,0,-2,0,0,0,77,79,133,130,62,122.34,43,-55.00,-11.00,-957.00
2024-06-07 00:42:04.996531,0,0,-2,0,0,0,77,79,132,130,62,122.31,43,23.00,27.00,-983.00
2024-06-07 00:42:05.045314,0,0,-2,0,0,0,77,79,132,130,62,122.35,43,22.00,-4.00,-975.00
2024-06-07 00:42:05.199212,0,0,-2,0,0,0,77,79,132,130,62,122.31,43,-41.00,42.00,-1064.00
2024-06-07 00:42:05.249261,0,0,-2,0,0,0,77,79,133,130,62,122.29,43,-54.00,29.00,-979.00
2024-06-07 00:42:05.366385,0,0,-2,0,0,0,77,79,134,130,62,122.29,44,61.00,-6.00,-1121.00
2024-06-07 00:42:05.453377,0,0,-2,0,0,0,77,79,135,130,62,122.28,44,22.00,15.00,-1024.00
2024-06-07 00:42:05.608100,0,0,-6,0,0,0,77,79,136,130,61,122.30,44,-30.00,35.00,-995.00
2024-06-07 00:42:05.657362,0,0,-12,0,0,0,77,79,137,130,61,122.27,44,-13.00,-7.00,-1025.00
2024-06-07 00:42:05.815338,0,0,-18,0,0,0,77,79,138,130,61,122.24,44,-11.00,4.00,-980.00
2024-06-07 00:42:05.861023,0,0,-24,0,0,0,77,79,139,130,61,122.33,44,-57.00,54.00,-864.00
2024-06-07 00:42:06.022208,0,0,-29,0,0,0,77,79,139,130,61,122.33,44,57.00,-7.00,-1025.00
2024-06-07 00:42:06.064947,0,0,-35,0,0,0,77,79,139,130,61,122.36,44,-68.00,19.00,-935.00
2024-06-07 00:42:06.226528,1,0,-41,0,0,0,77,79,140,130,61,122.30,44,-82.00,39.00,-1024.00
2024-06-07 00:42:06.268966,0,0,-47,0,0,0,77,79,141,130,61,122.36,44,-39.00,19.00,-969.00
2024-06-07 00:42:06.427267,-1,0,-53,0,1,0,77,79,142,130,61,122.33,45,-31.00,16.00,-1039.00
2024-06-07 00:42:06.472983,-2,0,-59,0,0,0,77,79,142,130,61,122.38,45,-24.00,35.00,-1048.00
2024-06-07 00:42:06.633070,-1,0,-65,0,0,0,77,79,143,130,61,122.38,45,42.00,-16.00,-951.00
2024-06-07 00:42:06.680008,0,0,-71,0,0,0,76,80,144,130,61,122.35,45,-11.00,-1.00,-916.00
2024-06-07 00:42:06.778937,1,0,-77,0,0,0,76,80,145,130,61,122.40,45,35.00,2.00,-1020.00
2024-06-07 00:42:06.939957,2,0,-83,0,0,0,76,80,146,140,61,122.41,45,-20.00,5.00,-894.00
2024-06-07 00:42:06.983605,3,-1,-89,0,0,0,76,80,147,140,61,122.42,45,46.00,12.00,-1043.00
2024-06-07 00:42:07.117933,2,-1,-95,0,0,0,76,80,146,140,61,122.45,45,82.00,-21.00,-964.00
2024-06-07 00:42:07.187249,1,-1,-101,0,0,0,76,80,146,140,61,122.46,45,33.00,-14.00,-952.00
2024-06-07 00:42:07.553733,1,0,-106,0,0,0,76,80,146,140,61,122.46,45,13.00,10.00,-1017.00
2024-06-07 00:42:07.556943,0,0,-112,0,0,0,76,80,145,140,61,122.42,46,85.00,-9.00,-1030.00
2024-06-07 00:42:07.557884,0,0,-118,0,0,0,76,80,143,140,61,122.39,46,24.00,14.00,-1035.00
2024-06-07 00:42:07.608145,1,0,-124,0,0,0,76,80,141,130,60,122.39,46,-33.00,27.00,-1029.00
2024-06-07 00:42:07.759705,1,1,-130,0,1,1,76,80,139,130,60,122.35,46,-28.00,56.00,-988.00
2024-06-07 00:42:07.822140,0,1,-136,0,1,1,76,80,139,130,60,122.35,46,-24.00,37.00,-988.00
2024-06-07 00:42:07.975343,-1,0,-142,0,1,1,76,80,138,130,60,122.33,46,18.00,25.00,-1021.00
2024-06-07 00:42:08.119440,-2,0,-148,0,0,1,76,80,137,130,60,122.34,46,-13.00,24.00,-1053.00
2024-06-07 00:42:08.119523,-1,0,-154,0,0,0,76,80,138,130,60,122.35,46,-60.00,35.00,-1037.00
2024-06-07 00:42:08.281262,0,0,-160,0,0,0,76,80,139,130,60,122.36,46,-53.00,42.00,-1086.00
2024-06-07 00:42:08.425071,-1,0,-166,0,0,0,76,80,138,130,60,122.29,46,63.00,-28.00,-938.00
2024-06-07 00:42:08.425152,0,0,-172,0,0,0,76,80,139,130,60,122.32,47,19.00,-10.00,-1010.00
2024-06-07 00:42:08.588447,1,1,-178,0,0,0,76,80,137,130,60,122.38,47,-20.00,25.00,-849.00
2024-06-07 00:42:08.589039,2,0,175,0,0,0,76,80,137,130,60,122.32,47,-56.00,18.00,-928.00
2024-06-07 00:42:08.733907,2,0,168,0,0,0,77,80,136,130,60,122.32,47,-18.00,5.00,-1011.00
2024-06-07 00:42:08.895623,1,0,162,0,0,0,77,80,134,130,60,122.25,47,-21.00,-7.00,-1082.00
2024-06-07 00:42:08.922532,1,0,156,0,0,0,77,80,134,130,60,122.32,47,-14.00,16.00,-993.00
2024-06-07 00:42:09.040513,1,0,150,0,0,0,77,80,133,130,60,122.28,47,-43.00,23.00,-1016.00
2024-06-07 00:42:09.202832,0,0,144,0,0,0,77,80,133,130,60,122.21,47,100.00,2.00,-1000.00
2024-06-07 00:42:09.203009,0,0,138,0,0,0,77,80,131,130,60,122.28,47,33.00,-5.00,-995.00
2024-06-07 00:42:09.346369,2,0,132,0,0,0,77,80,130,130,60,122.30,47,-9.00,-6.00,-1068.00
2024-06-07 00:42:09.380005,2,0,126,0,0,0,77,80,130,130,60,122.21,48,104.00,-25.00,-1093.00
2024-06-07 00:42:09.510213,2,0,121,0,0,0,77,80,129,130,60,122.20,48,-37.00,24.00,-984.00
2024-06-07 00:42:09.664304,2,0,115,0,0,0,77,80,128,130,59,122.25,48,4.00,39.00,-971.00
2024-06-07 00:42:09.685861,0,0,109,0,0,0,77,79,127,130,59,122.17,48,21.00,-1.00,-1127.00
2024-06-07 00:42:09.808511,0,0,103,0,0,0,77,79,126,120,59,122.13,48,-1.00,24.00,-1047.00
2024-06-07 00:42:09.889873,0,0,96,0,0,0,77,79,126,120,59,122.20,48,78.00,-31.00,-955.00
2024-06-07 00:42:10.014678,1,0,90,0,0,0,77,79,125,120,59,122.23,48,-12.00,21.00,-1041.00
2024-06-07 00:42:10.093822,1,0,84,0,0,0,77,79,125,120,59,122.22,48,-16.00,-6.00,-991.00
2024-06-07 00:42:10.219668,1,0,78,0,0,0,77,79,124,120,59,122.23,48,22.00,-14.00,-1003.00
2024-06-07 00:42:10.298090,0,0,72,0,0,0,77,79,124,120,59,122.27,48,-40.00,-5.00,-1013.00
2024-06-07 00:42:10.422008,0,0,66,0,0,0,77,79,124,120,59,122.20,49,12.00,15.00,-963.00
2024-06-07 00:42:10.502159,0,0,59,0,0,0,77,79,124,120,59,122.28,49,26.00,30.00,-978.00
2024-06-07 00:42:10.626637,0,0,53,0,0,0,77,79,123,120,59,122.27,49,-23.00,5.00,-997.00
2024-06-07 00:42:10.705984,0,0,41,0,0,0,77,79,124,120,59,122.23,49,-37.00,-6.00,-966.00
2024-06-07 00:42:10.830314,0,0,35,0,0,0,77,79,124,120,59,122.22,49,29.00,-15.00,-1008.00
2024-06-07 00:42:10.909882,0,0,29,0,0,0,77,79,124,120,59,122.17,49,9.00,-12.00,-998.00
2024-06-07 00:42:11.035186,0,0,23,0,0,0,77,79,125,120,59,122.27,49,17.00,0.00,-1028.00
2024-06-07 00:42:11.116290,1,0,17,0,0,0,77,79,127,120,59,122.28,49,-22.00,-12.00,-939.00
2024-06-07 00:42:11.216096,0,0,12,0,0,0,77,79,128,120,59,122.28,49,16.00,7.00,-1000.00
2024-06-07 00:42:11.342360,1,-1,8,0,0,0,77,79,128,130,59,122.28,50,10.00,25.00,-936.00
2024-06-07 00:42:11.419884,1,-1,5,0,0,0,77,79,130,130,59,122.23,50,-35.00,-11.00,-1015.00
2024-06-07 00:42:11.547102,0,0,3,0,0,0,77,79,131,130,59,122.30,50,5.00,8.00,-1033.00
2024-06-07 00:42:11.624605,0,0,2,0,0,0,77,79,133,130,58,122.27,50,-6.00,-21.00,-970.00
2024-06-07 00:42:11.752409,0,0,0,0,0,0,77,79,133,130,58,122.28,50,49.00,6.00,-984.00
2024-06-07 00:42:11.828965,0,0,0,0,0,0,77,79,134,130,58,122.30,50,23.00,-14.00,-1028.00
2024-06-07 00:42:11.958134,0,0,0,0,0,0,77,79,135,130,58,122.35,50,-55.00,27.00,-932.00
2024-06-07 00:42:12.033060,0,0,0,0,0,0,77,79,135,130,58,122.33,50,46.00,-14.00,-971.00
2024-06-07 00:42:12.161931,0,0,0,0,0,0,77,79,136,130,58,122.37,50,55.00,4.00,-997.00
2024-06-07 00:42:12.237137,0,0,0,0,0,0,77,79,137,130,58,122.35,50,34.00,18.00,-946.00
2024-06-07 00:42:12.366798,0,-1,0,0,0,0,77,79,138,130,58,122.36,51,-20.00,-6.00,-950.00
2024-06-07 00:42:12.441115,0,0,0,0,0,0,77,79,138,130,58,122.35,51,-8.00,23.00,-967.00
2024-06-07 00:42:12.543204,0,-1,0,0,0,0,77,79,139,130,58,122.35,51,-19.00,20.00,-982.00
2024-06-07 00:42:12.673651,0,0,0,0,0,0,77,79,141,130,58,122.35,51,-7.00,15.00,-951.00
2024-06-07 00:42:12.746726,0,0,0,0,0,0,76,80,140,130,58,122.34,51,67.00,-4.00,-929.00
2024-06-07 00:42:12.878434,0,0,0,0,0,0,76,80,142,130,58,122.33,51,18.00,-18.00,-1035.00
2024-06-07 00:42:12.950974,0,0,0,0,0,0,76,80,142,130,58,122.35,51,44.00,-6.00,-965.00
2024-06-07 00:42:13.002884,0,0,0,0,0,0,76,80,144,130,58,122.34,51,45.00,-18.00,-1001.00
2024-06-07 00:42:13.186877,0,0,0,0,0,0,76,80,144,130,58,122.41,51,24.00,-9.00,-917.00
2024-06-07 00:42:13.207837,0,0,0,0,0,0,76,80,145,130,58,122.38,51,19.00,0.00,-994.00
2024-06-07 00:42:13.310176,0,0,0,0,0,0,76,80,145,140,58,122.41,52,24.00,-15.00,-988.00
2024-06-07 00:42:13.410188,0,0,0,0,0,0,76,80,146,140,58,122.42,52,31.00,20.00,-977.00
2024-06-07 00:42:13.512304,0,0,0,0,0,0,76,80,146,140,58,122.40,52,38.00,-1.00,-992.00
2024-06-07 00:42:13.697881,0,0,0,0,0,0,76,80,146,140,57,122.38,52,-2.00,-20.00,-966.00
2024-06-07 00:42:13.720676,0,0,0,0,0,0,77,79,146,140,57,122.34,52,33.00,-3.00,-982.00
2024-06-07 00:42:13.818169,0,0,0,0,0,0,77,79,145,140,57,122.39,52,9.00,3.00,-990.00
2024-06-07 00:42:13.961806,0,0,0,0,0,0,77,79,145,140,57,122.36,52,13.00,10.00,-1018.00
2024-06-07 00:42:14.021799,0,0,0,0,0,0,77,79,145,140,57,122.46,52,-9.00,36.00,-954.00
2024-06-07 00:42:14.210002,0,0,-1,0,0,-1,77,79,147,140,57,122.54,52,-1.00,-6.00,-1491.00
2024-06-07 00:42:14.226753,0,0,-3,0,0,-7,77,79,152,140,57,122.69,52,18.00,9.00,-1611.00
2024-06-07 00:42:14.415692,-4,-23,-6,0,0,-11,77,79,185,150,57,122.73,53,-48.00,161.00,-1329.00
2024-06-07 00:42:14.429924,-12,-127,8,1,-7,-9,77,79,189,160,57,122.94,53,-135.00,456.00,-1165.00
2024-06-07 00:42:14.622796,19,98,2,1,-9,6,77,79,283,160,57,122.95,53,-78.00,340.00,-1140.00
2024-06-07 00:42:14.633582,0,5,-24,1,-2,11,77,79,163,150,57,123.05,53,50.00,-157.00,-1390.00
2024-06-07 00:42:14.834273,-1,1,-27,1,-3,9,77,80,154,140,57,122.56,53,-28.00,17.00,-1221.00
2024-06-07 00:42:14.837955,1,2,-26,1,-2,5,77,80,149,130,57,122.47,53,15.00,-26.00,-1343.00
2024-06-07 00:42:15.028871,1,1,-16,1,-2,3,77,80,146,130,57,122.48,53,-20.00,-36.00,-1216.00
2024-06-07 00:42:15.042566,0,1,-5,0,-1,1,77,80,145,130,57,122.45,53,-35.00,-4.00,-1233.00
2024-06-07 00:42:15.234452,0,0,0,0,-1,0,77,80,147,130,57,122.36,53,-34.00,39.00,-1130.00
2024-06-07 00:42:15.247996,0,0,0,0,-1,-1,77,80,149,130,57,122.45,53,-24.00,6.00,-996.00
2024-06-07 00:42:15.348394,0,0,0,0,0,-1,77,80,151,130,57,122.43,54,0.00,3.00,-988.00
2024-06-07 00:42:15.540958,0,0,0,0,0,-1,77,80,154,130,57,122.45,54,48.00,-33.00,-991.00
2024-06-07 00:42:15.553154,0,2,0,0,0,0,77,80,158,130,57,122.39,54,-3.00,3.00,-984.00
2024-06-07 00:42:15.745389,0,0,0,0,0,0,77,80,159,130,56,122.44,54,-62.00,11.00,-1006.00
2024-06-07 00:42:15.756673,0,0,0,0,0,0,77,80,160,140,56,122.50,54,31.00,-28.00,-929.00
2024-06-07 00:42:15.950114,0,0,0,0,0,0,77,80,161,140,56,122.48,54,33.00,-7.00,-1003.00
2024-06-07 00:42:15.960530,0,0,0,0,0,0,77,80,162,140,56,122.43,54,-14.00,-10.00,-917.00
2024-06-07 00:42:16.154957,0,0,0,0,0,0,77,80,163,140,56,122.54,54,59.00,-20.00,-951.00
2024-06-07 00:42:16.164579,0,0,0,0,0,0,77,80,164,140,56,122.57,54,-9.00,-12.00,-966.00
2024-06-07 00:42:16.359714,0,0,0,0,0,0,77,80,164,140,56,122.54,54,-122.00,37.00,-915.00
2024-06-07 00:42:16.368234,0,0,0,0,0,1,77,80,165,140,56,122.54,55,-2.00,-4.00,-978.00
2024-06-07 00:42:16.471480,0,0,0,0,0,1,77,80,164,140,56,122.58,55,-25.00,12.00,-1065.00
2024-06-07 00:42:16.521485,0,0,0,0,0,1,77,80,164,140,56,122.56,55,-13.00,-57.00,-990.00
2024-06-07 00:42:16.667221,0,0,0,0,0,0,77,80,165,140,56,122.49,55,20.00,-22.00,-1077.00
2024-06-07 00:42:16.776203,0,0,0,0,0,0,77,79,166,140,56,122.55,55,-51.00,-2.00,-971.00
2024-06-07 00:42:16.973991,1,0,0,0,0,0,77,79,167,140,56,122.49,55,-7.00,-9.00,-939.00
2024-06-07 00:42:16.980173,0,0,0,0,0,0,77,79,166,140,56,122.48,55,-28.00,-4.00,-955.00
2024-06-07 00:42:17.031816,0,0,0,0,0,0,77,79,164,140,56,122.55,55,-12.00,6.00,-970.00
2024-06-07 00:42:17.179188,0,0,0,0,0,0,77,79,164,140,56,122.48,55,-39.00,-16.00,-1046.00
2024-06-07 00:42:17.236144,0,-1,0,0,0,0,77,79,163,140,56,122.51,55,66.00,-36.00,-1037.00
2024-06-07 00:42:17.384323,0,-1,0,0,0,0,77,79,162,140,56,122.56,56,16.00,-39.00,-996.00
2024-06-07 00:42:17.440563,0,0,0,0,0,0,77,79,162,140,56,122.62,56,-6.00,2.00,-986.00
2024-06-07 00:42:17.549443,0,0,0,0,0,0,77,79,162,140,55,122.50,56,-23.00,-29.00,-1011.00
2024-06-07 00:42:17.644549,0,0,0,0,0,0,77,79,162,140,55,122.50,56,47.00,-11.00,-995.00
2024-06-07 00:42:17.793811,0,0,0,0,0,0,77,80,162,140,55,122.52,56,34.00,-30.00,-982.00
2024-06-07 00:42:17.848140,0,0,-1,0,0,0,77,80,162,140,55,122.52,56,10.00,-12.00,-996.00
2024-06-07 00:42:17.998240,0,0,-1,0,0,0,77,80,163,140,55,122.49,56,9.00,-23.00,-1017.00
2024-06-07 00:42:18.052440,0,0,0,0,0,0,77,80,163,140,55,122.58,56,0.00,-3.00,-1067.00
2024-06-07 00:42:18.203038,0,0,0,0,0,0,77,80,163,140,55,122.51,56,5.00,7.00,-990.00
2024-06-07 00:42:18.256230,0,0,0,0,0,0,77,80,163,140,55,122.50,56,-13.00,0.00,-981.00
2024-06-07 00:42:18.408499,0,0,0,0,0,0,77,80,162,140,55,122.54,57,-15.00,-11.00,-1065.00
2024-06-07 00:42:18.461718,0,0,0,0,0,0,77,80,162,140,55,122.60,57,45.00,-24.00,-991.00
2024-06-07 00:42:18.564517,0,0,0,0,0,0,77,80,163,140,55,122.55,57,32.00,-32.00,-976.00
2024-06-07 00:42:18.665404,0,0,0,0,0,0,77,80,161,140,55,122.54,57,6.00,-25.00,-1007.00
2024-06-07 00:42:18.766370,0,0,0,0,0,0,78,80,162,140,55,122.52,57,0.00,-25.00,-1033.00
2024-06-07 00:42:18.921803,0,0,0,0,0,0,78,80,161,140,55,122.52,57,0.00,33.00,-974.00
2024-06-07 00:42:18.970516,0,0,0,0,0,0,78,80,162,140,55,122.54,57,-3.00,7.00,-986.00
2024-06-07 00:42:19.124821,0,0,0,0,0,0,78,80,161,140,55,122.53,57,15.00,-18.00,-1071.00
2024-06-07 00:42:19.175599,0,0,0,0,0,0,78,80,161,140,55,122.52,57,12.00,9.00,-988.00
2024-06-07 00:42:19.329324,0,0,0,0,0,0,78,80,159,140,55,122.55,57,17.00,5.00,-1045.00
2024-06-07 00:42:19.378340,0,0,0,0,0,0,78,80,160,140,55,122.50,58,16.00,-20.00,-997.00
2024-06-07 00:42:19.480094,0,0,0,0,0,0,78,80,159,140,55,122.47,58,5.00,1.00,-1011.00
2024-06-07 00:42:19.636574,0,0,0,0,0,0,78,80,158,140,54,122.51,58,52.00,-2.00,-923.00
2024-06-07 00:42:19.687353,0,0,0,0,0,0,78,80,158,140,54,122.53,58,4.00,-17.00,-974.00
2024-06-07 00:42:19.787548,0,0,0,0,0,0,78,80,157,140,54,122.47,58,-23.00,29.00,-1030.00
2024-06-07 00:42:19.944301,0,0,0,0,0,0,78,80,157,140,54,122.49,58,-12.00,-15.00,-985.00
2024-06-07 00:42:19.991538,0,0,0,0,0,0,78,80,156,140,54,122.47,58,42.00,24.00,-964.00
2024-06-07 00:42:20.094060,0,0,0,0,0,0,78,80,156,140,54,122.41,58,-14.00,1.00,-971.00
2024-06-07 00:42:20.195305,0,0,0,0,0,0,78,80,156,140,54,122.38,58,-23.00,3.00,-1023.00
2024-06-07 00:42:20.298106,0,0,0,0,0,0,78,80,155,140,54,122.41,58,-16.00,30.00,-1058.00
2024-06-07 00:42:20.398484,0,0,0,0,0,0,78,80,155,140,54,122.35,59,14.00,-16.00,-1025.00
2024-06-07 00:42:20.500699,0,0,0,0,0,0,78,80,154,140,54,122.38,59,30.00,-27.00,-995.00
2024-06-07 00:42:20.553655,0,0,0,0,0,0,78,80,154,140,54,122.37,59,2.00,-12.00,-945.00
2024-06-07 00:42:20.653148,0,1,-1,0,0,0,78,80,154,140,54,122.57,59,29.00,-30.00,-1001.00
2024-06-07 00:42:20.762743,0,2,-3,0,0,-5,78,80,158,140,54,122.77,59,-12.00,9.00,-1604.00
2024-06-07 00:42:20.859687,0,10,-7,0,0,-11,78,80,173,150,54,122.58,59,-29.00,121.00,-1582.00
2024-06-07 00:42:20.960099,9,96,-2,0,7,-11,78,80,229,160,54,122.66,59,-143.00,660.00,-989.00
2024-06-07 00:42:21.070139,-6,-139,7,1,10,3,78,80,197,170,54,122.73,59,-122.00,593.00,-867.00
2024-06-07 00:42:21.166151,-5,-22,-11,1,3,12,78,80,178,160,54,122.86,59,-17.00,373.00,-1172.00
2024-06-07 00:42:21.266145,-1,26,-12,1,5,11,78,80,182,150,54,122.45,59,-66.00,62.00,-1215.00
2024-06-07 00:42:21.377131,0,2,-12,2,9,8,78,80,143,140,54,122.55,60,-87.00,-33.00,-1522.00
2024-06-07 00:42:21.470045,0,-6,-12,2,8,4,78,80,139,130,54,122.31,60,-49.00,-58.00,-1389.00
2024-06-07 00:42:21.581878,1,-8,-7,2,5,0,78,80,137,120,53,122.40,60,-2.00,-24.00,-1257.00
2024-06-07 00:42:21.674264,3,-8,-1,1,3,-1,78,80,136,120,53,122.44,60,-50.00,7.00,-1093.00
2024-06-07 00:42:21.786753,2,-4,0,1,2,-2,78,80,137,120,53,122.26,60,24.00,-7.00,-1064.00
2024-06-07 00:42:21.878652,1,-2,0,0,1,-3,78,80,140,130,53,122.28,60,-9.00,14.00,-1019.00
2024-06-07 00:42:21.991516,0,-1,0,0,1,-3,78,80,143,130,53,122.40,60,-26.00,4.00,-889.00
2024-06-07 00:42:22.113248,0,0,0,0,1,-2,78,80,146,130,53,122.33,60,16.00,-8.00,-965.00
2024-06-07 00:42:22.256687,0,-1,0,0,1,-2,78,80,147,130,53,122.42,60,0.00,15.00,-963.00
2024-06-07 00:42:22.286890,0,-2,0,0,1,-1,78,80,148,130,53,122.38,60,2.00,1.00,-946.00
2024-06-07 00:42:22.390866,1,-4,0,0,1,0,78,80,150,130,53,122.32,61,-44.00,12.00,-877.00
2024-06-07 00:42:22.538893,2,-3,0,0,0,0,78,80,150,130,53,122.41,61,29.00,-11.00,-1076.00
2024-06-07 00:42:22.604137,1,-2,0,0,0,0,78,80,151,130,53,122.33,61,-88.00,7.00,-946.00
2024-06-07 00:42:22.701606,1,-1,0,0,0,0,78,80,151,130,53,122.39,61,4.00,-15.00,-1001.00
2024-06-07 00:42:22.804841,0,-1,0,0,0,0,78,81,153,130,53,122.46,61,32.00,14.00,-885.00
2024-06-07 00:42:22.898270,0,0,0,0,0,0,78,81,154,130,53,122.48,61,8.00,8.00,-1040.00
2024-06-07 00:42:23.034722,0,0,0,0,0,0,78,81,156,130,53,122.40,61,-6.00,3.00,-979.00
2024-06-07 00:42:23.177917,1,0,0,0,0,0,78,81,159,130,53,122.44,61,30.00,-30.00,-1096.00
2024-06-07 00:42:23.203629,1,0,0,0,0,0,78,81,161,140,53,122.48,61,43.00,-27.00,-972.00
2024-06-07 00:42:23.418664,2,0,0,0,0,0,78,81,165,140,53,122.53,61,8.00,25.00,-969.00
2024-06-07 00:42:23.418721,2,0,0,0,0,-1,78,81,166,140,53,122.53,62,84.00,-22.00,-981.00
2024-06-07 00:42:23.509682,1,0,0,0,0,-1,78,81,169,150,53,122.53,62,23.00,-38.00,-952.00
2024-06-07 00:42:23.642177,1,0,0,0,0,0,78,81,169,150,52,122.55,62,-5.00,-5.00,-1013.00
2024-06-07 00:42:23.662979,0,-1,0,0,0,-1,78,81,171,150,52,122.58,62,5.00,-1.00,-932.00
2024-06-07 00:42:23.835006,0,-1,0,0,0,0,77,80,171,150,52,122.61,62,70.00,-18.00,-895.00
2024-06-07 00:42:23.948246,0,-1,0,0,0,0,77,80,173,150,52,122.60,62,-11.00,19.00,-989.00
2024-06-07 00:42:24.091331,0,-1,0,0,0,0,77,80,171,150,52,122.59,62,25.00,-7.00,-968.00
2024-06-07 00:42:24.132629,0,-1,0,0,0,0,77,80,171,150,52,122.54,62,46.00,-11.00,-997.00
2024-06-07 00:42:24.255195,0,-2,0,0,0,0,77,80,171,150,52,122.50,62,21.00,3.00,-1100.00
2024-06-07 00:42:24.275029,0,-2,0,0,0,0,77,80,171,150,52,122.52,62,2.00,2.00,-981.00
2024-06-07 00:42:24.449469,0,-1,0,0,0,0,77,80,171,150,52,122.56,63,-17.00,9.00,-1045.00
2024-06-07 00:42:24.479251,0,-1,0,0,0,0,77,80,168,150,52,122.52,63,47.00,5.00,-962.00
