TS,pitch,roll,yaw,vgx,vgy,vgz,templ,temph,tof,h,bat,baro,time,agx,agy,agz
2024-06-07 00:42:58.548060,0,0,-3,0,0,0,79,83,10,0,43,120.69,75,0.00,0.00,-999.00
2024-06-07 00:42:58.597353,0,0,-3,0,0,0,79,83,10,0,43,120.67,75,2.00,2.00,-996.00
2024-06-07 00:42:58.752130,0,0,-3,0,0,0,79,83,10,0,43,120.68,75,1.00,1.00,-999.00
2024-06-07 00:42:58.801065,0,0,-3,0,0,0,79,83,10,0,43,120.67,75,3.00,2.00,-1001.00
2024-06-07 00:42:58.903067,0,0,-3,0,0,0,79,83,10,0,43,120.68,75,1.00,0.00,-1003.00
2024-06-07 00:42:59.058929,0,0,-3,0,0,0,80,83,10,0,43,120.71,75,1.00,0.00,-998.00
2024-06-07 00:42:59.107326,0,0,-3,0,0,0,80,83,10,0,43,120.67,75,0.00,1.00,-999.00
2024-06-07 00:42:59.264036,0,0,-3,0,0,0,80,83,10,0,43,120.69,75,0.00,1.00,-1000.00
2024-06-07 00:42:59.311775,0,0,-3,0,0,0,80,83,10,0,43,120.67,75,2.00,1.00,-999.00
2024-06-07 00:42:59.468615,0,0,-3,0,0,0,80,83,10,0,43,120.67,75,2.00,0.00,-999.00
2024-06-07 00:42:59.515249,0,0,-3,0,0,0,80,83,10,0,43,120.64,75,1.00,1.00,-1000.00
2024-06-07 00:42:59.616769,0,0,-3,0,0,0,80,83,10,0,43,120.67,75,2.00,2.00,-998.00
2024-06-07 00:42:59.668092,0,0,-3,0,0,0,80,83,10,0,43,120.68,75,1.00,2.00,-1000.00
2024-06-07 00:42:59.770182,0,0,-3,0,0,0,80,83,10,0,43,120.71,75,2.00,1.00,-1002.00
2024-06-07 00:42:59.872914,0,0,-3,0,0,0,80,83,10,0,43,120.66,75,1.00,0.00,-999.00
2024-06-07 00:42:59.974113,0,0,-3,0,0,0,81,83,10,0,43,120.69,75,2.00,1.00,-1003.00
2024-06-07 00:43:00.082968,0,0,-3,0,0,0,81,83,10,0,43,120.70,75,1.00,1.00,-1001.00
2024-06-07 00:43:00.178330,0,0,-3,0,0,0,81,83,10,0,43,120.70,75,1.00,3.00,-998.00
2024-06-07 00:43:00.287839,0,0,-3,0,0,0,81,83,10,0,43,120.71,75,1.00,1.00,-999.00
2024-06-07 00:43:00.382548,0,0,-3,0,0,0,81,83,10,0,43,120.70,75,1.00,0.00,-1000.00
2024-06-07 00:43:00.493122,0,0,-3,0,0,0,81,83,10,0,43,120.69,75,2.00,3.00,-998.00
2024-06-07 00:43:00.586436,0,0,-3,0,0,0,81,83,10,0,43,120.74,75,2.00,0.00,-1001.00
2024-06-07 00:43:00.697365,0,0,-3,0,0,0,81,83,10,0,43,120.72,75,1.00,1.00,-1000.00
2024-06-07 00:43:00.790122,0,0,-3,0,0,0,81,83,10,0,43,120.70,75,2.00,2.00,-999.00
2024-06-07 00:43:00.892096,0,0,-3,0,0,0,81,83,10,0,43,120.72,75,2.00,0.00,-1001.00
2024-06-07 00:43:00.994035,0,0,-3,0,0,0,81,83,10,0,43,120.71,75,1.00,2.00,-999.00
2024-06-07 00:43:01.107070,0,0,-3,0,0,0,81,83,10,0,43,120.71,75,14.00,4.00,-1003.00
2024-06-07 00:43:01.198026,0,0,-3,0,0,0,81,83,10,0,43,120.71,75,13.00,-12.00,-991.00
2024-06-07 00:43:01.311600,0,0,-3,0,0,0,81,83,10,0,43,120.71,75,36.00,-4.00,-1003.00
2024-06-07 00:43:01.402184,0,0,-2,0,0,0,81,83,10,0,43,120.71,75,61.00,-34.00,-1010.00
2024-06-07 00:43:01.509119,0,0,-2,0,0,0,81,83,10,0,43,120.71,76,28.00,-3.00,-1038.00
2024-06-07 00:43:01.607010,0,2,-2,0,0,0,81,83,10,0,43,120.71,76,-2.00,25.00,-1111.00
2024-06-07 00:43:01.722434,-4,5,-3,0,0,-1,81,83,10,0,43,120.71,76,89.00,1.00,-1153.00
2024-06-07 00:43:01.810055,-5,7,-4,2,1,-3,81,83,10,0,43,120.71,76,77.00,-40.00,-1363.00
2024-06-07 00:43:01.926203,-2,6,-3,3,3,-5,81,83,18,0,43,120.98,76,-30.00,13.00,-1137.00
2024-06-07 00:43:02.014169,1,0,-3,3,4,-7,81,83,25,10,43,121.31,76,-1.00,-20.00,-1106.00
2024-06-07 00:43:02.130766,7,-8,-4,2,3,-8,81,83,32,20,43,121.40,76,-38.00,-35.00,-1041.00
2024-06-07 00:43:02.217850,8,-12,-4,1,1,-8,81,83,41,20,43,121.35,76,-33.00,13.00,-1000.00
2024-06-07 00:43:02.335886,4,-6,-3,0,0,-8,81,83,49,30,43,121.43,76,8.00,25.00,-922.00
2024-06-07 00:43:02.422211,2,-3,-3,0,0,-7,81,83,56,40,43,121.49,76,65.00,17.00,-912.00
2024-06-07 00:43:02.540597,1,-2,-3,0,-1,-6,81,83,63,50,43,121.54,77,0.00,21.00,-831.00
2024-06-07 00:43:02.626867,1,-1,-3,0,-1,-5,81,83,68,50,43,121.65,77,9.00,0.00,-927.00
2024-06-07 00:43:02.728498,1,0,-3,-1,-1,-3,81,83,72,60,43,121.65,77,18.00,-9.00,-857.00
2024-06-07 00:43:02.778738,0,0,-3,-1,-1,-2,81,83,75,60,43,121.74,77,10.00,27.00,-933.00
2024-06-07 00:43:02.880647,0,0,-3,-1,-1,-1,81,83,77,60,43,121.74,77,49.00,-4.00,-880.00
2024-06-07 00:43:03.070421,0,0,-3,-1,-1,0,81,84,78,60,43,121.85,77,-4.00,30.00,-917.00
2024-06-07 00:43:03.135861,0,0,-3,0,-1,0,81,84,78,60,43,121.82,77,47.00,-8.00,-996.00
2024-06-07 00:43:03.186504,0,0,-3,0,-1,0,81,84,79,60,43,121.81,77,12.00,34.00,-1043.00
2024-06-07 00:43:03.359509,0,0,-3,0,0,0,81,84,79,60,43,121.75,77,30.00,11.00,-1013.00
2024-06-07 00:43:03.390584,0,0,-3,0,0,0,81,84,79,60,43,121.81,78,10.00,-2.00,-915.00
2024-06-07 00:43:03.567447,0,0,-3,0,0,0,81,84,78,60,43,121.79,78,38.00,23.00,-1002.00
2024-06-07 00:43:03.595981,0,0,-3,0,0,0,81,84,78,60,43,121.85,78,-55.00,26.00,-937.00
2024-06-07 00:43:03.769438,0,0,-3,0,0,0,81,84,78,60,43,121.74,78,-19.00,-17.00,-1070.00
2024-06-07 00:43:03.798527,0,0,-3,0,0,0,81,84,78,60,43,121.84,78,28.00,11.00,-1017.00
2024-06-07 00:43:03.973906,0,0,-3,0,0,0,81,84,79,60,43,121.84,78,-9.00,34.00,-913.00
2024-06-07 00:43:04.003124,0,0,-3,0,0,0,80,83,79,70,43,121.80,78,24.00,27.00,-1020.00
2024-06-07 00:43:04.182858,0,0,-3,0,0,0,80,83,80,70,43,121.79,78,22.00,5.00,-1031.00
2024-06-07 00:43:04.206857,0,0,-3,0,0,0,80,83,79,70,43,121.80,78,65.00,-5.00,-974.00
2024-06-07 00:43:04.383814,0,0,-3,0,0,0,80,83,80,70,43,121.80,78,-27.00,40.00,-993.00
2024-06-07 00:43:04.412087,0,0,-3,0,0,0,80,83,79,70,43,121.78,79,32.00,8.00,-960.00
2024-06-07 00:43:04.513096,1,0,-3,0,0,0,80,83,78,70,43,121.76,79,64.00,-14.00,-1006.00
2024-06-07 00:43:04.625634,2,0,-3,0,0,0,80,83,78,70,43,121.79,79,27.00,18.00,-1088.00
2024-06-07 00:43:04.717132,1,0,-3,0,0,0,80,83,77,60,43,121.74,79,14.00,30.00,-983.00
2024-06-07 00:43:04.896229,0,0,-3,0,0,0,80,83,75,60,43,121.79,79,8.00,24.00,-960.00
2024-06-07 00:43:04.921022,-1,0,-3,0,0,0,80,83,73,60,43,121.80,79,-9.00,10.00,-946.00
2024-06-07 00:43:05.100717,-1,0,-3,0,0,0,80,83,72,60,43,121.76,79,41.00,3.00,-999.00
2024-06-07 00:43:05.124507,0,0,-3,0,0,0,80,83,70,60,43,121.74,79,18.00,3.00,-1012.00
2024-06-07 00:43:05.305964,0,0,-3,0,0,0,80,83,69,60,43,121.78,79,-82.00,40.00,-1040.00
2024-06-07 00:43:05.328505,0,0,-3,0,0,0,80,83,67,60,43,121.74,79,51.00,4.00,-1031.00
2024-06-07 00:43:05.509949,1,0,-3,0,0,0,80,83,67,60,43,121.77,80,-50.00,37.00,-1048.00
2024-06-07 00:43:05.532926,1,0,-3,0,0,0,80,83,66,60,43,121.73,80,46.00,6.00,-1121.00
2024-06-07 00:43:05.634896,0,0,-3,0,0,0,80,83,66,60,43,121.77,80,44.00,-16.00,-980.00
2024-06-07 00:43:05.818027,0,0,-3,0,0,0,80,83,67,60,43,121.65,80,4.00,7.00,-1009.00
2024-06-07 00:43:05.839426,0,0,-3,0,0,0,80,83,67,60,43,121.74,80,-57.00,26.00,-1013.00
2024-06-07 00:43:06.021983,0,0,-3,0,0,0,80,83,68,60,43,121.74,80,-25.00,0.00,-965.00
2024-06-07 00:43:06.044577,1,0,-3,0,0,0,81,84,69,60,43,121.70,80,-94.00,46.00,-1031.00
2024-06-07 00:43:06.145049,0,0,-3,0,0,0,81,84,69,60,43,121.70,80,78.00,-34.00,-987.00
2024-06-07 00:43:06.246454,0,0,-3,0,0,0,81,84,70,60,43,121.77,80,-41.00,39.00,-1009.00
2024-06-07 00:43:06.432073,0,0,-3,0,0,0,81,84,70,60,43,121.78,80,66.00,-24.00,-1014.00
2024-06-07 00:43:06.450736,0,0,-3,0,0,0,81,84,71,60,43,121.72,81,-24.00,43.00,-963.00
2024-06-07 00:43:06.637893,0,0,-3,0,0,0,81,84,71,60,43,121.72,81,10.00,-8.00,-885.00
2024-06-07 00:43:06.654497,0,0,-3,0,0,0,81,84,72,60,43,121.67,81,18.00,1.00,-1013.00
2024-06-07 00:43:06.841210,0,0,-3,0,0,0,81,84,72,60,43,121.79,81,-24.00,14.00,-1038.00
2024-06-07 00:43:06.858457,0,0,-3,0,0,0,81,84,72,60,43,121.77,81,4.00,-11.00,-952.00
2024-06-07 00:43:06.912181,0,0,-3,0,0,0,81,84,72,60,43,121.79,81,-54.00,34.00,-999.00
2024-06-07 00:43:07.115659,0,0,-3,0,0,0,81,83,72,60,43,121.81,81,32.00,-26.00,-1022.00
2024-06-07 00:43:07.116425,0,1,-3,0,0,0,81,83,73,60,43,121.79,81,-43.00,41.00,-1143.00
2024-06-07 00:43:07.263906,0,0,-3,0,0,-1,81,83,75,60,43,121.86,81,-35.00,24.00,-1115.00
2024-06-07 00:43:07.388942,0,0,-3,0,0,-2,81,83,77,60,43,121.89,81,42.00,4.00,-982.00
2024-06-07 00:43:07.446011,0,0,-3,0,0,-3,81,83,81,70,43,121.89,82,-17.00,19.00,-1117.00
2024-06-07 00:43:07.536872,0,0,-3,0,0,-3,81,83,86,70,43,121.91,82,45.00,-16.00,-1112.00
2024-06-07 00:43:07.625230,0,0,-3,0,0,-4,81,83,91,80,43,121.91,82,90.00,-19.00,-998.00
2024-06-07 00:43:07.725818,0,0,-3,0,0,-5,81,83,97,80,43,122.01,82,-15.00,4.00,-1036.00
2024-06-07 00:43:08.074219,0,0,-3,0,0,-5,81,83,103,90,43,122.04,82,5.00,34.00,-1030.00
2024-06-07 00:43:08.103776,0,0,-3,0,0,-5,81,83,110,90,43,122.09,82,10.00,0.00,-982.00
2024-06-07 00:43:08.103891,0,0,-3,0,0,-5,81,83,117,100,43,122.17,82,15.00,0.00,-1066.00
2024-06-07 00:43:08.247842,0,0,-3,0,0,-5,81,83,123,100,43,122.21,82,-3.00,35.00,-929.00
2024-06-07 00:43:08.249232,0,0,-3,0,0,-5,81,83,130,110,43,122.32,82,9.00,11.00,-997.00
2024-06-07 00:43:08.338208,0,0,-3,0,0,-5,81,83,137,120,43,122.35,82,28.00,-15.00,-1017.00
2024-06-07 00:43:08.494165,0,0,-3,0,0,-5,81,83,144,120,43,122.41,83,29.00,19.00,-944.00
2024-06-07 00:43:08.633760,0,0,-3,0,0,-5,81,83,149,130,43,122.45,83,-4.00,3.00,-1002.00
2024-06-07 00:43:08.644979,0,0,-3,0,0,-4,81,83,154,130,43,122.58,83,10.00,7.00,-972.00
2024-06-07 00:43:08.797574,0,0,-3,0,0,-4,81,83,159,140,43,122.59,83,-3.00,42.00,-874.00
2024-06-07 00:43:08.941102,0,0,-3,0,0,-3,81,83,163,140,43,122.64,83,-16.00,21.00,-911.00
2024-06-07 00:43:08.949116,0,0,-3,0,0,-3,81,83,166,150,43,122.69,83,16.00,1.00,-1044.00
2024-06-07 00:43:09.105196,0,0,-3,0,0,-2,80,83,170,150,43,122.73,83,17.00,13.00,-894.00
2024-06-07 00:43:09.161543,0,0,-3,0,0,-1,80,83,172,150,43,122.72,83,-44.00,8.00,-910.00
2024-06-07 00:43:09.255634,-1,0,-3,0,0,-1,80,83,176,150,43,122.76,83,-12.00,31.00,-1052.00
2024-06-07 00:43:09.357158,-1,0,-3,0,0,-1,80,83,179,160,43,122.73,83,65.00,-2.00,-938.00
2024-06-07 00:43:09.503728,0,0,-3,0,0,-1,80,83,180,160,43,122.73,84,-11.00,-3.00,-963.00
2024-06-07 00:43:09.561677,0,0,-3,0,0,0,80,83,182,160,43,122.81,84,26.00,18.00,-984.00
2024-06-07 00:43:09.664078,0,0,-3,0,0,0,80,83,183,160,43,122.77,84,-20.00,30.00,-1016.00
2024-06-07 00:43:09.815373,0,0,-3,0,0,0,80,83,186,160,43,122.80,84,36.00,22.00,-976.00
2024-06-07 00:43:09.867249,0,0,-3,0,0,0,80,83,186,160,43,122.87,84,29.00,-5.00,-1067.00
2024-06-07 00:43:10.015848,1,0,-3,0,0,0,80,83,188,160,43,122.87,84,-59.00,40.00,-1000.00
2024-06-07 00:43:10.071715,0,0,-3,0,0,0,80,82,189,160,43,122.88,84,11.00,10.00,-982.00
2024-06-07 00:43:10.220174,0,0,-3,0,0,0,80,82,189,170,43,122.89,84,-31.00,3.00,-944.00
2024-06-07 00:43:10.275252,0,0,-3,0,0,0,80,82,191,170,43,122.84,84,34.00,31.00,-1032.00
2024-06-07 00:43:10.424995,0,0,-3,0,0,0,80,82,190,170,43,122.84,84,33.00,19.00,-898.00
2024-06-07 00:43:10.479657,0,0,-3,0,0,0,80,82,189,170,43,122.92,85,4.00,28.00,-998.00
2024-06-07 00:43:10.629791,0,0,-3,0,0,0,80,82,190,170,43,122.85,85,17.00,7.00,-1036.00
2024-06-07 00:43:10.632389,0,0,-3,0,0,0,80,82,189,170,43,122.84,85,57.00,7.00,-946.00
2024-06-07 00:43:10.734179,0,0,-3,0,0,0,80,82,189,170,43,122.87,85,-12.00,15.00,-970.00
2024-06-07 00:43:10.838416,0,0,-3,0,0,0,80,82,187,170,43,122.86,85,33.00,18.00,-991.00
2024-06-07 00:43:10.938070,0,0,-3,0,0,0,80,82,186,170,43,122.82,85,-18.00,2.00,-1077.00
2024-06-07 00:43:11.142051,0,0,-3,0,0,0,80,83,186,170,43,122.85,85,-46.00,29.00,-918.00
2024-06-07 00:43:11.142406,0,0,-3,0,0,0,80,83,185,170,43,122.75,85,54.00,1.00,-977.00
2024-06-07 00:43:11.244255,0,0,-3,0,0,0,80,83,183,170,43,122.82,85,23.00,38.00,-961.00
2024-06-07 00:43:11.347493,0,0,-3,0,0,0,80,83,182,160,43,122.78,85,25.00,12.00,-1006.00
2024-06-07 00:43:11.448763,1,0,-3,0,0,0,80,83,181,160,43,122.83,86,39.00,27.00,-1116.00
2024-06-07 00:43:11.551255,1,0,-3,0,0,0,80,83,179,160,43,122.79,86,6.00,-17.00,-978.00
2024-06-07 00:43:11.654313,0,0,-3,0,0,1,80,83,176,160,43,122.72,86,3.00,10.00,-1029.00
2024-06-07 00:43:11.753993,0,0,-3,0,0,2,80,83,175,160,43,122.72,86,-5.00,18.00,-891.00
2024-06-07 00:43:11.858670,-1,0,-3,0,0,2,80,83,172,160,43,122.66,86,42.00,21.00,-1051.00
2024-06-07 00:43:11.959048,0,0,-3,0,0,2,80,83,171,150,43,122.68,86,22.00,-9.00,-918.00
2024-06-07 00:43:12.061312,0,0,-3,0,0,2,80,82,166,150,43,122.64,86,-21.00,5.00,-989.00
2024-06-07 00:43:12.165484,0,0,-3,0,0,3,80,82,163,150,43,122.62,86,-73.00,17.00,-971.00
2024-06-07 00:43:12.265353,0,1,-3,0,0,2,80,82,160,140,43,122.66,86,48.00,13.00,-1041.00
2024-06-07 00:43:12.370993,0,1,-3,0,0,3,80,82,156,140,43,122.65,86,-30.00,37.00,-961.00
2024-06-07 00:43:12.467857,0,0,-3,0,0,3,80,82,152,140,43,122.56,87,-19.00,12.00,-1075.00
2024-06-07 00:43:12.575774,0,0,-3,0,0,3,80,82,149,130,43,122.58,87,75.00,6.00,-1031.00
2024-06-07 00:43:12.672270,0,0,-3,0,0,3,80,82,146,130,43,122.61,87,-5.00,29.00,-1045.00
2024-06-07 00:43:12.780282,1,1,-3,0,0,2,80,82,145,130,43,122.53,87,3.00,-3.00,-1031.00
2024-06-07 00:43:12.878643,1,1,-3,0,0,2,80,82,143,130,43,122.51,87,-73.00,35.00,-1034.00
2024-06-07 00:43:12.978014,0,0,-3,0,0,2,80,82,141,120,43,122.44,87,-43.00,13.00,-1021.00
2024-06-07 00:43:13.087443,-1,0,-3,0,0,1,80,82,141,120,43,122.48,87,-35.00,17.00,-1019.00
2024-06-07 00:43:13.181813,-1,0,-3,0,0,1,80,82,140,120,43,122.55,87,-33.00,24.00,-1039.00
2024-06-07 00:43:13.294570,-1,0,-3,0,0,0,80,82,140,120,43,122.48,87,-39.00,49.00,-894.00
2024-06-07 00:43:13.387508,0,0,-3,0,0,0,80,82,140,120,43,122.45,87,-42.00,-20.00,-1036.00
2024-06-07 00:43:13.488329,0,0,-3,0,0,0,80,82,141,120,43,122.47,88,-8.00,21.00,-1023.00
2024-06-07 00:43:13.589792,0,0,-3,0,0,0,80,82,141,120,43,122.47,88,-26.00,1.00,-1018.00
2024-06-07 00:43:13.702460,0,0,-3,0,0,0,80,82,142,120,43,122.42,88,-4.00,-4.00,-1037.00
2024-06-07 00:43:13.795315,0,0,-3,0,0,0,80,82,142,120,43,122.45,88,-73.00,36.00,-994.00
2024-06-07 00:43:13.895819,0,0,-3,0,0,0,80,82,143,120,43,122.46,88,-25.00,16.00,-954.00
2024-06-07 00:43:13.997903,0,0,-3,0,0,0,80,82,143,120,43,122.47,88,-7.00,6.00,-953.00
2024-06-07 00:43:14.099763,0,0,-3,0,0,0,80,82,144,120,43,122.48,88,-28.00,29.00,-972.00
2024-06-07 00:43:14.201868,0,0,-3,0,0,0,80,82,144,120,43,122.47,88,-4.00,9.00,-1073.00
2024-06-07 00:43:14.316002,0,0,-3,0,0,0,80,82,145,120,43,122.49,88,10.00,7.00,-992.00
2024-06-07 00:43:14.407139,0,0,-3,0,0,0,80,82,145,120,43,122.36,88,-38.00,10.00,-982.00
2024-06-07 00:43:14.520790,0,0,-3,0,0,0,80,82,145,120,43,122.45,89,1.00,25.00,-990.00
2024-06-07 00:43:14.564023,0,0,-3,0,0,0,80,82,144,130,43,122.46,89,31.00,-20.00,-946.00
2024-06-07 00:43:14.661303,1,0,-3,0,0,0,80,82,145,130,43,122.46,89,-59.00,41.00,-1084.00
2024-06-07 00:43:14.828073,0,0,-3,0,1,0,80,82,145,130,43,122.39,89,5.00,-10.00,-929.00
2024-06-07 00:43:14.865276,0,0,-3,0,0,0,80,82,144,130,43,122.39,89,11.00,-6.00,-983.00
2024-06-07 00:43:15.032697,0,0,-3,0,0,0,80,82,144,130,43,122.43,89,-43.00,45.00,-923.00
2024-06-07 00:43:15.068761,0,0,-3,0,0,0,80,83,142,130,43,122.42,89,47.00,-2.00,-1011.00
2024-06-07 00:43:15.238091,0,0,-3,0,0,0,80,83,141,130,43,122.47,89,-5.00,0.00,-916.00
2024-06-07 00:43:15.273304,0,0,-3,0,0,0,80,83,141,130,43,122.48,89,38.00,-10.00,-1021.00
2024-06-07 00:43:15.442955,1,0,-3,0,0,0,80,83,138,130,43,122.39,89,-24.00,21.00,-1060.00
2024-06-07 00:43:15.477686,1,0,-3,0,0,1,80,83,136,120,43,122.40,90,62.00,-24.00,-942.00
2024-06-07 00:43:15.647172,0,0,-3,0,0,1,80,83,135,120,43,122.41,90,7.00,6.00,-1171.00
2024-06-07 00:43:15.681431,0,0,-3,0,0,0,80,83,134,120,43,122.39,90,0.00,19.00,-1012.00
2024-06-07 00:43:15.841555,-1,0,-3,0,0,0,80,83,134,120,43,122.43,90,-25.00,15.00,-980.00
2024-06-07 00:43:15.884659,-1,0,-3,0,0,0,80,83,134,120,43,122.39,90,54.00,14.00,-1104.00
2024-06-07 00:43:16.058205,0,0,-3,0,0,0,80,83,135,120,43,122.40,90,-37.00,19.00,-1004.00
2024-06-07 00:43:16.089366,0,0,-3,0,0,0,80,82,135,120,43,122.40,90,20.00,-6.00,-977.00
2024-06-07 00:43:16.191597,0,0,-3,0,0,0,80,82,137,120,43,122.46,90,-30.00,27.00,-972.00
2024-06-07 00:43:16.363782,0,0,-3,0,0,0,80,82,137,120,43,122.50,90,-3.00,2.00,-963.00
2024-06-07 00:43:16.394655,-2,0,-3,0,0,0,80,82,141,120,43,122.39,90,-43.00,32.00,-999.00
2024-06-07 00:43:16.568984,-7,0,-3,0,0,0,80,82,143,120,43,122.43,91,55.00,-20.00,-1032.00
2024-06-07 00:43:16.598763,-8,0,-3,1,0,0,80,82,145,120,43,122.48,91,8.00,12.00,-976.00
2024-06-07 00:43:16.700841,-8,0,-3,2,0,0,80,82,148,130,43,122.44,91,-23.00,5.00,-960.00
2024-06-07 00:43:16.876417,-8,0,-3,3,0,0,80,82,146,130,43,122.50,91,-75.00,46.00,-969.00
2024-06-07 00:43:16.905262,-8,0,-3,4,0,0,80,82,149,130,43,122.48,91,16.00,11.00,-1047.00
2024-06-07 00:43:17.080875,-8,0,-3,6,0,0,80,82,149,130,43,122.41,91,-46.00,16.00,-1023.00
2024-06-07 00:43:17.108850,-6,0,-3,7,0,0,80,82,148,130,43,122.39,91,-85.00,34.00,-978.00
2024-06-07 00:43:17.210966,-4,0,-3,8,0,0,80,82,148,130,43,122.42,91,-78.00,29.00,-957.00
2024-06-07 00:43:17.387745,-3,0,-3,8,0,0,80,82,146,130,43,122.40,91,-50.00,23.00,-980.00
2024-06-07 00:43:17.415559,0,0,-3,8,0,0,80,82,146,130,43,122.31,91,-27.00,17.00,-954.00
2024-06-07 00:43:17.592536,2,0,-3,8,0,0,80,82,146,130,43,122.37,92,-16.00,2.00,-1023.00
2024-06-07 00:43:17.618448,4,0,-3,7,0,0,80,82,143,130,43,122.44,92,6.00,6.00,-960.00
2024-06-07 00:43:17.797649,5,0,-3,5,0,0,80,82,142,130,43,122.37,92,-9.00,-2.00,-1001.00
2024-06-07 00:43:17.825731,3,0,-3,4,0,0,80,82,139,130,43,122.37,92,-65.00,11.00,-959.00
2024-06-07 00:43:17.924490,2,0,-3,3,0,1,80,82,134,130,43,122.35,92,-24.00,24.00,-993.00
2024-06-07 00:43:18.104592,1,0,-3,3,0,1,80,82,131,120,43,122.32,92,-61.00,39.00,-1067.00
2024-06-07 00:43:18.129324,0,0,-3,2,0,1,80,82,129,120,43,122.34,92,-14.00,31.00,-929.00
2024-06-07 00:43:18.315025,0,0,-3,1,0,1,80,82,126,120,43,122.30,92,-50.00,4.00,-1026.00
2024-06-07 00:43:18.336776,-1,1,-3,1,0,1,80,82,124,120,43,122.39,92,-41.00,10.00,-1075.00
2024-06-07 00:43:18.435046,0,2,-3,2,0,0,80,82,123,110,43,122.30,93,42.00,-44.00,-1079.00
2024-06-07 00:43:18.485416,1,3,-3,2,0,0,80,82,123,110,43,122.26,93,-50.00,27.00,-1025.00
2024-06-07 00:43:18.619689,0,2,-3,1,1,0,80,82,123,110,43,122.30,93,-43.00,-21.00,-1075.00
2024-06-07 00:43:18.689381,-1,-2,-3,1,1,0,80,82,122,110,43,122.26,93,17.00,-9.00,-1036.00
2024-06-07 00:43:18.821419,-2,-3,-3,1,0,0,80,82,123,110,43,122.21,93,72.00,-33.00,-1051.00
2024-06-07 00:43:18.893518,3,-1,-3,1,0,0,80,82,124,110,43,122.18,93,11.00,14.00,-960.00
2024-06-07 00:43:19.026163,3,0,-3,1,0,0,80,82,126,110,43,122.29,93,-39.00,1.00,-1073.00
2024-06-07 00:43:19.097592,1,0,-3,0,0,0,80,82,126,110,43,122.25,93,-26.00,17.00,-1008.00
2024-06-07 00:43:19.231169,0,0,-3,0,0,-1,80,82,128,110,43,122.30,93,42.00,-12.00,-1184.00
2024-06-07 00:43:19.305952,0,0,-3,0,0,-1,80,82,130,120,43,122.37,93,-41.00,29.00,-1001.00
2024-06-07 00:43:19.405004,0,0,-3,0,0,0,80,82,131,120,43,122.34,94,-1.00,27.00,-979.00
2024-06-07 00:43:19.538492,0,0,-3,0,0,0,80,82,133,120,43,122.36,94,1.00,31.00,-991.00
2024-06-07 00:43:19.608934,0,0,-3,0,0,-1,80,82,136,120,43,122.38,94,32.00,1.00,-1067.00
2024-06-07 00:43:19.714094,0,0,-3,0,0,-1,80,82,138,120,43,122.42,94,-23.00,6.00,-997.00
2024-06-07 00:43:19.819906,0,0,-3,0,0,0,80,82,140,120,43,122.41,94,3.00,13.00,-895.00
2024-06-07 00:43:19.916467,0,0,-3,0,0,0,80,82,142,120,43,122.44,94,7.00,6.00,-963.00
2024-06-07 00:43:20.015339,0,0,-3,0,0,0,80,82,142,130,43,122.45,94,-15.00,-9.00,-1036.00
2024-06-07 00:43:20.152594,0,0,-3,0,0,0,80,82,144,130,43,122.48,94,-4.00,4.00,-963.00
2024-06-07 00:43:20.219587,0,0,-3,0,0,0,80,82,145,130,43,122.41,94,18.00,20.00,-990.00
2024-06-07 00:43:20.357469,0,0,-3,0,0,0,80,82,144,130,43,122.50,94,-23.00,38.00,-957.00
2024-06-07 00:43:20.423323,0,0,-3,0,0,0,80,82,144,130,43,122.51,95,91.00,-12.00,-997.00
2024-06-07 00:43:20.563531,1,0,-3,0,0,1,80,82,145,130,43,122.45,95,32.00,0.00,-1016.00
2024-06-07 00:43:20.627529,1,0,-3,0,0,0,80,82,145,130,43,122.51,95,22.00,0.00,-1027.00
2024-06-07 00:43:20.767603,1,0,-3,0,0,0,80,82,145,130,43,122.49,95,-35.00,20.00,-1029.00
2024-06-07 00:43:20.831661,0,0,-3,0,0,0,80,82,146,130,43,122.45,95,-5.00,5.00,-1052.00
2024-06-07 00:43:20.971957,0,0,-3,0,0,0,80,82,147,130,43,122.48,95,54.00,12.00,-979.00
2024-06-07 00:43:21.038054,0,0,-3,0,0,0,80,82,148,130,43,122.50,95,29.00,-30.00,-955.00
2024-06-07 00:43:21.137532,0,0,-3,0,0,0,79,82,149,130,43,122.43,95,33.00,3.00,-982.00
2024-06-07 00:43:21.240359,0,0,-3,0,0,0,79,82,151,130,43,122.47,95,-7.00,9.00,-964.00
2024-06-07 00:43:21.381243,7,-1,-3,0,0,0,79,82,153,130,43,122.49,95,18.00,-1.00,-1000.00
2024-06-07 00:43:21.444184,8,-1,-3,-1,0,0,79,82,157,130,43,122.56,96,47.00,5.00,-986.00
2024-06-07 00:43:21.586357,8,0,-3,-2,0,0,79,82,156,130,43,122.46,96,-16.00,26.00,-1053.00
2024-06-07 00:43:21.647117,8,-1,-3,-4,0,0,79,82,156,130,43,122.43,96,-34.00,26.00,-909.00
2024-06-07 00:43:21.698545,8,-1,-3,-5,0,0,79,82,156,130,43,122.55,96,-22.00,19.00,-951.00
2024-06-07 00:43:21.893214,6,-1,-3,-6,0,0,79,82,155,140,43,122.51,96,-22.00,29.00,-823.00
2024-06-07 00:43:21.905875,5,-1,-3,-7,0,0,79,82,152,130,43,122.43,96,93.00,-17.00,-1109.00
2024-06-07 00:43:22.004200,6,0,-3,-7,0,0,79,82,153,130,43,122.44,96,45.00,6.00,-958.00
2024-06-07 00:43:22.200994,4,0,-3,-7,0,0,79,81,149,130,43,122.40,96,-15.00,33.00,-903.00
2024-06-07 00:43:22.271649,0,0,-3,-7,0,1,79,81,145,130,43,122.43,96,29.00,14.00,-1014.00
2024-06-07 00:43:22.333095,-3,0,-3,-7,0,1,79,81,144,130,43,122.39,96,7.00,16.00,-1025.00
2024-06-07 00:43:22.459733,-4,0,-3,-5,0,1,79,81,143,130,43,122.40,97,35.00,15.00,-1000.00
2024-06-07 00:43:22.529952,-3,0,-3,-4,0,0,79,81,142,130,43,122.32,97,47.00,13.00,-933.00
2024-06-07 00:43:22.622456,-2,0,-3,-4,0,0,79,81,139,130,43,122.39,97,82.00,-27.00,-1125.00
2024-06-07 00:43:22.815401,-1,0,-3,-3,0,0,79,81,138,130,43,122.38,97,-15.00,20.00,-983.00
2024-06-07 00:43:22.821853,0,0,-3,-3,0,1,79,81,138,130,43,122.36,97,-1.00,29.00,-1000.00
2024-06-07 00:43:23.016834,-1,0,-3,-3,0,1,79,81,137,130,43,122.39,97,58.00,12.00,-1106.00
2024-06-07 00:43:23.024846,0,0,-3,-2,0,0,79,81,136,130,43,122.34,97,66.00,-24.00,-986.00
2024-06-07 00:43:23.235567,0,0,-3,-1,0,0,80,82,135,120,43,122.33,97,19.00,26.00,-1080.00
2024-06-07 00:43:23.236900,1,0,-3,-1,0,0,80,82,136,120,43,122.38,97,1.00,12.00,-999.00
2024-06-07 00:43:23.381867,0,2,-3,-1,0,0,80,82,138,120,43,122.36,97,-3.00,18.00,-945.00
2024-06-07 00:43:23.545336,0,2,-3,-1,0,0,80,82,138,120,43,122.38,98,-9.00,22.00,-1014.00
2024-06-07 00:43:23.647225,0,1,-3,-1,1,0,80,82,137,130,43,122.28,98,99.00,-5.00,-996.00
2024-06-07 00:43:23.689193,2,0,-3,-1,1,0,80,82,138,130,43,122.34,98,0.00,-19.00,-1050.00
2024-06-07 00:43:23.849566,2,-1,-3,-1,1,0,80,82,137,130,43,122.35,98,33.00,-3.00,-1032.00
2024-06-07 00:43:23.850075,0,-2,-3,-1,0,0,80,82,135,130,43,122.30,98,53.00,-14.00,-1037.00
2024-06-07 00:43:23.995492,-1,0,-3,0,0,0,80,82,134,120,43,122.31,98,97.00,-15.00,-957.00
2024-06-07 00:43:24.157252,0,0,-3,0,0,0,80,82,133,120,43,122.30,98,-3.00,-16.00,-844.00
2024-06-07 00:43:24.159746,0,0,-3,0,0,0,80,83,130,120,43,122.26,98,-3.00,19.00,-987.00
2024-06-07 00:43:24.302038,0,-1,-3,0,0,0,80,83,128,120,43,122.26,98,3.00,17.00,-962.00
2024-06-07 00:43:24.350492,0,-1,-3,0,0,0,80,83,126,120,43,122.25,98,-57.00,40.00,-914.00
2024-06-07 00:43:24.467182,-2,-1,-3,0,0,1,80,83,124,120,43,122.26,99,45.00,-8.00,-1065.00
2024-06-07 00:43:24.609037,-2,-1,-3,0,0,1,80,83,122,120,43,122.24,99,12.00,3.00,-1004.00
2024-06-07 00:43:24.657859,0,-1,-3,0,0,0,80,83,120,120,43,122.22,99,-13.00,10.00,-1085.00
2024-06-07 00:43:24.771624,0,0,-3,0,0,0,80,83,119,110,43,122.19,99,69.00,-8.00,-997.00
2024-06-07 00:43:24.860515,1,0,-3,0,0,0,80,83,119,110,43,122.15,99,55.00,-1.00,-991.00
2024-06-07 00:43:24.961975,2,0,-3,0,0,0,80,83,119,110,43,122.22,99,-31.00,33.00,-1079.00
2024-06-07 00:43:25.067623,2,0,-3,0,0,0,80,83,118,110,43,122.13,99,-24.00,9.00,-1096.00
2024-06-07 00:43:25.167131,1,0,-3,0,0,0,80,82,118,110,43,122.12,99,-13.00,32.00,-1056.00
2024-06-07 00:43:25.274288,1,0,-3,0,0,0,80,82,119,110,43,122.21,99,-59.00,48.00,-1058.00
2024-06-07 00:43:25.375551,0,0,-3,0,0,0,80,82,119,110,43,122.21,99,-52.00,15.00,-1068.00
2024-06-07 00:43:25.472313,0,0,-3,0,0,0,80,82,120,110,43,122.19,100,6.00,-2.00,-946.00
2024-06-07 00:43:25.581258,0,0,-3,0,0,0,80,82,121,110,43,122.17,100,55.00,-26.00,-952.00
2024-06-07 00:43:25.676445,0,0,-3,0,0,-1,80,82,123,110,43,122.19,100,-11.00,13.00,-930.00
2024-06-07 00:43:25.727034,0,0,-3,0,0,0,80,82,124,110,43,122.21,100,-46.00,17.00,-1060.00
2024-06-07 00:43:25.887070,0,0,-3,0,0,-1,80,82,124,120,43,122.12,100,44.00,-2.00,-1067.00
2024-06-07 00:43:25.931653,0,0,-3,0,0,-1,80,82,126,120,43,122.18,100,10.00,32.00,-956.00
2024-06-07 00:43:26.035251,0,0,-3,0,0,0,80,82,127,120,43,122.24,100,-34.00,-1.00,-1051.00
2024-06-07 00:43:26.134852,-1,-1,-3,0,0,-1,79,82,129,120,43,122.23,100,35.00,-8.00,-985.00
2024-06-07 00:43:26.296524,0,-7,-3,0,0,-1,79,82,131,120,43,122.18,100,90.00,-33.00,-965.00
2024-06-07 00:43:26.339169,0,-7,-3,0,-1,-1,79,82,132,120,43,122.25,100,-37.00,14.00,-990.00
2024-06-07 00:43:26.501651,0,-6,-3,0,-2,0,79,82,131,120,43,122.27,101,26.00,6.00,-1015.00
2024-06-07 00:43:26.542823,0,-5,-3,0,-3,0,79,82,131,120,43,122.28,101,-32.00,23.00,-937.00
2024-06-07 00:43:26.649044,0,-1,-3,0,-3,0,79,82,130,120,43,122.26,101,-3.00,19.00,-1007.00
2024-06-07 00:43:26.747858,0,0,-3,0,-3,0,79,82,131,120,43,122.28,101,8.00,23.00,-953.00
2024-06-07 00:43:26.912037,0,0,-3,0,-2,0,79,82,130,120,43,122.26,101,-9.00,46.00,-1010.00
2024-06-07 00:43:26.952104,0,0,-3,0,-2,0,79,82,129,120,43,122.24,101,-6.00,31.00,-988.00
2024-06-07 00:43:27.055066,0,-1,-3,0,-1,0,79,82,128,120,43,122.19,101,-42.00,43.00,-944.00
2024-06-07 00:43:27.160691,-1,-2,-3,0,-1,0,81,83,127,120,43,122.19,101,-20.00,25.00,-946.00
2024-06-07 00:43:27.259288,-1,-1,-3,0,-2,0,81,83,126,120,43,122.24,101,49.00,5.00,-994.00
2024-06-07 00:43:27.361855,0,-1,-3,0,-2,0,81,83,126,120,43,122.20,101,-6.00,25.00,-1001.00
2024-06-07 00:43:27.464782,0,-1,-3,1,-2,0,81,83,125,120,43,122.20,102,58.00,5.00,-1004.00
2024-06-07 00:43:27.567271,3,0,-3,1,-2,0,81,83,127,120,43,122.22,102,44.00,14.00,-1007.00
2024-06-07 00:43:27.668029,4,0,-3,0,-2,0,81,83,127,120,43,122.24,102,49.00,-5.00,-1094.00
2024-06-07 00:43:27.768109,4,0,-3,0,-2,0,81,83,130,120,43,122.22,102,-31.00,24.00,-1032.00
2024-06-07 00:43:27.934899,2,0,-3,-1,-2,-1,81,83,131,120,43,122.19,102,68.00,19.00,-1068.00
2024-06-07 00:43:27.971765,-1,-1,-3,-1,-1,-1,81,83,132,120,43,122.24,102,11.00,1.00,-931.00
2024-06-07 00:43:28.141045,-2,-2,-3,0,-1,-1,81,83,133,120,43,122.26,102,34.00,22.00,-970.00
2024-06-07 00:43:28.175667,0,-2,-3,0,-2,-1,80,82,133,120,43,122.35,102,8.00,0.00,-982.00
2024-06-07 00:43:28.348390,0,-1,-3,0,-2,0,80,82,134,120,43,122.27,102,32.00,-6.00,-946.00
2024-06-07 00:43:28.379770,0,-1,-3,0,-2,0,80,82,134,120,43,122.31,102,-51.00,3.00,-859.00
2024-06-07 00:43:28.550354,0,-1,-3,0,-1,0,80,82,133,120,43,122.25,103,44.00,14.00,-952.00
2024-06-07 00:43:28.583625,0,0,-3,0,-1,0,80,82,134,120,43,122.29,103,-34.00,19.00,-1122.00
2024-06-07 00:43:28.754731,0,4,-3,0,-1,0,80,82,135,120,43,122.29,103,-42.00,43.00,-1013.00
2024-06-07 00:43:28.788069,0,2,-3,0,0,0,80,82,134,120,43,122.29,103,-14.00,-6.00,-898.00
2024-06-07 00:43:28.889810,-1,0,-3,0,0,0,80,82,134,120,43,122.30,103,57.00,-30.00,-995.00
2024-06-07 00:43:28.940650,0,0,-3,0,0,0,80,82,133,120,43,122.24,103,-9.00,31.00,-984.00
2024-06-07 00:43:29.061027,0,0,-3,0,0,0,80,82,132,120,43,122.27,103,-6.00,-4.00,-875.00
2024-06-07 00:43:29.195893,0,0,-3,0,0,0,80,82,131,120,43,122.22,103,20.00,8.00,-1037.00
2024-06-07 00:43:29.369521,1,0,-3,0,0,0,80,82,130,120,43,122.22,103,24.00,15.00,-1030.00
2024-06-07 00:43:29.401934,0,0,-3,0,0,0,80,82,127,120,43,122.20,103,40.00,11.00,-960.00
2024-06-07 00:43:29.451129,0,0,-3,0,0,0,80,82,125,120,43,122.18,104,43.00,-27.00,-1007.00
2024-06-07 00:43:29.574121,0,-1,-3,0,0,1,80,82,123,120,43,122.21,104,1.00,18.00,-1033.00
2024-06-07 00:43:29.655673,0,-1,-3,0,0,0,80,82,121,120,43,122.13,104,5.00,15.00,-896.00
2024-06-07 00:43:29.778264,0,-1,-3,0,0,0,80,82,120,110,43,122.19,104,70.00,-7.00,-969.00
2024-06-07 00:43:29.860399,0,-1,-3,0,0,0,80,82,119,110,43,122.14,104,5.00,1.00,-968.00
2024-06-07 00:43:29.963163,0,0,-3,0,0,0,80,82,119,110,43,122.14,104,-16.00,-4.00,-1046.00
2024-06-07 00:43:30.063154,0,0,-3,0,0,0,80,82,119,110,43,122.18,104,-38.00,7.00,-937.00
2024-06-07 00:43:30.192502,0,0,-3,0,0,0,80,83,120,110,43,122.13,104,49.00,-23.00,-1013.00
2024-06-07 00:43:30.267010,0,0,-3,0,0,0,80,83,121,110,43,122.15,104,77.00,-28.00,-1067.00
2024-06-07 00:43:30.393401,0,0,-3,0,0,-1,80,83,122,110,43,122.13,104,19.00,-26.00,-1076.00
2024-06-07 00:43:30.473940,0,0,-3,0,0,-1,80,83,125,110,43,122.06,105,-19.00,8.00,-1046.00
2024-06-07 00:43:30.572984,0,0,-3,0,0,-1,80,83,125,110,43,122.14,105,52.00,-15.00,-1045.00
2024-06-07 00:43:30.699419,0,0,-3,0,0,-1,80,83,127,120,43,122.13,105,-14.00,-14.00,-930.00
2024-06-07 00:43:30.776453,0,0,-3,0,0,-1,80,83,128,120,43,122.23,105,15.00,-20.00,-1017.00
2024-06-07 00:43:30.878381,-1,0,-3,0,0,-1,80,83,130,120,43,122.21,105,-22.00,-2.00,-939.00
2024-06-07 00:43:31.007704,0,2,-3,0,0,0,80,83,135,120,43,122.22,105,33.00,1.00,-981.00
2024-06-07 00:43:31.083480,0,8,-3,0,1,-1,80,83,136,120,43,122.19,105,-6.00,-4.00,-984.00
2024-06-07 00:43:31.211574,0,6,-3,0,2,-1,80,82,135,120,43,122.21,105,36.00,-26.00,-1002.00
2024-06-07 00:43:31.286763,0,4,-3,0,3,-1,80,82,135,120,43,122.23,105,-4.00,-14.00,-881.00
2024-06-07 00:43:31.415968,0,1,-3,0,3,-1,80,82,135,120,43,122.26,105,51.00,-33.00,-921.00
2024-06-07 00:43:31.493521,0,0,-3,0,3,0,80,82,135,130,43,122.24,106,0.00,-22.00,-970.00
2024-06-07 00:43:31.592351,1,0,-3,0,3,0,80,82,134,130,43,122.24,106,-27.00,-17.00,-936.00
2024-06-07 00:43:31.723673,2,0,-3,0,2,0,80,82,133,130,43,122.25,106,96.00,-42.00,-1003.00
2024-06-07 00:43:31.796366,1,0,-3,0,2,0,80,82,133,120,43,122.23,106,25.00,-15.00,-1044.00
2024-06-07 00:43:31.927967,2,0,-3,0,2,0,80,82,133,120,43,122.27,106,21.00,-29.00,-1054.00
2024-06-07 00:43:32.002319,1,0,-3,0,2,0,80,82,131,120,43,122.21,106,18.00,-31.00,-1018.00
2024-06-07 00:43:32.102324,0,0,-3,0,3,0,80,82,132,120,43,122.21,106,22.00,-34.00,-1026.00
2024-06-07 00:43:32.235432,-1,0,-3,0,3,0,80,83,132,120,43,122.24,106,-30.00,1.00,-1008.00
2024-06-07 00:43:32.306253,-5,-2,-3,0,2,0,80,83,131,120,43,122.22,106,31.00,-12.00,-963.00
2024-06-07 00:43:32.439937,-4,-5,-3,0,2,0,80,83,130,120,43,122.20,106,67.00,-25.00,-1064.00
2024-06-07 00:43:32.510263,-3,-3,-3,1,1,0,80,83,130,120,43,122.10,107,36.00,-27.00,-925.00
2024-06-07 00:43:32.645505,-2,-2,-3,1,0,0,80,83,129,120,43,122.17,107,-6.00,-15.00,-996.00
2024-06-07 00:43:32.714505,-1,-1,-3,1,0,0,80,83,127,120,43,122.17,107,-14.00,-8.00,-1020.00
2024-06-07 00:43:32.849809,-1,0,-3,1,0,0,80,83,125,120,43,122.11,107,-4.00,-24.00,-942.00
2024-06-07 00:43:32.920867,0,0,-3,1,0,0,80,83,123,120,43,122.12,107,6.00,0.00,-1021.00
2024-06-07 00:43:33.020782,-1,-1,-3,1,0,0,80,83,122,120,43,122.11,107,-53.00,-24.00,-1040.00
2024-06-07 00:43:33.071211,1,-3,-3,1,0,0,80,83,121,120,43,122.10,107,-41.00,11.00,-1062.00
2024-06-07 00:43:33.259618,4,-1,-3,1,-1,0,80,82,120,120,43,122.11,107,86.00,-10.00,-1092.00
2024-06-07 00:43:33.326700,2,2,-3,0,0,0,80,82,118,110,43,122.12,107,5.00,-19.00,-947.00
2024-06-07 00:43:33.377311,1,0,-3,0,0,0,80,82,117,110,43,122.15,107,0.00,26.00,-1057.00
2024-06-07 00:43:33.567172,1,0,-3,0,0,0,80,82,117,110,43,122.11,108,-21.00,29.00,-950.00
2024-06-07 00:43:33.581607,0,0,-3,0,0,0,80,82,117,110,43,122.12,108,-1.00,14.00,-1131.00
2024-06-07 00:43:33.772820,0,0,-3,0,0,0,80,82,119,110,43,122.10,108,-18.00,-9.00,-1082.00
2024-06-07 00:43:33.785247,0,0,-3,0,0,-1,80,82,120,110,43,122.15,108,-17.00,11.00,-1014.00
2024-06-07 00:43:33.975961,0,0,-3,0,0,-1,80,82,121,110,43,122.11,108,6.00,-6.00,-808.00
2024-06-07 00:43:33.989300,0,0,-3,0,0,-1,80,82,123,110,43,122.15,108,25.00,-7.00,-999.00
2024-06-07 00:43:34.091794,0,0,-3,0,0,0,80,82,124,110,43,122.19,108,23.00,-4.00,-950.00
2024-06-07 00:43:34.283976,1,0,-3,0,0,0,81,82,125,120,43,122.17,108,12.00,-2.00,-1006.00
2024-06-07 00:43:34.295599,2,1,-3,0,0,0,81,82,128,120,43,122.19,108,2.00,39.00,-954.00
2024-06-07 00:43:34.488424,1,0,-3,0,0,0,81,82,130,120,43,122.28,109,37.00,-15.00,-1040.00
2024-06-07 00:43:34.499420,1,0,-3,0,0,-1,81,82,133,120,43,122.28,109,33.00,-13.00,-1039.00
2024-06-07 00:43:34.693933,0,0,-3,0,0,-1,81,82,136,120,43,122.28,109,-22.00,9.00,-989.00
2024-06-07 00:43:34.704142,0,0,-3,0,0,-1,81,82,138,120,43,122.31,109,53.00,-4.00,-962.00
2024-06-07 00:43:34.900062,0,0,-3,0,0,-1,81,82,141,130,43,122.36,109,-4.00,32.00,-940.00
2024-06-07 00:43:34.907397,0,0,-3,0,0,-1,81,82,143,130,43,122.31,109,60.00,-2.00,-980.00
2024-06-07 00:43:35.102373,1,0,-3,0,0,0,81,82,145,130,43,122.42,109,32.00,-21.00,-907.00
2024-06-07 00:43:35.111412,1,0,-3,0,0,0,81,82,146,130,43,122.33,109,-50.00,15.00,-950.00
2024-06-07 00:43:35.213195,0,0,-3,0,0,0,80,82,148,130,43,122.35,109,-73.00,13.00,-945.00
2024-06-07 00:43:35.330961,0,0,-3,0,0,0,80,82,148,130,43,122.35,109,-35.00,35.00,-987.00
2024-06-07 00:43:35.417032,0,0,-3,0,0,0,80,82,149,130,43,122.40,110,20.00,-16.00,-956.00
2024-06-07 00:43:35.614621,0,0,1,0,0,0,80,82,149,130,43,122.39,110,34.00,-25.00,-953.00
2024-06-07 00:43:35.620995,1,1,7,0,0,0,80,82,149,130,43,122.42,110,-9.00,-2.00,-930.00
2024-06-07 00:43:35.724705,1,1,13,0,0,0,80,82,149,130,43,122.38,110,2.00,18.00,-1076.00
2024-06-07 00:43:35.825944,0,1,19,0,0,0,80,82,148,130,43,122.36,110,53.00,-6.00,-1040.00
2024-06-07 00:43:36.025191,0,1,25,0,0,0,80,82,146,130,43,122.36,110,23.00,-23.00,-911.00
2024-06-07 00:43:36.029822,0,1,31,0,0,1,80,82,145,130,43,122.30,110,20.00,-10.00,-1000.00
2024-06-07 00:43:36.190992,0,1,37,0,0,0,80,82,145,130,43,122.29,110,96.00,-6.00,-1081.00
2024-06-07 00:43:36.233019,1,1,43,0,0,1,80,82,143,130,43,122.28,110,17.00,12.00,-959.00
2024-06-07 00:43:36.435161,0,1,49,0,0,0,80,82,141,130,43,122.25,110,-38.00,22.00,-1080.00
2024-06-07 00:43:36.437049,0,1,55,0,0,0,80,82,140,130,43,122.32,111,34.00,-3.00,-988.00
2024-06-07 00:43:36.539051,0,1,61,0,0,0,80,82,138,130,43,122.30,111,-13.00,19.00,-1104.00
2024-06-07 00:43:36.640995,0,0,67,0,0,0,80,82,136,120,42,122.25,111,-17.00,19.00,-938.00
2024-06-07 00:43:36.692278,0,0,73,0,0,1,80,82,135,120,42,122.30,111,-3.00,17.00,-938.00
2024-06-07 00:43:36.843269,-1,0,79,0,0,0,80,82,134,120,42,122.21,111,-68.00,27.00,-1106.00
2024-06-07 00:43:36.895963,-1,0,85,0,0,0,80,82,132,120,42,122.19,111,21.00,-28.00,-1133.00
2024-06-07 00:43:37.112059,0,0,91,0,0,0,80,82,132,120,42,122.21,111,-17.00,15.00,-1012.00
2024-06-07 00:43:37.112139,-1,0,97,0,0,0,80,82,130,120,42,122.21,111,-36.00,22.00,-944.00
2024-06-07 00:43:37.205195,-2,0,103,0,0,0,80,83,130,120,42,122.19,111,-39.00,12.00,-1012.00
2024-06-07 00:43:37.368962,-1,0,109,0,0,0,80,83,130,120,42,122.28,111,0.00,20.00,-998.00
2024-06-07 00:43:37.463672,-1,0,115,0,0,0,80,83,131,120,42,122.25,112,24.00,-7.00,-1060.00
2024-06-07 00:43:37.534355,-1,0,122,0,1,0,80,83,132,120,42,122.24,112,-82.00,24.00,-1077.00
2024-06-07 00:43:37.631294,-1,1,128,0,0,0,80,83,134,120,42,122.28,112,-26.00,11.00,-1032.00
2024-06-07 00:43:37.712192,-2,0,134,0,0,0,80,83,136,120,42,122.24,112,41.00,-29.00,-1097.00
2024-06-07 00:43:37.819103,-1,0,140,0,0,-1,80,83,139,120,42,122.25,112,-8.00,8.00,-898.00
2024-06-07 00:43:37.969891,-1,0,146,0,0,-1,80,83,141,120,42,122.27,112,23.00,10.00,-1115.00
2024-06-07 00:43:38.122103,-2,0,152,0,0,0,80,83,144,120,42,122.36,112,24.00,-36.00,-1016.00
2024-06-07 00:43:38.122264,-2,0,158,0,0,0,80,83,147,130,42,122.39,112,-48.00,-12.00,-978.00
2024-06-07 00:43:38.339927,-2,0,163,0,0,0,80,83,151,130,42,122.43,112,44.00,-6.00,-1009.00
2024-06-07 00:43:38.340657,-1,-1,169,0,0,0,80,83,154,130,42,122.39,112,10.00,21.00,-1009.00
2024-06-07 00:43:38.427710,0,-1,175,-1,0,-1,80,83,157,130,42,122.42,113,9.00,12.00,-981.00
2024-06-07 00:43:38.594903,0,-1,-178,-1,0,-1,80,83,159,130,42,122.42,113,11.00,-4.00,-887.00
2024-06-07 00:43:38.738263,0,-1,-172,-1,0,0,80,83,160,140,42,122.46,113,-74.00,36.00,-990.00
2024-06-07 00:43:38.738865,0,0,-166,0,0,0,80,83,160,140,42,122.42,113,33.00,-11.00,-953.00
2024-06-07 00:43:38.902419,0,0,-160,0,1,0,80,83,162,140,42,122.45,113,-17.00,26.00,-1002.00
2024-06-07 00:43:39.045155,0,0,-154,0,1,0,80,83,161,140,42,122.49,113,10.00,-19.00,-1028.00
2024-06-07 00:43:39.045222,0,0,-148,0,0,0,80,83,160,140,42,122.48,113,24.00,13.00,-963.00
2024-06-07 00:43:39.209014,0,0,-142,0,0,0,80,83,159,140,42,122.44,113,15.00,14.00,-947.00
2024-06-07 00:43:39.264887,0,0,-136,0,0,1,80,83,156,140,42,122.46,113,-8.00,3.00,-951.00
2024-06-07 00:43:39.347919,0,0,-129,0,0,1,80,83,155,140,42,122.45,113,-37.00,24.00,-1048.00
2024-06-07 00:43:39.448298,0,0,-123,0,0,1,80,83,154,130,42,122.48,114,54.00,0.00,-1003.00
2024-06-07 00:43:39.548052,0,0,-117,0,0,1,80,83,152,130,42,122.47,114,-32.00,31.00,-1027.00
2024-06-07 00:43:39.710703,0,0,-111,0,0,1,80,83,150,130,41,122.43,114,31.00,-2.00,-983.00
2024-06-07 00:43:39.753387,1,0,-104,0,0,1,80,83,149,130,41,122.46,114,51.00,-5.00,-1069.00
2024-06-07 00:43:39.853738,1,0,-98,0,0,0,80,83,149,130,41,122.41,114,31.00,27.00,-916.00
2024-06-07 00:43:39.955726,1,0,-92,0,0,0,80,83,148,130,41,122.39,114,23.00,0.00,-940.00
2024-06-07 00:43:40.119987,1,0,-85,0,0,0,80,83,148,130,41,122.40,114,-98.00,51.00,-1047.00
2024-06-07 00:43:40.167214,0,0,-79,0,0,0,80,83,147,130,41,122.41,114,3.00,20.00,-1067.00
2024-06-07 00:43:40.262175,0,0,-73,0,0,0,80,83,147,130,41,122.41,114,75.00,-9.00,-1009.00
2024-06-07 00:43:40.427310,0,0,-67,0,0,0,80,83,147,130,41,122.40,114,-21.00,5.00,-983.00
2024-06-07 00:43:40.465624,0,0,-61,0,0,0,80,83,146,130,41,122.44,115,-2.00,25.00,-954.00
2024-06-07 00:43:40.517529,0,0,-54,0,0,0,80,83,146,130,41,122.44,115,0.00,21.00,-1005.00
2024-06-07 00:43:40.631969,0,0,-48,0,0,0,80,83,146,130,41,122.39,115,42.00,-1.00,-1056.00
2024-06-07 00:43:40.722564,0,0,-42,0,0,0,80,83,145,130,41,122.31,115,141.00,-43.00,-983.00
2024-06-07 00:43:40.825307,0,0,-36,0,0,0,80,83,144,130,41,122.38,115,19.00,-10.00,-980.00
2024-06-07 00:43:40.928764,0,0,-29,0,0,0,80,83,143,130,41,122.33,115,26.00,-14.00,-868.00
2024-06-07 00:43:41.026701,0,0,-23,0,0,0,80,83,144,130,41,122.36,115,74.00,-6.00,-1061.00
2024-06-07 00:43:41.144361,0,0,-18,0,0,0,80,83,142,130,41,122.32,115,-16.00,7.00,-962.00
2024-06-07 00:43:41.230581,0,0,-14,0,0,0,80,83,143,130,41,122.30,115,29.00,-9.00,-949.00
2024-06-07 00:43:41.348774,0,0,-11,0,0,0,80,83,142,130,41,122.32,115,42.00,11.00,-1035.00
2024-06-07 00:43:41.446549,0,0,-9,0,0,0,80,83,142,130,41,122.36,116,0.00,17.00,-999.00
2024-06-07 00:43:41.555990,0,0,-7,0,0,0,80,83,141,130,41,122.29,116,31.00,-5.00,-1023.00
2024-06-07 00:43:41.657526,0,0,-6,0,0,0,80,83,142,130,41,122.32,116,-46.00,36.00,-1042.00
2024-06-07 00:43:41.741295,0,0,-5,0,0,0,80,83,140,120,41,122.31,116,-49.00,41.00,-1048.00
2024-06-07 00:43:41.860882,0,0,-4,0,0,0,80,83,141,120,41,122.29,116,8.00,7.00,-1033.00
2024-06-07 00:43:41.946871,0,0,-4,0,0,0,80,83,140,120,41,122.26,116,-48.00,47.00,-1062.00
2024-06-07 00:43:42.065908,0,0,-4,0,0,0,80,83,139,120,41,122.31,116,-74.00,32.00,-1035.00
2024-06-07 00:43:42.149702,0,0,-4,0,0,0,80,83,138,120,41,122.28,116,-15.00,20.00,-974.00
2024-06-07 00:43:42.251598,0,0,-4,0,0,0,80,82,138,120,41,122.30,116,-14.00,6.00,-935.00
2024-06-07 00:43:42.376914,1,1,-4,0,0,0,80,82,137,120,41,122.32,116,-51.00,28.00,-1000.00
2024-06-07 00:43:42.458944,1,0,-4,0,0,0,80,82,137,120,41,122.19,117,46.00,-15.00,-952.00
2024-06-07 00:43:42.557705,1,0,-4,0,0,0,80,82,136,120,41,122.31,117,46.00,-9.00,-1044.00
2024-06-07 00:43:42.683075,1,0,-4,0,0,0,80,82,136,120,41,122.30,117,119.00,-60.00,-988.00
2024-06-07 00:43:42.762211,0,0,-4,0,0,0,80,82,136,120,41,122.33,117,-29.00,22.00,-979.00
2024-06-07 00:43:42.887193,0,0,-4,0,0,0,80,82,135,120,41,122.20,117,-37.00,22.00,-1064.00
2024-06-07 00:43:42.966937,0,0,-4,0,0,0,80,82,134,120,41,122.24,117,-46.00,4.00,-1020.00
2024-06-07 00:43:43.101748,0,0,-4,0,0,0,80,82,134,120,41,122.26,117,17.00,-7.00,-954.00
2024-06-07 00:43:43.171656,0,0,-4,0,0,0,80,82,134,120,41,122.27,117,53.00,-14.00,-1042.00
2024-06-07 00:43:43.271735,0,0,-4,0,0,0,80,83,134,120,41,122.29,117,54.00,-30.00,-931.00
2024-06-07 00:43:43.373625,0,0,-4,0,0,0,80,83,134,120,41,122.29,117,0.00,16.00,-1104.00
2024-06-07 00:43:43.498838,0,0,-4,0,0,0,80,83,134,120,41,122.27,118,-94.00,33.00,-1033.00
2024-06-07 00:43:43.577625,0,0,-4,0,0,0,80,83,134,120,40,122.27,118,2.00,-21.00,-999.00
2024-06-07 00:43:43.703702,0,0,-4,0,0,0,80,83,134,120,40,122.19,118,103.00,-19.00,-955.00
2024-06-07 00:43:43.781468,0,0,-4,0,0,0,80,83,134,120,40,122.23,118,-19.00,9.00,-997.00
2024-06-07 00:43:43.909029,0,0,-4,0,0,0,80,83,133,120,40,122.20,118,17.00,-2.00,-1040.00
2024-06-07 00:43:43.985707,0,0,-9,0,0,0,80,83,133,120,40,122.27,118,-11.00,38.00,-989.00
2024-06-07 00:43:44.036919,0,0,-15,0,0,0,80,83,134,120,40,122.21,118,35.00,-28.00,-979.00
2024-06-07 00:43:44.215450,0,0,-21,0,0,0,80,83,133,120,40,122.19,118,-47.00,32.00,-971.00
2024-06-07 00:43:44.291351,0,0,-27,0,0,0,80,83,133,120,40,122.26,118,-20.00,31.00,-1003.00
2024-06-07 00:43:44.420624,0,0,-33,0,0,0,80,83,134,120,40,122.21,118,-81.00,58.00,-1005.00
2024-06-07 00:43:44.495358,0,0,-39,0,0,0,80,83,133,120,40,122.24,119,33.00,0.00,-1080.00
2024-06-07 00:43:44.546346,0,0,-45,0,0,0,80,83,133,120,40,122.25,119,67.00,-27.00,-908.00
2024-06-07 00:43:44.727436,0,0,-51,0,0,0,80,83,133,120,40,122.30,119,74.00,-27.00,-1071.00
2024-06-07 00:43:44.757198,1,0,-57,0,0,0,80,83,134,120,40,122.22,119,72.00,-13.00,-922.00
2024-06-07 00:43:44.852921,1,0,-63,0,0,0,80,83,132,120,40,122.25,119,23.00,15.00,-947.00
2024-06-07 00:43:45.036506,0,0,-69,0,0,0,80,83,133,120,40,122.25,119,27.00,-1.00,-1057.00
2024-06-07 00:43:45.056824,0,0,-75,0,0,0,80,83,133,120,40,122.18,119,-21.00,37.00,-973.00
2024-06-07 00:43:45.179134,1,0,-80,0,0,0,80,83,133,120,40,122.20,119,60.00,-7.00,-1041.00
2024-06-07 00:43:45.261786,1,0,-86,0,0,0,81,83,133,120,40,122.19,119,-39.00,40.00,-1038.00
2024-06-07 00:43:45.364370,0,0,-93,0,0,0,81,83,133,120,40,122.29,119,50.00,-6.00,-1001.00
2024-06-07 00:43:45.464380,0,0,-99,0,0,0,81,83,133,120,40,122.24,120,-6.00,33.00,-1015.00
2024-06-07 00:43:45.649095,0,0,-105,0,0,0,81,83,134,120,40,122.27,120,89.00,-12.00,-1036.00
2024-06-07 00:43:45.668733,0,0,-111,0,0,0,81,83,134,120,40,122.28,120,-9.00,46.00,-995.00
2024-06-07 00:43:45.770365,1,0,-117,0,0,0,81,83,134,120,40,122.23,120,138.00,-44.00,-973.00
2024-06-07 00:43:45.956316,1,0,-123,0,0,0,81,83,135,120,40,122.19,120,-36.00,36.00,-958.00
2024-06-07 00:43:45.974869,1,0,-129,0,0,0,81,83,134,120,40,122.29,120,70.00,-11.00,-1036.00
2024-06-07 00:43:46.161119,0,0,-135,0,0,0,81,83,136,120,40,122.27,120,-10.00,32.00,-1036.00
2024-06-07 00:43:46.178693,0,0,-141,0,0,0,81,83,135,120,40,122.20,120,10.00,13.00,-1024.00
2024-06-07 00:43:46.366842,0,0,-147,0,0,0,81,83,135,120,40,122.17,120,-71.00,64.00,-1002.00
2024-06-07 00:43:46.382236,0,0,-153,0,0,0,81,83,135,120,40,122.21,120,-49.00,47.00,-955.00
2024-06-07 00:43:46.570713,0,0,-159,0,0,0,81,83,135,120,40,122.18,121,-2.00,12.00,-968.00
2024-06-07 00:43:46.586080,0,0,-165,0,0,0,81,83,135,120,39,122.25,121,0.00,21.00,-1021.00
2024-06-07 00:43:46.775403,0,0,-171,0,0,0,81,83,135,120,39,122.21,121,-46.00,36.00,-1034.00
2024-06-07 00:43:46.794805,0,0,-177,0,0,0,81,83,134,120,39,122.18,121,131.00,-38.00,-992.00
2024-06-07 00:43:46.895702,0,0,176,0,0,0,81,83,134,120,39,122.21,121,15.00,5.00,-1015.00
2024-06-07 00:43:46.994100,0,0,170,0,0,0,81,83,134,120,39,122.21,121,42.00,-6.00,-1004.00
2024-06-07 00:43:47.185375,0,0,164,0,0,0,81,83,134,120,39,122.24,121,13.00,-4.00,-991.00
2024-06-07 00:43:47.198100,0,0,158,0,0,0,81,83,134,120,39,122.20,121,-26.00,-7.00,-1022.00
2024-06-07 00:43:47.391636,0,0,152,0,0,0,80,83,135,120,39,122.23,121,-51.00,24.00,-1021.00
2024-06-07 00:43:47.404715,0,0,146,0,0,0,80,83,135,120,39,122.21,121,31.00,-20.00,-963.00
2024-06-07 00:43:47.504191,0,0,140,0,0,0,80,83,136,120,39,122.26,122,-25.00,23.00,-967.00
2024-06-07 00:43:47.697368,0,0,135,0,0,0,80,83,137,120,39,122.22,122,-31.00,20.00,-959.00
2024-06-07 00:43:47.708526,0,0,129,0,0,0,80,83,138,120,39,122.19,122,-24.00,17.00,-1019.00
2024-06-07 00:43:47.902040,0,0,123,0,0,0,80,83,138,120,39,122.12,122,-60.00,21.00,-1048.00
2024-06-07 00:43:47.912083,0,0,117,0,0,0,80,83,140,120,39,122.18,122,-39.00,30.00,-1104.00
2024-06-07 00:43:48.106585,0,0,111,0,0,0,80,83,141,120,39,122.17,122,75.00,-20.00,-936.00
2024-06-07 00:43:48.107060,0,0,104,0,0,0,80,83,142,120,39,122.21,122,-36.00,2.00,-936.00
2024-06-07 00:43:48.167135,0,0,98,0,0,0,80,83,143,120,39,122.19,122,93.00,-25.00,-1027.00
2024-06-07 00:43:48.320940,0,0,92,0,0,0,81,83,144,120,39,122.26,122,7.00,16.00,-1105.00
2024-06-07 00:43:48.377962,0,0,86,0,0,0,81,83,145,120,39,122.23,122,20.00,-18.00,-1039.00
2024-06-07 00:43:48.473747,0,0,79,0,0,0,81,83,146,130,39,122.28,123,-46.00,14.00,-1046.00
2024-06-07 00:43:48.618596,0,0,73,0,0,0,81,83,146,130,39,122.24,123,-78.00,18.00,-874.00
2024-06-07 00:43:48.677092,0,0,66,0,0,0,81,83,147,130,39,122.25,123,-7.00,-9.00,-1030.00
2024-06-07 00:43:48.779385,-1,0,60,0,0,0,81,83,148,130,39,122.27,123,62.00,-21.00,-973.00
2024-06-07 00:43:48.881331,0,1,54,0,0,0,81,83,148,130,39,122.31,123,0.00,-10.00,-974.00
2024-06-07 00:43:49.028126,0,1,47,0,0,0,81,83,149,130,39,122.31,123,10.00,-15.00,-946.00
2024-06-07 00:43:49.085058,1,0,41,0,0,0,81,83,149,130,39,122.34,123,16.00,-17.00,-991.00
2024-06-07 00:43:49.232974,1,0,34,0,0,0,81,83,150,130,39,122.33,123,-81.00,21.00,-911.00
2024-06-07 00:43:49.289749,1,0,27,0,0,1,81,83,149,130,39,122.31,123,-25.00,4.00,-975.00
2024-06-07 00:43:49.439068,0,0,21,0,0,1,81,83,150,130,39,122.35,123,5.00,4.00,-1013.00
2024-06-07 00:43:49.493099,0,0,15,0,0,0,81,83,150,130,39,122.39,124,3.00,5.00,-1103.00
2024-06-07 00:43:49.642433,0,-1,9,0,0,0,81,83,153,130,38,122.39,124,-2.00,23.00,-905.00
2024-06-07 00:43:49.697008,0,0,5,0,0,0,81,83,155,130,38,122.38,124,36.00,-7.00,-1087.00
2024-06-07 00:43:49.800033,0,0,2,0,0,0,81,83,157,130,38,122.39,124,47.00,5.00,-977.00
2024-06-07 00:43:49.949930,0,0,0,0,0,0,81,83,159,130,38,122.42,124,50.00,2.00,-939.00
2024-06-07 00:43:50.004259,1,0,-1,0,0,0,81,83,161,130,38,122.39,124,-30.00,36.00,-976.00
2024-06-07 00:43:50.107372,1,0,-2,0,0,0,81,83,162,130,38,122.46,124,0.00,13.00,-1010.00
2024-06-07 00:43:50.218300,0,0,-3,0,0,0,81,83,162,130,38,122.45,124,9.00,-1.00,-882.00
2024-06-07 00:43:50.311692,0,0,-4,0,0,0,81,82,163,140,38,122.47,124,70.00,18.00,-970.00
2024-06-07 00:43:50.412745,0,0,-4,0,0,0,81,82,164,140,38,122.46,125,21.00,28.00,-983.00
2024-06-07 00:43:50.513085,0,0,-4,0,0,0,81,82,163,140,38,122.40,125,-19.00,13.00,-978.00
2024-06-07 00:43:50.655089,0,0,-4,0,0,0,81,82,164,140,38,122.41,125,8.00,1.00,-940.00
2024-06-07 00:43:50.717447,0,0,-4,0,0,0,81,82,163,140,38,122.45,125,-45.00,26.00,-962.00
2024-06-07 00:43:50.871431,0,0,-4,0,0,1,81,82,161,140,38,122.40,125,-18.00,-9.00,-951.00
2024-06-07 00:43:50.921054,0,0,-4,0,0,1,81,82,160,140,38,122.40,125,32.00,0.00,-958.00
2024-06-07 00:43:51.078033,0,0,-4,0,0,1,81,82,159,140,38,122.37,125,0.00,4.00,-1068.00
2024-06-07 00:43:51.125313,0,-1,-4,0,0,1,81,82,159,130,38,122.35,125,5.00,0.00,-989.00
2024-06-07 00:43:51.227932,0,-1,-4,0,0,0,81,82,159,130,38,122.32,125,5.00,-11.00,-1038.00
2024-06-07 00:43:51.383776,0,0,-4,0,0,1,80,83,156,130,38,122.33,125,-15.00,32.00,-980.00
2024-06-07 00:43:51.432201,0,0,-4,0,0,0,80,83,156,130,38,122.34,126,-23.00,5.00,-1019.00
2024-06-07 00:43:51.588438,0,0,-4,0,0,0,80,83,155,130,38,122.35,126,10.00,-6.00,-977.00
2024-06-07 00:43:51.635516,0,0,-4,0,0,0,80,83,153,130,38,122.32,126,-6.00,23.00,-958.00
2024-06-07 00:43:51.793028,0,-1,-4,0,0,0,80,83,153,130,38,122.32,126,4.00,-5.00,-987.00
2024-06-07 00:43:51.793512,0,-1,-4,0,0,0,80,83,151,130,38,122.32,126,14.00,40.00,-975.00
2024-06-07 00:43:51.889861,0,-1,-4,0,0,0,80,83,149,130,38,122.28,126,33.00,-35.00,-1000.00
2024-06-07 00:43:51.998317,0,0,-4,0,0,1,80,83,149,130,38,122.30,126,0.00,27.00,-955.00
2024-06-07 00:43:52.118996,0,0,-4,0,0,0,80,83,147,130,38,122.29,126,44.00,-37.00,-1048.00
2024-06-07 00:43:52.261306,0,0,-4,0,0,0,80,83,146,130,38,122.33,126,-7.00,34.00,-1036.00
2024-06-07 00:43:52.297885,0,0,-4,0,0,0,80,82,145,130,38,122.28,126,24.00,-24.00,-971.00
2024-06-07 00:43:52.448205,0,0,-4,0,0,0,80,82,144,130,38,122.22,127,32.00,-2.00,-1023.00
2024-06-07 00:43:52.546860,0,0,-4,0,0,0,80,82,143,130,38,122.25,127,49.00,5.00,-1055.00
2024-06-07 00:43:52.605617,0,-1,-4,0,0,0,80,82,142,130,38,122.25,127,40.00,-1.00,-1001.00
2024-06-07 00:43:52.732588,0,0,-4,0,0,0,80,82,141,130,38,122.22,127,-47.00,27.00,-994.00
2024-06-07 00:43:52.807934,0,0,-4,0,0,0,80,82,141,120,38,122.28,127,-28.00,28.00,-1053.00
2024-06-07 00:43:52.915681,0,-1,-4,0,0,0,80,82,140,120,38,122.19,127,-45.00,17.00,-984.00
2024-06-07 00:43:53.068473,0,-1,-4,0,0,0,80,82,139,120,38,122.18,127,-63.00,17.00,-962.00
2024-06-07 00:43:53.129600,0,-1,-4,0,0,0,80,82,137,120,38,122.18,127,11.00,14.00,-998.00
2024-06-07 00:43:53.216154,0,-1,-4,0,0,0,80,82,136,120,38,122.20,127,-16.00,50.00,-857.00
2024-06-07 00:43:53.343209,0,-1,-4,0,0,0,80,83,134,120,38,122.18,127,-55.00,15.00,-958.00
2024-06-07 00:43:53.483414,-1,-1,-4,0,0,1,80,83,133,120,38,122.16,128,77.00,-6.00,-1045.00
2024-06-07 00:43:53.522150,0,0,-4,0,0,0,80,83,132,120,38,122.12,128,-7.00,17.00,-1083.00
2024-06-07 00:43:53.646957,0,-1,-4,0,0,0,80,83,132,120,38,122.16,128,-22.00,14.00,-1008.00
2024-06-07 00:43:53.790177,0,-1,-4,0,0,0,80,83,132,120,38,122.13,128,-2.00,31.00,-1022.00
2024-06-07 00:43:53.827752,0,0,-4,0,0,0,80,83,132,120,38,122.17,128,22.00,-8.00,-966.00
2024-06-07 00:43:53.954444,0,0,-4,0,0,0,80,83,134,120,38,122.21,128,29.00,-22.00,-1087.00
2024-06-07 00:43:54.108388,1,0,-4,0,-1,0,80,83,136,120,38,122.21,128,-7.00,26.00,-955.00
2024-06-07 00:43:54.134020,1,0,-4,0,0,0,80,83,138,120,38,122.15,128,53.00,-6.00,-1025.00
2024-06-07 00:43:54.235883,1,0,-4,0,0,-1,80,83,139,120,38,122.11,128,60.00,3.00,-986.00
2024-06-07 00:43:54.353167,0,0,-4,0,0,0,81,83,140,120,38,122.23,128,-55.00,23.00,-946.00
2024-06-07 00:43:54.440411,0,-1,-4,0,0,0,81,83,141,120,38,122.18,129,85.00,-23.00,-1040.00
2024-06-07 00:43:54.557994,0,-1,-4,0,0,0,81,83,142,120,38,122.19,129,-11.00,30.00,-987.00
2024-06-07 00:43:54.643917,0,-1,-4,0,0,0,81,83,143,120,37,122.27,129,-13.00,-1.00,-961.00
2024-06-07 00:43:54.762465,0,-1,-4,0,0,0,81,83,144,130,37,122.14,129,-17.00,24.00,-961.00
2024-06-07 00:43:54.848715,0,-1,-4,0,0,0,81,83,145,130,37,122.22,129,-9.00,3.00,-976.00
2024-06-07 00:43:54.967229,-1,-1,-4,0,0,0,81,83,146,130,37,122.26,129,69.00,-20.00,-983.00
2024-06-07 00:43:55.052644,-2,-1,-4,0,0,0,81,83,146,130,37,122.16,129,-4.00,0.00,-935.00
2024-06-07 00:43:55.154976,0,0,-4,0,0,0,81,83,146,130,37,122.23,129,0.00,12.00,-1059.00
2024-06-07 00:43:55.277136,0,-1,-4,0,0,0,81,83,144,130,37,122.23,129,-76.00,17.00,-838.00
2024-06-07 00:43:55.358798,0,-1,-4,0,0,0,81,83,146,130,37,122.18,129,23.00,9.00,-1059.00
2024-06-07 00:43:55.479223,0,-1,-4,0,0,0,81,83,144,130,37,122.21,130,-40.00,-12.00,-970.00
2024-06-07 00:43:55.562909,0,0,-4,0,0,0,81,83,143,130,37,122.14,130,-64.00,16.00,-1020.00
2024-06-07 00:43:55.613715,0,0,-4,0,0,0,81,83,143,130,37,122.17,130,12.00,4.00,-921.00
2024-06-07 00:43:55.787725,0,0,-4,0,0,1,81,83,141,130,37,122.15,130,31.00,-7.00,-1031.00
2024-06-07 00:43:55.822097,0,0,-4,0,0,0,81,83,139,130,37,122.18,130,47.00,-6.00,-1043.00
2024-06-07 00:43:55.920644,0,0,-4,0,0,0,81,83,137,130,37,122.18,130,15.00,7.00,-973.00
2024-06-07 00:43:56.094165,0,0,-4,0,0,1,81,83,136,120,37,122.13,130,20.00,34.00,-979.00
2024-06-07 00:43:56.124621,0,0,-4,0,0,0,81,83,135,120,37,122.09,130,5.00,-10.00,-1014.00
2024-06-07 00:43:56.299409,0,0,-4,0,0,0,81,83,134,120,37,122.10,130,-12.00,22.00,-1037.00
2024-06-07 00:43:56.328584,0,0,-4,0,0,0,81,83,133,120,37,122.10,130,11.00,-22.00,-1012.00
2024-06-07 00:43:56.503172,0,0,-4,0,0,0,81,83,132,120,37,122.08,131,-19.00,34.00,-960.00
2024-06-07 00:43:56.532553,0,0,-4,0,0,0,81,83,133,120,37,122.11,131,-23.00,38.00,-1046.00
2024-06-07 00:43:56.708499,0,0,-4,0,0,0,81,83,133,120,37,122.13,131,23.00,-7.00,-984.00
2024-06-07 00:43:56.736552,0,0,-4,0,0,0,81,83,132,120,37,122.09,131,-59.00,8.00,-984.00
2024-06-07 00:43:56.913543,0,0,-4,0,0,0,81,83,132,120,37,122.11,131,91.00,-3.00,-1104.00
2024-06-07 00:43:56.940552,0,0,-4,0,0,0,81,83,133,120,37,122.08,131,7.00,6.00,-1020.00
2024-06-07 00:43:57.118041,0,0,-4,0,0,0,81,83,132,120,37,122.07,131,13.00,-6.00,-992.00
2024-06-07 00:43:57.144470,0,0,-4,0,0,0,81,83,133,120,37,122.08,131,7.00,-20.00,-1013.00
2024-06-07 00:43:57.247116,0,0,-4,0,0,0,81,83,133,120,37,122.15,131,0.00,10.00,-1053.00
2024-06-07 00:43:57.425157,0,0,-4,0,0,0,80,83,133,120,37,122.04,131,-2.00,18.00,-956.00
2024-06-07 00:43:57.450512,0,0,-4,0,0,0,80,83,133,120,37,122.08,132,65.00,-39.00,-1083.00
2024-06-07 00:43:57.630141,1,-1,-4,0,0,0,80,83,134,120,37,122.06,132,53.00,27.00,-1013.00
2024-06-07 00:43:57.654443,0,0,-4,0,0,0,80,83,136,120,37,122.11,132,9.00,0.00,-1006.00
2024-06-07 00:43:57.834892,0,0,-4,0,0,0,80,83,136,120,37,122.08,132,55.00,16.00,-996.00
2024-06-07 00:43:57.858738,0,0,-4,0,0,0,80,83,137,120,37,122.10,132,-29.00,18.00,-987.00
2024-06-07 00:43:58.039538,0,0,-4,0,0,0,80,83,136,120,37,122.02,132,34.00,47.00,-993.00
2024-06-07 00:43:58.062363,0,-1,-4,0,0,0,80,83,136,120,37,122.03,132,-31.00,21.00,-831.00
2024-06-07 00:43:58.164601,0,0,-4,0,0,0,80,83,137,120,37,122.03,132,-18.00,-2.00,-1040.00
2024-06-07 00:43:58.347015,0,-1,-4,0,0,0,80,83,137,120,37,122.06,132,4.00,26.00,-1005.00
2024-06-07 00:43:58.369282,0,-1,-4,0,0,0,79,82,137,120,37,122.02,132,-32.00,-17.00,-927.00
2024-06-07 00:43:58.551139,0,-1,-4,0,0,0,79,82,137,120,37,122.06,133,16.00,28.00,-966.00
2024-06-07 00:43:58.573552,0,-1,-4,0,0,0,79,82,137,120,36,122.04,133,9.00,3.00,-992.00
2024-06-07 00:43:58.756156,0,0,-4,0,0,0,79,82,137,120,36,122.08,133,1.00,-8.00,-973.00
2024-06-07 00:43:58.778277,0,0,-4,0,0,0,79,82,138,120,36,122.12,133,12.00,1.00,-913.00
2024-06-07 00:43:58.878727,0,0,-4,0,0,0,79,82,136,120,36,122.08,133,0.00,27.00,-1114.00
2024-06-07 00:43:58.933342,0,0,-4,0,0,0,79,82,137,120,36,122.06,133,-20.00,-1.00,-985.00
2024-06-07 00:43:59.031682,0,0,-4,0,0,0,79,82,136,120,36,122.12,133,-39.00,28.00,-1031.00
2024-06-07 00:43:59.170047,0,0,-4,0,0,0,79,82,138,120,36,122.08,133,22.00,-20.00,-1020.00
2024-06-07 00:43:59.237111,0,0,-4,0,0,0,79,82,138,120,36,122.12,133,4.00,4.00,-1043.00
2024-06-07 00:43:59.371048,0,0,-4,0,0,0,80,82,137,120,36,122.10,133,7.00,-17.00,-963.00
2024-06-07 00:43:59.441725,0,0,-4,0,0,0,80,82,140,120,36,122.10,134,-37.00,21.00,-1062.00
2024-06-07 00:43:59.541944,0,0,-4,0,0,0,80,82,138,120,36,122.16,134,-13.00,35.00,-972.00
2024-06-07 00:43:59.677859,0,0,-4,0,0,0,80,82,137,120,36,122.05,134,-7.00,7.00,-924.00
2024-06-07 00:43:59.747086,0,0,-4,0,0,0,80,82,137,120,36,122.10,134,2.00,0.00,-1065.00
2024-06-07 00:43:59.847604,0,-1,-4,0,0,0,80,82,138,120,36,122.16,134,-27.00,-21.00,-995.00
2024-06-07 00:43:59.984935,0,0,-4,0,0,0,80,82,138,120,36,122.09,134,-3.00,46.00,-1041.00
2024-06-07 00:44:00.051278,0,0,-4,0,0,0,80,82,138,120,36,122.13,134,45.00,15.00,-951.00
2024-06-07 00:44:00.187139,0,-1,-4,0,0,0,80,82,138,120,36,122.19,134,3.00,-11.00,-940.00
2024-06-07 00:44:00.257098,1,-1,-4,0,0,0,80,82,138,120,36,122.12,134,-3.00,9.00,-948.00
2024-06-07 00:44:00.357975,0,0,-4,0,0,0,80,82,138,120,36,122.14,134,-68.00,31.00,-994.00
2024-06-07 00:44:00.496652,0,-1,-4,0,0,0,80,82,137,120,36,122.14,135,-28.00,18.00,-1097.00
2024-06-07 00:44:00.562055,0,0,-4,0,0,0,80,82,138,120,36,122.12,135,-34.00,17.00,-978.00
2024-06-07 00:44:00.702898,0,0,-4,0,0,0,80,82,138,120,36,122.12,135,-46.00,30.00,-1063.00
2024-06-07 00:44:00.774712,0,0,-4,0,0,0,80,82,138,120,36,122.17,135,-55.00,24.00,-909.00
2024-06-07 00:44:00.870814,-1,0,-4,0,0,0,80,82,140,120,36,122.19,135,39.00,4.00,-1021.00
2024-06-07 00:44:00.970152,-1,0,-4,0,0,0,80,82,140,120,36,122.12,135,-79.00,48.00,-893.00
2024-06-07 00:44:01.112079,0,0,-4,0,0,0,80,82,142,120,36,122.16,135,-48.00,31.00,-1032.00
2024-06-07 00:44:01.174027,-1,-1,-4,0,0,0,80,82,144,120,36,122.16,135,-19.00,22.00,-905.00
2024-06-07 00:44:01.316167,-1,0,-4,0,0,0,80,82,147,120,36,122.19,135,-20.00,18.00,-963.00
2024-06-07 00:44:01.387289,0,0,-4,0,0,0,81,82,149,120,36,122.24,135,-4.00,-8.00,-1098.00
2024-06-07 00:44:01.480155,0,0,-4,0,0,-1,81,82,152,130,36,122.21,136,43.00,-19.00,-947.00
2024-06-07 00:44:01.627172,1,0,-4,0,0,-1,81,82,155,130,35,122.26,136,24.00,3.00,-1077.00
2024-06-07 00:44:01.684259,1,0,-4,0,0,-1,81,82,160,130,35,122.29,136,34.00,0.00,-965.00
2024-06-07 00:44:01.786933,1,0,-4,0,0,-1,81,82,162,130,35,122.26,136,1.00,0.00,-954.00
2024-06-07 00:44:01.918841,1,-1,-4,0,0,-1,81,82,164,140,35,122.35,136,-46.00,25.00,-1016.00
2024-06-07 00:44:01.991409,0,-1,-4,0,0,0,81,82,165,140,35,122.33,136,38.00,15.00,-980.00
2024-06-07 00:44:02.135147,0,-1,-4,0,0,0,81,82,166,140,35,122.38,136,-7.00,-30.00,-1048.00
2024-06-07 00:44:02.194046,0,-1,-4,0,0,0,81,82,167,140,35,122.35,136,12.00,8.00,-930.00
2024-06-07 00:44:02.339944,0,-1,-4,0,0,0,81,82,167,140,35,122.25,136,-20.00,-7.00,-1006.00
2024-06-07 00:44:02.398087,0,-1,-4,0,0,0,80,83,167,140,35,122.28,136,47.00,8.00,-981.00
2024-06-07 00:44:02.544528,0,-1,-4,0,0,1,80,83,165,140,35,122.28,137,22.00,9.00,-973.00
2024-06-07 00:44:02.608883,0,-1,-4,0,0,1,80,83,165,140,35,122.28,137,-4.00,-12.00,-1039.00
2024-06-07 00:44:02.704355,0,-1,-4,0,0,1,80,83,163,140,35,122.32,137,-66.00,-14.00,-1012.00
2024-06-07 00:44:02.756997,0,-2,-4,0,0,1,80,83,161,140,35,122.29,137,-1.00,-13.00,-942.00
2024-06-07 00:44:02.858776,0,-1,-4,0,0,1,80,83,161,140,35,122.26,137,-13.00,12.00,-1112.00
2024-06-07 00:44:03.058105,0,-1,-4,0,0,1,80,83,159,140,35,122.26,137,45.00,1.00,-990.00
2024-06-07 00:44:03.062971,0,-1,-4,0,0,1,80,83,159,130,35,122.25,137,-29.00,30.00,-974.00
2024-06-07 00:44:03.164064,0,-1,-4,0,0,1,80,83,156,130,35,122.26,137,-6.00,26.00,-1021.00
2024-06-07 00:44:03.266387,-1,-1,-4,0,0,1,80,83,155,130,35,122.23,137,-39.00,4.00,-1032.00
2024-06-07 00:44:03.466073,0,-1,-4,0,0,1,80,83,154,130,35,122.21,137,50.00,2.00,-1037.00
2024-06-07 00:44:03.469987,0,-1,-4,0,0,0,80,83,152,130,35,122.21,138,38.00,-4.00,-1003.00
2024-06-07 00:44:03.670914,0,-1,-4,0,0,1,80,83,151,130,35,122.16,138,5.00,3.00,-990.00
2024-06-07 00:44:03.674232,0,-1,-4,0,0,0,80,83,150,130,35,122.22,138,29.00,-19.00,-967.00
2024-06-07 00:44:03.777004,0,-1,-4,0,0,0,80,83,150,130,35,122.13,138,42.00,-11.00,-1020.00
2024-06-07 00:44:03.978171,0,-1,-4,0,0,0,80,83,148,130,35,122.16,138,19.00,6.00,-1026.00
2024-06-07 00:44:03.981353,0,-1,-4,0,0,0,80,83,147,130,35,122.09,138,13.00,-5.00,-1000.00
2024-06-07 00:44:04.082944,0,-1,-4,0,0,0,80,83,146,130,35,122.11,138,-22.00,27.00,-1027.00
2024-06-07 00:44:04.184849,0,-1,-4,0,0,0,80,83,146,130,35,122.11,138,-19.00,22.00,-1036.00
2024-06-07 00:44:04.286938,0,-1,-4,0,0,0,80,83,145,130,35,122.04,138,-23.00,-19.00,-1022.00
2024-06-07 00:44:04.489940,0,-1,-4,0,0,0,81,83,144,130,35,122.06,138,-7.00,16.00,-1034.00
2024-06-07 00:44:04.491859,0,-1,-4,0,0,0,81,83,143,130,35,122.05,139,38.00,21.00,-1006.00
2024-06-07 00:44:04.696581,0,-1,-4,0,0,0,81,83,144,130,35,122.09,139,14.00,-9.00,-965.00
2024-06-07 00:44:04.697413,0,-1,-4,0,0,0,81,83,142,130,35,122.04,139,-8.00,-4.00,-999.00
2024-06-07 00:44:04.797177,0,-1,-4,0,0,0,81,83,142,130,35,122.08,139,36.00,-4.00,-892.00
2024-06-07 00:44:04.899922,0,-1,-4,0,0,1,81,83,139,120,35,122.02,139,50.00,-2.00,-895.00
2024-06-07 00:44:05.002084,0,-1,-4,0,0,2,81,83,137,120,35,122.01,139,-17.00,2.00,-911.00
2024-06-07 00:44:05.105296,0,-1,-4,0,0,3,81,83,135,120,35,121.99,139,-8.00,3.00,-964.00
2024-06-07 00:44:05.207662,0,-1,-4,0,0,3,81,83,131,120,35,121.98,139,-20.00,42.00,-915.00
2024-06-07 00:44:05.306827,0,-1,-4,0,0,4,81,83,126,110,35,121.87,139,12.00,0.00,-956.00
2024-06-07 00:44:05.412229,0,-1,-4,0,0,5,81,83,120,110,35,121.91,139,51.00,-35.00,-842.00
2024-06-07 00:44:05.511178,0,0,-4,0,0,6,81,83,113,100,35,121.83,140,3.00,2.00,-845.00
2024-06-07 00:44:05.617631,0,0,-4,0,0,7,81,83,105,100,35,121.74,140,-61.00,7.00,-943.00
2024-06-07 00:44:05.715023,0,0,-4,0,0,8,81,83,97,90,35,121.69,140,9.00,9.00,-1083.00
