TS,pitch,roll,yaw,vgx,vgy,vgz,templ,temph,tof,h,bat,baro,time,agx,agy,agz
2024-06-07 00:44:30.908376,0,0,-2,0,0,0,82,85,10,0,34,120.26,142,1.00,1.00,-1001.00
2024-06-07 00:44:31.010746,0,0,-2,0,0,0,82,85,10,0,34,120.25,142,1.00,3.00,-997.00
2024-06-07 00:44:31.113434,0,0,-2,0,0,0,82,85,10,0,34,120.28,142,1.00,2.00,-999.00
2024-06-07 00:44:31.215428,0,0,-2,0,0,0,82,85,10,0,34,120.27,142,2.00,1.00,-1000.00
2024-06-07 00:44:31.315824,0,0,-2,0,0,0,82,85,10,0,34,120.28,142,2.00,2.00,-1000.00
2024-06-07 00:44:31.417645,0,0,-2,0,0,0,82,85,10,0,34,120.25,142,2.00,2.00,-999.00
2024-06-07 00:44:31.523500,0,0,-2,0,0,0,83,84,10,0,34,120.26,142,2.00,3.00,-999.00
2024-06-07 00:44:31.622123,0,0,-2,0,0,0,83,84,10,0,34,120.30,142,1.00,3.00,-998.00
2024-06-07 00:44:31.727220,0,0,-2,0,0,0,83,84,10,0,34,120.23,142,2.00,2.00,-999.00
2024-06-07 00:44:31.826405,0,0,-2,0,0,0,83,84,10,0,34,120.27,142,2.00,3.00,-1001.00
2024-06-07 00:44:31.927907,0,0,-2,0,0,0,83,84,10,0,34,120.26,142,1.00,4.00,-997.00
2024-06-07 00:44:32.034878,0,0,-2,0,0,0,83,84,10,0,34,120.27,142,1.00,2.00,-998.00
2024-06-07 00:44:32.131676,0,0,-2,0,0,0,83,84,10,0,34,120.27,142,1.00,3.00,-998.00
2024-06-07 00:44:32.250016,0,0,-2,0,0,0,83,84,10,0,34,120.28,142,2.00,3.00,-1003.00
2024-06-07 00:44:32.335793,0,0,-2,0,0,0,83,84,10,0,34,120.29,142,1.00,3.00,-1000.00
2024-06-07 00:44:32.444901,0,0,-2,0,0,0,83,84,10,0,34,120.31,142,3.00,3.00,-1000.00
2024-06-07 00:44:32.539747,0,0,-2,0,0,0,83,85,10,0,34,120.29,142,4.00,3.00,-999.00
2024-06-07 00:44:32.650218,0,0,-2,0,0,0,83,85,10,0,34,120.29,142,2.00,2.00,-1002.00
2024-06-07 00:44:32.743977,0,0,-2,0,0,0,83,85,10,0,34,120.29,142,2.00,1.00,-1000.00
2024-06-07 00:44:32.854445,0,0,-2,0,0,0,83,85,10,0,34,120.28,142,2.00,1.00,-1000.00
2024-06-07 00:44:32.948777,0,0,-2,0,0,0,83,85,10,0,34,120.28,142,0.00,0.00,-997.00
2024-06-07 00:44:33.058620,0,0,-2,0,0,0,83,85,10,0,34,120.25,142,0.00,3.00,-998.00
2024-06-07 00:44:33.152723,0,0,-2,0,0,0,83,85,10,0,34,120.27,142,2.00,3.00,-997.00
2024-06-07 00:44:33.263408,0,0,-2,0,0,0,83,85,10,0,34,120.25,142,2.00,1.00,-1000.00
2024-06-07 00:44:33.357411,0,0,-2,0,0,0,83,85,10,0,34,120.27,142,0.00,1.00,-997.00
2024-06-07 00:44:33.407604,0,0,-2,0,0,0,83,85,10,0,34,120.33,142,1.00,2.00,-1000.00
2024-06-07 00:44:33.571062,0,0,-2,0,0,0,83,86,10,0,34,120.30,142,1.00,3.00,-1000.00
2024-06-07 00:44:33.611927,0,0,-2,0,0,0,83,86,10,0,34,120.34,142,1.00,2.00,-1000.00
2024-06-07 00:44:33.714412,0,0,-2,0,0,0,83,86,10,0,34,120.30,142,-5.00,5.00,-999.00
2024-06-07 00:44:33.815445,0,0,-2,0,0,0,83,86,10,0,34,120.30,142,8.00,-4.00,-999.00
2024-06-07 00:44:33.918756,0,0,-2,0,0,0,83,86,10,0,34,120.30,142,6.00,3.00,-989.00
2024-06-07 00:44:34.082344,0,0,-2,0,0,0,83,86,10,0,34,120.30,142,-4.00,15.00,-987.00
2024-06-07 00:44:34.122390,0,0,-2,0,0,0,83,86,10,0,34,120.30,142,-21.00,1.00,-1002.00
2024-06-07 00:44:34.287460,0,2,-3,0,0,0,83,86,10,0,34,120.30,142,5.00,0.00,-1074.00
2024-06-07 00:44:34.325794,-3,5,-4,0,0,-1,83,86,10,0,34,120.30,142,-19.00,7.00,-1152.00
2024-06-07 00:44:34.493124,-4,6,-4,1,2,-3,83,86,10,0,34,120.30,142,-16.00,12.00,-1261.00
2024-06-07 00:44:34.529511,0,3,-3,2,3,-6,83,85,15,0,34,120.36,142,-19.00,29.00,-1170.00
2024-06-07 00:44:34.696736,3,-4,-4,2,3,-7,83,85,21,10,34,120.82,142,-23.00,-33.00,-1054.00
2024-06-07 00:44:34.733432,6,-10,-4,1,2,-7,83,85,25,20,34,120.94,143,2.00,-41.00,-1042.00
2024-06-07 00:44:34.901582,3,-6,-4,0,0,-7,83,85,33,20,34,120.97,143,22.00,8.00,-991.00
2024-06-07 00:44:34.937453,1,-3,-3,0,0,-7,83,85,42,30,34,121.01,143,-14.00,28.00,-889.00
2024-06-07 00:44:35.106615,0,-2,-3,0,0,-6,83,85,49,40,34,121.05,143,-51.00,45.00,-927.00
2024-06-07 00:44:35.141335,0,-1,-3,0,0,-5,83,85,56,40,34,121.15,143,75.00,-25.00,-883.00
2024-06-07 00:44:35.243312,0,-1,-3,0,-1,-4,83,85,62,50,34,121.15,143,-15.00,6.00,-918.00
2024-06-07 00:44:35.345426,1,0,-3,0,-1,-3,83,85,68,50,34,121.24,143,6.00,19.00,-922.00
2024-06-07 00:44:35.517451,0,0,-3,0,-1,-3,83,85,72,50,34,121.35,143,-15.00,0.00,-887.00
2024-06-07 00:44:35.549335,0,0,-3,0,-1,-2,84,86,75,60,34,121.45,143,22.00,-18.00,-896.00
2024-06-07 00:44:35.720684,0,0,-3,0,-1,-1,84,86,78,60,34,121.41,143,-1.00,30.00,-921.00
2024-06-07 00:44:35.753272,0,0,-3,0,0,-1,84,86,79,60,34,121.47,144,87.00,3.00,-957.00
2024-06-07 00:44:35.925822,0,0,-3,0,0,0,84,86,81,60,34,121.44,144,54.00,24.00,-970.00
2024-06-07 00:44:35.958785,0,0,-3,0,0,0,84,86,81,60,34,121.47,144,8.00,27.00,-1058.00
2024-06-07 00:44:36.130381,0,0,-3,0,0,0,84,86,83,60,34,121.44,144,9.00,1.00,-932.00
2024-06-07 00:44:36.161252,0,0,-3,0,0,0,84,86,83,70,34,121.45,144,54.00,-2.00,-933.00
2024-06-07 00:44:36.338417,0,0,-3,0,0,0,84,86,84,70,34,121.45,144,-4.00,-23.00,-1007.00
2024-06-07 00:44:36.365195,0,0,-3,0,0,0,84,86,85,70,34,121.49,144,-4.00,2.00,-957.00
2024-06-07 00:44:36.539852,0,0,-3,0,0,0,84,86,86,70,34,121.51,144,51.00,-3.00,-1005.00
2024-06-07 00:44:36.569283,0,0,-3,0,0,0,83,86,87,70,34,121.56,144,-38.00,28.00,-1084.00
2024-06-07 00:44:36.750548,0,0,-3,0,0,0,83,86,89,70,34,121.57,144,-58.00,9.00,-937.00
2024-06-07 00:44:36.773259,0,0,-3,0,0,0,83,86,91,70,34,121.56,145,-39.00,18.00,-1055.00
2024-06-07 00:44:36.878585,-1,0,-3,0,0,0,83,86,93,70,34,121.57,145,-34.00,21.00,-1025.00
2024-06-07 00:44:36.977878,0,0,-3,0,0,0,83,86,95,70,34,121.58,145,14.00,-16.00,-1004.00
2024-06-07 00:44:37.107641,0,-1,-3,0,0,0,83,86,96,80,34,121.55,145,30.00,-3.00,-908.00
2024-06-07 00:44:37.130857,1,0,-3,0,0,0,83,86,98,80,34,121.62,145,98.00,10.00,-986.00
2024-06-07 00:44:37.289304,1,0,-3,0,0,0,83,86,98,80,34,121.61,145,38.00,-2.00,-1055.00
2024-06-07 00:44:37.352454,2,-1,-3,0,0,0,83,86,98,80,34,121.59,145,-65.00,10.00,-1029.00
2024-06-07 00:44:37.450111,1,0,-3,0,0,0,83,86,97,80,34,121.58,145,41.00,9.00,-955.00
2024-06-07 00:44:37.538834,1,0,-3,0,0,0,84,85,96,80,34,121.55,145,22.00,-21.00,-1045.00
2024-06-07 00:44:37.769621,2,0,-3,0,0,0,84,85,95,80,34,121.58,145,57.00,-19.00,-937.00
2024-06-07 00:44:37.776462,2,0,-3,0,0,1,84,85,93,80,34,121.54,146,86.00,-9.00,-977.00
2024-06-07 00:44:37.844260,3,0,-3,0,0,1,84,85,90,80,34,121.53,146,-79.00,34.00,-978.00
2024-06-07 00:44:37.979899,0,0,-3,-1,0,1,84,85,87,80,34,121.52,146,0.00,19.00,-889.00
2024-06-07 00:44:38.048696,-1,0,-3,-1,0,1,84,85,85,70,34,121.50,146,-52.00,39.00,-978.00
2024-06-07 00:44:38.189794,-1,-1,-3,0,0,1,84,85,82,70,34,121.43,146,-13.00,30.00,-1002.00
2024-06-07 00:44:38.333105,0,0,-3,0,0,1,84,85,81,70,34,121.45,146,26.00,-3.00,-1059.00
2024-06-07 00:44:38.354211,0,0,-3,0,0,0,84,85,79,70,34,121.47,146,31.00,-9.00,-988.00
2024-06-07 00:44:38.497428,1,0,-3,0,0,1,84,85,77,70,34,121.37,146,-64.00,26.00,-1081.00
2024-06-07 00:44:38.639713,1,0,-3,0,0,0,84,85,76,70,34,121.40,146,5.00,0.00,-1020.00
2024-06-07 00:44:38.660171,0,0,-3,0,0,0,84,85,75,60,34,121.38,146,-23.00,12.00,-980.00
2024-06-07 00:44:38.803910,0,0,-3,0,0,0,84,85,74,60,34,121.37,147,-15.00,3.00,-945.00
2024-06-07 00:44:38.947739,1,0,-3,0,0,0,84,85,73,60,34,121.45,147,-42.00,2.00,-948.00
2024-06-07 00:44:38.967064,1,0,-3,0,0,0,84,85,72,60,34,121.39,147,41.00,-5.00,-973.00
2024-06-07 00:44:39.110691,1,0,-3,0,0,0,84,85,71,60,34,121.35,147,-39.00,30.00,-992.00
2024-06-07 00:44:39.253936,0,0,-3,0,0,0,84,85,70,60,34,121.43,147,-76.00,14.00,-1085.00
2024-06-07 00:44:39.273095,0,0,-3,0,0,0,84,85,69,60,34,121.33,147,0.00,-12.00,-965.00
2024-06-07 00:44:39.421459,0,0,-3,0,0,0,84,85,68,60,34,121.27,147,-83.00,7.00,-946.00
2024-06-07 00:44:39.561376,0,0,-3,0,0,0,84,85,67,60,34,121.30,147,-13.00,-16.00,-1147.00
2024-06-07 00:44:39.579962,0,0,-3,0,0,0,83,85,66,60,34,121.29,147,102.00,-20.00,-1036.00
2024-06-07 00:44:39.725214,0,1,-3,0,0,0,83,85,65,60,34,121.27,147,-40.00,5.00,-959.00
2024-06-07 00:44:39.783252,1,1,-3,0,0,0,83,85,64,60,34,121.30,148,-34.00,9.00,-1039.00
2024-06-07 00:44:39.919535,0,0,-3,0,0,0,83,85,63,60,34,121.31,148,12.00,-11.00,-1078.00
2024-06-07 00:44:39.989814,0,0,-3,0,0,0,83,85,62,50,34,121.37,148,-29.00,14.00,-1001.00
2024-06-07 00:44:40.090157,0,0,-3,0,0,0,83,85,61,50,34,121.38,148,17.00,-6.00,-987.00
2024-06-07 00:44:40.191360,0,0,-3,0,0,0,83,85,60,50,34,121.29,148,-19.00,8.00,-1012.00
2024-06-07 00:44:40.328850,1,1,-3,0,0,0,83,85,60,50,34,121.19,148,31.00,9.00,-1056.00
2024-06-07 00:44:40.344096,1,1,-3,0,0,-1,83,85,60,50,34,121.25,148,-28.00,-24.00,-1097.00
2024-06-07 00:44:40.533704,1,0,-3,0,0,-1,83,85,60,50,34,121.27,148,9.00,-8.00,-981.00
2024-06-07 00:44:40.599127,1,1,-3,0,0,0,83,85,61,50,34,121.26,148,4.00,-22.00,-1001.00
2024-06-07 00:44:40.738524,1,1,-3,0,0,-1,83,85,63,50,34,121.31,148,-9.00,35.00,-981.00
2024-06-07 00:44:40.751841,2,1,-3,0,0,-1,83,85,64,50,34,121.36,149,2.00,17.00,-1033.00
2024-06-07 00:44:40.943258,0,0,-3,0,0,-2,83,85,65,50,34,121.28,149,34.00,6.00,-969.00
2024-06-07 00:44:40.956908,0,0,-3,0,0,-1,83,85,65,50,34,121.24,149,0.00,-9.00,-932.00
2024-06-07 00:44:41.148169,1,1,-3,0,0,-1,83,85,66,60,34,121.32,149,49.00,6.00,-1012.00
2024-06-07 00:44:41.160964,1,1,-3,0,0,-1,83,85,66,60,34,121.32,149,41.00,-38.00,-955.00
2024-06-07 00:44:41.352441,1,0,-3,0,0,-1,83,85,67,60,34,121.37,149,7.00,-7.00,-1011.00
2024-06-07 00:44:41.365871,1,2,-3,0,0,-1,83,85,66,60,34,121.31,149,-10.00,-8.00,-892.00
2024-06-07 00:44:41.557558,1,2,-3,0,0,0,83,85,67,60,34,121.30,149,29.00,8.00,-1030.00
2024-06-07 00:44:41.568898,0,2,-3,0,0,0,83,85,66,50,34,121.30,149,90.00,-11.00,-968.00
2024-06-07 00:44:41.762107,0,2,-3,0,0,0,83,85,67,50,34,121.31,149,-4.00,6.00,-1028.00
2024-06-07 00:44:41.773147,1,2,-3,0,0,0,83,85,67,50,34,121.39,150,-68.00,11.00,-1022.00
2024-06-07 00:44:41.967432,1,1,-3,0,0,0,83,85,67,50,34,121.35,150,-38.00,23.00,-1104.00
2024-06-07 00:44:41.976784,0,1,-3,0,0,0,83,85,68,50,34,121.36,150,37.00,-23.00,-1016.00
2024-06-07 00:44:42.171617,-1,0,-3,0,0,0,83,85,69,50,34,121.38,150,-43.00,28.00,-927.00
2024-06-07 00:44:42.181168,0,1,-3,0,0,0,83,85,70,60,34,121.42,150,82.00,-34.00,-1003.00
2024-06-07 00:44:42.381431,1,1,-3,0,0,0,83,85,72,60,34,121.40,150,0.00,-9.00,-1003.00
2024-06-07 00:44:42.385788,2,2,-3,0,0,-1,83,85,73,60,34,121.35,150,25.00,-24.00,-965.00
2024-06-07 00:44:42.583842,2,2,-3,0,0,0,83,85,75,60,34,121.40,150,60.00,-6.00,-1023.00
2024-06-07 00:44:42.591315,2,2,-3,0,0,0,83,86,75,60,34,121.48,150,6.00,7.00,-912.00
2024-06-07 00:44:42.791459,1,1,-3,0,0,0,83,86,76,60,34,121.41,150,25.00,-16.00,-1082.00
2024-06-07 00:44:42.795806,1,1,-3,0,0,0,83,86,78,60,34,121.37,151,56.00,-14.00,-1013.00
2024-06-07 00:44:42.896149,0,1,-3,0,1,0,83,86,79,60,34,121.47,151,22.00,1.00,-971.00
2024-06-07 00:44:43.093339,1,0,-3,0,1,0,83,86,82,60,34,121.49,151,-23.00,-17.00,-1002.00
2024-06-07 00:44:43.099913,0,0,-3,0,0,0,83,86,83,60,34,121.45,151,-89.00,16.00,-965.00
2024-06-07 00:44:43.272642,0,0,-3,0,0,0,83,86,85,70,34,121.46,151,40.00,-18.00,-967.00
2024-06-07 00:44:43.305645,0,0,-3,0,0,-1,83,86,86,70,34,121.49,151,-1.00,5.00,-954.00
2024-06-07 00:44:43.406108,0,0,-3,0,0,0,83,86,87,70,34,121.49,151,13.00,-14.00,-976.00
2024-06-07 00:44:43.508058,0,0,-3,0,0,0,83,86,87,70,34,121.53,151,-1.00,36.00,-915.00
2024-06-07 00:44:43.709173,1,1,-3,0,0,0,83,85,87,70,34,121.44,151,23.00,-42.00,-977.00
2024-06-07 00:44:43.712015,1,0,-3,0,0,0,83,85,87,70,34,121.48,151,-71.00,28.00,-889.00
2024-06-07 00:44:43.912536,1,1,-3,0,0,1,83,85,87,70,34,121.49,152,-71.00,3.00,-951.00
2024-06-07 00:44:43.916056,0,0,-3,0,1,1,83,85,87,70,34,121.49,152,-25.00,-4.00,-1026.00
2024-06-07 00:44:44.018786,0,0,-3,0,0,0,83,85,87,70,34,121.46,152,-43.00,18.00,-993.00
2024-06-07 00:44:44.120290,0,0,-3,0,0,0,83,85,86,70,34,121.54,152,92.00,-23.00,-945.00
2024-06-07 00:44:44.170879,1,0,-3,0,0,0,83,85,87,70,34,121.47,152,0.00,7.00,-994.00
2024-06-07 00:44:44.287082,3,0,-3,0,0,0,83,85,86,70,34,121.44,152,9.00,-17.00,-1015.00
2024-06-07 00:44:44.374928,3,0,-3,0,0,0,83,85,87,70,34,121.56,152,11.00,2.00,-932.00
2024-06-07 00:44:44.477222,3,0,-3,0,0,0,83,85,86,70,34,121.41,152,95.00,-23.00,-1017.00
2024-06-07 00:44:44.629206,1,0,-3,0,0,0,83,85,86,70,34,121.46,152,18.00,17.00,-1126.00
2024-06-07 00:44:44.681035,1,0,-3,0,0,-1,83,85,87,70,34,121.48,153,-62.00,27.00,-1108.00
2024-06-07 00:44:44.835671,0,0,-3,-1,0,-2,83,85,88,70,34,121.50,153,34.00,-22.00,-1089.00
2024-06-07 00:44:44.885813,0,0,-3,-1,0,-3,83,85,91,70,34,121.58,153,65.00,-47.00,-1158.00
2024-06-07 00:44:45.040812,0,0,-3,0,0,-4,83,85,95,80,34,121.54,153,20.00,11.00,-1068.00
2024-06-07 00:44:45.088712,1,0,-3,0,0,-4,83,85,99,80,34,121.60,153,-49.00,11.00,-1035.00
2024-06-07 00:44:45.245036,0,0,-3,0,0,-5,83,85,105,90,34,121.65,153,-10.00,14.00,-1127.00
2024-06-07 00:44:45.293349,0,0,-3,0,0,-5,83,85,110,90,34,121.77,153,39.00,-8.00,-1093.00
2024-06-07 00:44:45.448399,0,0,-3,0,0,-5,83,85,116,100,34,121.81,153,-1.00,-21.00,-938.00
2024-06-07 00:44:45.497298,0,0,-3,0,0,-5,83,85,121,100,34,121.82,153,29.00,-24.00,-960.00
2024-06-07 00:44:45.653548,0,0,-3,0,0,-5,83,85,128,110,34,121.88,153,15.00,6.00,-985.00
2024-06-07 00:44:45.700706,0,0,-3,0,0,-5,83,85,133,110,34,121.94,154,41.00,-10.00,-1048.00
2024-06-07 00:44:45.857898,0,0,-3,0,0,-4,83,85,140,120,34,122.09,154,-19.00,22.00,-958.00
2024-06-07 00:44:45.904810,0,0,-3,0,0,-4,83,85,145,120,34,122.08,154,-20.00,1.00,-897.00
2024-06-07 00:44:46.062863,0,-1,-3,0,0,-4,83,85,151,130,34,122.05,154,27.00,-2.00,-1039.00
2024-06-07 00:44:46.108570,0,0,-3,0,0,-4,83,85,157,130,34,122.15,154,0.00,22.00,-1011.00
2024-06-07 00:44:46.269811,0,-1,-3,0,0,-5,83,85,164,140,34,122.16,154,33.00,-2.00,-1106.00
2024-06-07 00:44:46.312562,0,0,-3,0,0,-4,83,85,169,150,34,122.21,154,-13.00,19.00,-990.00
2024-06-07 00:44:46.473886,0,0,-3,0,0,-4,83,85,174,150,34,122.37,154,45.00,-13.00,-1003.00
2024-06-07 00:44:46.517271,0,0,-3,0,0,-3,83,85,176,150,34,122.37,154,-7.00,4.00,-1005.00
2024-06-07 00:44:46.678489,1,0,-3,0,0,-3,82,84,181,160,34,122.39,154,-86.00,47.00,-971.00
2024-06-07 00:44:46.720514,1,0,-3,0,0,-2,82,84,183,160,34,122.34,155,-24.00,15.00,-957.00
2024-06-07 00:44:46.829972,1,0,-3,0,0,-1,82,84,184,160,34,122.42,155,19.00,-20.00,-920.00
2024-06-07 00:44:46.926188,1,0,-3,0,0,-1,82,84,188,160,34,122.43,155,10.00,10.00,-1012.00
2024-06-07 00:44:47.026765,1,0,-3,0,0,0,82,84,189,170,34,122.44,155,-9.00,1.00,-1014.00
2024-06-07 00:44:47.190225,1,0,-3,0,0,0,82,84,187,170,34,122.43,155,22.00,25.00,-1096.00
2024-06-07 00:44:47.230731,0,0,-3,0,0,0,82,84,187,170,34,122.46,155,9.00,6.00,-1071.00
2024-06-07 00:44:47.333276,0,0,-3,0,0,0,82,84,187,170,34,122.55,155,-12.00,16.00,-968.00
2024-06-07 00:44:47.435690,0,0,-3,0,0,0,82,84,189,170,34,122.46,155,-19.00,14.00,-982.00
2024-06-07 00:44:47.538174,0,0,-3,0,0,0,82,84,188,170,34,122.48,155,-22.00,27.00,-1066.00
2024-06-07 00:44:47.640668,0,0,-3,0,0,0,82,84,186,170,34,122.40,155,-46.00,29.00,-1040.00
2024-06-07 00:44:47.745436,0,0,-3,0,0,0,82,84,184,170,34,122.45,156,21.00,-11.00,-1069.00
2024-06-07 00:44:47.847663,1,0,-3,0,0,0,82,84,183,170,34,122.36,156,-44.00,22.00,-965.00
2024-06-07 00:44:47.944815,2,0,-3,0,0,0,82,84,183,170,34,122.42,156,-58.00,51.00,-870.00
2024-06-07 00:44:48.110778,2,0,-3,0,0,0,82,84,181,160,34,122.41,156,43.00,-13.00,-1000.00
2024-06-07 00:44:48.148872,2,0,-3,0,0,0,82,84,181,160,34,122.40,156,-18.00,32.00,-982.00
2024-06-07 00:44:48.318891,3,0,-3,0,0,1,82,84,178,160,34,122.33,156,69.00,-15.00,-986.00
2024-06-07 00:44:48.319658,3,0,-3,0,0,0,82,84,179,160,34,122.42,156,58.00,-3.00,-956.00
2024-06-07 00:44:48.403512,1,0,-3,-1,0,0,82,84,177,160,34,122.40,156,-4.00,27.00,-1033.00
2024-06-07 00:44:48.520223,0,0,-3,-1,0,0,82,84,177,160,34,122.37,156,-53.00,2.00,-1059.00
2024-06-07 00:44:48.607692,0,0,-3,-1,0,0,82,85,178,160,34,122.41,156,-12.00,1.00,-986.00
2024-06-07 00:44:48.725166,0,0,-3,-1,0,0,82,85,178,160,34,122.39,157,-6.00,24.00,-967.00
2024-06-07 00:44:48.811677,0,0,-3,0,0,0,82,85,180,160,34,122.38,157,11.00,6.00,-1114.00
2024-06-07 00:44:48.913584,0,-1,-3,-1,0,0,82,85,180,160,34,122.35,157,-61.00,26.00,-949.00
2024-06-07 00:44:49.033931,-1,-1,-3,-1,0,0,82,85,181,160,34,122.41,157,-28.00,25.00,-949.00
2024-06-07 00:44:49.117836,-2,-1,-3,-1,0,0,82,85,181,160,34,122.35,157,-5.00,21.00,-994.00
2024-06-07 00:44:49.237687,-1,-1,-3,0,0,0,82,85,180,160,34,122.38,157,25.00,-5.00,-1029.00
2024-06-07 00:44:49.321380,0,0,-3,0,0,1,82,85,179,160,34,122.36,157,-45.00,36.00,-964.00
2024-06-07 00:44:49.441732,1,0,-3,0,0,1,82,85,175,160,34,122.33,157,35.00,-16.00,-945.00
2024-06-07 00:44:49.525262,2,0,-3,0,0,1,82,85,173,160,34,122.34,157,51.00,-19.00,-896.00
2024-06-07 00:44:49.647161,2,1,-3,0,0,2,82,85,169,150,34,122.32,157,7.00,16.00,-974.00
2024-06-07 00:44:49.729387,2,1,-3,0,0,3,82,85,165,150,34,122.24,158,34.00,1.00,-980.00
2024-06-07 00:44:49.851681,1,0,-3,0,0,3,82,85,162,150,34,122.27,158,-45.00,38.00,-1044.00
2024-06-07 00:44:49.933596,0,0,-3,0,0,3,82,85,159,140,34,122.23,158,27.00,5.00,-978.00
2024-06-07 00:44:50.056144,0,0,-3,0,0,3,82,85,156,140,34,122.18,158,-43.00,8.00,-964.00
2024-06-07 00:44:50.137235,0,0,-3,0,0,3,82,85,153,140,34,122.19,158,9.00,1.00,-1075.00
2024-06-07 00:44:50.261039,0,0,-3,0,0,2,82,85,150,130,34,122.13,158,-18.00,18.00,-988.00
2024-06-07 00:44:50.341163,0,0,-3,0,0,2,82,85,147,130,34,122.21,158,-21.00,11.00,-1026.00
2024-06-07 00:44:50.465683,0,0,-3,0,0,2,82,85,144,130,34,122.12,158,5.00,9.00,-1061.00
2024-06-07 00:44:50.545491,0,0,-3,0,0,2,82,85,142,130,34,122.04,158,-91.00,47.00,-1079.00
2024-06-07 00:44:50.647167,0,0,-3,0,0,1,82,85,141,120,34,121.99,158,49.00,-11.00,-1040.00
2024-06-07 00:44:50.772832,1,0,-3,0,0,1,82,85,139,120,34,122.15,159,34.00,-13.00,-1015.00
2024-06-07 00:44:50.851856,0,0,-3,0,0,1,82,85,137,120,34,122.08,159,13.00,-10.00,-998.00
2024-06-07 00:44:50.953175,1,0,-3,0,0,1,82,85,135,120,34,122.10,159,13.00,12.00,-989.00
2024-06-07 00:44:51.080067,1,0,-3,0,0,1,82,85,133,120,34,122.00,159,77.00,-32.00,-1012.00
2024-06-07 00:44:51.157543,1,0,-3,0,0,1,82,85,132,120,34,122.04,159,50.00,-1.00,-1063.00
2024-06-07 00:44:51.284753,0,0,-3,0,0,1,82,85,130,120,34,121.97,159,16.00,-2.00,-996.00
2024-06-07 00:44:51.361134,1,0,-3,0,0,1,82,85,130,110,34,121.93,159,-69.00,3.00,-1060.00
2024-06-07 00:44:51.489784,1,0,-3,0,0,0,82,85,130,110,34,121.99,159,-3.00,-2.00,-1004.00
2024-06-07 00:44:51.567367,1,0,-3,0,0,0,82,85,128,110,34,121.93,159,-72.00,16.00,-1073.00
2024-06-07 00:44:51.667302,0,0,-3,0,0,0,82,84,128,110,34,121.98,159,-30.00,0.00,-1055.00
2024-06-07 00:44:51.796882,0,0,-3,-1,0,0,82,84,128,110,34,121.93,160,-13.00,1.00,-1017.00
2024-06-07 00:44:51.872570,0,0,-3,-1,0,0,82,84,128,110,34,121.94,160,82.00,-27.00,-1013.00
2024-06-07 00:44:51.974356,0,0,-3,0,0,0,82,84,128,110,34,121.93,160,-87.00,43.00,-947.00
2024-06-07 00:44:52.115103,1,0,-3,0,0,0,82,84,128,110,34,121.97,160,-28.00,3.00,-1004.00
2024-06-07 00:44:52.127034,0,0,-3,0,0,0,82,84,129,110,34,121.97,160,-33.00,2.00,-949.00
2024-06-07 00:44:52.515107,0,0,-3,0,0,0,82,84,131,110,34,121.93,160,-9.00,0.00,-1066.00
2024-06-07 00:44:52.594908,0,0,-3,0,0,0,82,84,131,110,34,121.93,160,8.00,5.00,-989.00
2024-06-07 00:44:52.595075,0,0,-3,0,0,0,82,84,132,110,34,121.97,160,-10.00,25.00,-980.00
2024-06-07 00:44:52.595128,0,0,-3,0,0,0,82,84,133,110,34,121.96,160,1.00,2.00,-1039.00
2024-06-07 00:44:52.664936,0,0,-3,0,0,0,82,84,134,110,34,122.00,160,12.00,9.00,-1019.00
2024-06-07 00:44:52.790959,1,0,-3,0,0,0,82,84,136,120,34,122.00,161,28.00,-9.00,-958.00
2024-06-07 00:44:52.844053,1,0,-3,0,0,0,82,84,136,120,34,122.00,161,-8.00,24.00,-1019.00
2024-06-07 00:44:52.942436,1,0,-3,0,0,0,82,84,137,120,34,121.96,161,-9.00,9.00,-981.00
2024-06-07 00:44:53.124339,1,0,-3,0,0,0,82,84,137,120,34,122.01,161,-8.00,-1.00,-873.00
2024-06-07 00:44:53.146449,1,0,-3,0,0,0,82,84,137,120,34,121.95,161,28.00,-1.00,-942.00
2024-06-07 00:44:53.338688,0,0,-3,0,0,0,82,84,137,120,34,121.93,161,-8.00,7.00,-1016.00
2024-06-07 00:44:53.349848,0,0,-3,0,0,0,82,84,137,120,34,121.93,161,-32.00,19.00,-930.00
2024-06-07 00:44:53.548855,1,0,-3,0,0,0,82,84,136,120,34,121.91,161,-65.00,26.00,-1080.00
2024-06-07 00:44:53.553944,-4,0,-3,0,0,0,82,84,137,120,34,122.03,161,-60.00,27.00,-1019.00
2024-06-07 00:44:53.691934,-9,0,-3,0,0,0,82,83,139,120,34,121.99,161,-30.00,9.00,-848.00
2024-06-07 00:44:53.856051,-8,0,-3,1,0,0,82,83,141,120,34,122.02,162,15.00,-13.00,-990.00
2024-06-07 00:44:53.860647,-8,0,-3,3,0,0,82,83,138,120,34,122.00,162,-30.00,5.00,-1024.00
2024-06-07 00:44:53.999686,-8,0,-3,5,0,0,82,83,137,120,34,121.95,162,-57.00,33.00,-1064.00
2024-06-07 00:44:54.162993,-6,1,-3,6,0,0,82,83,137,120,34,121.95,162,18.00,-8.00,-1019.00
2024-06-07 00:44:54.165887,-5,1,-3,7,0,0,82,83,135,110,34,121.96,162,51.00,-3.00,-1017.00
2024-06-07 00:44:54.356888,-4,0,-3,7,0,0,82,83,131,110,34,121.81,162,-88.00,22.00,-978.00
2024-06-07 00:44:54.370218,-3,0,-3,7,0,0,82,83,131,110,34,121.81,162,7.00,0.00,-967.00
2024-06-07 00:44:54.561922,0,0,-3,8,0,0,82,83,130,110,34,121.86,162,-107.00,55.00,-1057.00
2024-06-07 00:44:54.574216,2,0,-3,7,0,0,82,83,131,110,34,121.89,162,-54.00,29.00,-894.00
2024-06-07 00:44:54.766454,4,0,-3,6,0,0,82,84,129,110,34,121.84,162,-38.00,14.00,-1047.00
2024-06-07 00:44:54.778547,5,-1,-3,5,0,0,82,84,130,110,34,121.93,163,3.00,-4.00,-1023.00
2024-06-07 00:44:54.879878,5,0,-3,4,0,0,82,84,128,110,34,121.94,163,-17.00,0.00,-1028.00
2024-06-07 00:44:54.981880,2,0,-3,3,0,0,82,84,127,110,34,121.98,163,53.00,-3.00,-1037.00
2024-06-07 00:44:55.176369,1,0,-3,3,0,0,82,84,126,110,34,121.91,163,-38.00,-1.00,-992.00
2024-06-07 00:44:55.186089,1,0,-3,2,0,0,82,84,125,110,34,121.99,163,-9.00,3.00,-1018.00
2024-06-07 00:44:55.382613,0,0,-3,2,0,0,82,84,124,110,34,121.91,163,-63.00,30.00,-1059.00
2024-06-07 00:44:55.391006,-1,0,-3,1,0,0,82,84,123,110,34,121.88,163,12.00,5.00,-1003.00
2024-06-07 00:44:55.585581,0,-1,-3,1,0,0,82,84,123,110,34,121.91,163,0.00,-32.00,-927.00
2024-06-07 00:44:55.593791,0,-2,-4,2,0,0,82,84,122,110,34,121.86,163,4.00,1.00,-1025.00
2024-06-07 00:44:55.792898,0,-4,-4,2,0,0,82,84,122,110,34,121.87,163,3.00,28.00,-994.00
2024-06-07 00:44:55.799922,0,-3,-4,2,0,0,82,84,122,110,34,121.87,164,-56.00,41.00,-1037.00
2024-06-07 00:44:55.850296,1,-1,-4,1,-1,0,82,84,123,110,34,121.92,164,-35.00,37.00,-1067.00
2024-06-07 00:44:55.951529,4,3,-3,1,-1,0,82,84,123,110,34,121.87,164,-11.00,0.00,-1028.00
2024-06-07 00:44:56.097759,3,0,-4,0,0,0,82,84,123,110,34,121.91,164,17.00,34.00,-985.00
2024-06-07 00:44:56.155678,1,0,-4,0,0,0,82,84,123,110,34,121.87,164,-2.00,2.00,-1013.00
2024-06-07 00:44:56.283166,0,0,-4,0,0,0,82,84,124,110,34,121.90,164,-2.00,-4.00,-1009.00
2024-06-07 00:44:56.359897,0,0,-3,0,0,0,82,84,124,110,34,121.91,164,-22.00,27.00,-993.00
2024-06-07 00:44:56.507279,0,0,-3,0,0,0,82,84,125,110,34,121.91,164,-5.00,-24.00,-922.00
2024-06-07 00:44:56.563303,0,0,-3,0,0,0,82,84,125,110,34,121.93,164,3.00,4.00,-1029.00
2024-06-07 00:44:56.712717,1,0,-3,0,0,0,81,83,125,110,34,121.89,164,-22.00,55.00,-975.00
2024-06-07 00:44:56.766937,1,0,-3,0,0,0,81,83,125,110,34,121.95,165,37.00,1.00,-1019.00
2024-06-07 00:44:56.917966,1,0,-3,0,0,0,81,83,126,110,34,121.98,165,-17.00,4.00,-1033.00
2024-06-07 00:44:56.970756,0,0,-3,0,0,0,81,83,127,110,34,121.95,165,0.00,35.00,-994.00
2024-06-07 00:44:57.122155,0,0,-3,0,0,0,81,83,126,110,34,121.94,165,31.00,25.00,-1104.00
2024-06-07 00:44:57.174796,0,-1,-3,0,0,0,81,83,127,110,34,121.93,165,19.00,28.00,-1085.00
2024-06-07 00:44:57.328403,0,0,-3,0,0,0,81,83,127,110,34,121.93,165,11.00,4.00,-1028.00
2024-06-07 00:44:57.378769,0,0,-3,0,0,0,81,83,126,110,34,121.99,165,-29.00,12.00,-1006.00
2024-06-07 00:44:57.532133,0,0,-3,0,0,0,81,83,125,110,34,122.02,165,1.00,18.00,-930.00
2024-06-07 00:44:57.586021,0,0,-3,0,0,0,81,83,125,110,34,121.93,165,-6.00,2.00,-971.00
2024-06-07 00:44:57.685034,0,0,-3,0,0,0,82,84,124,110,34,121.89,165,1.00,4.00,-1063.00
2024-06-07 00:44:57.839382,0,0,-3,0,0,0,82,84,124,110,34,121.88,166,-49.00,38.00,-956.00
2024-06-07 00:44:57.889451,0,0,-3,0,0,0,82,84,123,110,34,121.91,166,35.00,7.00,-1031.00
2024-06-07 00:44:57.990756,0,0,-3,0,0,0,82,84,124,110,34,121.94,166,59.00,10.00,-1066.00
2024-06-07 00:44:58.101181,0,0,-3,0,0,0,82,84,124,110,34,121.95,166,21.00,12.00,-1088.00
2024-06-07 00:44:58.194938,0,0,-3,0,0,0,82,84,124,110,34,121.93,166,-9.00,31.00,-1016.00
2024-06-07 00:44:58.350270,0,0,-3,0,0,0,82,84,125,110,34,121.90,166,63.00,6.00,-1098.00
2024-06-07 00:44:58.404305,5,-1,-3,0,0,0,82,84,126,110,34,121.94,166,-8.00,17.00,-992.00
2024-06-07 00:44:58.501318,8,0,-3,-1,0,0,82,84,127,110,34,122.00,166,15.00,9.00,-1002.00
2024-06-07 00:44:58.657475,8,0,-3,-2,0,0,82,84,126,110,33,121.91,166,71.00,-9.00,-1086.00
2024-06-07 00:44:58.704558,8,0,-3,-3,0,-1,82,84,126,110,33,121.94,166,14.00,24.00,-966.00
2024-06-07 00:44:58.806571,8,0,-3,-5,0,0,82,84,124,110,33,121.87,167,61.00,9.00,-997.00
2024-06-07 00:44:58.909396,8,0,-3,-6,0,0,82,84,124,110,33,121.86,167,55.00,23.00,-972.00
2024-06-07 00:44:59.067242,7,0,-3,-6,0,0,82,84,122,110,33,121.79,167,50.00,-2.00,-906.00
2024-06-07 00:44:59.112732,6,0,-3,-7,0,0,82,84,121,110,33,121.82,167,34.00,11.00,-1042.00
2024-06-07 00:44:59.272159,4,0,-3,-8,0,0,82,84,118,110,33,121.80,167,20.00,-9.00,-951.00
2024-06-07 00:44:59.316520,0,-2,-3,-8,0,0,82,84,116,110,33,121.74,167,40.00,7.00,-955.00
2024-06-07 00:44:59.476636,-2,0,-3,-7,0,0,82,84,115,110,33,121.78,167,-5.00,12.00,-951.00
2024-06-07 00:44:59.476800,-5,0,-3,-6,0,0,82,84,113,110,33,121.74,167,70.00,16.00,-977.00
2024-06-07 00:44:59.571708,-4,0,-3,-4,0,0,82,84,111,110,33,121.79,167,55.00,21.00,-1009.00
2024-06-07 00:44:59.681438,-2,1,-3,-3,0,1,81,85,109,100,33,121.70,167,-13.00,22.00,-1012.00
2024-06-07 00:44:59.775853,0,2,-3,-2,0,1,81,85,109,100,33,121.78,168,31.00,-4.00,-1136.00
2024-06-07 00:44:59.886230,1,2,-3,-2,0,0,81,85,109,100,33,121.86,168,45.00,9.00,-1041.00
2024-06-07 00:44:59.980131,1,2,-3,-2,0,0,81,85,109,100,33,121.76,168,-60.00,28.00,-1117.00
2024-06-07 00:45:00.102740,1,1,-3,-2,0,0,81,85,110,100,33,121.67,168,-35.00,21.00,-961.00
2024-06-07 00:45:00.186842,0,1,-3,-2,1,0,81,85,111,100,33,121.84,168,-8.00,18.00,-967.00
2024-06-07 00:45:00.287620,0,0,-3,-2,1,0,81,85,112,100,33,121.81,168,0.00,4.00,-994.00
2024-06-07 00:45:00.388368,1,0,-3,-2,1,-1,81,85,113,100,33,121.81,168,13.00,11.00,-1101.00
2024-06-07 00:45:00.500613,0,-3,-3,-2,1,-1,81,85,115,100,33,121.80,168,-10.00,-6.00,-938.00
2024-06-07 00:45:00.591681,-5,-2,-3,-2,0,-1,81,85,115,100,32,121.80,168,57.00,-4.00,-1037.00
2024-06-07 00:45:00.694134,-1,0,-3,0,0,0,82,84,115,100,32,121.86,169,8.00,-8.00,-915.00
2024-06-07 00:45:00.808606,0,0,-3,0,0,0,82,84,116,100,32,121.85,169,26.00,-1.00,-996.00
2024-06-07 00:45:00.899341,0,0,-3,0,0,0,82,84,116,100,32,121.84,169,61.00,-25.00,-994.00
2024-06-07 00:45:01.002651,2,0,-3,0,0,0,82,84,118,110,32,121.90,169,33.00,-8.00,-920.00
2024-06-07 00:45:01.103026,1,0,-3,0,0,0,82,84,120,110,32,121.86,169,-23.00,28.00,-950.00
2024-06-07 00:45:01.203577,0,0,-3,0,0,0,82,84,119,110,32,121.97,169,39.00,-7.00,-907.00
2024-06-07 00:45:01.319895,-1,0,-3,0,0,0,82,84,121,110,32,121.97,169,-6.00,15.00,-1034.00
2024-06-07 00:45:01.408144,0,0,-3,0,0,0,82,84,123,110,32,121.90,169,-1.00,19.00,-1030.00
2024-06-07 00:45:01.524997,0,0,-3,0,0,-1,82,84,125,110,32,121.96,169,-19.00,16.00,-1088.00
2024-06-07 00:45:01.611559,-1,0,-3,0,0,-1,82,84,128,110,32,121.96,169,11.00,-23.00,-999.00
2024-06-07 00:45:01.729485,-1,0,-3,0,0,0,82,83,130,110,32,121.99,170,11.00,-16.00,-875.00
2024-06-07 00:45:01.815458,-1,0,-3,0,0,0,82,83,132,110,32,121.98,170,88.00,-6.00,-1053.00
2024-06-07 00:45:01.934163,0,0,-3,0,0,-1,82,83,135,110,32,121.98,170,-29.00,5.00,-1073.00
2024-06-07 00:45:02.019576,0,0,-3,0,0,-1,82,83,138,120,32,122.05,170,0.00,-2.00,-953.00
2024-06-07 00:45:02.139799,0,0,-3,0,0,-1,82,83,139,120,32,122.05,170,19.00,8.00,-889.00
2024-06-07 00:45:02.226276,0,0,-3,0,0,0,82,83,140,120,32,122.08,170,-25.00,-5.00,-941.00
2024-06-07 00:45:02.325487,0,0,-3,0,0,0,82,83,142,120,32,122.08,170,37.00,-14.00,-990.00
2024-06-07 00:45:02.446872,0,0,-3,0,0,0,82,83,142,120,32,122.06,170,43.00,-27.00,-972.00
2024-06-07 00:45:02.530086,0,0,-3,0,0,0,82,83,142,120,32,122.03,170,6.00,8.00,-961.00
2024-06-07 00:45:02.645200,0,0,-3,0,0,0,82,83,141,120,31,122.10,170,-10.00,13.00,-878.00
2024-06-07 00:45:02.733421,0,0,-3,0,0,0,82,84,140,120,31,122.04,171,-17.00,-32.00,-977.00
2024-06-07 00:45:02.784905,0,-3,-3,0,0,0,82,84,139,120,31,122.00,171,46.00,-11.00,-939.00
2024-06-07 00:45:02.886274,0,-8,-3,0,0,1,82,84,139,120,31,122.07,171,-47.00,2.00,-892.00
2024-06-07 00:45:02.988928,0,-7,-3,0,-1,1,82,84,137,120,31,122.12,171,49.00,-8.00,-1077.00
2024-06-07 00:45:03.162891,0,-5,-3,0,-3,0,82,84,136,110,31,122.06,171,12.00,12.00,-1116.00
2024-06-07 00:45:03.192272,0,-2,-3,0,-4,0,82,84,134,110,31,122.01,171,10.00,17.00,-1075.00
2024-06-07 00:45:03.367996,0,1,-3,0,-4,0,82,84,133,110,31,122.02,171,-22.00,6.00,-912.00
2024-06-07 00:45:03.396270,0,2,-3,0,-3,0,82,84,132,110,31,122.04,171,31.00,40.00,-1097.00
2024-06-07 00:45:03.572536,0,0,-3,0,-2,0,82,84,131,110,31,122.02,171,-34.00,41.00,-979.00
2024-06-07 00:45:03.600907,0,0,-3,0,-2,1,82,84,130,110,31,122.04,171,-4.00,22.00,-1027.00
2024-06-07 00:45:03.777562,0,-1,-3,0,-2,0,82,85,129,110,31,121.98,172,7.00,6.00,-948.00
2024-06-07 00:45:03.804201,0,-1,-3,0,-2,0,82,85,130,110,31,122.00,172,40.00,17.00,-1080.00
2024-06-07 00:45:03.981906,1,-1,-3,0,-2,0,82,85,132,110,31,122.04,172,-44.00,30.00,-1065.00
2024-06-07 00:45:04.008924,0,-1,-3,0,-2,0,82,85,132,110,31,122.00,172,57.00,6.00,-990.00
2024-06-07 00:45:04.191658,1,0,-3,0,-2,0,82,85,133,110,31,122.03,172,60.00,-8.00,-1004.00
2024-06-07 00:45:04.212007,1,0,-3,0,-2,-1,82,85,134,110,31,121.99,172,28.00,8.00,-1041.00
2024-06-07 00:45:04.391769,0,0,-3,0,-2,-1,82,85,135,110,31,122.03,172,72.00,15.00,-1010.00
2024-06-07 00:45:04.416253,0,-1,-3,0,-2,0,82,85,136,110,31,122.05,172,44.00,23.00,-988.00
2024-06-07 00:45:04.596763,0,-1,-3,0,-2,0,82,85,136,110,31,122.03,172,43.00,20.00,-966.00
2024-06-07 00:45:04.625196,0,0,-3,0,-2,0,82,85,136,110,30,122.04,172,-16.00,40.00,-1007.00
2024-06-07 00:45:04.722306,0,5,-3,0,-1,0,82,84,138,110,30,122.00,173,47.00,15.00,-982.00
2024-06-07 00:45:04.903620,0,2,-3,0,0,0,82,84,137,110,30,122.10,173,-21.00,12.00,-1035.00
2024-06-07 00:45:04.927185,0,0,-3,0,0,0,82,84,136,110,30,122.03,173,-15.00,49.00,-937.00
2024-06-07 00:45:05.108580,0,0,-3,0,0,0,82,84,135,110,30,122.03,173,-57.00,28.00,-1019.00
2024-06-07 00:45:05.131584,0,0,-3,0,0,0,82,84,135,110,30,122.05,173,19.00,8.00,-1066.00
2024-06-07 00:45:05.293182,0,0,-3,0,0,0,82,84,134,110,30,121.99,173,21.00,-31.00,-964.00
2024-06-07 00:45:05.335883,0,0,-3,0,0,0,82,84,134,110,30,121.98,173,-26.00,26.00,-989.00
2024-06-07 00:45:05.518110,0,0,-3,0,0,0,82,84,133,110,30,122.05,173,-39.00,-8.00,-1004.00
2024-06-07 00:45:05.541782,0,0,-3,0,0,0,82,84,133,110,30,121.98,173,-39.00,2.00,-1065.00
2024-06-07 00:45:05.643244,0,0,-3,0,0,0,82,84,132,110,30,121.95,173,25.00,9.00,-920.00
2024-06-07 00:45:05.743195,0,0,-3,0,0,0,82,84,131,110,30,121.97,174,-48.00,32.00,-1073.00
2024-06-07 00:45:05.934500,0,0,-3,0,0,0,82,84,131,110,30,122.00,174,-9.00,8.00,-1019.00
2024-06-07 00:45:05.947713,0,0,-3,0,0,0,82,84,131,110,30,122.02,174,64.00,7.00,-1116.00
2024-06-07 00:45:06.049355,0,-1,-3,0,0,0,82,84,132,110,30,121.98,174,26.00,7.00,-992.00
2024-06-07 00:45:06.234918,0,0,-3,0,0,0,82,84,133,110,30,122.05,174,31.00,-6.00,-984.00
2024-06-07 00:45:06.252993,0,0,-3,0,0,0,82,84,133,110,30,121.99,174,11.00,20.00,-927.00
2024-06-07 00:45:06.440592,0,0,-3,0,0,0,82,84,133,110,30,122.00,174,-60.00,34.00,-1094.00
2024-06-07 00:45:06.457985,-1,-1,-3,0,0,0,82,84,133,110,30,122.00,174,-2.00,11.00,-1076.00
2024-06-07 00:45:06.511372,-1,-1,-3,0,0,0,82,84,136,110,30,121.99,174,4.00,-9.00,-952.00
2024-06-07 00:45:06.610085,0,0,-3,0,0,0,82,84,135,110,29,122.05,174,-47.00,-2.00,-864.00
2024-06-07 00:45:06.749266,0,0,-3,0,0,0,82,84,137,110,29,122.03,175,-4.00,-11.00,-1000.00
2024-06-07 00:45:06.817854,0,0,-3,0,0,0,82,84,136,110,29,122.00,175,-34.00,11.00,-1005.00
2024-06-07 00:45:06.919882,0,0,-3,0,0,0,82,84,136,110,29,121.96,175,11.00,0.00,-908.00
2024-06-07 00:45:07.110824,0,0,-3,0,0,0,82,84,137,110,29,122.05,175,-53.00,-9.00,-1013.00
2024-06-07 00:45:07.119940,0,5,-3,0,0,0,82,84,138,110,29,121.99,175,0.00,53.00,-1037.00
2024-06-07 00:45:07.252491,0,7,-3,0,1,0,82,84,140,110,29,121.98,175,-28.00,9.00,-999.00
2024-06-07 00:45:07.350739,0,4,-3,0,3,0,82,84,136,110,29,122.06,175,-18.00,-7.00,-895.00
2024-06-07 00:45:07.425916,0,3,-3,0,3,0,82,84,136,110,29,122.07,175,-28.00,2.00,-1032.00
2024-06-07 00:45:07.528267,0,0,-3,0,3,0,82,84,134,110,29,122.07,175,47.00,-41.00,-942.00
2024-06-07 00:45:07.874809,0,-1,-3,0,3,0,82,84,134,110,29,121.99,175,29.00,-14.00,-1048.00
2024-06-07 00:45:07.875741,1,-1,-3,0,3,0,83,85,135,110,29,121.94,176,-2.00,1.00,-942.00
2024-06-07 00:45:07.875885,0,0,-3,0,3,0,83,85,134,110,29,122.03,176,39.00,-22.00,-1044.00
2024-06-07 00:45:08.018405,0,0,-3,0,2,0,83,85,135,110,29,122.03,176,-11.00,-24.00,-950.00
2024-06-07 00:45:08.038274,0,0,-3,0,2,0,83,85,136,110,29,122.00,176,30.00,-38.00,-950.00
2024-06-07 00:45:08.180247,0,0,-3,0,2,0,83,85,137,110,29,122.02,176,19.00,21.00,-1039.00
2024-06-07 00:45:08.293916,1,0,-3,0,2,0,83,85,137,110,29,122.03,176,60.00,-14.00,-1028.00
2024-06-07 00:45:08.437891,0,0,-3,0,2,0,83,85,136,110,29,122.11,176,6.00,-26.00,-1085.00
2024-06-07 00:45:08.447430,1,0,-3,0,2,0,83,85,138,110,29,122.10,176,15.00,-13.00,-981.00
2024-06-07 00:45:08.600746,0,0,-3,0,2,0,83,85,137,110,28,122.07,176,24.00,-17.00,-996.00
2024-06-07 00:45:08.745096,0,-1,-3,0,2,0,83,85,139,110,28,122.17,176,0.00,3.00,-952.00
2024-06-07 00:45:08.752102,0,-4,-3,0,2,0,82,85,140,110,28,122.12,177,-95.00,16.00,-1042.00
2024-06-07 00:45:08.908514,-1,-5,-3,0,1,0,82,85,141,110,28,122.10,177,-6.00,-19.00,-1048.00
2024-06-07 00:45:09.062879,-2,-2,-3,0,0,0,82,85,143,110,28,122.14,177,107.00,-22.00,-1093.00
2024-06-07 00:45:09.065840,-3,0,-3,1,0,-1,82,85,144,120,28,122.10,177,49.00,4.00,-890.00
2024-06-07 00:45:09.179042,2,0,-3,1,0,-1,82,85,145,120,28,122.08,177,-16.00,1.00,-943.00
2024-06-07 00:45:09.262165,3,0,-3,0,0,0,82,85,146,120,28,122.10,177,11.00,0.00,-1037.00
2024-06-07 00:45:09.409692,1,0,-3,0,0,0,82,85,146,120,28,122.06,177,56.00,-21.00,-934.00
2024-06-07 00:45:09.466542,1,0,-3,0,0,0,82,85,146,120,28,122.13,177,12.00,-9.00,-938.00
2024-06-07 00:45:09.614084,1,0,-3,0,0,0,82,85,144,120,28,122.12,177,22.00,-18.00,-1027.00
2024-06-07 00:45:09.671092,0,0,-3,0,0,0,82,85,143,120,28,122.09,177,79.00,-25.00,-984.00
2024-06-07 00:45:09.819555,1,0,-3,0,0,0,83,84,141,120,28,122.04,178,-3.00,9.00,-963.00
2024-06-07 00:45:09.873882,0,0,-3,0,0,1,83,84,139,120,28,122.08,178,2.00,31.00,-1031.00
2024-06-07 00:45:10.015232,-1,0,-3,0,0,1,83,84,137,120,28,122.01,178,-36.00,11.00,-979.00
2024-06-07 00:45:10.078429,-2,-1,-3,0,0,1,83,84,134,120,28,121.99,178,0.00,-11.00,-1027.00
2024-06-07 00:45:10.228704,-2,0,-3,0,0,1,83,84,133,110,28,121.96,178,62.00,-10.00,-1099.00
2024-06-07 00:45:10.281938,-1,0,-3,0,0,1,83,84,131,110,28,121.99,178,87.00,-48.00,-1003.00
2024-06-07 00:45:10.433117,0,1,-3,0,0,1,83,84,131,110,28,121.97,178,-10.00,1.00,-1072.00
2024-06-07 00:45:10.435853,0,1,-3,1,0,1,83,84,132,110,28,121.97,178,15.00,3.00,-1073.00
2024-06-07 00:45:10.536679,1,1,-3,0,0,0,83,84,131,110,27,121.97,178,1.00,1.00,-1044.00
2024-06-07 00:45:10.740421,1,0,-3,0,0,0,83,84,133,110,27,122.03,178,87.00,-2.00,-1044.00
2024-06-07 00:45:10.740987,0,0,-3,0,0,0,82,84,132,110,27,122.00,179,72.00,-18.00,-1033.00
2024-06-07 00:45:10.844064,1,0,-3,0,0,0,82,84,135,110,27,121.99,179,35.00,12.00,-1010.00
2024-06-07 00:45:10.945272,0,0,-3,0,0,0,82,84,137,110,27,122.03,179,19.00,-8.00,-1051.00
2024-06-07 00:45:11.049392,0,-1,-3,0,0,0,82,84,141,110,27,122.02,179,-26.00,2.00,-987.00
2024-06-07 00:45:11.149796,-1,-1,-3,0,0,-1,82,84,142,110,27,122.08,179,6.00,2.00,-1100.00
2024-06-07 00:45:11.252182,-1,-1,-3,0,0,-1,82,84,147,120,27,122.05,179,20.00,0.00,-1083.00
2024-06-07 00:45:11.352571,-2,-1,0,0,0,-2,82,84,149,120,27,122.13,179,29.00,-26.00,-941.00
2024-06-07 00:45:11.457980,-1,0,6,0,0,-1,82,84,152,120,27,122.20,179,-26.00,-13.00,-892.00
2024-06-07 00:45:11.557596,-1,0,12,0,0,-1,82,84,152,120,27,122.21,179,65.00,12.00,-989.00
2024-06-07 00:45:11.661751,0,0,18,0,0,0,82,84,153,130,27,122.21,179,2.00,11.00,-963.00
2024-06-07 00:45:11.761251,0,0,24,0,0,0,82,84,154,130,27,122.16,180,50.00,8.00,-961.00
2024-06-07 00:45:11.866879,0,0,30,0,0,0,82,84,153,130,27,122.11,180,101.00,-41.00,-994.00
2024-06-07 00:45:11.966805,0,0,36,0,0,0,82,84,151,130,27,122.22,180,7.00,-2.00,-892.00
2024-06-07 00:45:12.066577,0,0,43,0,0,1,82,84,150,120,27,122.13,180,-4.00,6.00,-1008.00
2024-06-07 00:45:12.173776,0,-1,49,0,0,1,82,84,147,120,27,122.12,180,8.00,14.00,-1042.00
2024-06-07 00:45:12.270510,0,-1,55,0,0,1,82,84,145,120,27,122.18,180,-18.00,9.00,-946.00
2024-06-07 00:45:12.373210,0,0,62,0,0,1,82,84,142,120,27,122.09,180,-57.00,33.00,-973.00
2024-06-07 00:45:12.481924,0,0,68,0,0,1,82,84,140,120,27,122.11,180,-52.00,25.00,-1021.00
2024-06-07 00:45:12.576518,0,0,75,0,0,1,82,84,138,120,26,122.05,180,132.00,-45.00,-1006.00
2024-06-07 00:45:12.685695,0,0,81,1,0,1,82,84,137,120,26,122.08,180,-25.00,2.00,-928.00
2024-06-07 00:45:12.781266,0,0,88,0,0,1,82,84,133,110,26,122.03,181,4.00,-7.00,-1090.00
2024-06-07 00:45:12.882541,0,0,95,0,0,0,82,84,133,110,26,121.97,181,39.00,-9.00,-979.00
2024-06-07 00:45:12.995589,0,0,101,0,0,0,82,84,130,110,26,121.94,181,48.00,-17.00,-1033.00
2024-06-07 00:45:13.087927,0,0,108,0,0,0,82,84,131,110,26,121.89,181,-2.00,-3.00,-1037.00
2024-06-07 00:45:13.199103,0,0,114,0,0,0,82,84,130,110,26,121.94,181,23.00,-3.00,-1004.00
2024-06-07 00:45:13.294869,0,0,120,0,0,0,82,84,129,110,26,121.93,181,21.00,0.00,-1035.00
2024-06-07 00:45:13.399369,0,0,127,0,0,0,82,84,129,110,26,121.98,181,36.00,-9.00,-1043.00
2024-06-07 00:45:13.498365,0,0,133,0,0,0,82,84,129,110,26,121.94,181,17.00,11.00,-1127.00
2024-06-07 00:45:13.597183,0,0,139,0,0,0,82,84,129,110,26,121.96,181,83.00,-39.00,-982.00
2024-06-07 00:45:13.709681,0,0,146,0,0,0,82,84,130,110,26,122.02,181,-78.00,30.00,-971.00
2024-06-07 00:45:13.800821,0,0,152,0,0,0,82,85,130,110,26,122.02,182,35.00,-3.00,-1120.00
2024-06-07 00:45:13.914492,0,0,158,0,0,0,82,85,130,110,26,122.02,182,-37.00,28.00,-927.00
2024-06-07 00:45:14.006959,0,0,164,0,0,0,82,85,130,110,26,122.02,182,-58.00,33.00,-1026.00
2024-06-07 00:45:14.107517,0,0,170,0,0,0,82,85,129,110,26,121.96,182,-103.00,41.00,-970.00
2024-06-07 00:45:14.208331,0,-1,176,0,0,0,82,85,130,110,26,122.01,182,-8.00,25.00,-1007.00
2024-06-07 00:45:14.259658,-1,-1,-177,0,0,0,82,85,130,110,26,121.97,182,25.00,-1.00,-996.00
2024-06-07 00:45:14.361493,0,0,-171,0,0,0,82,85,130,110,26,122.00,182,-14.00,8.00,-1003.00
2024-06-07 00:45:14.528867,1,0,-165,0,0,0,82,85,130,110,26,122.03,182,17.00,2.00,-1032.00
2024-06-07 00:45:14.568277,0,0,-160,0,0,0,82,85,131,110,25,122.04,182,-56.00,61.00,-1105.00
2024-06-07 00:45:14.667355,0,0,-154,0,0,0,82,85,132,110,25,122.06,182,23.00,-3.00,-985.00
2024-06-07 00:45:14.835986,0,0,-148,0,0,0,83,85,133,110,25,122.05,183,-90.00,45.00,-997.00
2024-06-07 00:45:14.873386,0,0,-142,0,0,0,83,85,134,110,25,122.00,183,-24.00,23.00,-1022.00
2024-06-07 00:45:14.973662,0,0,-136,0,0,0,83,85,135,110,25,122.04,183,-76.00,23.00,-1011.00
2024-06-07 00:45:15.143234,-1,0,-130,1,0,0,83,85,137,110,25,122.05,183,-7.00,29.00,-991.00
2024-06-07 00:45:15.178580,-2,-1,-125,0,0,0,83,85,139,110,25,122.05,183,28.00,0.00,-1050.00
2024-06-07 00:45:15.348022,0,-1,-119,0,0,-1,83,85,140,110,25,122.04,183,-30.00,25.00,-1019.00
2024-06-07 00:45:15.382313,1,0,-113,0,0,0,83,85,143,120,25,122.04,183,68.00,10.00,-1030.00
2024-06-07 00:45:15.552855,1,1,-108,0,0,0,83,85,141,120,25,122.05,183,-44.00,30.00,-988.00
2024-06-07 00:45:15.585983,1,1,-102,0,0,0,83,85,142,120,25,122.06,183,56.00,0.00,-933.00
2024-06-07 00:45:15.758657,1,0,-96,0,0,0,83,85,141,120,25,122.00,183,-4.00,14.00,-990.00
2024-06-07 00:45:15.789620,1,0,-85,1,0,0,82,85,140,120,25,122.05,184,23.00,1.00,-1064.00
2024-06-07 00:45:15.962426,1,-1,-79,1,0,1,82,85,138,120,25,122.07,184,5.00,0.00,-965.00
2024-06-07 00:45:15.994907,1,0,-73,1,0,1,82,85,137,110,25,122.05,184,-5.00,35.00,-947.00
2024-06-07 00:45:16.095668,0,-1,-67,0,0,0,82,85,135,110,25,122.04,184,31.00,1.00,-1134.00
2024-06-07 00:45:16.197331,0,-1,-61,0,0,0,82,85,134,110,25,122.10,184,-105.00,56.00,-944.00
2024-06-07 00:45:16.371971,0,0,-55,0,0,1,82,85,132,110,25,122.08,184,26.00,9.00,-966.00
2024-06-07 00:45:16.404404,0,0,-49,0,0,0,82,85,132,110,25,122.04,184,27.00,30.00,-977.00
2024-06-07 00:45:16.503195,1,0,-43,0,0,0,82,85,131,110,25,122.10,184,-48.00,45.00,-988.00
2024-06-07 00:45:16.679114,1,0,-37,0,0,0,82,85,131,110,24,122.10,184,65.00,0.00,-1112.00
2024-06-07 00:45:16.707182,1,0,-31,0,0,0,82,85,132,110,24,122.08,185,39.00,5.00,-1056.00
2024-06-07 00:45:16.883931,1,0,-24,0,0,0,82,84,132,110,24,122.06,185,14.00,0.00,-960.00
2024-06-07 00:45:16.911514,1,0,-19,0,0,0,82,84,133,110,24,122.00,185,75.00,-12.00,-1068.00
2024-06-07 00:45:17.013574,1,0,-15,0,0,0,82,84,133,110,24,122.06,185,32.00,-7.00,-969.00
2024-06-07 00:45:17.191507,0,0,-12,0,0,0,82,84,134,110,24,122.02,185,48.00,-14.00,-952.00
2024-06-07 00:45:17.220463,0,0,-10,0,0,0,82,84,134,110,24,122.01,185,11.00,-1.00,-983.00
2024-06-07 00:45:17.319884,0,0,-8,0,0,0,82,84,135,110,24,122.05,185,18.00,-4.00,-1023.00
2024-06-07 00:45:17.498347,1,0,-7,0,0,0,82,84,136,110,24,122.01,185,28.00,-28.00,-905.00
2024-06-07 00:45:17.523205,1,0,-6,0,0,0,82,84,136,110,24,122.09,185,76.00,-18.00,-991.00
2024-06-07 00:45:17.703466,1,0,-5,0,0,0,82,84,136,110,24,122.05,185,-6.00,0.00,-951.00
2024-06-07 00:45:17.727181,1,0,-5,0,0,0,82,84,136,110,24,122.06,186,28.00,-15.00,-1014.00
2024-06-07 00:45:17.908368,1,0,-5,0,0,0,82,84,137,110,24,122.01,186,55.00,-29.00,-978.00
2024-06-07 00:45:17.931275,1,0,-5,0,0,0,82,84,136,110,24,122.04,186,34.00,-20.00,-958.00
2024-06-07 00:45:18.033994,0,0,-5,0,0,0,82,84,135,110,24,121.97,186,-48.00,5.00,-956.00
2024-06-07 00:45:18.215341,0,0,-5,0,0,0,82,84,134,110,24,121.98,186,-51.00,18.00,-973.00
2024-06-07 00:45:18.239394,1,0,-5,0,0,0,82,84,134,110,24,121.99,186,-15.00,14.00,-999.00
2024-06-07 00:45:18.288471,2,0,-5,0,0,0,82,84,135,110,24,121.94,186,-21.00,-5.00,-1033.00
2024-06-07 00:45:18.420362,2,0,-5,0,0,0,82,84,134,110,24,121.97,186,-43.00,27.00,-1002.00
2024-06-07 00:45:18.503394,1,0,-5,0,0,0,82,84,133,110,24,121.96,186,45.00,-24.00,-967.00
2024-06-07 00:45:18.594516,1,0,-5,0,0,0,82,84,133,110,23,121.98,186,-68.00,22.00,-1018.00
2024-06-07 00:45:18.727609,1,0,-5,0,0,0,82,84,131,110,23,121.96,187,18.00,-17.00,-1008.00
2024-06-07 00:45:18.849380,0,0,-5,0,0,0,82,84,130,110,23,121.98,187,14.00,-3.00,-1020.00
2024-06-07 00:45:18.901181,0,0,-5,0,0,0,82,84,129,110,23,121.97,187,-51.00,16.00,-1015.00
2024-06-07 00:45:19.034806,0,0,-5,0,0,0,82,84,129,110,23,121.97,187,-29.00,17.00,-981.00
2024-06-07 00:45:19.106046,1,0,-5,0,0,0,82,84,129,110,23,121.98,187,26.00,-18.00,-939.00
2024-06-07 00:45:19.239171,1,0,-5,0,0,0,82,84,128,110,23,122.01,187,78.00,-31.00,-1075.00
2024-06-07 00:45:19.309220,1,0,-5,0,0,0,82,84,129,110,23,121.97,187,46.00,-31.00,-966.00
2024-06-07 00:45:19.443887,1,0,-5,0,0,0,82,84,128,110,23,121.98,187,48.00,-21.00,-1001.00
2024-06-07 00:45:19.513625,0,0,-5,0,0,0,82,84,128,110,23,121.98,187,50.00,-29.00,-1032.00
2024-06-07 00:45:19.649241,0,0,-5,0,0,0,82,84,128,110,23,121.95,187,26.00,-16.00,-979.00
2024-06-07 00:45:19.716937,0,0,-5,0,0,0,82,84,128,110,23,121.91,188,-12.00,3.00,-984.00
2024-06-07 00:45:19.853424,0,0,-5,0,0,0,82,84,128,110,23,121.97,188,12.00,8.00,-1027.00
2024-06-07 00:45:19.921020,0,0,-11,0,0,0,82,84,128,110,23,121.97,188,45.00,-6.00,-985.00
2024-06-07 00:45:20.022949,0,0,-17,0,0,0,82,84,128,110,23,121.99,188,42.00,-3.00,-1042.00
2024-06-07 00:45:20.160571,0,0,-23,0,0,0,82,84,128,110,23,121.94,188,-34.00,34.00,-1062.00
2024-06-07 00:45:20.227197,0,0,-29,0,0,0,82,84,127,110,23,121.91,188,-25.00,11.00,-1069.00
2024-06-07 00:45:20.328897,1,0,-35,0,0,0,82,84,127,110,23,121.94,188,-16.00,22.00,-996.00
2024-06-07 00:45:20.467737,2,0,-41,0,0,0,82,84,126,110,23,121.93,188,-3.00,18.00,-1034.00
2024-06-07 00:45:20.532964,1,0,-46,0,0,0,82,84,126,110,23,121.91,188,-34.00,11.00,-1012.00
2024-06-07 00:45:20.672556,1,0,-52,0,0,0,82,84,124,110,22,121.93,188,-10.00,28.00,-1021.00
2024-06-07 00:45:20.737105,1,-1,-58,0,0,0,82,84,125,110,22,122.00,189,39.00,-3.00,-955.00
2024-06-07 00:45:20.877352,1,-1,-64,0,0,0,83,84,124,110,22,121.95,189,-2.00,28.00,-1026.00
2024-06-07 00:45:20.940992,1,-1,-70,0,0,0,83,84,124,110,22,121.96,189,52.00,2.00,-974.00
2024-06-07 00:45:21.042785,1,-1,-75,0,0,0,83,84,123,110,22,121.98,189,69.00,1.00,-996.00
2024-06-07 00:45:21.184874,2,-1,-81,0,0,0,83,84,124,110,22,121.93,189,14.00,19.00,-988.00
2024-06-07 00:45:21.247425,2,-1,-87,0,0,0,83,84,123,110,22,121.99,189,58.00,0.00,-985.00
2024-06-07 00:45:21.389317,2,-1,-93,0,0,0,83,84,123,110,22,121.99,189,38.00,-3.00,-1028.00
2024-06-07 00:45:21.450797,1,-1,-99,0,0,0,83,84,124,110,22,121.96,189,-51.00,33.00,-1028.00
2024-06-07 00:45:21.594045,1,-1,-105,0,0,0,83,84,124,110,22,121.89,189,-29.00,48.00,-1015.00
2024-06-07 00:45:21.655092,1,-1,-111,0,0,0,83,84,123,110,22,121.95,189,70.00,2.00,-1056.00
2024-06-07 00:45:21.799221,0,-1,-117,0,0,0,83,84,123,110,22,121.95,190,14.00,17.00,-1023.00
2024-06-07 00:45:21.858745,0,-1,-123,0,0,0,82,84,124,110,22,121.92,190,42.00,12.00,-1043.00
2024-06-07 00:45:22.003648,0,-1,-129,0,0,0,82,84,124,110,22,121.94,190,32.00,7.00,-935.00
2024-06-07 00:45:22.119908,0,-1,-136,0,0,0,82,84,125,110,22,121.88,190,-64.00,30.00,-1022.00
2024-06-07 00:45:22.262244,0,-1,-142,0,0,0,82,84,125,110,22,121.91,190,-56.00,32.00,-983.00
2024-06-07 00:45:22.267771,0,-1,-149,0,0,0,82,84,126,110,22,121.94,190,43.00,0.00,-1004.00
2024-06-07 00:45:22.377779,0,0,-155,0,0,-1,82,84,127,110,22,121.83,190,78.00,-15.00,-1025.00
2024-06-07 00:45:22.448492,0,0,-162,0,0,0,82,84,127,110,22,121.92,190,54.00,0.00,-970.00
2024-06-07 00:45:22.557322,0,0,-168,0,0,0,82,84,126,110,22,121.90,190,28.00,-7.00,-959.00
2024-06-07 00:45:22.634384,0,0,-175,0,0,0,82,84,125,110,22,121.91,190,-24.00,22.00,-972.00
2024-06-07 00:45:22.740305,0,0,178,0,0,0,82,84,125,110,22,121.93,191,56.00,8.00,-1043.00
2024-06-07 00:45:22.828269,0,0,172,0,0,0,82,84,125,110,22,121.92,191,28.00,13.00,-1036.00
2024-06-07 00:45:23.055978,1,0,166,0,0,0,82,84,124,110,22,121.91,191,31.00,-12.00,-1000.00
2024-06-07 00:45:23.056518,1,0,159,0,0,0,82,84,124,110,22,121.94,191,147.00,-40.00,-1022.00
2024-06-07 00:45:23.134256,1,0,153,0,0,0,82,84,123,110,22,121.92,191,-64.00,31.00,-1041.00
2024-06-07 00:45:23.345706,0,0,147,0,0,0,82,84,122,110,22,121.89,191,33.00,-16.00,-1058.00
2024-06-07 00:45:23.345786,0,0,141,0,0,0,82,84,123,110,22,121.86,191,39.00,-7.00,-1028.00
2024-06-07 00:45:23.489424,0,0,135,0,0,0,82,84,124,110,22,121.80,191,-104.00,50.00,-1018.00
2024-06-07 00:45:23.653665,-1,0,129,0,0,0,82,84,124,110,21,121.90,191,-50.00,34.00,-942.00
2024-06-07 00:45:23.653862,-2,0,123,0,0,0,82,84,124,110,21,121.93,191,-34.00,17.00,-948.00
2024-06-07 00:45:23.797187,-3,0,117,0,0,0,82,84,124,110,21,121.94,192,-77.00,41.00,-1100.00
2024-06-07 00:45:23.960455,-2,0,111,0,0,0,82,84,124,110,21,121.86,192,-15.00,-11.00,-1028.00
2024-06-07 00:45:23.961003,-1,0,105,0,1,0,82,84,125,110,21,121.95,192,-62.00,13.00,-1007.00
2024-06-07 00:45:24.117346,1,0,99,0,1,0,82,84,125,110,21,121.90,192,17.00,-18.00,-1022.00
2024-06-07 00:45:24.179384,1,0,93,0,1,0,82,84,125,110,21,121.92,192,14.00,-10.00,-976.00
2024-06-07 00:45:24.255957,2,0,87,0,0,0,82,84,126,110,21,121.93,192,-17.00,11.00,-1024.00
2024-06-07 00:45:24.359164,1,0,81,0,0,0,82,84,126,110,21,121.91,192,-54.00,11.00,-925.00
2024-06-07 00:45:24.461218,1,0,75,0,0,0,82,84,126,110,21,121.97,192,-48.00,4.00,-977.00
2024-06-07 00:45:24.561491,0,0,69,0,0,0,82,84,126,110,21,121.95,192,64.00,-29.00,-1031.00
2024-06-07 00:45:24.666045,0,0,63,0,0,0,82,84,128,110,21,121.98,192,-13.00,11.00,-1033.00
2024-06-07 00:45:24.765620,0,0,57,0,0,0,82,84,128,110,21,121.91,193,68.00,-11.00,-1061.00
2024-06-07 00:45:24.870974,0,0,51,0,0,0,83,84,128,110,21,121.95,193,40.00,-4.00,-1118.00
2024-06-07 00:45:24.969555,0,0,45,0,0,0,83,84,129,110,21,121.96,193,-12.00,15.00,-953.00
2024-06-07 00:45:25.071504,0,0,39,0,0,0,83,84,130,110,21,121.91,193,58.00,-13.00,-1099.00
2024-06-07 00:45:25.179210,1,0,33,0,0,0,83,84,131,110,21,122.00,193,8.00,5.00,-993.00
2024-06-07 00:45:25.275849,1,0,27,0,0,0,83,84,131,110,21,121.94,193,103.00,-16.00,-932.00
2024-06-07 00:45:25.383101,1,0,21,0,0,0,83,84,131,110,21,122.01,193,-2.00,31.00,-1030.00
2024-06-07 00:45:25.480124,0,0,15,0,0,0,83,84,132,110,21,122.03,193,-60.00,24.00,-945.00
2024-06-07 00:45:25.587938,0,0,10,0,0,0,83,84,133,110,21,122.10,193,22.00,17.00,-922.00
2024-06-07 00:45:25.684409,-1,0,6,0,0,0,83,84,133,110,21,122.05,193,-52.00,15.00,-970.00
2024-06-07 00:45:25.792468,-1,0,3,0,0,0,83,84,135,110,21,122.06,194,50.00,-2.00,-1055.00
2024-06-07 00:45:25.887473,0,0,1,0,0,0,82,84,136,110,21,122.11,194,22.00,30.00,-1035.00
2024-06-07 00:45:25.939516,1,0,0,1,0,0,82,84,137,110,21,122.11,194,-38.00,25.00,-993.00
2024-06-07 00:45:26.040607,2,0,-1,0,0,0,82,84,138,110,21,122.09,194,32.00,-11.00,-1013.00
2024-06-07 00:45:26.201989,1,0,-2,0,0,0,82,84,140,110,21,122.01,194,-21.00,-8.00,-957.00
2024-06-07 00:45:26.244883,2,0,-3,0,0,0,82,84,142,120,21,122.05,194,75.00,2.00,-965.00
2024-06-07 00:45:26.406832,2,0,-4,0,0,0,82,84,143,120,21,122.12,194,43.00,-29.00,-925.00
2024-06-07 00:45:26.448474,2,0,-4,0,0,0,82,84,144,120,21,122.08,194,-43.00,8.00,-963.00
2024-06-07 00:45:26.550913,2,0,-4,0,0,0,82,84,144,120,21,122.04,194,41.00,-14.00,-912.00
2024-06-07 00:45:26.653898,2,0,-5,0,0,0,82,84,143,120,21,122.08,194,43.00,-32.00,-1031.00
2024-06-07 00:45:26.755930,1,0,-5,0,0,0,82,84,143,120,21,122.01,195,43.00,0.00,-976.00
2024-06-07 00:45:26.859095,1,0,-5,0,0,0,82,84,142,120,21,122.16,195,-23.00,17.00,-1106.00
2024-06-07 00:45:26.960013,1,0,-5,0,0,0,82,84,139,120,21,122.10,195,-7.00,27.00,-985.00
2024-06-07 00:45:27.060560,1,0,-5,0,0,0,82,84,138,120,21,122.00,195,72.00,-2.00,-1107.00
2024-06-07 00:45:27.225999,1,0,-5,0,0,0,82,84,136,120,21,122.04,195,40.00,-2.00,-946.00
2024-06-07 00:45:27.264756,1,0,-5,0,0,1,82,84,133,120,21,122.00,195,54.00,8.00,-1048.00
2024-06-07 00:45:27.430958,0,0,-5,0,0,1,82,84,131,110,21,122.06,195,-30.00,22.00,-960.00
2024-06-07 00:45:27.468269,0,0,-5,0,0,1,82,84,130,110,21,122.00,195,-1.00,30.00,-1000.00
2024-06-07 00:45:27.635679,0,0,-5,0,0,1,82,84,130,110,20,121.98,195,118.00,-18.00,-1023.00
2024-06-07 00:45:27.672760,0,-1,-5,0,0,0,82,84,129,110,20,121.94,195,-19.00,0.00,-986.00
2024-06-07 00:45:27.841100,1,0,-5,0,0,0,82,84,129,110,20,122.02,196,29.00,2.00,-1033.00
2024-06-07 00:45:27.877117,1,0,-5,0,0,0,82,84,130,110,20,122.00,196,36.00,-21.00,-999.00
2024-06-07 00:45:28.045164,1,0,-5,0,0,0,82,84,131,110,20,122.05,196,4.00,6.00,-1062.00
2024-06-07 00:45:28.080428,0,0,-5,0,0,0,82,84,133,110,20,122.01,196,-36.00,24.00,-1071.00
2024-06-07 00:45:28.205629,0,-1,-5,0,0,0,82,84,134,110,20,122.04,196,-37.00,31.00,-1013.00
2024-06-07 00:45:28.284458,0,0,-5,0,0,0,82,84,135,110,20,122.01,196,29.00,-2.00,-1004.00
2024-06-07 00:45:28.455469,1,0,-5,0,0,-1,82,84,136,110,20,122.04,196,1.00,44.00,-984.00
2024-06-07 00:45:28.488562,1,0,-5,0,0,0,82,84,137,110,20,122.08,196,-27.00,19.00,-1087.00
2024-06-07 00:45:28.659930,2,0,-5,0,0,0,82,84,138,120,20,122.06,196,-13.00,18.00,-923.00
2024-06-07 00:45:28.694107,2,0,-5,0,0,0,82,84,138,120,20,122.08,196,29.00,0.00,-956.00
2024-06-07 00:45:28.794999,2,0,-5,0,0,0,82,84,137,120,20,122.02,197,20.00,-11.00,-1067.00
2024-06-07 00:45:28.896463,1,0,-5,0,0,0,83,84,136,120,20,122.04,197,7.00,16.00,-959.00
2024-06-07 00:45:29.069234,1,0,-5,0,0,0,83,84,136,120,20,122.10,197,-44.00,-11.00,-966.00
2024-06-07 00:45:29.100302,1,0,-5,0,0,0,83,84,134,110,20,122.02,197,-1.00,5.00,-986.00
2024-06-07 00:45:29.274028,1,0,-5,0,0,0,83,84,132,110,20,122.05,197,48.00,-19.00,-967.00
2024-06-07 00:45:29.304241,1,0,-5,0,0,0,83,84,131,110,20,121.93,197,1.00,26.00,-998.00
2024-06-07 00:45:29.406593,1,0,-5,0,0,0,83,84,129,110,20,121.95,197,14.00,24.00,-978.00
2024-06-07 00:45:29.581738,1,0,-5,0,0,1,83,84,127,110,20,122.00,197,-18.00,23.00,-925.00
2024-06-07 00:45:29.610819,1,0,-5,0,0,1,83,84,126,110,20,122.02,197,19.00,-11.00,-1069.00
2024-06-07 00:45:29.661118,0,0,-5,0,0,1,83,84,126,110,20,121.94,197,58.00,-19.00,-1106.00
2024-06-07 00:45:29.786183,1,0,-5,0,0,0,83,84,127,110,20,121.97,198,73.00,-11.00,-1027.00
2024-06-07 00:45:29.919712,2,0,-5,0,0,0,83,84,128,110,20,122.01,198,32.00,-8.00,-986.00
2024-06-07 00:45:29.967865,2,0,-5,0,0,0,83,84,130,110,20,122.02,198,-30.00,4.00,-1077.00
2024-06-07 00:45:30.070650,2,0,-5,0,0,0,83,84,131,110,20,122.04,198,-3.00,3.00,-868.00
2024-06-07 00:45:30.195942,1,0,-5,0,0,0,83,84,132,110,20,121.98,198,73.00,-1.00,-1072.00
2024-06-07 00:45:30.273504,0,0,-5,0,0,-1,83,84,134,110,20,122.02,198,25.00,25.00,-943.00
2024-06-07 00:45:30.400456,0,0,-5,0,0,-1,83,84,135,110,20,121.99,198,56.00,11.00,-983.00
2024-06-07 00:45:30.477202,0,0,-5,0,0,0,83,84,135,110,20,122.04,198,-19.00,20.00,-970.00
2024-06-07 00:45:30.605114,0,0,-5,0,0,0,83,84,135,110,20,121.99,198,22.00,27.00,-1031.00
2024-06-07 00:45:30.681352,0,0,-5,0,0,0,83,84,137,110,20,122.06,198,22.00,-2.00,-1062.00
2024-06-07 00:45:30.809845,0,0,-5,0,0,0,83,84,137,110,20,122.02,199,12.00,-11.00,-1005.00
2024-06-07 00:45:30.885168,0,0,-5,0,0,0,82,84,138,110,20,122.02,199,-37.00,42.00,-1053.00
2024-06-07 00:45:31.015085,0,0,-5,0,0,0,82,84,138,120,20,122.04,199,12.00,4.00,-987.00
2024-06-07 00:45:31.089243,0,0,-5,0,0,0,82,84,138,120,20,122.02,199,26.00,6.00,-951.00
2024-06-07 00:45:31.219573,0,0,-5,0,0,0,82,84,137,120,20,122.04,199,0.00,37.00,-1017.00
2024-06-07 00:45:31.294204,1,0,-5,0,0,0,82,84,139,110,20,122.03,199,8.00,19.00,-995.00
2024-06-07 00:45:31.424335,1,0,-5,0,0,0,82,84,138,110,20,122.04,199,34.00,-13.00,-1030.00
2024-06-07 00:45:31.499820,1,0,-5,0,0,0,82,84,138,110,20,121.99,199,-5.00,-2.00,-1029.00
2024-06-07 00:45:31.599695,1,0,-5,0,0,0,82,84,138,110,19,122.00,199,39.00,5.00,-938.00
2024-06-07 00:45:31.731813,1,0,-5,0,0,0,82,84,138,110,19,122.05,200,24.00,0.00,-1005.00
2024-06-07 00:45:31.804429,0,0,-5,0,0,0,82,84,138,110,19,122.04,200,79.00,3.00,-1077.00
2024-06-07 00:45:31.936897,0,0,-5,0,0,0,81,84,136,110,19,122.02,200,-8.00,8.00,-1041.00
2024-06-07 00:45:32.012858,0,0,-5,0,0,0,81,84,137,110,19,122.05,200,62.00,0.00,-999.00
2024-06-07 00:45:32.111039,0,0,-5,0,0,0,81,84,136,110,19,122.04,200,40.00,-1.00,-1070.00
2024-06-07 00:45:32.212325,0,-1,-5,0,0,0,81,84,135,110,19,121.96,200,-67.00,47.00,-874.00
2024-06-07 00:45:32.314744,0,-1,-5,0,0,0,81,84,135,110,19,122.04,200,106.00,-18.00,-1012.00
2024-06-07 00:45:32.415049,1,0,-5,0,0,0,81,84,134,110,19,122.07,200,50.00,-3.00,-971.00
2024-06-07 00:45:32.550870,1,0,-5,0,0,1,81,84,133,110,19,122.05,200,20.00,2.00,-920.00
2024-06-07 00:45:32.620143,1,0,-5,0,0,0,81,84,133,110,19,122.10,200,5.00,8.00,-1084.00
2024-06-07 00:45:32.756108,0,0,-5,0,0,0,81,84,133,110,19,122.00,201,23.00,-6.00,-1043.00
2024-06-07 00:45:32.829307,0,0,-5,0,0,0,81,84,135,110,19,122.02,201,9.00,-6.00,-1099.00
2024-06-07 00:45:32.925152,0,0,-5,0,0,0,82,84,135,110,19,122.03,201,-3.00,16.00,-1007.00
2024-06-07 00:45:33.062719,0,0,-5,0,0,0,82,84,137,110,19,122.08,201,9.00,21.00,-955.00
2024-06-07 00:45:33.129009,0,0,-5,0,0,0,82,84,138,110,19,122.08,201,-28.00,24.00,-967.00
2024-06-07 00:45:33.267766,-1,-1,-5,0,0,0,82,84,140,110,19,122.05,201,-123.00,54.00,-983.00
2024-06-07 00:45:33.282201,-1,-1,-5,0,0,0,82,84,141,120,19,122.09,201,60.00,-18.00,-1073.00
2024-06-07 00:45:33.472766,0,0,-5,0,0,0,82,84,142,120,19,122.11,201,24.00,-13.00,-941.00
2024-06-07 00:45:33.486593,2,0,-5,0,0,0,82,84,143,120,19,122.04,201,65.00,-30.00,-977.00
2024-06-07 00:45:33.678367,2,1,-5,0,0,0,82,84,143,120,19,122.08,201,-9.00,31.00,-965.00
2024-06-07 00:45:33.689891,1,0,-5,0,0,0,82,84,142,120,19,122.07,202,32.00,3.00,-999.00
2024-06-07 00:45:33.881814,1,0,-5,0,0,0,82,84,141,120,19,122.06,202,45.00,-28.00,-999.00
2024-06-07 00:45:33.893978,1,0,-5,0,0,0,81,84,141,120,19,122.11,202,-50.00,26.00,-946.00
2024-06-07 00:45:34.089980,0,0,-5,0,0,0,81,84,139,120,19,122.06,202,-23.00,30.00,-1023.00
2024-06-07 00:45:34.099762,0,0,-5,0,0,0,81,84,138,120,19,122.01,202,28.00,-1.00,-1002.00
2024-06-07 00:45:34.201052,0,0,-5,0,0,0,81,84,136,110,19,121.99,202,-25.00,12.00,-1057.00
2024-06-07 00:45:34.302217,0,0,-5,0,0,0,81,84,134,110,19,122.07,202,-8.00,24.00,-997.00
2024-06-07 00:45:34.496786,0,0,-5,0,0,1,81,84,133,110,19,122.00,202,1.00,22.00,-1029.00
2024-06-07 00:45:34.507319,0,0,-5,0,0,0,81,84,131,110,19,122.02,202,2.00,19.00,-1008.00
2024-06-07 00:45:34.701552,1,0,-5,0,0,0,81,84,130,110,19,121.97,202,125.00,-48.00,-1026.00
2024-06-07 00:45:34.710060,1,0,-5,0,0,0,81,84,129,110,19,122.02,203,-49.00,47.00,-1117.00
2024-06-07 00:45:34.906013,1,0,-5,0,0,0,81,84,128,110,19,122.05,203,-30.00,31.00,-1008.00
2024-06-07 00:45:34.913790,1,0,-5,0,0,0,83,84,128,110,19,121.93,203,50.00,-21.00,-1043.00
2024-06-07 00:45:35.110584,1,0,-5,0,0,0,83,84,128,110,19,121.99,203,-10.00,32.00,-1008.00
2024-06-07 00:45:35.119013,0,0,-5,0,0,0,83,84,128,110,19,121.88,203,68.00,-15.00,-1008.00
2024-06-07 00:45:35.315531,0,0,-5,0,0,0,83,84,127,110,19,121.99,203,-37.00,33.00,-1073.00
2024-06-07 00:45:35.322801,0,0,-5,0,0,0,83,84,128,110,19,121.98,203,-88.00,59.00,-993.00
2024-06-07 00:45:35.520158,0,0,-5,0,0,0,83,84,128,110,19,121.97,203,10.00,4.00,-1025.00
2024-06-07 00:45:35.527189,0,0,-5,0,0,0,83,84,129,110,19,121.91,203,28.00,9.00,-1061.00
2024-06-07 00:45:35.725100,0,0,-5,0,0,0,83,84,128,110,19,121.96,203,12.00,16.00,-1052.00
2024-06-07 00:45:35.730699,0,0,-5,0,0,0,83,84,129,110,19,121.98,204,34.00,-7.00,-1016.00
2024-06-07 00:45:35.929796,1,0,-5,0,0,0,83,84,130,110,19,121.96,204,12.00,-5.00,-970.00
2024-06-07 00:45:35.935429,0,0,-5,0,0,0,82,84,130,110,19,121.99,204,66.00,-9.00,-974.00
2024-06-07 00:45:36.134561,0,0,-5,0,0,0,82,84,132,110,19,121.96,204,-15.00,15.00,-1062.00
2024-06-07 00:45:36.139075,0,0,-5,0,0,0,82,84,132,110,19,122.06,204,25.00,-4.00,-973.00
2024-06-07 00:45:36.339653,0,0,-5,0,0,0,82,84,133,110,19,121.94,204,-51.00,20.00,-984.00
2024-06-07 00:45:36.346360,-1,0,-5,0,0,0,82,84,133,110,19,122.00,204,-5.00,19.00,-974.00
2024-06-07 00:45:36.444811,0,0,-5,0,0,0,82,84,133,110,19,122.07,204,55.00,-16.00,-940.00
2024-06-07 00:45:36.547331,0,0,-5,0,0,0,82,84,133,110,19,122.00,204,-47.00,23.00,-884.00
2024-06-07 00:45:36.648780,0,0,-5,0,0,0,82,84,134,110,18,122.00,204,45.00,-12.00,-1009.00
2024-06-07 00:45:36.751091,1,0,-5,0,0,0,82,84,135,110,18,122.07,205,51.00,-3.00,-1032.00
2024-06-07 00:45:36.853148,2,0,-5,0,0,0,82,84,137,110,18,121.98,205,-152.00,52.00,-954.00
2024-06-07 00:45:36.954777,1,0,-5,0,0,0,82,84,137,110,18,122.05,205,44.00,-5.00,-1045.00
2024-06-07 00:45:37.172021,1,0,-5,0,0,0,82,84,137,110,18,121.98,205,0.00,16.00,-1025.00
2024-06-07 00:45:37.172739,0,0,-5,0,0,0,82,84,138,110,18,122.01,205,40.00,-14.00,-978.00
2024-06-07 00:45:37.315265,0,0,-5,0,0,0,82,84,138,110,18,122.02,205,77.00,-17.00,-928.00
2024-06-07 00:45:37.317449,0,0,-5,0,0,0,82,84,140,110,18,122.01,205,125.00,-44.00,-990.00
2024-06-07 00:45:37.447105,0,0,-5,0,0,0,82,84,140,110,18,121.97,205,0.00,-8.00,-947.00
2024-06-07 00:45:37.518048,0,0,-5,0,0,0,82,84,141,110,18,122.04,205,-51.00,29.00,-1062.00
2024-06-07 00:45:37.625002,0,0,-5,0,0,0,82,84,141,110,18,122.03,205,50.00,-14.00,-971.00
2024-06-07 00:45:37.719770,0,0,-5,0,0,0,82,84,141,120,18,122.03,206,100.00,-30.00,-928.00
2024-06-07 00:45:37.954652,0,0,-5,0,0,0,82,84,141,120,18,122.03,206,73.00,-23.00,-943.00
2024-06-07 00:45:37.954960,1,0,-5,0,0,0,82,84,142,120,18,122.08,206,-82.00,34.00,-947.00
