TS,pitch,roll,yaw,vgx,vgy,vgz,templ,temph,tof,h,bat,baro,time,agx,agy,agz
2024-06-07 10:12:45.512722,0,0,0,0,0,0,71,73,10,0,90,129.15,0,7.00,9.00,-998.00
2024-06-07 10:12:45.614558,0,0,0,0,0,0,71,73,10,0,90,129.21,0,7.00,8.00,-997.00
2024-06-07 10:12:45.665683,0,0,0,0,0,0,71,73,10,0,90,129.21,0,7.00,8.00,-1000.00
2024-06-07 10:12:45.820482,0,0,0,0,0,0,71,73,10,0,90,129.15,0,5.00,9.00,-1000.00
2024-06-07 10:12:45.869694,0,0,0,0,0,0,71,73,10,0,90,129.16,0,9.00,9.00,-996.00
2024-06-07 10:12:45.972035,0,0,0,0,0,0,71,73,10,0,90,129.20,0,8.00,9.00,-999.00
2024-06-07 10:12:46.124304,0,0,0,0,0,0,71,73,10,0,90,129.21,0,5.00,9.00,-1000.00
2024-06-07 10:12:46.175554,0,0,0,0,0,0,71,73,10,0,90,129.19,0,6.00,9.00,-1000.00
2024-06-07 10:12:46.328993,0,0,0,0,0,0,71,73,10,0,90,129.18,0,8.00,9.00,-999.00
2024-06-07 10:12:46.379605,0,0,0,0,0,0,70,73,10,0,90,129.15,0,6.00,8.00,-1000.00
2024-06-07 10:12:46.534984,0,0,0,0,0,0,70,73,10,0,90,129.19,0,6.00,8.00,-999.00
2024-06-07 10:12:46.583546,0,0,0,0,0,0,70,73,10,0,90,129.17,0,7.00,8.00,-1000.00
2024-06-07 10:12:46.738164,0,0,0,0,0,0,70,73,10,0,90,129.17,0,7.00,9.00,-1002.00
2024-06-07 10:12:46.787560,0,0,0,0,0,0,70,73,10,0,90,129.20,0,7.00,8.00,-998.00
2024-06-07 10:12:46.889608,0,0,0,0,0,0,70,73,10,0,90,129.16,0,7.00,8.00,-1001.00
2024-06-07 10:12:46.991592,0,0,0,0,0,0,70,73,10,0,90,129.24,0,6.00,7.00,-1000.00
2024-06-07 10:12:47.093613,0,0,0,0,0,0,70,73,10,0,90,129.18,0,8.00,8.00,-996.00
2024-06-07 10:12:47.250181,0,0,0,0,0,0,70,73,10,0,90,129.21,0,8.00,8.00,-999.00
2024-06-07 10:12:47.297604,0,0,0,0,0,0,70,73,10,0,90,129.21,0,8.00,9.00,-998.00
2024-06-07 10:12:47.399506,0,0,0,0,0,0,71,73,10,0,90,129.19,0,6.00,8.00,-1002.00
2024-06-07 10:12:47.557176,0,0,0,0,0,0,71,73,10,0,90,129.17,0,6.00,8.00,-1000.00
2024-06-07 10:12:47.604307,0,0,0,0,0,0,71,73,10,0,90,129.14,0,7.00,9.00,-1000.00
2024-06-07 10:12:47.762101,0,0,0,0,0,0,71,73,10,0,90,129.21,0,8.00,9.00,-998.00
2024-06-07 10:12:47.807473,0,0,0,0,0,0,71,73,10,0,90,129.16,0,7.00,9.00,-1000.00
2024-06-07 10:12:47.966954,0,0,0,0,0,0,71,73,10,0,90,129.19,0,7.00,8.00,-998.00
2024-06-07 10:12:48.012493,0,0,0,0,0,0,71,73,10,0,90,129.23,0,7.00,8.00,-1000.00
2024-06-07 10:12:48.171707,0,0,0,0,0,0,71,73,10,0,90,129.15,0,7.00,8.00,-999.00
2024-06-07 10:12:48.216595,0,0,0,0,0,0,71,73,10,0,90,129.18,0,5.00,6.00,-1001.00
2024-06-07 10:12:48.376486,0,0,0,0,0,0,71,73,10,0,90,129.21,0,5.00,8.00,-1000.00
2024-06-07 10:12:48.420589,0,0,0,0,0,0,71,73,10,0,90,129.17,0,6.00,8.00,-1002.00
2024-06-07 10:12:48.581404,0,0,0,0,0,0,71,73,10,0,90,129.24,0,6.00,8.00,-999.00
2024-06-07 10:12:48.624545,0,0,0,0,0,0,71,73,10,0,90,129.20,0,5.00,8.00,-1001.00
2024-06-07 10:12:48.786195,0,0,0,0,0,0,71,73,10,0,90,129.20,0,6.00,9.00,-1001.00
2024-06-07 10:12:48.828659,0,0,0,0,0,0,71,73,10,0,90,129.21,0,7.00,7.00,-1002.00
2024-06-07 10:12:48.879495,0,0,0,0,0,0,71,73,10,0,90,129.18,0,8.00,7.00,-1000.00
2024-06-07 10:12:48.981790,0,0,0,0,0,0,71,73,10,0,90,129.16,0,8.00,9.00,-1002.00
2024-06-07 10:12:49.083588,0,0,0,0,0,0,71,73,10,0,90,129.21,0,7.00,9.00,-1001.00
2024-06-07 10:12:49.195893,0,0,0,0,0,0,71,73,10,0,90,129.14,0,8.00,9.00,-999.00
2024-06-07 10:12:49.287662,0,0,0,0,0,0,71,73,10,0,90,129.21,0,5.00,8.00,-1002.00
2024-06-07 10:12:49.400585,0,0,0,0,0,0,71,73,10,0,90,129.24,0,7.00,10.00,-1001.00
2024-06-07 10:12:49.492331,0,0,0,0,0,0,71,73,10,0,90,129.23,0,6.00,8.00,-1001.00
2024-06-07 10:12:49.593691,0,0,0,0,0,0,71,73,10,0,90,129.25,0,6.00,8.00,-1000.00
2024-06-07 10:12:49.695524,0,0,0,0,0,0,71,73,10,0,90,129.24,0,6.00,7.00,-998.00
2024-06-07 10:12:49.810260,0,0,0,0,0,0,71,73,10,0,90,129.18,0,6.00,8.00,-1000.00
2024-06-07 10:12:49.899695,0,0,0,0,0,0,71,73,10,0,90,129.22,0,7.00,10.00,-1002.00
2024-06-07 10:12:50.003126,0,0,0,0,0,0,71,73,10,0,90,129.23,0,5.00,9.00,-998.00
2024-06-07 10:12:50.106017,0,0,0,0,0,0,71,73,10,0,90,129.22,0,8.00,9.00,-1001.00
2024-06-07 10:12:50.207655,0,0,0,0,0,0,71,73,10,0,90,129.23,0,4.00,7.00,-1000.00
2024-06-07 10:12:50.307546,0,0,0,0,0,0,71,73,10,0,90,129.24,0,6.00,10.00,-1002.00
2024-06-07 10:12:50.424566,0,0,0,0,0,0,71,73,10,0,90,129.22,0,7.00,8.00,-1002.00
2024-06-07 10:12:50.511581,0,0,0,0,0,0,71,73,10,0,90,129.16,0,6.00,8.00,-996.00
2024-06-07 10:12:50.630844,0,0,0,0,0,0,71,73,10,0,90,129.17,0,7.00,8.00,-999.00
2024-06-07 10:12:50.716281,0,0,0,0,0,0,71,73,10,0,90,129.19,0,7.00,9.00,-999.00
2024-06-07 10:12:50.834442,0,0,0,0,0,0,71,73,10,0,90,129.19,0,8.00,8.00,-1000.00
2024-06-07 10:12:50.924937,0,0,0,0,0,0,71,73,10,0,90,129.20,0,6.00,8.00,-999.00
2024-06-07 10:12:51.021729,0,0,0,0,0,0,71,73,10,0,90,129.18,0,7.00,8.00,-999.00
2024-06-07 10:12:51.142020,0,0,0,0,0,0,71,73,10,0,90,129.18,0,8.00,9.00,-997.00
2024-06-07 10:12:51.225498,0,0,0,0,0,0,71,73,10,0,90,129.13,0,6.00,9.00,-997.00
2024-06-07 10:12:51.346521,0,0,0,0,0,0,71,73,10,0,90,129.21,0,6.00,7.00,-1001.00
2024-06-07 10:12:51.430745,0,0,0,0,0,0,71,73,10,0,90,129.16,0,7.00,8.00,-999.00
2024-06-07 10:12:51.551014,0,0,0,0,0,0,71,73,10,0,90,129.16,0,7.00,9.00,-998.00
2024-06-07 10:12:51.633455,0,0,0,0,0,0,71,73,10,0,90,129.15,0,6.00,9.00,-999.00
2024-06-07 10:12:51.761413,0,0,0,0,0,0,71,73,10,0,90,129.19,0,6.00,8.00,-998.00
2024-06-07 10:12:51.837457,0,0,0,0,0,0,71,73,10,0,90,129.15,0,6.00,9.00,-1000.00
2024-06-07 10:12:51.960748,0,0,0,0,0,0,71,73,10,0,90,129.18,0,7.00,8.00,-997.00
2024-06-07 10:12:52.041410,0,0,0,0,0,0,71,73,10,0,90,129.15,0,6.00,8.00,-1000.00
2024-06-07 10:12:52.165503,0,0,0,0,0,0,71,73,10,0,90,129.23,0,7.00,9.00,-997.00
2024-06-07 10:12:52.245526,0,0,0,0,0,0,71,73,10,0,90,129.21,0,7.00,8.00,-999.00
2024-06-07 10:12:52.296300,0,0,0,0,0,0,71,73,10,0,90,129.12,0,6.00,9.00,-1002.00
2024-06-07 10:12:52.463261,0,0,0,0,0,0,72,74,10,0,90,129.19,0,6.00,8.00,-1000.00
2024-06-07 10:12:52.500294,0,0,0,0,0,0,72,74,10,0,90,129.21,0,7.00,9.00,-1000.00
2024-06-07 10:12:52.602304,0,0,0,0,0,0,72,74,10,0,90,129.17,0,17.00,21.00,-1010.00
2024-06-07 10:12:52.779773,0,0,0,0,0,0,72,74,10,0,90,129.17,0,11.00,-25.00,-991.00
2024-06-07 10:12:52.806329,0,0,0,0,0,0,72,74,10,0,90,129.17,0,23.00,0.00,-959.00
2024-06-07 10:12:52.984593,0,0,0,0,0,0,72,74,10,0,90,129.17,0,56.00,-58.00,-983.00
2024-06-07 10:12:53.010254,0,1,0,0,0,0,72,74,10,0,90,129.17,0,2.00,8.00,-1118.00
2024-06-07 10:12:53.112225,-3,4,0,0,0,0,72,74,10,0,90,129.17,0,133.00,-51.00,-1214.00
2024-06-07 10:12:53.216035,-1,3,0,1,1,-3,72,74,10,0,90,129.17,0,43.00,0.00,-1327.00
2024-06-07 10:12:53.317451,2,-1,0,1,1,-5,72,74,13,0,90,129.24,0,5.00,-40.00,-1205.00
2024-06-07 10:12:53.418313,4,-3,0,1,1,-6,72,74,21,0,90,129.73,0,-20.00,-14.00,-1095.00
2024-06-07 10:12:53.520295,2,-2,0,0,0,-7,72,74,30,0,90,129.81,0,-28.00,19.00,-1027.00
2024-06-07 10:12:53.708331,2,-1,0,0,0,-6,72,74,37,0,90,129.91,1,7.00,-11.00,-940.00
2024-06-07 10:12:53.725902,1,0,0,0,0,-5,72,74,46,10,90,129.92,1,-3.00,24.00,-911.00
2024-06-07 10:12:53.826325,0,0,0,0,0,-4,72,74,55,10,90,130.09,1,1.00,-5.00,-952.00
2024-06-07 10:12:53.928411,0,0,0,0,0,-4,72,74,63,20,90,130.15,1,-24.00,26.00,-916.00
2024-06-07 10:12:54.030247,1,0,1,0,0,-3,72,74,70,20,90,130.14,1,64.00,-24.00,-905.00
2024-06-07 10:12:54.213355,1,0,1,0,0,-2,72,74,77,20,90,130.21,1,0.00,-17.00,-933.00
2024-06-07 10:12:54.236415,2,0,1,0,0,-2,72,74,83,30,90,130.27,1,46.00,0.00,-950.00
2024-06-07 10:12:54.336843,3,1,1,0,0,-1,72,74,88,30,90,130.30,1,-44.00,10.00,-891.00
2024-06-07 10:12:54.520565,1,1,1,0,0,0,72,75,93,30,90,130.47,1,50.00,-21.00,-948.00
2024-06-07 10:12:54.540792,0,1,1,0,0,0,72,75,97,30,90,130.36,1,93.00,-56.00,-930.00
2024-06-07 10:12:54.725278,0,1,1,0,0,0,72,75,100,40,90,130.44,2,33.00,-45.00,-919.00
2024-06-07 10:12:54.744127,1,2,1,0,0,0,72,75,102,40,90,130.49,2,34.00,-34.00,-901.00
2024-06-07 10:12:54.846576,0,2,1,0,0,0,72,75,104,40,90,130.55,2,-52.00,21.00,-955.00
2024-06-07 10:12:55.033206,0,1,0,0,0,1,72,75,107,40,90,130.57,2,-7.00,-21.00,-953.00
2024-06-07 10:12:55.050156,0,1,0,0,0,1,72,75,107,40,90,130.50,2,28.00,-21.00,-946.00
2024-06-07 10:12:55.237376,1,1,0,0,0,1,72,75,107,50,90,130.48,2,81.00,-12.00,-959.00
2024-06-07 10:12:55.254089,2,1,0,0,0,1,72,75,109,50,90,130.54,2,70.00,-27.00,-913.00
2024-06-07 10:12:55.448469,3,1,0,0,0,1,72,75,108,50,90,130.54,2,78.00,-41.00,-919.00
2024-06-07 10:12:55.458238,3,1,0,0,0,1,71,74,108,50,90,130.53,2,51.00,-2.00,-941.00
2024-06-07 10:12:55.646912,3,1,0,0,0,2,71,74,107,50,90,130.55,2,65.00,5.00,-940.00
2024-06-07 10:12:55.662313,3,1,0,0,0,2,71,74,105,50,90,130.55,3,-4.00,-16.00,-974.00
2024-06-07 10:12:55.852216,2,0,1,0,0,2,71,74,103,50,90,130.56,3,46.00,-25.00,-970.00
2024-06-07 10:12:55.866166,2,0,1,0,0,2,71,74,102,50,90,130.55,3,73.00,-50.00,-988.00
2024-06-07 10:12:55.968292,3,0,1,0,0,2,71,74,100,50,90,130.54,3,26.00,-17.00,-953.00
2024-06-07 10:12:56.021666,2,0,1,0,0,2,71,74,98,50,90,130.57,3,42.00,-35.00,-934.00
2024-06-07 10:12:56.124047,1,1,0,0,0,2,71,74,96,40,90,130.47,3,-42.00,-23.00,-954.00
2024-06-07 10:12:56.224836,1,1,0,0,0,2,71,74,93,40,90,130.39,3,-20.00,-20.00,-1050.00
2024-06-07 10:12:56.325252,0,0,0,-1,0,2,71,74,91,40,90,130.37,3,27.00,-27.00,-982.00
2024-06-07 10:12:56.469413,0,0,0,0,0,2,72,74,89,40,90,130.40,3,58.00,-48.00,-1029.00
2024-06-07 10:12:56.529443,1,1,0,0,0,1,72,74,86,40,90,130.37,3,52.00,-52.00,-982.00
2024-06-07 10:12:56.670793,1,2,0,0,0,1,72,74,85,40,90,130.42,4,84.00,-37.00,-989.00
2024-06-07 10:12:56.734281,3,2,1,0,0,1,72,74,82,30,90,130.38,4,52.00,-57.00,-1027.00
2024-06-07 10:12:56.835494,3,3,1,0,0,1,72,74,79,30,90,130.35,4,35.00,-30.00,-1050.00
2024-06-07 10:12:56.937232,2,2,1,0,0,1,72,74,77,30,90,130.32,4,65.00,-44.00,-948.00
2024-06-07 10:12:57.187360,2,3,1,0,0,1,72,74,74,30,90,130.25,4,-21.00,-21.00,-1038.00
2024-06-07 10:12:57.190804,1,3,1,0,0,1,72,74,72,30,90,130.22,4,68.00,-78.00,-1028.00
2024-06-07 10:12:57.245979,0,3,1,0,0,1,72,74,69,30,90,130.14,4,29.00,-37.00,-1112.00
2024-06-07 10:12:57.346024,1,2,1,0,0,0,72,74,67,20,90,130.18,4,94.00,-34.00,-1066.00
2024-06-07 10:12:57.491089,1,2,1,0,0,0,71,73,65,20,90,130.20,4,41.00,-49.00,-1001.00
2024-06-07 10:12:57.549553,1,2,0,0,0,0,71,73,64,20,90,130.17,4,75.00,-75.00,-1036.00
2024-06-07 10:12:57.694900,1,2,1,0,0,0,71,73,62,20,90,130.15,5,81.00,-45.00,-1062.00
2024-06-07 10:12:57.753105,1,2,0,0,0,0,71,73,61,20,90,130.16,5,-3.00,-25.00,-974.00
2024-06-07 10:12:57.855076,1,2,0,0,0,0,71,73,61,20,90,130.10,5,2.00,-4.00,-1063.00
2024-06-07 10:12:58.004672,1,2,1,0,0,0,71,73,61,20,90,130.11,5,55.00,-40.00,-1058.00
2024-06-07 10:12:58.059380,1,1,1,0,0,0,71,73,60,20,90,130.10,5,55.00,-39.00,-997.00
2024-06-07 10:12:58.207197,1,1,1,0,0,0,71,73,60,20,90,130.16,5,55.00,-64.00,-965.00
2024-06-07 10:12:58.264444,1,1,1,0,0,0,71,73,61,20,90,130.13,5,-62.00,-29.00,-986.00
2024-06-07 10:12:58.413776,1,2,1,0,0,0,71,73,61,20,90,130.17,5,80.00,-21.00,-1005.00
2024-06-07 10:12:58.466915,1,2,1,0,0,0,72,74,61,20,90,130.16,5,63.00,-33.00,-1069.00
2024-06-07 10:12:58.616867,1,2,0,0,0,0,72,74,62,20,90,130.14,5,99.00,-50.00,-1006.00
2024-06-07 10:12:58.670975,1,2,1,0,0,0,72,74,62,20,90,130.15,6,10.00,-49.00,-981.00
2024-06-07 10:12:58.773526,1,2,1,0,0,0,72,74,63,20,90,130.12,6,75.00,-40.00,-1001.00
2024-06-07 10:12:58.923730,1,2,1,0,0,-1,72,74,64,20,90,130.09,6,1.00,-36.00,-978.00
2024-06-07 10:12:58.977092,1,2,1,0,0,0,72,74,65,20,90,130.16,6,21.00,-8.00,-1051.00
2024-06-07 10:12:59.081005,2,2,1,0,0,0,72,74,66,20,90,130.16,6,57.00,-7.00,-1028.00
2024-06-07 10:12:59.183001,2,2,0,0,0,0,72,74,67,20,90,130.15,6,59.00,-30.00,-994.00
2024-06-07 10:12:59.283897,3,2,0,0,0,-1,72,74,68,20,90,130.21,6,34.00,-35.00,-964.00
2024-06-07 10:12:59.385078,3,2,0,0,0,0,72,74,68,20,90,130.10,6,32.00,-9.00,-1017.00
2024-06-07 10:12:59.487062,2,1,0,0,0,0,72,75,69,20,90,130.23,6,-22.00,-18.00,-975.00
2024-06-07 10:12:59.743354,1,0,0,0,0,0,72,75,70,20,90,130.18,6,42.00,-16.00,-977.00
2024-06-07 10:12:59.748207,2,1,0,0,0,0,72,75,71,20,90,130.15,7,110.00,-45.00,-1023.00
2024-06-07 10:12:59.793254,2,1,0,0,0,0,72,75,72,20,90,130.22,7,7.00,-44.00,-982.00
2024-06-07 10:12:59.845039,1,1,0,0,0,0,72,75,73,20,90,130.25,7,42.00,-5.00,-986.00
2024-06-07 10:12:59.947835,2,1,0,0,0,0,72,75,75,20,90,130.24,7,0.00,-27.00,-970.00
2024-06-07 10:13:00.050322,3,0,0,0,0,0,72,75,76,20,90,130.20,7,87.00,-34.00,-1046.00
2024-06-07 10:13:00.150052,3,0,0,0,0,0,72,75,78,30,90,130.15,7,42.00,-1.00,-987.00
2024-06-07 10:13:00.252040,3,0,0,0,0,-1,72,75,79,30,90,130.18,7,26.00,-3.00,-980.00
2024-06-07 10:13:00.354983,4,0,0,0,0,-1,72,75,80,30,90,130.23,7,61.00,-15.00,-1033.00
2024-06-07 10:13:00.456280,4,1,0,0,0,-1,72,74,81,30,90,130.22,7,97.00,-53.00,-943.00
2024-06-07 10:13:00.562468,4,2,0,0,0,0,72,74,81,30,90,130.25,7,55.00,-17.00,-1011.00
2024-06-07 10:13:00.660001,4,2,0,0,0,0,72,74,81,30,90,130.21,8,93.00,-20.00,-1013.00
2024-06-07 10:13:00.766869,3,1,0,0,0,0,72,74,81,30,90,130.23,8,45.00,-24.00,-979.00
2024-06-07 10:13:00.864423,3,2,0,0,0,0,72,74,80,30,90,130.21,8,34.00,-13.00,-991.00
2024-06-07 10:13:00.971880,2,2,0,0,0,0,72,74,80,30,90,130.24,8,55.00,-10.00,-960.00
2024-06-07 10:13:01.068229,1,2,0,0,0,0,72,74,80,30,90,130.21,8,35.00,-23.00,-979.00
2024-06-07 10:13:01.177004,2,1,0,0,0,0,72,74,80,30,90,130.31,8,31.00,28.00,-1014.00
2024-06-07 10:13:01.272230,2,0,1,0,0,0,72,74,80,30,90,130.30,8,44.00,-19.00,-972.00
2024-06-07 10:13:01.381303,2,0,1,0,0,0,72,74,80,30,90,130.25,8,17.00,0.00,-1021.00
2024-06-07 10:13:01.479329,2,0,1,0,0,0,72,75,80,30,90,130.22,8,-8.00,0.00,-956.00
2024-06-07 10:13:01.578478,2,0,1,0,0,0,72,75,82,30,90,130.26,8,21.00,-16.00,-980.00
2024-06-07 10:13:01.681028,2,1,1,0,0,0,72,75,82,30,90,130.27,9,80.00,-41.00,-996.00
2024-06-07 10:13:01.784156,2,1,1,0,0,0,72,75,83,30,90,130.26,9,2.00,-7.00,-941.00
2024-06-07 10:13:01.884370,2,1,1,0,0,0,72,75,85,30,90,130.29,9,53.00,-29.00,-986.00
2024-06-07 10:13:01.995867,2,1,1,0,0,0,72,75,86,30,90,130.25,9,74.00,-28.00,-993.00
2024-06-07 10:13:02.087804,1,1,1,0,0,0,72,75,87,40,90,130.32,9,110.00,-36.00,-962.00
2024-06-07 10:13:02.200592,1,1,1,0,0,0,72,75,88,40,90,130.21,9,14.00,5.00,-963.00
2024-06-07 10:13:02.292063,1,0,1,0,0,0,72,75,88,40,90,130.28,9,59.00,-21.00,-986.00
2024-06-07 10:13:02.407375,1,0,1,0,0,0,72,75,88,40,90,130.28,9,31.00,-41.00,-974.00
2024-06-07 10:13:02.496479,1,0,1,0,0,0,72,75,88,40,90,130.30,9,-11.00,0.00,-1016.00
2024-06-07 10:13:02.598083,1,0,1,0,0,0,72,75,89,40,90,130.27,9,66.00,-24.00,-977.00
2024-06-07 10:13:02.713546,1,0,0,0,0,0,72,75,88,40,90,130.35,10,38.00,-27.00,-955.00
2024-06-07 10:13:02.802933,2,1,0,0,0,0,72,75,88,40,90,130.30,10,54.00,21.00,-1036.00
2024-06-07 10:13:02.919379,2,1,0,0,0,0,72,75,87,40,90,130.35,10,-9.00,-15.00,-965.00
2024-06-07 10:13:03.007734,2,0,0,0,0,0,72,75,87,40,90,130.33,10,59.00,-26.00,-1013.00
2024-06-07 10:13:03.110319,1,0,0,0,0,0,72,75,86,40,90,130.32,10,50.00,-14.00,-989.00
2024-06-07 10:13:03.212746,1,0,0,0,0,0,72,75,85,40,90,130.29,10,30.00,-29.00,-1095.00
2024-06-07 10:13:03.311879,1,0,0,0,0,0,72,75,85,40,90,130.30,10,36.00,-34.00,-1004.00
2024-06-07 10:13:03.429451,1,1,0,0,0,0,72,75,85,40,90,130.28,10,39.00,-28.00,-1009.00
2024-06-07 10:13:03.515982,2,1,1,0,0,0,73,75,84,40,90,130.32,10,39.00,-19.00,-1039.00
2024-06-07 10:13:03.635691,2,1,1,0,0,-1,73,75,84,40,90,130.26,11,66.00,-21.00,-1131.00
2024-06-07 10:13:03.719865,2,0,1,0,0,-2,73,75,86,40,90,130.28,11,62.00,-37.00,-1076.00
2024-06-07 10:13:03.941420,1,0,1,0,0,-3,73,75,88,40,90,130.43,11,1.00,-9.00,-1063.00
2024-06-07 10:13:03.941697,1,0,1,0,0,-4,73,75,92,40,90,130.39,11,-20.00,-6.00,-1092.00
2024-06-07 10:13:03.976377,1,0,1,0,0,-4,73,75,97,50,90,130.37,11,88.00,-20.00,-1023.00
2024-06-07 10:13:04.078836,1,0,1,0,0,-5,73,75,101,50,90,130.39,11,-43.00,4.00,-1052.00
2024-06-07 10:13:04.181430,1,0,0,0,0,-5,73,75,105,60,90,130.54,11,50.00,-13.00,-980.00
2024-06-07 10:13:04.284660,1,0,1,0,0,-5,73,75,112,60,90,130.53,11,-34.00,0.00,-989.00
2024-06-07 10:13:04.453511,0,0,1,0,0,-5,73,75,117,70,90,130.61,11,27.00,-1.00,-1076.00
2024-06-07 10:13:04.488699,0,1,1,0,0,-5,72,75,123,70,90,130.64,11,11.00,-10.00,-992.00
2024-06-07 10:13:04.587692,0,1,1,0,0,-5,72,75,128,80,90,130.66,12,-26.00,-1.00,-985.00
2024-06-07 10:13:04.760521,1,1,1,0,0,-5,72,75,134,90,90,130.74,12,-29.00,39.00,-961.00
2024-06-07 10:13:04.792943,1,1,1,0,0,-4,72,75,140,90,89,130.76,12,-26.00,-11.00,-985.00
2024-06-07 10:13:04.893620,0,1,1,0,0,-4,72,75,145,90,89,130.84,12,43.00,-25.00,-946.00
2024-06-07 10:13:04.997907,1,1,1,0,0,-4,72,75,150,100,89,130.91,12,-17.00,-10.00,-911.00
2024-06-07 10:13:05.096812,2,1,1,0,0,-4,72,75,154,100,89,130.94,12,45.00,-27.00,-1011.00
2024-06-07 10:13:05.272565,2,1,1,0,0,-3,72,75,161,110,89,131.00,12,4.00,5.00,-904.00
2024-06-07 10:13:05.300878,2,1,1,0,0,-3,72,75,166,110,89,131.03,12,-38.00,12.00,-997.00
2024-06-07 10:13:05.477574,2,1,1,0,0,-3,72,75,170,120,89,131.06,12,-11.00,7.00,-962.00
2024-06-07 10:13:05.505607,2,1,1,0,0,-3,73,75,175,120,89,131.16,12,4.00,-7.00,-934.00
2024-06-07 10:13:05.684037,2,0,1,0,0,-3,73,75,177,120,89,131.17,13,27.00,-18.00,-962.00
2024-06-07 10:13:05.719545,2,0,1,0,0,-2,73,75,182,130,89,131.13,13,8.00,7.00,-994.00
2024-06-07 10:13:05.812387,1,0,1,0,0,-2,73,75,186,130,89,131.18,13,33.00,-42.00,-1002.00
2024-06-07 10:13:05.989479,0,1,1,0,0,-1,73,75,185,130,89,131.21,13,45.00,-47.00,-884.00
2024-06-07 10:13:06.014864,1,1,1,0,0,-1,73,75,190,130,89,131.21,13,-17.00,10.00,-971.00
2024-06-07 10:13:06.194560,0,1,1,0,0,-1,73,75,187,140,89,131.22,13,41.00,-55.00,-945.00
2024-06-07 10:13:06.230283,0,1,1,0,0,0,73,75,189,140,89,131.21,13,66.00,-49.00,-966.00
2024-06-07 10:13:06.320830,0,1,1,0,0,0,73,75,191,140,89,131.21,13,3.00,14.00,-983.00
2024-06-07 10:13:06.430575,0,1,1,0,0,0,73,75,192,140,89,131.24,13,-35.00,10.00,-1000.00
2024-06-07 10:13:06.525306,0,1,1,0,0,0,73,75,191,140,89,131.23,13,-28.00,-12.00,-959.00
2024-06-07 10:13:06.626885,0,1,1,0,0,0,73,75,190,140,89,131.19,14,45.00,-46.00,-998.00
2024-06-07 10:13:06.808625,0,0,1,0,0,0,73,75,191,140,89,131.19,14,5.00,-22.00,-974.00
2024-06-07 10:13:06.830880,0,1,1,0,0,0,73,75,191,140,88,131.21,14,18.00,-27.00,-994.00
2024-06-07 10:13:07.015717,1,1,1,0,0,0,73,75,187,140,88,131.14,14,-43.00,12.00,-1027.00
2024-06-07 10:13:07.034837,0,1,1,0,0,0,73,75,190,140,88,131.22,14,-48.00,3.00,-998.00
2024-06-07 10:13:07.138098,0,1,1,0,0,0,73,75,191,140,88,131.27,14,28.00,-43.00,-1020.00
2024-06-07 10:13:07.238961,0,1,1,0,0,0,73,75,191,140,88,131.26,14,13.00,-34.00,-966.00
2024-06-07 10:13:07.341242,0,1,1,0,0,0,73,75,188,140,88,131.24,14,24.00,-31.00,-938.00
2024-06-07 10:13:07.525799,0,1,0,0,0,0,73,75,191,140,88,131.24,14,-3.00,-25.00,-935.00
2024-06-07 10:13:07.544749,0,0,0,0,0,0,73,75,189,140,88,131.28,14,-33.00,12.00,-1003.00
2024-06-07 10:13:07.730999,0,0,0,0,0,0,73,75,189,140,88,131.21,15,16.00,-25.00,-1047.00
2024-06-07 10:13:07.748870,0,0,0,0,0,0,73,75,188,140,88,131.25,15,-14.00,5.00,-981.00
2024-06-07 10:13:07.851720,0,0,0,0,0,0,73,75,186,140,88,131.26,15,-40.00,12.00,-1005.00
2024-06-07 10:13:08.037701,0,0,0,0,0,0,73,75,187,140,88,131.26,15,-26.00,-12.00,-1032.00
2024-06-07 10:13:08.038080,0,0,0,0,0,0,73,75,188,140,88,131.30,15,-5.00,-2.00,-964.00
2024-06-07 10:13:08.105580,0,0,0,0,0,0,73,75,188,140,88,131.20,15,6.00,-7.00,-919.00
2024-06-07 10:13:08.242139,0,0,0,0,0,0,73,75,187,140,88,131.27,15,-5.00,7.00,-959.00
2024-06-07 10:13:08.309633,0,0,0,0,0,1,73,75,182,140,88,131.20,15,54.00,-19.00,-921.00
2024-06-07 10:13:08.446957,0,0,0,0,0,2,73,75,182,130,88,131.23,15,-20.00,-18.00,-918.00
2024-06-07 10:13:08.514490,0,0,0,0,0,2,73,75,180,130,88,131.20,15,-109.00,26.00,-934.00
2024-06-07 10:13:08.657076,0,0,1,0,0,2,73,75,175,130,88,131.22,16,-15.00,-14.00,-925.00
2024-06-07 10:13:08.717702,0,0,1,0,0,3,73,75,171,130,88,131.19,16,-39.00,0.00,-1033.00
2024-06-07 10:13:08.856551,-1,0,1,0,0,3,73,75,167,120,88,131.05,16,9.00,3.00,-993.00
2024-06-07 10:13:08.922040,-1,0,1,0,0,3,73,75,161,120,88,131.06,16,15.00,-16.00,-986.00
2024-06-07 10:13:09.024169,-1,0,1,0,0,3,73,75,157,110,88,130.92,16,-13.00,-7.00,-1062.00
2024-06-07 10:13:09.133030,-1,0,1,0,0,3,73,75,155,110,88,130.91,16,-43.00,2.00,-1055.00
2024-06-07 10:13:09.229408,0,0,1,0,0,2,73,75,152,110,88,130.78,16,-27.00,-2.00,-1040.00
2024-06-07 10:13:09.330149,0,0,1,0,0,2,73,75,151,100,88,130.92,16,-29.00,-16.00,-1033.00
2024-06-07 10:13:09.432666,0,1,1,0,0,2,73,75,146,100,88,130.73,16,18.00,-32.00,-1034.00
2024-06-07 10:13:09.533636,0,2,1,0,0,2,73,76,145,100,88,130.74,16,13.00,-45.00,-1003.00
2024-06-07 10:13:09.675749,0,2,1,0,0,1,73,76,142,100,88,130.87,17,-38.00,18.00,-1020.00
2024-06-07 10:13:09.739481,0,1,1,0,0,1,73,76,140,90,87,130.81,17,-113.00,42.00,-1041.00
2024-06-07 10:13:09.842892,0,0,0,0,0,1,73,76,141,90,87,130.83,17,-76.00,5.00,-1017.00
2024-06-07 10:13:09.941625,-1,0,0,0,0,1,73,76,140,90,87,130.87,17,-84.00,12.00,-1076.00
2024-06-07 10:13:10.043602,-1,0,0,0,0,0,73,76,139,90,87,130.85,17,-67.00,-3.00,-1000.00
2024-06-07 10:13:10.192914,-1,0,0,0,0,0,73,76,139,90,87,130.83,17,-78.00,19.00,-987.00
2024-06-07 10:13:10.248798,0,0,0,0,0,0,73,76,140,90,87,130.89,17,15.00,10.00,-1081.00
2024-06-07 10:13:10.392642,0,0,0,0,0,0,73,76,140,90,87,130.84,17,28.00,-19.00,-978.00
2024-06-07 10:13:10.451711,0,0,0,0,0,0,73,76,141,90,87,130.88,17,10.00,-40.00,-987.00
2024-06-07 10:13:10.599727,1,0,0,0,0,0,73,75,140,90,87,130.86,17,56.00,-17.00,-930.00
2024-06-07 10:13:10.656479,1,0,0,0,0,0,73,75,140,90,87,130.97,18,-10.00,-22.00,-994.00
2024-06-07 10:13:10.804705,0,0,0,0,0,0,73,75,141,90,87,130.91,18,10.00,-24.00,-999.00
2024-06-07 10:13:10.859666,0,0,0,0,0,0,73,75,141,90,87,130.88,18,53.00,-2.00,-1013.00
2024-06-07 10:13:11.007029,0,0,0,0,0,0,73,75,143,90,87,130.93,18,7.00,-20.00,-980.00
2024-06-07 10:13:11.064526,0,0,0,0,0,0,73,75,141,90,87,130.95,18,-26.00,-27.00,-963.00
2024-06-07 10:13:11.211818,-1,1,0,0,0,0,73,75,144,90,87,130.89,18,-43.00,-2.00,-1036.00
2024-06-07 10:13:11.268731,-2,0,0,0,0,0,73,75,144,90,87,130.93,18,30.00,-31.00,-1034.00
2024-06-07 10:13:11.370984,-2,1,0,0,0,0,73,75,146,90,87,130.89,18,-10.00,-16.00,-1033.00
2024-06-07 10:13:11.421632,-1,1,0,0,0,0,73,75,148,90,87,130.94,18,-33.00,6.00,-920.00
2024-06-07 10:13:11.621419,0,1,0,0,0,0,73,76,147,100,87,130.95,18,24.00,-32.00,-938.00
2024-06-07 10:13:11.625969,0,1,0,0,0,0,73,76,147,100,87,130.94,19,15.00,-29.00,-973.00
2024-06-07 10:13:11.793739,0,1,0,0,0,0,73,76,149,100,86,130.97,19,0.00,-17.00,-1032.00
2024-06-07 10:13:11.829443,1,1,0,0,0,0,73,76,148,100,86,130.91,19,16.00,-14.00,-1021.00
2024-06-07 10:13:11.931657,0,0,0,0,0,0,73,76,149,100,86,130.94,19,-9.00,-34.00,-945.00
2024-06-07 10:13:12.033399,-3,0,0,0,0,0,73,76,152,100,86,130.97,19,83.00,-33.00,-1001.00
2024-06-07 10:13:12.135436,-6,0,0,1,0,0,73,76,154,100,86,130.99,19,26.00,-50.00,-992.00
2024-06-07 10:13:12.237489,-8,0,0,2,0,0,73,76,155,100,86,130.97,19,-32.00,0.00,-974.00
2024-06-07 10:13:12.339870,-8,0,0,3,0,0,73,76,153,100,86,130.88,19,-91.00,-8.00,-975.00
2024-06-07 10:13:12.441696,-8,0,0,4,0,0,73,76,154,100,86,130.90,19,-9.00,-23.00,-1016.00
2024-06-07 10:13:12.546783,-8,0,0,5,0,0,73,75,152,100,86,130.91,19,-20.00,-8.00,-964.00
2024-06-07 10:13:12.645676,-8,0,0,6,0,0,73,75,153,100,86,130.76,20,-40.00,0.00,-1045.00
2024-06-07 10:13:12.748291,-6,0,0,7,0,0,73,75,152,100,86,130.76,20,-100.00,5.00,-997.00
2024-06-07 10:13:12.850800,-4,0,0,8,0,0,73,75,151,100,86,130.70,20,-86.00,-12.00,-972.00
2024-06-07 10:13:12.952533,-2,0,0,8,0,0,73,75,149,100,86,130.72,20,-91.00,17.00,-1006.00
2024-06-07 10:13:13.057126,0,0,0,8,0,0,73,75,149,100,86,130.77,20,-47.00,-39.00,-970.00
2024-06-07 10:13:13.155494,3,1,0,7,0,0,73,75,149,100,86,130.78,20,-91.00,23.00,-1057.00
2024-06-07 10:13:13.257493,4,0,0,6,0,0,73,75,149,100,86,130.83,20,-68.00,-11.00,-1030.00
2024-06-07 10:13:13.363768,3,0,0,4,0,0,73,75,148,100,86,130.79,20,-55.00,-6.00,-1002.00
2024-06-07 10:13:13.461497,2,0,0,3,0,0,73,75,148,100,86,130.87,20,-31.00,-9.00,-998.00
2024-06-07 10:13:13.566917,0,0,0,3,0,0,73,76,146,100,86,130.79,20,-62.00,-22.00,-972.00
2024-06-07 10:13:13.666992,0,0,0,3,0,0,73,76,145,100,86,130.88,21,-41.00,6.00,-952.00
2024-06-07 10:13:13.767430,0,0,0,3,0,0,73,76,145,100,86,130.85,21,-76.00,17.00,-1004.00
2024-06-07 10:13:13.876698,2,0,0,2,0,0,73,76,143,100,86,130.75,21,-68.00,-9.00,-1007.00
2024-06-07 10:13:13.971435,3,0,0,2,0,0,73,76,143,90,86,130.84,21,-52.00,3.00,-959.00
2024-06-07 10:13:14.073417,3,0,0,1,0,0,73,76,142,90,86,130.80,21,11.00,-29.00,-997.00
2024-06-07 10:13:14.181334,1,0,0,0,0,0,73,76,140,90,86,130.87,21,-15.00,18.00,-1055.00
2024-06-07 10:13:14.277677,0,2,0,0,0,0,73,76,140,90,86,130.77,21,-12.00,-2.00,-1012.00
2024-06-07 10:13:14.386108,0,4,0,0,0,0,73,76,140,90,86,130.86,21,-22.00,32.00,-985.00
2024-06-07 10:13:14.481662,2,4,0,0,0,0,73,76,139,90,86,130.84,21,2.00,-15.00,-1050.00
2024-06-07 10:13:14.597782,3,2,0,0,1,0,73,76,139,90,86,130.78,21,-19.00,-45.00,-994.00
2024-06-07 10:13:14.686325,3,0,0,0,1,0,73,76,138,90,86,130.93,22,-42.00,-11.00,-995.00
2024-06-07 10:13:14.795751,3,-2,0,-1,0,0,73,76,138,90,85,130.86,22,5.00,-15.00,-967.00
2024-06-07 10:13:14.890144,2,0,0,-1,0,0,73,76,138,90,85,130.85,22,-44.00,-2.00,-1109.00
2024-06-07 10:13:15.001793,0,0,0,-1,0,0,73,76,137,90,85,130.89,22,-50.00,-7.00,-964.00
2024-06-07 10:13:15.093375,0,0,0,-1,0,0,73,76,138,90,85,130.83,22,26.00,-12.00,-1058.00
2024-06-07 10:13:15.206136,-1,0,0,-1,0,0,73,76,138,90,85,130.85,22,-20.00,-31.00,-998.00
2024-06-07 10:13:15.249513,0,0,0,-1,0,0,73,76,138,90,85,130.88,22,61.00,-43.00,-1073.00
2024-06-07 10:13:15.348529,0,0,0,0,0,0,73,76,138,90,85,130.81,22,-13.00,-8.00,-996.00
2024-06-07 10:13:15.450482,0,0,0,0,0,0,73,76,134,90,85,130.86,22,19.00,-1.00,-993.00
2024-06-07 10:13:15.615258,0,0,0,0,0,0,73,75,137,90,85,130.86,22,-23.00,19.00,-1033.00
2024-06-07 10:13:15.705812,0,0,0,0,0,0,73,75,140,90,85,130.86,23,-1.00,-2.00,-1061.00
2024-06-07 10:13:15.756422,0,0,0,0,0,0,73,75,139,90,85,130.91,23,-39.00,-22.00,-921.00
2024-06-07 10:13:15.922624,-1,0,0,0,0,0,73,75,138,90,85,130.76,23,-41.00,2.00,-1023.00
2024-06-07 10:13:15.960539,-1,1,0,0,0,0,73,75,138,90,85,130.78,23,-34.00,-16.00,-1031.00
2024-06-07 10:13:16.063190,0,1,0,0,0,0,73,75,137,90,85,130.84,23,-27.00,-18.00,-988.00
2024-06-07 10:13:16.164454,0,0,0,0,0,0,73,75,136,90,85,130.87,23,-19.00,-10.00,-1037.00
2024-06-07 10:13:16.266430,0,0,0,0,0,0,73,75,137,90,85,130.77,23,-22.00,-34.00,-1035.00
2024-06-07 10:13:16.434400,0,0,0,0,0,0,73,75,136,90,85,130.81,23,19.00,-33.00,-973.00
2024-06-07 10:13:16.470667,0,0,1,0,0,0,73,75,137,90,85,130.81,23,-101.00,9.00,-1027.00
2024-06-07 10:13:16.639395,0,0,1,0,0,0,74,76,137,90,85,130.85,23,-47.00,-5.00,-957.00
2024-06-07 10:13:16.674498,0,0,1,0,0,0,74,76,136,90,85,130.83,24,-71.00,-4.00,-1021.00
2024-06-07 10:13:16.777683,-1,0,1,-1,0,0,74,76,139,90,85,130.80,24,-47.00,24.00,-1022.00
2024-06-07 10:13:16.878763,-2,0,1,0,0,0,74,76,138,90,85,130.84,24,5.00,-16.00,-981.00
2024-06-07 10:13:16.981154,-2,0,1,0,0,0,74,76,140,90,85,130.82,24,42.00,-20.00,-979.00
2024-06-07 10:13:17.083610,0,0,1,0,0,0,74,76,140,90,85,130.92,24,40.00,-4.00,-1013.00
2024-06-07 10:13:17.186251,2,0,1,1,0,0,74,76,141,90,85,130.92,24,27.00,-26.00,-982.00
2024-06-07 10:13:17.288751,4,1,1,1,0,0,74,76,142,90,85,130.83,24,-26.00,-19.00,-1025.00
2024-06-07 10:13:17.391659,7,0,1,0,0,0,74,76,144,90,85,130.88,24,-19.00,-21.00,-990.00
2024-06-07 10:13:17.493375,8,1,1,-1,0,0,74,76,145,90,85,130.90,24,19.00,-19.00,-1007.00
2024-06-07 10:13:17.595750,8,1,1,-3,0,0,74,76,145,90,85,130.92,24,-23.00,-43.00,-910.00
2024-06-07 10:13:17.698586,8,1,1,-4,0,0,74,76,145,90,85,130.92,25,-1.00,-10.00,-1028.00
2024-06-07 10:13:17.799371,6,1,1,-6,0,0,74,76,145,90,85,130.85,25,68.00,-1.00,-1059.00
2024-06-07 10:13:17.900403,5,0,1,-6,0,0,74,76,142,90,85,130.88,25,28.00,-28.00,-943.00
2024-06-07 10:13:18.006374,5,0,1,-7,0,0,74,76,144,90,85,130.91,25,31.00,-43.00,-932.00
2024-06-07 10:13:18.107814,5,0,1,-7,0,0,74,76,144,90,85,130.80,25,1.00,-7.00,-936.00
2024-06-07 10:13:18.207390,2,0,0,-8,0,0,74,76,143,90,85,130.83,25,0.00,-1.00,-1024.00
2024-06-07 10:13:18.307979,-2,0,0,-8,0,0,74,76,141,90,85,130.76,25,2.00,-10.00,-1006.00
2024-06-07 10:13:18.409477,-5,0,1,-7,0,0,74,76,145,90,85,130.76,25,19.00,21.00,-1067.00
2024-06-07 10:13:18.517107,-6,0,0,-6,0,0,74,76,143,90,85,130.80,25,-4.00,10.00,-951.00
2024-06-07 10:13:18.613193,-5,0,0,-4,0,0,74,76,145,90,85,130.81,26,-30.00,12.00,-955.00
2024-06-07 10:13:18.715839,-3,0,0,-3,0,0,74,76,142,90,85,130.80,26,-51.00,27.00,-1038.00
2024-06-07 10:13:18.892060,-1,0,0,-2,0,0,74,76,141,90,84,130.77,26,-17.00,-30.00,-1050.00
2024-06-07 10:13:18.919541,0,0,0,-2,0,0,74,76,142,90,84,130.82,26,-34.00,0.00,-985.00
2024-06-07 10:13:19.021250,0,1,0,-1,0,0,74,76,141,90,84,130.86,26,12.00,-11.00,-990.00
2024-06-07 10:13:19.128403,1,0,0,-1,0,0,74,76,142,90,84,130.87,26,-56.00,-17.00,-984.00
2024-06-07 10:13:19.225888,1,0,0,-2,0,0,74,76,141,90,84,130.78,26,-11.00,-4.00,-993.00
2024-06-07 10:13:19.276233,0,1,0,-2,0,0,74,76,142,90,84,130.87,26,-35.00,-4.00,-938.00
2024-06-07 10:13:19.404034,0,0,0,-2,0,0,74,76,140,90,84,130.86,26,10.00,-16.00,-1070.00
2024-06-07 10:13:19.482708,0,0,0,-2,0,0,74,76,138,90,84,130.84,26,-25.00,-12.00,-1041.00
2024-06-07 10:13:19.582424,0,0,0,-2,0,0,74,76,138,90,84,130.94,27,37.00,-1.00,-965.00
2024-06-07 10:13:19.712672,0,0,0,-2,0,0,74,76,137,90,84,130.81,27,6.00,-25.00,-983.00
2024-06-07 10:13:19.786281,0,0,0,-2,0,0,74,76,137,90,84,130.83,27,-54.00,11.00,-989.00
2024-06-07 10:13:19.916023,0,1,0,-2,0,0,74,76,137,90,84,130.84,27,27.00,-6.00,-949.00
2024-06-07 10:13:19.991854,-4,0,0,-2,0,0,74,76,136,90,84,130.84,27,1.00,-41.00,-1021.00
2024-06-07 10:13:20.093271,-4,1,0,-1,0,0,74,76,136,90,84,130.76,27,33.00,-17.00,-985.00
2024-06-07 10:13:20.196395,-2,0,0,0,0,0,74,76,135,90,84,130.76,27,19.00,5.00,-1006.00
2024-06-07 10:13:20.297246,-1,1,0,0,0,0,74,76,136,90,84,130.76,27,16.00,-41.00,-1007.00
2024-06-07 10:13:20.428415,0,1,0,0,0,0,74,76,135,90,84,130.74,27,0.00,-13.00,-1038.00
2024-06-07 10:13:20.503099,0,1,0,0,0,0,74,76,135,90,84,130.74,27,-24.00,-47.00,-1067.00
2024-06-07 10:13:20.602644,0,1,0,0,0,0,74,76,135,90,84,130.74,28,-15.00,-42.00,-1018.00
2024-06-07 10:13:20.704350,0,1,0,0,0,0,74,76,135,90,84,130.73,28,-38.00,-12.00,-1054.00
2024-06-07 10:13:20.838715,0,1,0,0,0,0,74,76,135,90,84,130.79,28,-32.00,-2.00,-989.00
2024-06-07 10:13:20.908273,0,1,1,0,0,0,74,76,136,90,84,130.74,28,-23.00,-8.00,-1048.00
2024-06-07 10:13:21.016896,0,1,1,0,0,0,74,76,134,90,84,130.78,28,-55.00,-7.00,-1026.00
2024-06-07 10:13:21.112246,-1,1,1,0,0,0,74,76,135,90,84,130.78,28,-2.00,-29.00,-992.00
2024-06-07 10:13:21.215279,0,0,1,0,0,0,74,76,137,90,84,130.72,28,-72.00,0.00,-1017.00
2024-06-07 10:13:21.316724,-1,0,1,0,0,0,74,76,138,90,84,130.74,28,-14.00,2.00,-996.00
2024-06-07 10:13:21.418411,-1,0,1,0,0,0,74,76,138,90,84,130.81,28,-1.00,6.00,-1030.00
2024-06-07 10:13:21.520856,0,0,1,0,0,0,74,76,138,90,84,130.75,28,-71.00,-11.00,-979.00
2024-06-07 10:13:21.659290,-1,0,1,0,0,0,74,75,137,90,84,130.84,29,-13.00,-6.00,-947.00
2024-06-07 10:13:21.726694,0,0,0,0,0,0,74,75,138,90,84,130.84,29,-59.00,8.00,-905.00
2024-06-07 10:13:21.827040,0,1,0,0,0,0,74,75,136,90,84,130.86,29,-61.00,18.00,-1013.00
2024-06-07 10:13:21.966277,-1,1,0,0,0,0,74,75,137,90,84,130.83,29,-79.00,-18.00,-1017.00
2024-06-07 10:13:22.032627,-2,1,0,0,0,0,74,75,136,90,84,130.84,29,-24.00,-36.00,-1018.00
2024-06-07 10:13:22.133064,-2,1,0,0,0,0,74,75,139,90,84,130.84,29,-5.00,-8.00,-1089.00
2024-06-07 10:13:22.235098,-1,1,0,0,0,0,74,75,137,90,84,130.92,29,-53.00,-6.00,-1024.00
2024-06-07 10:13:22.287341,-1,-1,0,0,0,0,74,75,138,90,84,130.91,29,-1.00,4.00,-965.00
2024-06-07 10:13:22.386984,-1,-6,1,0,-1,0,74,75,140,90,84,130.84,29,12.00,-43.00,-1032.00
2024-06-07 10:13:22.488982,0,-5,1,0,-1,0,74,75,140,90,84,130.79,29,-43.00,20.00,-975.00
2024-06-07 10:13:22.680365,-1,-4,1,0,-3,0,73,76,141,90,84,130.81,30,20.00,10.00,-1063.00
2024-06-07 10:13:22.745783,-1,-1,0,0,-3,0,73,76,140,90,84,130.74,30,-1.00,-2.00,-972.00
2024-06-07 10:13:22.847107,-2,1,0,0,-3,0,73,76,144,90,83,130.82,30,-7.00,-2.00,-990.00
2024-06-07 10:13:22.948266,-1,2,0,0,-3,0,73,76,142,90,83,130.88,30,-4.00,-8.00,-997.00
2024-06-07 10:13:23.192683,-1,1,0,0,-3,0,73,76,143,90,83,130.73,30,-37.00,11.00,-890.00
2024-06-07 10:13:23.194799,-1,1,1,0,-2,0,73,76,141,90,83,130.77,30,-17.00,3.00,-984.00
2024-06-07 10:13:23.204034,-1,0,0,0,-2,0,73,76,143,90,83,130.74,30,-1.00,11.00,-1058.00
2024-06-07 10:13:23.306354,-1,0,1,0,-2,0,73,76,143,90,83,130.75,30,-63.00,-11.00,-1015.00
2024-06-07 10:13:23.408128,-1,0,1,0,-2,0,73,76,140,90,83,130.76,30,-35.00,-19.00,-968.00
2024-06-07 10:13:23.510392,-1,0,0,0,-2,0,73,76,141,90,83,130.72,30,-70.00,26.00,-1005.00
2024-06-07 10:13:23.612060,-1,0,1,0,-2,0,74,76,139,90,83,130.68,31,-15.00,4.00,-996.00
2024-06-07 10:13:23.808942,-1,0,1,0,-2,0,74,76,137,90,83,130.74,31,0.00,3.00,-987.00
2024-06-07 10:13:23.816134,-1,0,1,0,-2,0,74,76,137,90,83,130.77,31,-25.00,13.00,-1011.00
2024-06-07 10:13:24.011892,-1,0,0,0,-1,0,74,76,136,90,83,130.70,31,-53.00,13.00,-1027.00
2024-06-07 10:13:24.020193,-1,0,0,0,-1,0,74,76,136,90,83,130.72,31,-17.00,-29.00,-1047.00
2024-06-07 10:13:24.123500,-3,2,0,0,-2,0,74,76,135,90,83,130.71,31,-28.00,19.00,-994.00
2024-06-07 10:13:24.224028,-6,4,0,0,-1,0,74,76,136,90,83,130.71,31,-50.00,21.00,-990.00
2024-06-07 10:13:24.421542,-5,2,0,0,0,0,74,76,135,90,83,130.66,31,19.00,-2.00,-1059.00
2024-06-07 10:13:24.428205,-4,1,0,1,0,0,74,76,135,90,83,130.80,31,-74.00,-12.00,-1025.00
2024-06-07 10:13:24.530101,2,0,1,1,0,0,74,76,133,90,83,130.72,31,-60.00,-13.00,-1000.00
2024-06-07 10:13:24.730872,1,0,1,0,0,0,74,77,133,90,83,130.78,32,-43.00,-21.00,-942.00
2024-06-07 10:13:24.733951,0,0,1,0,0,0,74,77,133,90,83,130.85,32,-49.00,-14.00,-935.00
2024-06-07 10:13:24.933594,0,0,1,0,0,0,74,77,132,90,83,130.72,32,-2.00,-27.00,-988.00
2024-06-07 10:13:24.938470,-1,0,1,0,0,0,74,77,131,90,83,130.79,32,37.00,6.00,-1037.00
2024-06-07 10:13:25.138450,0,0,1,0,0,0,74,77,132,90,83,130.83,32,26.00,-23.00,-1016.00
2024-06-07 10:13:25.142278,0,0,1,0,0,0,74,77,129,90,83,130.82,32,18.00,-27.00,-955.00
2024-06-07 10:13:25.245733,0,0,1,0,0,0,74,77,131,90,83,130.78,32,-25.00,-13.00,-1102.00
2024-06-07 10:13:25.346053,0,0,1,0,0,0,74,77,130,90,83,130.73,32,-37.00,4.00,-1060.00
2024-06-07 10:13:25.448144,-2,0,1,-1,0,0,74,77,129,90,83,130.80,32,26.00,-44.00,-964.00
2024-06-07 10:13:25.550156,-3,0,1,0,0,0,74,77,131,80,83,130.74,32,-79.00,1.00,-1007.00
2024-06-07 10:13:25.652025,-3,0,0,0,0,0,75,77,131,80,83,130.76,33,-39.00,-18.00,-1036.00
2024-06-07 10:13:25.854933,-4,0,0,0,0,0,75,77,133,80,83,130.79,33,-10.00,-18.00,-1079.00
2024-06-07 10:13:25.856380,-2,0,0,0,0,0,75,77,132,90,83,130.80,33,-34.00,-20.00,-960.00
2024-06-07 10:13:26.059941,-2,0,0,0,0,0,75,77,135,90,83,130.77,33,-80.00,-37.00,-1000.00
2024-06-07 10:13:26.060116,-2,1,0,0,0,0,75,77,135,90,83,130.77,33,-36.00,-43.00,-959.00
2024-06-07 10:13:26.162561,-2,1,0,0,0,0,75,77,137,90,83,130.88,33,-75.00,5.00,-930.00
2024-06-07 10:13:26.265631,-2,0,0,0,0,0,75,77,139,90,83,130.74,33,-85.00,-39.00,-1019.00
2024-06-07 10:13:26.366646,-2,0,0,0,0,0,75,77,137,90,83,130.79,33,-43.00,-14.00,-947.00
2024-06-07 10:13:26.469426,-2,0,0,0,0,0,75,77,139,90,83,130.74,33,-16.00,-4.00,-991.00
2024-06-07 10:13:26.572743,-2,0,0,0,0,0,75,77,137,90,83,130.73,33,-103.00,-28.00,-973.00
2024-06-07 10:13:26.672295,-2,0,0,0,0,0,74,76,138,90,83,130.89,34,-25.00,-14.00,-978.00
2024-06-07 10:13:26.774607,-2,0,0,0,0,0,74,76,139,90,83,130.83,34,-40.00,-28.00,-965.00
2024-06-07 10:13:26.876093,-2,0,0,0,0,0,74,76,137,90,83,130.81,34,1.00,-20.00,-962.00
2024-06-07 10:13:26.978039,0,5,0,0,0,0,74,76,139,90,83,130.86,34,-53.00,-2.00,-1026.00
2024-06-07 10:13:27.081370,0,8,0,0,0,0,74,76,139,90,83,130.85,34,-16.00,-42.00,-996.00
2024-06-07 10:13:27.186085,0,8,0,0,2,0,74,76,139,90,83,130.82,34,-13.00,-66.00,-981.00
2024-06-07 10:13:27.232837,-1,6,0,0,3,0,74,76,137,90,83,130.67,34,-22.00,-27.00,-991.00
2024-06-07 10:13:27.391447,-1,3,0,0,3,0,74,76,133,90,83,130.65,34,-17.00,-63.00,-1089.00
2024-06-07 10:13:27.436846,-1,0,1,0,3,0,74,76,135,90,83,130.71,34,-37.00,-54.00,-1023.00
2024-06-07 10:13:27.539109,-1,0,1,0,3,0,74,76,134,90,83,130.78,34,-104.00,-15.00,-999.00
2024-06-07 10:13:27.698635,-2,0,1,0,3,0,75,77,136,90,83,130.67,35,-57.00,-42.00,-1015.00
2024-06-07 10:13:27.743317,-3,1,1,0,2,0,75,77,133,90,82,130.72,35,61.00,-47.00,-954.00
2024-06-07 10:13:27.903096,-1,1,0,0,2,0,75,77,132,90,82,130.74,35,-46.00,-28.00,-963.00
2024-06-07 10:13:27.947414,-1,1,0,0,2,0,75,77,133,90,82,130.77,35,-17.00,-33.00,-985.00
2024-06-07 10:13:28.111072,-1,1,0,0,2,0,75,77,133,90,82,130.82,35,-5.00,-35.00,-999.00
2024-06-07 10:13:28.151960,-1,1,1,0,2,0,75,77,132,90,82,130.74,35,-66.00,-46.00,-1007.00
2024-06-07 10:13:28.312450,-1,1,1,0,2,0,75,77,132,80,82,130.64,35,-73.00,-17.00,-1022.00
2024-06-07 10:13:28.355802,-2,1,1,0,2,0,75,77,134,80,82,130.72,35,1.00,-66.00,-1032.00
2024-06-07 10:13:28.517510,-2,1,1,0,2,0,75,77,136,80,82,130.81,35,-67.00,-10.00,-1032.00
2024-06-07 10:13:28.560121,-2,0,1,0,2,0,75,77,138,80,82,130.84,35,-87.00,-10.00,-1031.00
2024-06-07 10:13:28.722042,-2,0,1,0,2,0,74,76,138,90,82,130.77,36,-31.00,-40.00,-999.00
2024-06-07 10:13:28.764012,-1,0,1,0,1,0,74,76,139,90,82,130.71,36,13.00,-12.00,-1011.00
2024-06-07 10:13:28.926802,0,-3,1,0,1,0,74,76,140,90,82,130.86,36,-71.00,-15.00,-967.00
2024-06-07 10:13:28.968106,2,-1,0,0,0,0,74,76,139,90,82,130.80,36,-11.00,-21.00,-1051.00
2024-06-07 10:13:29.070132,2,0,1,0,0,0,74,76,139,90,82,130.91,36,33.00,-37.00,-994.00
2024-06-07 10:13:29.233958,2,0,1,-1,0,0,74,76,142,90,82,130.89,36,-45.00,-4.00,-996.00
2024-06-07 10:13:29.273810,-2,0,0,-2,0,0,74,76,140,90,82,130.87,36,26.00,-22.00,-1010.00
2024-06-07 10:13:29.438779,-6,0,0,-1,0,0,74,76,144,90,82,130.89,36,-25.00,-18.00,-1002.00
2024-06-07 10:13:29.477842,-4,0,0,0,0,0,74,76,141,90,82,130.92,36,10.00,-41.00,-954.00
2024-06-07 10:13:29.643625,-2,0,0,0,0,0,74,76,142,90,82,130.96,36,-32.00,-19.00,-986.00
2024-06-07 10:13:29.681949,-1,0,0,0,0,0,75,77,142,90,82,130.82,37,-30.00,-30.00,-979.00
2024-06-07 10:13:29.848494,0,0,0,0,0,0,75,77,141,90,82,130.91,37,-18.00,-2.00,-1020.00
2024-06-07 10:13:29.886186,0,0,0,0,0,0,75,77,141,90,82,130.95,37,24.00,-44.00,-935.00
2024-06-07 10:13:30.053231,0,0,0,0,0,0,75,77,142,90,82,130.96,37,-28.00,18.00,-988.00
2024-06-07 10:13:30.090197,0,0,1,0,0,0,75,77,143,90,82,130.90,37,8.00,-19.00,-1003.00
2024-06-07 10:13:30.258192,0,0,1,0,0,0,75,77,142,90,82,130.81,37,28.00,-16.00,-1012.00
2024-06-07 10:13:30.294014,0,0,1,0,0,0,75,77,143,90,82,130.90,37,20.00,-17.00,-1077.00
2024-06-07 10:13:30.345636,-1,0,1,0,0,0,75,77,143,90,82,130.90,37,-3.00,-26.00,-928.00
2024-06-07 10:13:30.446769,-2,0,1,0,0,0,75,77,144,90,82,130.90,37,-32.00,0.00,-962.00
2024-06-07 10:13:30.550002,-3,0,1,0,0,0,75,77,146,90,82,130.97,37,7.00,-31.00,-1086.00
2024-06-07 10:13:30.702729,-3,0,0,0,0,0,75,77,144,90,82,130.90,38,-42.00,21.00,-909.00
2024-06-07 10:13:30.805510,-3,0,0,0,0,0,75,77,146,90,82,130.88,38,-6.00,-22.00,-1025.00
2024-06-07 10:13:30.856493,-3,0,0,0,0,0,75,77,145,90,82,130.95,38,12.00,-33.00,-1001.00
2024-06-07 10:13:30.956815,-3,0,0,0,0,0,75,77,146,90,82,130.96,38,-76.00,-16.00,-982.00
2024-06-07 10:13:31.059625,-3,0,0,0,0,0,75,77,145,90,82,130.94,38,-29.00,-52.00,-955.00
2024-06-07 10:13:31.179743,-3,1,0,0,0,0,75,77,144,90,82,130.86,38,8.00,-18.00,-971.00
2024-06-07 10:13:31.262818,-3,1,0,0,0,0,75,77,146,90,82,130.86,38,-37.00,8.00,-967.00
2024-06-07 10:13:31.364877,-3,1,0,0,0,0,75,77,143,90,82,130.91,38,-12.00,-7.00,-975.00
2024-06-07 10:13:31.466687,-3,2,0,0,0,0,75,77,143,90,82,130.76,38,-89.00,-29.00,-1009.00
2024-06-07 10:13:31.589301,-2,2,0,0,0,0,75,77,146,90,82,130.79,38,-20.00,-51.00,-1026.00
2024-06-07 10:13:31.670692,-2,2,4,0,0,0,75,77,143,90,82,130.78,39,-24.00,-14.00,-965.00
2024-06-07 10:13:31.794088,-2,2,10,1,0,0,75,77,143,90,82,130.81,39,-52.00,1.00,-1046.00
2024-06-07 10:13:31.874691,-1,1,16,1,0,0,75,77,143,90,82,130.66,39,-80.00,12.00,-1039.00
2024-06-07 10:13:31.998830,-1,1,22,0,0,0,75,77,144,90,82,130.75,39,9.00,1.00,-992.00
2024-06-07 10:13:32.079087,-2,1,28,0,0,0,75,77,144,90,82,130.77,39,-52.00,18.00,-979.00
2024-06-07 10:13:32.203657,-2,0,34,0,0,0,75,77,144,90,82,130.80,39,-50.00,-3.00,-1018.00
2024-06-07 10:13:32.283437,-1,0,40,0,0,0,75,77,145,90,82,130.78,39,9.00,20.00,-933.00
2024-06-07 10:13:32.384617,-2,0,46,0,0,0,75,77,146,90,82,130.74,39,-36.00,35.00,-1040.00
2024-06-07 10:13:32.510846,-2,-1,52,0,0,0,75,77,147,90,82,130.85,39,-28.00,35.00,-930.00
2024-06-07 10:13:32.590827,-3,-2,58,0,0,0,75,77,148,90,82,130.98,39,-70.00,66.00,-1032.00
2024-06-07 10:13:32.690706,-2,-2,64,0,0,0,76,77,147,90,82,131.00,40,-40.00,45.00,-983.00
2024-06-07 10:13:32.818087,-2,-2,70,0,0,0,76,77,147,90,82,131.01,40,-41.00,59.00,-975.00
2024-06-07 10:13:32.894681,-2,-2,76,0,0,0,76,77,146,90,82,130.93,40,-80.00,55.00,-1006.00
2024-06-07 10:13:32.996669,-1,-2,81,0,0,0,76,77,147,90,82,130.97,40,20.00,32.00,-969.00
2024-06-07 10:13:33.098695,-1,-1,87,0,0,0,76,77,148,100,82,131.04,40,4.00,64.00,-962.00
2024-06-07 10:13:33.200611,-1,-1,93,0,0,0,76,77,147,100,82,130.99,40,15.00,66.00,-1000.00
2024-06-07 10:13:33.434529,-1,-1,98,0,0,0,76,77,146,100,82,131.01,40,11.00,77.00,-998.00
2024-06-07 10:13:33.437094,0,-1,104,0,0,0,76,77,144,90,82,131.04,40,-35.00,60.00,-1002.00
2024-06-07 10:13:33.506551,0,-2,110,0,0,0,76,77,145,90,82,131.10,40,51.00,47.00,-969.00
2024-06-07 10:13:33.608590,0,-2,116,0,0,0,76,77,145,90,82,131.06,40,10.00,60.00,-1035.00
2024-06-07 10:13:33.741773,0,-2,128,0,0,0,75,77,143,90,82,131.03,41,41.00,37.00,-1014.00
2024-06-07 10:13:33.812601,0,-2,134,0,0,0,75,77,142,90,82,131.00,41,36.00,83.00,-955.00
2024-06-07 10:13:33.944463,0,-2,140,0,0,0,75,77,144,90,82,130.90,41,55.00,51.00,-1019.00
2024-06-07 10:13:34.016580,0,-2,146,0,0,0,75,77,141,90,82,130.86,41,60.00,31.00,-1014.00
2024-06-07 10:13:34.119286,0,-2,152,0,0,0,75,77,143,90,82,130.93,41,66.00,72.00,-999.00
2024-06-07 10:13:34.220608,0,-1,158,0,0,0,75,77,143,90,82,130.92,41,51.00,29.00,-988.00
2024-06-07 10:13:34.355179,1,-2,164,0,0,0,75,77,140,90,82,130.92,41,40.00,48.00,-1001.00
2024-06-07 10:13:34.424609,1,-1,170,0,0,0,75,77,141,90,82,130.90,41,15.00,47.00,-981.00
2024-06-07 10:13:34.475682,1,-1,176,0,0,0,75,77,140,90,82,130.94,41,90.00,12.00,-951.00
2024-06-07 10:13:34.661312,2,-1,-177,0,0,0,75,77,141,90,82,130.92,42,62.00,39.00,-1007.00
2024-06-07 10:13:34.680066,3,0,-171,0,0,0,75,77,140,90,82,130.84,42,61.00,75.00,-993.00
2024-06-07 10:13:34.866047,2,0,-165,0,0,0,75,77,140,90,81,130.89,42,43.00,22.00,-960.00
2024-06-07 10:13:34.883755,2,0,-159,0,0,0,75,77,139,90,81,130.86,42,97.00,18.00,-961.00
2024-06-07 10:13:35.077936,3,0,-153,0,0,0,75,77,140,90,81,130.84,42,30.00,39.00,-1023.00
2024-06-07 10:13:35.088111,2,0,-147,0,0,0,75,77,139,90,81,130.80,42,88.00,39.00,-1005.00
2024-06-07 10:13:35.275842,3,0,-141,0,0,0,75,77,139,90,81,130.87,42,50.00,19.00,-1061.00
2024-06-07 10:13:35.291806,2,0,-135,0,0,0,75,77,140,90,81,130.86,42,145.00,12.00,-1010.00
2024-06-07 10:13:35.480456,3,0,-129,0,0,0,75,77,139,90,81,130.82,42,42.00,10.00,-1005.00
2024-06-07 10:13:35.495686,3,1,-123,-1,0,0,75,77,138,90,81,130.74,42,99.00,-55.00,-974.00
2024-06-07 10:13:35.688296,3,2,-117,0,0,0,75,77,139,90,81,130.74,43,-6.00,-2.00,-952.00
2024-06-07 10:13:35.699840,2,2,-111,0,0,0,75,77,138,90,81,130.77,43,6.00,3.00,-990.00
2024-06-07 10:13:35.890042,1,1,-104,0,0,0,75,77,135,90,81,130.79,43,70.00,-38.00,-968.00
2024-06-07 10:13:35.903610,1,1,-98,0,0,0,75,77,135,90,81,130.77,43,36.00,-45.00,-962.00
2024-06-07 10:13:36.099256,0,2,-92,0,0,0,75,77,134,90,81,130.73,43,41.00,-29.00,-1051.00
2024-06-07 10:13:36.108276,0,2,-87,0,0,0,75,77,135,90,81,130.76,43,-19.00,-36.00,-1018.00
2024-06-07 10:13:36.299750,0,2,-81,0,0,0,75,77,133,90,81,130.79,43,46.00,-38.00,-963.00
2024-06-07 10:13:36.311885,0,2,-75,0,0,0,75,77,133,90,81,130.83,43,49.00,-79.00,-1002.00
2024-06-07 10:13:36.463628,0,2,-69,0,0,0,75,77,132,90,81,130.84,43,53.00,-14.00,-1055.00
2024-06-07 10:13:36.516647,0,2,-64,0,0,0,75,77,130,90,81,130.81,43,26.00,-47.00,-1063.00
2024-06-07 10:13:36.711589,0,2,-58,0,0,0,75,77,130,80,81,130.90,44,31.00,-19.00,-1048.00
2024-06-07 10:13:36.721778,0,2,-52,0,0,0,75,77,130,80,81,130.85,44,-16.00,-32.00,-1033.00
2024-06-07 10:13:36.821935,0,2,-46,0,0,0,75,77,130,80,81,130.83,44,-13.00,-41.00,-985.00
2024-06-07 10:13:37.016997,0,2,-40,0,0,0,75,77,131,80,81,130.84,44,-26.00,-29.00,-981.00
2024-06-07 10:13:37.025710,0,2,-34,0,0,0,75,77,132,80,81,130.95,44,-34.00,-31.00,-957.00
2024-06-07 10:13:37.128003,0,1,-28,0,0,0,75,77,133,90,81,130.88,44,-4.00,-41.00,-1056.00
2024-06-07 10:13:37.323634,-1,1,-22,0,0,0,75,77,133,90,81,130.81,44,-12.00,-6.00,-1013.00
2024-06-07 10:13:37.332180,-1,1,-17,0,0,0,75,77,133,90,81,130.86,44,-55.00,-43.00,-966.00
2024-06-07 10:13:37.529029,-1,1,-12,0,0,0,75,77,135,90,81,130.78,44,61.00,-51.00,-992.00
2024-06-07 10:13:37.536368,0,2,-8,0,0,0,75,77,136,90,81,130.78,44,-89.00,-14.00,-920.00
2024-06-07 10:13:37.738470,-1,1,-6,0,0,0,75,77,135,90,81,130.84,45,-23.00,-16.00,-1028.00
2024-06-07 10:13:37.741222,-1,0,-3,0,0,0,75,77,137,90,81,130.86,45,-49.00,-5.00,-966.00
2024-06-07 10:13:37.842032,-1,0,-2,0,0,0,75,77,139,90,81,130.84,45,-87.00,-2.00,-974.00
2024-06-07 10:13:38.044662,-1,0,-1,0,0,0,75,77,139,90,81,130.85,45,-74.00,-1.00,-989.00
2024-06-07 10:13:38.045516,-1,0,0,0,0,0,75,77,139,90,81,130.86,45,-64.00,1.00,-977.00
2024-06-07 10:13:38.147738,-1,0,0,0,0,0,75,77,138,90,81,130.82,45,-49.00,-5.00,-922.00
2024-06-07 10:13:38.347960,-1,0,0,0,0,0,75,77,139,90,81,130.87,45,-90.00,12.00,-939.00
2024-06-07 10:13:38.352660,-2,0,0,0,0,0,75,77,141,90,81,130.95,45,-46.00,-16.00,-1033.00
2024-06-07 10:13:38.552436,-2,0,0,0,0,0,75,77,141,90,81,130.93,45,-36.00,-18.00,-1062.00
2024-06-07 10:13:38.552493,-2,0,0,0,0,0,75,77,140,90,81,130.88,45,-44.00,0.00,-937.00
2024-06-07 10:13:38.606399,0,0,0,0,0,0,75,77,141,90,81,130.91,46,-20.00,-18.00,-969.00
2024-06-07 10:13:38.759777,0,0,0,0,0,0,75,78,141,90,81,130.95,46,-71.00,-6.00,-957.00
2024-06-07 10:13:38.861714,0,0,0,0,0,0,75,78,142,90,81,130.90,46,-32.00,14.00,-1055.00
2024-06-07 10:13:39.064517,0,0,0,0,0,0,75,78,143,90,81,130.95,46,20.00,-26.00,-959.00
2024-06-07 10:13:39.064680,0,0,0,0,0,0,75,78,142,90,81,130.93,46,-57.00,-1.00,-946.00
2024-06-07 10:13:39.116840,0,0,0,0,0,0,75,78,143,90,81,130.94,46,-13.00,-10.00,-1059.00
2024-06-07 10:13:39.372173,-1,0,0,0,0,0,75,78,144,90,81,131.00,46,21.00,-23.00,-949.00
2024-06-07 10:13:39.372335,0,0,0,0,0,0,75,78,145,90,81,130.96,46,-22.00,0.00,-1045.00
2024-06-07 10:13:39.422481,0,0,0,0,0,0,75,78,145,90,81,130.95,46,-50.00,0.00,-961.00
2024-06-07 10:13:39.576520,0,0,0,0,0,0,75,78,146,90,81,130.91,46,-13.00,-11.00,-1002.00
2024-06-07 10:13:39.626588,0,0,0,0,0,0,75,78,146,90,81,130.93,47,-34.00,-4.00,-926.00
2024-06-07 10:13:39.728531,0,0,0,0,0,0,75,78,148,90,81,130.99,47,22.00,-19.00,-956.00
2024-06-07 10:13:39.885519,0,0,0,0,0,0,75,78,148,90,81,131.03,47,-18.00,-11.00,-973.00
2024-06-07 10:13:39.932419,0,0,0,0,0,0,75,78,149,100,81,131.08,47,-31.00,-12.00,-1001.00
2024-06-07 10:13:40.047742,0,0,0,0,0,0,75,78,148,100,81,131.15,47,8.00,-22.00,-935.00
2024-06-07 10:13:40.136549,0,0,0,0,0,0,75,78,149,100,81,131.03,47,-50.00,12.00,-1022.00
2024-06-07 10:13:40.238209,0,0,-3,0,0,0,75,78,150,100,81,131.05,47,10.00,-27.00,-996.00
2024-06-07 10:13:40.395980,-1,0,-9,0,0,0,75,78,150,100,81,131.02,47,-95.00,9.00,-966.00
2024-06-07 10:13:40.443822,-1,0,-15,0,0,0,75,78,150,100,81,131.09,47,11.00,-5.00,-1028.00
2024-06-07 10:13:40.544305,-1,0,-21,0,0,0,75,78,148,100,81,131.06,47,36.00,-35.00,-934.00
2024-06-07 10:13:40.646287,-1,0,-27,0,0,0,75,78,150,100,81,131.01,48,19.00,-25.00,-1016.00
2024-06-07 10:13:40.805948,0,0,-33,0,0,0,76,77,147,100,81,131.04,48,-9.00,-9.00,-996.00
2024-06-07 10:13:40.850314,0,0,-39,0,0,0,76,77,151,100,81,131.06,48,41.00,-23.00,-1014.00
2024-06-07 10:13:41.010331,0,0,-45,0,0,0,76,77,146,100,81,131.01,48,55.00,-16.00,-1060.00
2024-06-07 10:13:41.054624,0,0,-51,0,0,0,76,77,146,100,81,131.10,48,33.00,-13.00,-1017.00
2024-06-07 10:13:41.156290,0,0,-57,0,0,0,76,77,145,90,81,131.02,48,47.00,-22.00,-993.00
2024-06-07 10:13:41.317248,0,0,-62,0,0,0,76,77,144,90,81,131.01,48,-32.00,-2.00,-1025.00
2024-06-07 10:13:41.360188,0,1,-68,0,0,0,76,77,143,90,81,131.03,48,-55.00,1.00,-1004.00
2024-06-07 10:13:41.522099,0,1,-73,0,0,0,76,77,142,90,81,130.98,48,103.00,-59.00,-962.00
2024-06-07 10:13:41.564238,1,1,-79,0,0,0,76,77,142,90,81,131.00,48,7.00,13.00,-1030.00
2024-06-07 10:13:41.726861,1,1,-85,0,0,0,76,77,139,90,81,130.98,49,7.00,-6.00,-998.00
2024-06-07 10:13:41.768328,1,1,-91,0,0,0,76,78,141,90,81,130.95,49,56.00,-45.00,-958.00
2024-06-07 10:13:41.932652,2,1,-96,0,0,0,76,78,139,90,81,131.03,49,119.00,-67.00,-1010.00
2024-06-07 10:13:41.972265,2,1,-102,0,0,0,76,78,141,90,81,131.00,49,-28.00,-2.00,-1031.00
2024-06-07 10:13:42.136413,2,1,-109,0,0,0,76,78,140,90,81,130.94,49,75.00,-26.00,-1097.00
2024-06-07 10:13:42.176182,2,0,-115,0,0,0,76,78,137,90,81,130.97,49,-30.00,7.00,-990.00
2024-06-07 10:13:42.341174,2,0,-121,0,0,0,76,78,135,90,81,131.03,49,29.00,0.00,-997.00
2024-06-07 10:13:42.385952,3,0,-127,0,0,0,76,78,137,90,81,130.97,49,85.00,-2.00,-1038.00
2024-06-07 10:13:42.482250,3,0,-134,0,0,0,76,78,137,90,81,130.97,49,-14.00,27.00,-1047.00
2024-06-07 10:13:42.648473,3,0,-140,0,0,0,76,78,136,90,81,130.95,49,52.00,-2.00,-966.00
2024-06-07 10:13:42.686395,3,-1,-146,0,0,0,76,78,135,90,81,130.96,50,18.00,26.00,-946.00
2024-06-07 10:13:42.853853,3,-1,-151,0,0,0,75,77,134,90,80,130.93,50,59.00,-25.00,-959.00
2024-06-07 10:13:42.890225,3,-1,-157,0,0,0,75,77,133,90,80,130.87,50,78.00,-9.00,-992.00
2024-06-07 10:13:43.061302,3,0,-163,0,0,0,75,77,134,90,80,130.96,50,94.00,-1.00,-987.00
2024-06-07 10:13:43.061569,3,0,-170,0,0,0,75,77,135,90,80,130.86,50,22.00,23.00,-1039.00
2024-06-07 10:13:43.145772,3,0,-176,0,0,0,75,77,134,90,80,130.93,50,150.00,-9.00,-1017.00
2024-06-07 10:13:43.247518,3,0,176,0,0,0,75,77,133,90,80,131.05,50,97.00,29.00,-1004.00
2024-06-07 10:13:43.365291,3,-1,169,0,0,0,75,77,133,90,80,131.05,50,54.00,29.00,-1000.00
2024-06-07 10:13:43.451614,2,-1,162,0,0,0,75,77,134,90,80,131.02,50,44.00,43.00,-1004.00
2024-06-07 10:13:43.553432,1,-2,155,0,0,0,75,77,136,90,80,130.97,50,53.00,47.00,-1038.00
2024-06-07 10:13:43.672425,1,-2,149,0,0,0,75,77,136,90,80,130.94,51,14.00,42.00,-1013.00
2024-06-07 10:13:43.757362,0,-2,143,0,0,0,75,78,138,90,80,130.98,51,-25.00,79.00,-1070.00
2024-06-07 10:13:43.859572,0,-2,137,0,0,0,75,78,138,90,80,130.94,51,28.00,67.00,-1028.00
2024-06-07 10:13:43.980174,0,-3,131,0,0,0,75,78,138,90,80,130.92,51,21.00,67.00,-1011.00
2024-06-07 10:13:44.063397,0,-3,126,0,0,-1,75,78,138,90,80,131.00,51,19.00,72.00,-993.00
2024-06-07 10:13:44.165338,0,-3,120,0,0,0,75,78,138,90,80,130.92,51,54.00,27.00,-930.00
2024-06-07 10:13:44.287536,1,-2,114,0,0,0,75,78,137,90,80,131.09,51,-55.00,68.00,-959.00
2024-06-07 10:13:44.370312,2,-2,108,0,0,0,75,78,137,90,80,130.98,51,-70.00,72.00,-985.00
2024-06-07 10:13:44.492810,0,-2,103,0,0,0,75,78,136,90,80,131.03,51,-76.00,77.00,-911.00
2024-06-07 10:13:44.573395,-1,-2,97,0,0,0,75,78,133,90,80,131.01,51,-71.00,61.00,-1033.00
2024-06-07 10:13:44.696468,-2,-1,91,0,0,0,75,78,132,90,80,130.99,52,-21.00,60.00,-1051.00
2024-06-07 10:13:44.777284,-2,0,85,0,0,0,76,79,130,90,80,131.02,52,-48.00,62.00,-999.00
2024-06-07 10:13:44.901111,-1,0,79,0,0,0,76,79,130,90,80,130.80,52,4.00,33.00,-1081.00
2024-06-07 10:13:44.981413,-1,0,73,0,0,0,76,79,128,90,80,130.83,52,-56.00,24.00,-1008.00
2024-06-07 10:13:45.084080,0,-1,67,0,0,0,76,79,130,90,80,130.75,52,-65.00,44.00,-1047.00
2024-06-07 10:13:45.186235,-1,-1,60,0,0,0,76,79,129,80,80,130.76,52,-94.00,52.00,-964.00
2024-06-07 10:13:45.311108,-2,-1,54,0,0,0,76,79,129,80,80,130.77,52,-56.00,15.00,-1035.00
2024-06-07 10:13:45.389322,-2,-1,48,0,0,0,76,79,130,80,80,130.67,52,-72.00,8.00,-1061.00
2024-06-07 10:13:45.491419,-3,0,42,0,0,0,76,79,129,90,80,130.67,52,-41.00,-36.00,-1009.00
2024-06-07 10:13:45.618033,-3,0,35,0,0,0,76,79,131,90,80,130.69,52,17.00,-19.00,-977.00
2024-06-07 10:13:45.695416,-3,1,30,0,0,0,76,79,130,90,80,130.73,53,-34.00,-27.00,-1000.00
2024-06-07 10:13:45.822885,-2,1,24,0,0,0,76,78,131,90,80,130.75,53,-112.00,2.00,-1056.00
2024-06-07 10:13:45.900487,-1,1,18,0,0,0,76,78,131,90,80,130.77,53,-140.00,-18.00,-982.00
2024-06-07 10:13:46.001552,-2,1,13,0,0,0,76,78,132,90,80,130.81,53,-48.00,-19.00,-981.00
2024-06-07 10:13:46.235173,-2,1,10,0,0,0,76,78,133,90,80,130.80,53,-16.00,-63.00,-1006.00
2024-06-07 10:13:46.235274,-3,1,8,0,0,0,76,78,135,90,80,130.85,53,-4.00,-37.00,-965.00
2024-06-07 10:13:46.307218,-3,2,6,0,0,0,76,78,136,90,80,130.84,53,-68.00,-14.00,-1063.00
2024-06-07 10:13:46.437327,-2,2,4,0,0,0,76,78,137,90,80,130.87,53,-69.00,-32.00,-1045.00
2024-06-07 10:13:46.511236,-2,2,3,0,0,0,76,78,139,90,80,130.89,53,-47.00,-29.00,-989.00
2024-06-07 10:13:46.642164,-3,2,2,0,0,0,76,78,140,90,80,130.91,53,-32.00,-52.00,-974.00
2024-06-07 10:13:46.664354,-2,2,2,0,0,0,76,78,141,90,80,130.91,54,-36.00,-53.00,-1008.00
2024-06-07 10:13:46.817575,-1,2,1,0,0,0,76,79,143,90,80,130.92,54,-105.00,-9.00,-992.00
2024-06-07 10:13:46.949368,-2,1,1,-1,0,0,76,79,146,90,80,130.90,54,-63.00,-20.00,-959.00
2024-06-07 10:13:47.021975,-3,1,1,-1,0,0,76,79,145,90,80,130.91,54,-63.00,-14.00,-994.00
2024-06-07 10:13:47.124064,-4,1,1,-1,0,0,76,79,147,90,80,130.94,54,-121.00,-42.00,-941.00
2024-06-07 10:13:47.174044,-5,1,1,-1,0,0,76,79,149,90,80,131.05,54,-64.00,-37.00,-1016.00
2024-06-07 10:13:47.327587,-5,1,1,0,0,0,76,79,151,100,80,130.99,54,-8.00,-34.00,-992.00
2024-06-07 10:13:47.386241,-3,1,1,0,0,0,76,79,150,100,80,130.98,54,-42.00,-53.00,-977.00
2024-06-07 10:13:47.480269,-2,2,1,0,0,0,76,79,150,100,80,130.99,54,-51.00,-63.00,-1008.00
2024-06-07 10:13:47.582928,-1,3,1,0,0,0,76,79,150,100,80,130.97,55,-81.00,-33.00,-970.00
2024-06-07 10:13:47.684133,-1,2,1,0,0,0,76,79,149,100,80,130.94,55,-54.00,-40.00,-989.00
2024-06-07 10:13:47.873711,-1,2,1,0,0,0,76,78,153,100,80,131.00,55,3.00,-65.00,-968.00
2024-06-07 10:13:47.888104,-1,3,1,0,0,0,76,78,152,100,80,130.96,55,-70.00,-71.00,-896.00
2024-06-07 10:13:48.075818,-1,3,1,0,0,0,76,78,153,100,80,130.97,55,-110.00,-32.00,-958.00
2024-06-07 10:13:48.092205,-2,2,1,0,0,0,76,78,151,100,80,130.95,55,-7.00,-71.00,-1000.00
2024-06-07 10:13:48.194336,-2,2,1,0,0,0,76,78,151,100,80,130.95,55,0.00,-66.00,-977.00
2024-06-07 10:13:48.295993,-1,2,1,0,0,0,76,78,151,100,80,130.95,55,-78.00,-30.00,-954.00
2024-06-07 10:13:48.485426,-1,1,1,0,0,0,76,78,149,100,80,130.99,55,17.00,-78.00,-993.00
2024-06-07 10:13:48.503633,0,2,1,0,0,0,76,78,148,100,80,130.96,55,-85.00,-22.00,-1018.00
2024-06-07 10:13:48.602523,-1,2,1,0,0,0,76,78,147,100,80,131.00,56,-35.00,-44.00,-1038.00
2024-06-07 10:13:48.719451,-1,1,1,0,0,0,76,78,146,100,80,130.89,56,-13.00,-54.00,-979.00
2024-06-07 10:13:48.805939,0,1,1,0,0,1,75,78,146,90,80,131.12,56,32.00,-48.00,-916.00
2024-06-07 10:13:48.997247,0,0,1,0,0,-2,75,78,142,90,80,131.29,56,-48.00,-15.00,-1564.00
2024-06-07 10:13:49.009945,-1,-3,1,0,0,-9,75,78,146,100,80,131.35,56,-67.00,-101.00,-1847.00
2024-06-07 10:13:49.111965,-3,-67,2,0,-5,-13,75,78,185,110,80,131.52,56,-6.00,178.00,-1384.00
2024-06-07 10:13:49.304466,1,163,8,0,-13,-2,75,78,6553,120,80,131.47,56,-23.00,629.00,-1166.00
2024-06-07 10:13:49.316179,4,43,-2,0,-8,10,75,78,6553,120,80,131.53,56,-68.00,478.00,-941.00
2024-06-07 10:13:49.418476,0,3,-3,0,-4,9,75,78,158,110,80,131.44,56,-25.00,-199.00,-1605.00
2024-06-07 10:13:49.714432,0,3,-1,-1,-4,6,75,78,147,100,80,131.16,56,-25.00,-28.00,-1415.00
2024-06-07 10:13:49.719680,-1,1,0,-1,-4,2,75,78,143,90,80,131.06,57,-54.00,-41.00,-1286.00
2024-06-07 10:13:49.724312,-1,2,1,-1,-4,1,75,78,139,90,80,131.00,57,-13.00,-41.00,-1177.00
2024-06-07 10:13:49.920588,-1,2,1,0,-4,0,75,78,136,90,80,130.96,57,25.00,-72.00,-1167.00
2024-06-07 10:13:49.927886,-1,3,1,0,-3,0,75,78,138,90,80,131.01,57,25.00,-65.00,-1168.00
2024-06-07 10:13:50.124649,0,2,1,0,-2,0,75,78,141,90,80,130.98,57,-9.00,-39.00,-1024.00
2024-06-07 10:13:50.133220,-1,2,1,0,-2,-1,75,78,142,90,80,131.00,57,-25.00,-33.00,-1084.00
2024-06-07 10:13:50.233840,-1,2,1,0,-2,-1,75,78,141,90,80,130.93,57,-6.00,-42.00,-1091.00
2024-06-07 10:13:50.431051,0,2,1,0,-2,0,75,78,143,90,80,131.02,57,35.00,-49.00,-1015.00
2024-06-07 10:13:50.438424,0,2,1,0,-2,0,75,78,143,90,80,131.06,57,15.00,-40.00,-914.00
2024-06-07 10:13:50.636568,-1,2,1,0,-1,0,75,78,145,90,80,131.15,57,-32.00,-22.00,-1028.00
2024-06-07 10:13:50.642196,-2,4,1,0,-1,0,75,78,146,90,80,131.16,58,-54.00,-2.00,-938.00
2024-06-07 10:13:50.743877,-2,4,1,-1,-1,0,75,78,146,90,80,131.15,58,30.00,-58.00,-997.00
2024-06-07 10:13:50.944417,-2,4,1,0,-1,0,76,78,145,90,80,131.03,58,1.00,-67.00,-941.00
2024-06-07 10:13:50.948185,-1,4,1,0,-1,0,76,78,146,90,80,131.07,58,-57.00,-25.00,-1034.00
2024-06-07 10:13:51.057320,-1,4,1,0,0,0,76,78,146,90,80,131.05,58,-62.00,-7.00,-988.00
2024-06-07 10:13:51.153748,-1,3,1,0,0,0,76,78,145,90,80,131.12,58,-66.00,-13.00,-988.00
2024-06-07 10:13:51.203844,-1,3,1,0,0,0,76,78,146,90,80,131.03,58,-68.00,-60.00,-1008.00
2024-06-07 10:13:51.352478,-1,3,1,0,0,0,76,78,146,90,80,131.03,58,-5.00,-77.00,-997.00
2024-06-07 10:13:51.407888,-1,4,1,0,0,0,76,78,147,90,80,131.09,58,26.00,-62.00,-1020.00
2024-06-07 10:13:51.557215,0,4,1,0,0,0,76,78,149,100,80,131.10,58,-47.00,-48.00,-1004.00
2024-06-07 10:13:51.611963,0,4,1,0,0,0,76,78,147,100,80,131.15,59,-59.00,-47.00,-931.00
2024-06-07 10:13:51.762815,-1,4,1,0,0,0,76,78,148,100,80,131.06,59,29.00,-76.00,-1048.00
2024-06-07 10:13:51.816307,-1,3,1,0,0,0,76,78,147,100,79,130.95,59,-98.00,-43.00,-967.00
2024-06-07 10:13:51.966853,-1,3,1,0,0,0,76,78,147,100,79,130.97,59,15.00,-55.00,-1022.00
2024-06-07 10:13:52.020985,-1,3,1,0,0,0,76,78,146,100,79,130.96,59,-5.00,-75.00,-958.00
2024-06-07 10:13:52.171627,-1,3,1,0,0,0,76,78,149,100,79,131.03,59,-73.00,-52.00,-943.00
2024-06-07 10:13:52.225667,-2,3,1,0,0,0,76,78,146,90,79,130.99,59,6.00,-79.00,-1036.00
2024-06-07 10:13:52.328037,-2,3,1,0,0,0,76,78,146,90,79,131.03,59,54.00,-80.00,-1077.00
2024-06-07 10:13:52.427836,-1,4,1,0,0,0,76,78,147,90,79,131.07,59,-36.00,-80.00,-1031.00
2024-06-07 10:13:52.581376,-1,4,1,0,0,0,76,78,147,90,79,131.03,59,48.00,-96.00,-972.00
2024-06-07 10:13:52.631932,-1,4,1,0,0,0,76,78,149,90,79,131.07,60,-58.00,-62.00,-1000.00
2024-06-07 10:13:52.786211,-1,4,1,0,0,0,76,78,148,90,79,131.03,60,-11.00,-68.00,-1020.00
2024-06-07 10:13:52.836207,0,4,1,0,0,0,76,79,148,90,79,131.02,60,-1.00,-81.00,-986.00
2024-06-07 10:13:52.994964,0,4,1,0,0,0,76,79,151,90,79,131.01,60,-18.00,-55.00,-1045.00
2024-06-07 10:13:53.045063,-2,4,1,0,0,0,76,79,155,100,79,131.09,60,35.00,-96.00,-1004.00
2024-06-07 10:13:53.141858,-2,3,1,0,0,0,76,79,153,100,79,131.08,60,-75.00,-33.00,-939.00
2024-06-07 10:13:53.298032,-2,3,1,0,0,0,76,79,154,100,79,131.09,60,-23.00,-59.00,-917.00
2024-06-07 10:13:53.345804,-2,3,1,0,0,0,76,79,156,100,79,131.12,60,-26.00,-57.00,-1004.00
2024-06-07 10:13:53.503448,-2,3,1,0,0,0,76,79,156,100,79,131.16,60,-29.00,-68.00,-1082.00
2024-06-07 10:13:53.549943,-2,3,1,0,0,0,76,79,157,100,79,131.24,60,-89.00,-42.00,-909.00
2024-06-07 10:13:53.707988,-2,3,1,0,0,0,76,79,157,100,79,131.19,61,-36.00,-60.00,-1001.00
2024-06-07 10:13:53.754588,-2,3,1,0,0,0,76,79,158,100,79,131.18,61,-76.00,-78.00,-916.00
2024-06-07 10:13:53.912502,-1,3,1,0,0,0,76,79,159,100,79,131.07,61,-55.00,-65.00,-957.00
2024-06-07 10:13:53.958761,0,4,1,0,0,0,76,79,158,100,79,131.14,61,-35.00,-47.00,-1052.00
2024-06-07 10:13:54.117316,0,3,1,0,0,0,76,79,159,100,79,131.09,61,-84.00,-40.00,-983.00
2024-06-07 10:13:54.161834,-1,3,1,0,0,0,76,79,158,100,79,131.03,61,-48.00,-39.00,-963.00
