TS,pitch,roll,yaw,vgx,vgy,vgz,templ,temph,tof,h,bat,baro,time,agx,agy,agz
2024-06-07 10:14:45.630164,1,0,0,0,0,0,79,82,10,0,75,129.55,87,24.00,-12.00,-1001.00
2024-06-07 10:14:45.630353,1,0,0,0,0,0,79,82,10,0,75,129.55,87,23.00,-12.00,-1000.00
2024-06-07 10:14:45.727168,1,0,0,0,0,0,79,82,10,0,75,129.58,87,24.00,-11.00,-999.00
2024-06-07 10:14:45.829474,1,0,0,0,0,0,79,82,10,0,75,129.54,87,25.00,-12.00,-999.00
2024-06-07 10:14:45.931555,1,0,0,0,0,0,79,82,10,0,75,129.58,87,23.00,-10.00,-1002.00
2024-06-07 10:14:46.034043,1,0,0,0,0,0,79,82,10,0,75,129.57,87,23.00,-11.00,-998.00
2024-06-07 10:14:46.135952,1,0,0,0,0,0,79,81,10,0,75,129.55,87,24.00,-10.00,-998.00
2024-06-07 10:14:46.236717,1,0,0,0,0,0,79,81,10,0,75,129.56,87,26.00,-12.00,-998.00
2024-06-07 10:14:46.338602,1,0,0,0,0,0,79,81,10,0,75,129.53,87,24.00,-12.00,-1000.00
2024-06-07 10:14:46.443423,1,0,0,0,0,0,79,81,10,0,75,129.55,87,26.00,-11.00,-1001.00
2024-06-07 10:14:46.542455,1,0,0,0,0,0,79,81,10,0,75,129.55,87,24.00,-10.00,-997.00
2024-06-07 10:14:46.648255,1,0,0,0,0,0,79,81,10,0,75,129.58,87,24.00,-12.00,-999.00
2024-06-07 10:14:46.746939,1,0,0,0,0,0,79,81,10,0,75,129.57,87,23.00,-11.00,-1002.00
2024-06-07 10:14:46.853017,1,0,0,0,0,0,79,81,10,0,75,129.57,87,23.00,-12.00,-996.00
2024-06-07 10:14:46.950829,1,0,0,0,0,0,79,81,10,0,75,129.51,87,25.00,-11.00,-998.00
2024-06-07 10:14:47.057925,1,0,0,0,0,0,79,81,10,0,75,129.55,87,24.00,-10.00,-1001.00
2024-06-07 10:14:47.155571,1,0,0,0,0,0,79,82,10,0,75,129.60,87,25.00,-9.00,-1000.00
2024-06-07 10:14:47.262681,1,0,0,0,0,0,79,82,10,0,75,129.51,87,26.00,-10.00,-998.00
2024-06-07 10:14:47.365095,1,0,0,0,0,0,79,82,10,0,75,129.55,87,24.00,-12.00,-999.00
2024-06-07 10:14:47.461574,1,0,0,0,0,0,79,82,10,0,75,129.52,87,24.00,-10.00,-1000.00
2024-06-07 10:14:47.563598,1,0,0,0,0,0,79,82,10,0,75,129.59,87,23.00,-11.00,-999.00
2024-06-07 10:14:47.668623,1,0,0,0,0,0,79,82,10,0,75,129.56,87,23.00,-10.00,-998.00
2024-06-07 10:14:47.767908,1,0,0,0,0,0,79,82,10,0,75,129.54,87,24.00,-10.00,-998.00
2024-06-07 10:14:47.877357,1,0,0,0,0,0,79,82,10,0,75,129.55,87,25.00,-11.00,-1000.00
2024-06-07 10:14:47.971528,1,0,0,0,0,0,79,82,10,0,75,129.53,87,25.00,-10.00,-998.00
2024-06-07 10:14:48.022779,1,0,0,0,0,0,79,82,10,0,75,129.54,87,25.00,-10.00,-996.00
2024-06-07 10:14:48.175360,1,0,0,0,0,0,79,81,10,0,75,129.55,87,25.00,-10.00,-999.00
2024-06-07 10:14:48.286533,1,0,0,0,0,0,79,81,10,0,75,129.56,87,24.00,-11.00,-997.00
2024-06-07 10:14:48.379336,1,0,0,0,0,0,79,81,10,0,75,129.56,87,21.00,-19.00,-1001.00
2024-06-07 10:14:48.430497,1,0,0,0,0,0,79,81,10,0,75,129.56,87,32.00,-14.00,-1012.00
2024-06-07 10:14:48.532410,1,0,0,0,0,0,79,81,10,0,75,129.56,87,40.00,31.00,-997.00
2024-06-07 10:14:48.701552,1,0,0,0,0,0,79,81,10,0,75,129.56,87,-10.00,-18.00,-1025.00
2024-06-07 10:14:48.736940,1,1,0,0,0,0,79,81,10,0,75,129.56,87,57.00,-47.00,-1094.00
2024-06-07 10:14:48.901050,-1,3,0,0,0,0,79,81,10,0,75,129.56,87,-8.00,-16.00,-1221.00
2024-06-07 10:14:48.940355,-2,2,0,0,1,-3,79,81,10,0,75,129.56,87,66.00,-50.00,-1307.00
2024-06-07 10:14:49.105956,0,-1,0,0,0,-6,79,81,10,0,75,129.56,87,-37.00,-111.00,-1226.00
2024-06-07 10:14:49.144703,1,0,0,0,0,-7,80,82,17,10,75,130.08,87,-111.00,-58.00,-1071.00
2024-06-07 10:14:49.246403,0,2,0,0,-1,-8,80,82,25,20,75,130.23,88,-35.00,-30.00,-997.00
2024-06-07 10:14:49.348421,0,3,0,0,-1,-7,80,82,32,20,75,130.28,88,13.00,-76.00,-930.00
2024-06-07 10:14:49.518034,0,4,0,0,-1,-7,80,82,38,30,75,130.37,88,-41.00,-41.00,-888.00
2024-06-07 10:14:49.552574,-1,4,0,0,-1,-5,80,82,45,40,75,130.43,88,-82.00,-48.00,-913.00
2024-06-07 10:14:49.724776,-2,3,0,0,-1,-5,80,82,50,40,75,130.41,88,23.00,-42.00,-900.00
2024-06-07 10:14:49.756682,-1,3,0,0,0,-4,80,82,55,40,75,130.49,88,-23.00,-42.00,-903.00
2024-06-07 10:14:49.925029,-1,3,0,0,0,-3,80,82,60,50,75,130.59,88,23.00,-73.00,-903.00
2024-06-07 10:14:49.960625,0,4,0,0,0,-2,80,82,64,50,75,130.58,88,12.00,-70.00,-975.00
2024-06-07 10:14:50.062665,0,4,0,0,0,-2,80,82,66,50,75,130.62,88,-6.00,-64.00,-976.00
2024-06-07 10:14:50.232219,1,4,0,0,0,-2,80,82,69,50,75,130.61,88,11.00,-65.00,-960.00
2024-06-07 10:14:50.267321,1,4,0,0,0,-1,80,82,72,60,75,130.75,89,18.00,-44.00,-963.00
2024-06-07 10:14:50.369508,0,3,0,0,0,-1,80,82,74,60,75,130.78,89,87.00,-83.00,-943.00
2024-06-07 10:14:50.539614,0,3,0,0,0,-1,80,82,76,60,75,130.80,89,63.00,-92.00,-966.00
2024-06-07 10:14:50.573941,0,3,0,0,0,0,80,82,77,60,75,130.78,89,-19.00,-44.00,-969.00
2024-06-07 10:14:50.674395,0,3,0,0,0,0,80,82,78,60,75,130.71,89,67.00,-77.00,-979.00
2024-06-07 10:14:50.777751,0,3,0,0,0,0,80,82,80,60,75,130.76,89,18.00,-27.00,-982.00
2024-06-07 10:14:50.879778,0,3,0,0,0,0,80,82,81,70,75,130.77,89,-52.00,-26.00,-996.00
2024-06-07 10:14:50.983999,-1,2,0,0,0,0,80,82,83,70,75,130.78,89,-27.00,-12.00,-999.00
2024-06-07 10:14:51.084773,-1,1,0,0,0,0,80,82,84,70,75,130.77,89,-23.00,-68.00,-955.00
2024-06-07 10:14:51.190104,-2,1,0,0,0,0,80,82,86,70,75,130.75,89,3.00,-64.00,-1027.00
2024-06-07 10:14:51.291460,-2,2,0,0,0,0,80,82,87,70,75,130.84,90,-15.00,-29.00,-960.00
2024-06-07 10:14:51.388485,-1,2,0,0,0,0,80,82,87,70,75,130.78,90,-38.00,-38.00,-975.00
2024-06-07 10:14:51.563365,0,3,0,0,0,0,80,82,88,70,75,130.80,90,-25.00,-50.00,-1010.00
2024-06-07 10:14:51.563570,1,3,0,0,0,0,80,82,87,70,75,130.77,90,11.00,-58.00,-1009.00
2024-06-07 10:14:51.643226,1,3,0,0,0,0,80,82,86,70,75,130.69,90,38.00,-72.00,-951.00
2024-06-07 10:14:51.768842,2,4,0,0,0,0,80,82,87,70,75,130.68,90,48.00,-33.00,-1050.00
2024-06-07 10:14:51.847342,2,4,0,0,0,0,80,82,86,70,75,130.80,90,-67.00,-21.00,-971.00
2024-06-07 10:14:51.973367,1,3,0,0,0,0,80,82,87,70,75,130.77,90,-18.00,-48.00,-941.00
2024-06-07 10:14:52.051267,0,2,0,0,0,0,80,82,86,70,75,130.76,90,-30.00,-28.00,-1025.00
2024-06-07 10:14:52.153401,-1,2,0,-1,0,0,80,82,85,70,75,130.71,90,-42.00,-24.00,-1011.00
2024-06-07 10:14:52.280163,-2,2,0,-1,0,0,80,82,84,70,75,130.71,91,76.00,-85.00,-971.00
2024-06-07 10:14:52.357260,-3,2,0,0,0,0,80,82,83,70,75,130.66,91,-65.00,-38.00,-1026.00
2024-06-07 10:14:52.459248,-3,2,0,0,0,0,80,82,83,70,75,130.73,91,-90.00,-21.00,-1014.00
2024-06-07 10:14:52.587373,-2,2,0,0,0,0,80,82,82,70,75,130.72,91,-55.00,-60.00,-983.00
2024-06-07 10:14:52.663608,-3,2,0,0,0,0,80,82,82,70,75,130.72,91,-90.00,-25.00,-1044.00
2024-06-07 10:14:52.792210,-2,2,0,0,0,0,80,82,81,70,75,130.68,91,-24.00,-20.00,-983.00
2024-06-07 10:14:52.867212,-1,3,0,0,0,0,80,82,80,70,75,130.74,91,-17.00,-70.00,-973.00
2024-06-07 10:14:52.997035,-1,2,0,0,0,0,80,82,79,70,75,130.66,91,28.00,-75.00,-979.00
2024-06-07 10:14:53.071288,-1,2,0,0,0,0,80,82,77,70,75,130.71,91,12.00,-16.00,-995.00
2024-06-07 10:14:53.201818,-1,2,0,0,0,0,79,82,77,70,75,130.71,91,-78.00,41.00,-991.00
2024-06-07 10:14:53.275527,0,2,1,0,0,0,79,82,76,70,75,130.65,92,-32.00,13.00,-1029.00
2024-06-07 10:14:53.377196,0,1,0,0,0,0,79,82,75,70,75,130.66,92,-21.00,-30.00,-1034.00
2024-06-07 10:14:53.611505,-1,0,0,0,0,0,79,82,76,60,75,130.67,92,-46.00,-34.00,-1013.00
2024-06-07 10:14:53.611565,-2,0,0,0,0,0,79,82,76,60,75,130.63,92,7.00,-59.00,-1039.00
2024-06-07 10:14:53.683859,-2,0,0,0,0,0,79,82,76,60,75,130.66,92,-15.00,-56.00,-1010.00
2024-06-07 10:14:53.816148,-1,1,0,0,0,0,79,82,77,60,75,130.67,92,-29.00,-73.00,-979.00
2024-06-07 10:14:53.888294,-1,1,0,0,0,0,79,82,78,60,75,130.60,92,-2.00,-26.00,-1020.00
2024-06-07 10:14:53.991077,0,2,0,0,0,0,79,82,79,70,75,130.62,92,-73.00,-35.00,-1002.00
2024-06-07 10:14:54.092102,-1,2,0,0,0,0,79,82,80,70,75,130.63,92,-77.00,-15.00,-1022.00
2024-06-07 10:14:54.193207,-1,2,0,0,0,0,80,82,81,70,75,130.62,92,-29.00,-20.00,-986.00
2024-06-07 10:14:54.328424,-2,2,0,0,0,0,80,82,81,70,75,130.55,93,-52.00,-13.00,-928.00
2024-06-07 10:14:54.397166,-3,2,0,0,0,0,80,82,83,70,75,130.63,93,-46.00,-35.00,-1035.00
2024-06-07 10:14:54.533248,-2,1,0,0,0,0,80,82,82,70,75,130.59,93,0.00,-34.00,-985.00
2024-06-07 10:14:54.601079,-1,1,0,0,0,0,80,82,83,70,75,130.61,93,-13.00,-35.00,-989.00
2024-06-07 10:14:54.738020,0,1,0,0,0,0,80,82,83,70,75,130.66,93,-86.00,3.00,-984.00
2024-06-07 10:14:54.805355,0,2,0,0,0,0,80,82,84,70,75,130.65,93,44.00,-34.00,-988.00
2024-06-07 10:14:54.907816,-2,3,0,0,0,0,80,82,85,70,75,130.71,93,-37.00,-32.00,-1075.00
2024-06-07 10:14:55.045027,-1,2,0,0,0,0,80,82,84,70,75,130.68,93,-18.00,-62.00,-936.00
2024-06-07 10:14:55.111440,0,1,0,1,0,0,80,82,83,70,75,130.66,93,18.00,-67.00,-1055.00
2024-06-07 10:14:55.266341,1,2,0,0,0,0,79,82,83,70,75,130.60,94,64.00,-67.00,-1066.00
2024-06-07 10:14:55.316819,1,2,0,0,0,0,79,82,81,70,75,130.61,94,-33.00,-59.00,-974.00
2024-06-07 10:14:55.417839,-1,2,0,0,0,0,79,82,80,70,75,130.59,94,45.00,-56.00,-991.00
2024-06-07 10:14:55.557679,-1,3,0,0,0,1,79,82,78,70,75,130.56,94,-15.00,-37.00,-1002.00
2024-06-07 10:14:55.623429,-1,2,0,0,0,1,79,82,77,70,75,130.65,94,3.00,-56.00,-997.00
2024-06-07 10:14:55.672218,-2,3,0,0,0,0,79,82,76,60,75,130.58,94,41.00,-74.00,-1030.00
2024-06-07 10:14:55.865328,-1,3,0,0,0,0,79,82,75,60,75,130.54,94,-2.00,-74.00,-1111.00
2024-06-07 10:14:55.876318,-1,3,0,0,0,0,79,82,75,60,75,130.48,94,28.00,-81.00,-1009.00
2024-06-07 10:14:56.171735,-1,3,0,0,0,0,79,82,74,60,75,130.51,94,-33.00,-46.00,-1006.00
2024-06-07 10:14:56.171993,-1,3,0,0,0,0,79,82,74,60,75,130.54,94,0.00,-63.00,-956.00
2024-06-07 10:14:56.183746,-1,3,0,0,0,0,80,82,75,60,75,130.54,95,-64.00,-30.00,-1067.00
2024-06-07 10:14:56.284847,-2,3,0,0,0,0,80,82,75,60,75,130.54,95,53.00,-83.00,-987.00
2024-06-07 10:14:56.389672,-2,3,0,0,0,0,80,82,76,60,75,130.60,95,40.00,-83.00,-1019.00
2024-06-07 10:14:56.490843,-2,4,0,0,0,0,80,82,77,60,75,130.52,95,11.00,-58.00,-1028.00
2024-06-07 10:14:56.593055,-2,3,0,0,0,0,80,82,77,60,75,130.47,95,-31.00,-82.00,-989.00
2024-06-07 10:14:56.692285,-2,3,0,0,0,0,80,82,79,70,75,130.54,95,-46.00,-62.00,-962.00
2024-06-07 10:14:56.794138,-2,4,0,0,0,0,80,82,80,70,75,130.57,95,33.00,-67.00,-1010.00
2024-06-07 10:14:56.990689,-1,3,0,0,0,0,80,82,80,70,75,130.53,95,-51.00,-52.00,-1002.00
2024-06-07 10:14:56.998672,-2,3,0,0,0,0,80,82,81,70,75,130.55,95,-23.00,-36.00,-946.00
2024-06-07 10:14:57.100013,-3,3,0,0,0,0,80,82,82,70,75,130.51,95,-6.00,-95.00,-1006.00
2024-06-07 10:14:57.202171,-2,4,0,0,0,0,79,82,84,70,75,130.54,96,-7.00,-48.00,-999.00
2024-06-07 10:14:57.370573,-2,4,0,0,0,0,79,82,85,70,75,130.56,96,5.00,-88.00,-969.00
2024-06-07 10:14:57.405978,0,4,0,1,0,0,79,82,85,70,75,130.55,96,-13.00,-37.00,-1008.00
2024-06-07 10:14:57.605125,0,3,0,0,0,0,79,82,87,70,75,130.54,96,-56.00,-41.00,-967.00
2024-06-07 10:14:57.609986,-2,2,0,0,0,-1,79,82,88,70,75,130.60,96,32.00,-77.00,-1063.00
2024-06-07 10:14:57.810426,-2,2,0,0,0,-2,79,82,90,70,75,130.63,96,-5.00,-40.00,-1130.00
2024-06-07 10:14:57.813982,-2,2,0,0,0,-3,79,82,95,80,75,130.67,96,-81.00,-64.00,-1083.00
2024-06-07 10:14:58.014629,-1,3,0,0,0,-4,79,82,98,80,75,130.74,96,1.00,-75.00,-1113.00
2024-06-07 10:14:58.018381,-1,3,0,0,0,-4,79,82,104,90,75,130.73,96,-18.00,-71.00,-1117.00
2024-06-07 10:14:58.120860,0,3,0,0,0,-5,79,82,109,90,75,130.75,96,-65.00,-65.00,-1062.00
2024-06-07 10:14:58.225521,-1,4,0,0,0,-5,79,81,112,100,75,130.75,97,11.00,-85.00,-984.00
2024-06-07 10:14:58.324011,-1,4,0,0,0,-5,79,81,117,100,75,130.82,97,-116.00,-37.00,-974.00
2024-06-07 10:14:58.426007,-1,4,0,0,0,-5,79,81,123,110,75,130.83,97,-69.00,-37.00,-1038.00
2024-06-07 10:14:58.731486,-2,3,0,0,0,-5,79,81,126,110,75,130.97,97,-53.00,-46.00,-960.00
2024-06-07 10:14:58.731932,-2,4,0,0,0,-4,79,81,132,120,75,131.04,97,-20.00,-60.00,-921.00
2024-06-07 10:14:58.732769,-2,3,0,0,0,-4,79,81,135,120,75,131.01,97,-87.00,-27.00,-1003.00
2024-06-07 10:14:58.834498,-3,3,0,0,0,-4,79,81,140,120,75,131.01,97,-23.00,-44.00,-968.00
2024-06-07 10:14:58.936422,-1,3,0,0,0,-3,79,81,143,130,75,131.08,97,-34.00,-56.00,-1004.00
2024-06-07 10:14:59.038345,0,4,0,0,0,-3,79,81,145,130,75,131.05,97,-90.00,-28.00,-997.00
2024-06-07 10:14:59.141006,-1,3,0,0,0,-3,79,81,149,140,75,131.07,97,-81.00,-25.00,-960.00
2024-06-07 10:14:59.243149,-1,3,0,0,0,-3,80,81,150,140,75,131.00,98,-41.00,-65.00,-921.00
2024-06-07 10:14:59.346507,-1,3,0,0,0,-2,80,81,157,140,75,131.18,98,-17.00,-57.00,-990.00
2024-06-07 10:14:59.448495,-2,3,0,0,0,-2,80,81,159,140,75,131.13,98,-55.00,-34.00,-971.00
2024-06-07 10:14:59.498336,-2,3,0,0,0,-2,80,81,161,150,75,131.18,98,-6.00,-67.00,-1036.00
2024-06-07 10:14:59.599523,-2,3,0,0,0,-2,80,81,163,150,75,131.29,98,-3.00,-39.00,-978.00
2024-06-07 10:14:59.757224,-2,3,0,0,0,-1,80,81,167,150,75,131.34,98,-63.00,-61.00,-970.00
2024-06-07 10:14:59.803293,-3,3,0,0,0,-1,80,81,170,150,75,131.36,98,-92.00,-32.00,-861.00
2024-06-07 10:14:59.904925,-2,3,0,0,0,-2,80,81,169,150,75,131.37,98,18.00,-70.00,-1055.00
2024-06-07 10:15:00.062590,-1,3,0,0,0,-1,80,81,173,160,75,131.39,98,-79.00,-20.00,-909.00
2024-06-07 10:15:00.108881,-1,2,0,0,0,-1,80,81,176,160,75,131.42,98,-25.00,-29.00,-952.00
2024-06-07 10:15:00.267922,0,3,0,0,0,-1,80,81,176,160,75,131.44,99,30.00,-60.00,-1002.00
2024-06-07 10:15:00.312867,0,3,0,1,0,-1,80,81,181,160,75,131.48,99,70.00,-66.00,-961.00
2024-06-07 10:15:00.415327,0,4,0,1,0,-1,80,81,180,160,75,131.37,99,30.00,-60.00,-1002.00
2024-06-07 10:15:00.516997,0,3,0,0,0,-1,80,81,185,170,75,131.49,99,0.00,-75.00,-930.00
2024-06-07 10:15:00.679235,0,3,0,0,0,-1,80,81,189,170,75,131.49,99,-61.00,-42.00,-1041.00
2024-06-07 10:15:00.721154,0,4,0,0,0,-1,80,81,188,170,75,131.49,99,23.00,-46.00,-962.00
2024-06-07 10:15:00.881950,0,4,0,0,0,0,80,81,191,170,75,131.54,99,-20.00,-39.00,-952.00
2024-06-07 10:15:00.924943,0,3,0,0,0,0,80,81,190,170,75,131.58,99,12.00,-35.00,-1017.00
2024-06-07 10:15:01.086715,0,3,0,1,0,0,80,81,192,170,75,131.58,99,52.00,-86.00,-965.00
2024-06-07 10:15:01.128819,1,3,0,1,0,0,80,81,190,170,75,131.57,99,-19.00,-83.00,-989.00
2024-06-07 10:15:01.291501,2,3,0,0,0,0,79,82,190,170,75,131.57,100,13.00,-49.00,-995.00
2024-06-07 10:15:01.332875,1,3,0,0,0,0,79,82,191,170,75,131.51,100,-34.00,-52.00,-984.00
2024-06-07 10:15:01.498402,1,3,0,0,0,0,79,82,189,180,75,131.47,100,60.00,-69.00,-1002.00
2024-06-07 10:15:01.537293,1,2,0,0,0,0,79,82,193,180,75,131.45,100,9.00,-37.00,-1006.00
2024-06-07 10:15:01.701005,0,2,0,0,0,0,79,82,190,170,75,131.54,100,-36.00,-38.00,-1019.00
2024-06-07 10:15:01.740926,0,2,0,0,0,0,79,82,190,170,75,131.46,100,12.00,-41.00,-933.00
2024-06-07 10:15:01.906636,0,2,0,0,0,0,79,82,191,170,75,131.52,100,15.00,-46.00,-912.00
2024-06-07 10:15:01.944868,1,2,0,0,0,0,79,82,190,170,75,131.52,100,39.00,-39.00,-1029.00
2024-06-07 10:15:02.110676,1,1,0,0,0,0,79,82,190,170,75,131.47,100,39.00,-93.00,-967.00
2024-06-07 10:15:02.149321,2,2,0,0,0,0,79,82,189,170,75,131.66,100,43.00,-58.00,-954.00
2024-06-07 10:15:02.251687,2,3,0,0,0,0,77,81,192,180,75,131.57,101,29.00,-62.00,-1052.00
2024-06-07 10:15:02.353488,1,3,0,0,0,0,77,81,188,180,75,131.58,101,3.00,-26.00,-936.00
2024-06-07 10:15:02.454845,0,3,0,0,0,0,77,81,190,170,75,131.57,101,3.00,-67.00,-1000.00
2024-06-07 10:15:02.556714,0,3,0,0,0,0,77,81,189,170,75,131.51,101,-23.00,-83.00,-959.00
2024-06-07 10:15:02.724995,-1,3,0,0,0,0,77,81,188,170,75,131.45,101,20.00,-21.00,-1008.00
2024-06-07 10:15:02.760791,-1,2,0,0,0,0,77,81,187,170,75,131.44,101,45.00,-59.00,-950.00
2024-06-07 10:15:02.929782,0,3,0,0,0,0,77,81,186,170,75,131.42,101,7.00,-33.00,-906.00
2024-06-07 10:15:02.965648,0,3,0,0,0,1,77,81,185,170,75,131.52,101,-35.00,-55.00,-941.00
2024-06-07 10:15:03.016438,0,4,0,0,0,2,77,81,182,170,75,131.43,101,31.00,-61.00,-957.00
2024-06-07 10:15:03.118707,0,3,0,0,0,2,77,81,181,170,75,131.37,101,-6.00,-25.00,-1009.00
2024-06-07 10:15:03.272243,0,3,0,0,0,2,79,82,176,160,75,131.43,102,82.00,-93.00,-1011.00
2024-06-07 10:15:03.321775,0,3,0,0,0,2,79,82,174,160,75,131.37,102,9.00,-37.00,-962.00
2024-06-07 10:15:03.423802,0,3,0,0,0,3,79,82,169,160,75,131.31,102,0.00,-31.00,-1051.00
2024-06-07 10:15:03.544512,0,3,0,0,0,3,79,82,169,160,75,131.42,102,68.00,-119.00,-1057.00
2024-06-07 10:15:03.629357,0,3,0,0,0,2,79,82,166,150,75,131.33,102,-18.00,-78.00,-1008.00
2024-06-07 10:15:03.729684,0,4,0,0,0,2,79,82,163,150,75,131.27,102,108.00,-101.00,-1053.00
2024-06-07 10:15:03.851699,1,4,0,0,0,2,79,82,162,150,75,131.25,102,0.00,-47.00,-1001.00
2024-06-07 10:15:03.933727,1,4,0,0,0,1,79,82,160,150,75,131.35,102,-33.00,-38.00,-1032.00
2024-06-07 10:15:04.056195,1,3,0,0,0,1,79,82,157,140,75,131.25,102,-11.00,-47.00,-972.00
2024-06-07 10:15:04.137661,1,3,0,0,0,2,79,82,155,140,75,131.28,102,21.00,-47.00,-1000.00
2024-06-07 10:15:04.273496,1,3,0,0,0,2,79,81,151,140,75,131.23,103,64.00,-62.00,-1038.00
2024-06-07 10:15:04.341820,0,2,0,0,0,1,79,81,152,140,75,131.21,103,26.00,-52.00,-1076.00
2024-06-07 10:15:04.443728,0,2,0,0,0,1,79,81,151,140,75,131.18,103,-18.00,-75.00,-961.00
2024-06-07 10:15:04.568175,0,2,0,0,0,1,79,81,151,140,75,131.17,103,78.00,-62.00,-1028.00
2024-06-07 10:15:04.650162,1,2,0,0,0,0,79,81,149,130,75,131.16,103,-44.00,-33.00,-980.00
2024-06-07 10:15:04.749760,0,2,0,0,0,0,79,81,149,130,75,131.20,103,19.00,-47.00,-1031.00
2024-06-07 10:15:04.875747,0,2,0,0,0,0,79,81,150,130,75,131.09,103,36.00,-58.00,-1026.00
2024-06-07 10:15:04.957674,0,1,0,0,0,0,79,81,149,130,75,131.16,103,-9.00,-21.00,-1010.00
2024-06-07 10:15:05.056457,0,2,0,0,0,0,79,81,149,130,75,131.13,103,46.00,-63.00,-972.00
2024-06-07 10:15:05.162513,0,3,0,0,0,0,79,81,149,130,75,131.14,103,63.00,-92.00,-1002.00
2024-06-07 10:15:05.261358,0,3,0,0,0,0,80,82,148,130,75,131.11,104,36.00,-77.00,-985.00
2024-06-07 10:15:05.361846,0,3,0,0,0,0,80,82,147,130,75,131.14,104,13.00,-66.00,-1013.00
2024-06-07 10:15:05.463695,1,3,0,0,0,0,80,82,147,130,75,131.19,104,27.00,-58.00,-973.00
2024-06-07 10:15:05.565700,2,3,0,0,0,0,80,82,148,130,75,131.07,104,62.00,-88.00,-1014.00
2024-06-07 10:15:05.668264,1,4,0,0,0,0,80,82,148,130,75,131.05,104,27.00,-40.00,-1039.00
2024-06-07 10:15:05.769740,1,4,0,0,0,0,80,82,145,130,75,131.10,104,10.00,-62.00,-1011.00
2024-06-07 10:15:05.871758,1,3,0,0,0,0,80,82,146,130,75,131.09,104,6.00,-46.00,-1046.00
2024-06-07 10:15:06.001926,0,3,0,0,0,0,80,82,145,130,75,131.11,104,123.00,-99.00,-1050.00
2024-06-07 10:15:06.076271,0,3,0,0,0,0,80,82,143,130,75,131.10,104,-27.00,-60.00,-1026.00
2024-06-07 10:15:06.207649,0,3,0,0,0,0,80,82,146,130,75,131.16,104,75.00,-65.00,-1020.00
2024-06-07 10:15:06.279625,1,3,0,0,0,0,78,80,143,130,75,131.14,105,7.00,-76.00,-991.00
2024-06-07 10:15:06.411596,0,3,0,0,0,0,78,80,143,130,75,131.11,105,56.00,-67.00,-992.00
2024-06-07 10:15:06.484109,0,3,0,0,0,0,78,80,144,130,75,131.16,105,22.00,-39.00,-1002.00
2024-06-07 10:15:06.586196,0,3,0,0,0,0,78,80,144,130,75,131.18,105,33.00,-81.00,-1040.00
2024-06-07 10:15:06.688660,0,3,0,0,0,0,78,80,147,130,75,131.13,105,-48.00,-43.00,-1076.00
2024-06-07 10:15:06.821531,1,3,0,0,0,0,78,80,146,130,75,131.11,105,56.00,-66.00,-1061.00
2024-06-07 10:15:06.840858,0,3,0,0,0,0,78,80,146,130,75,131.10,105,6.00,-115.00,-932.00
2024-06-07 10:15:07.025790,0,3,0,0,0,0,78,80,147,130,75,131.14,105,0.00,-49.00,-981.00
2024-06-07 10:15:07.048505,-1,3,0,0,0,0,78,80,148,130,75,130.98,105,-25.00,-98.00,-932.00
2024-06-07 10:15:07.146637,0,3,0,0,0,0,78,80,147,130,75,130.96,105,-4.00,-85.00,-1004.00
2024-06-07 10:15:07.333245,0,4,0,0,0,0,79,81,150,130,75,131.03,106,43.00,-94.00,-970.00
2024-06-07 10:15:07.401680,0,4,0,0,0,0,79,81,149,130,75,131.02,106,-15.00,-88.00,-931.00
2024-06-07 10:15:07.544728,0,4,0,0,0,0,79,81,148,130,75,131.03,106,-78.00,-41.00,-988.00
2024-06-07 10:15:07.554683,0,4,0,0,0,0,79,81,148,130,75,131.10,106,-114.00,-35.00,-936.00
2024-06-07 10:15:07.722833,0,4,0,0,0,0,79,81,149,130,75,131.15,106,-25.00,-65.00,-1001.00
2024-06-07 10:15:07.758609,-1,4,0,0,0,0,79,81,148,130,75,131.10,106,-9.00,-64.00,-1035.00
2024-06-07 10:15:07.947345,-2,3,0,0,0,0,79,81,148,130,75,131.07,106,2.00,-103.00,-1069.00
2024-06-07 10:15:07.963132,-5,3,0,0,0,0,79,81,151,130,75,131.09,106,29.00,-83.00,-940.00
2024-06-07 10:15:08.152155,-8,3,0,0,0,0,79,81,148,130,75,131.05,106,2.00,-78.00,-1007.00
2024-06-07 10:15:08.166506,-8,3,0,2,0,0,79,81,149,130,75,130.96,106,0.00,-76.00,-965.00
2024-06-07 10:15:08.356976,-8,3,0,3,0,0,80,82,146,130,75,130.92,107,-24.00,-78.00,-1042.00
2024-06-07 10:15:08.371537,-8,3,0,4,0,0,80,82,147,130,75,130.91,107,-38.00,-50.00,-990.00
2024-06-07 10:15:08.561767,-7,4,0,5,0,0,80,82,144,130,75,130.76,107,2.00,-60.00,-1079.00
2024-06-07 10:15:08.576322,-7,4,0,6,0,0,80,82,144,130,75,130.83,107,-35.00,-58.00,-978.00
2024-06-07 10:15:08.766592,-6,3,0,6,0,0,80,82,143,130,75,130.90,107,-69.00,-61.00,-957.00
2024-06-07 10:15:08.779535,-6,3,0,7,0,0,80,82,144,130,75,130.90,107,-46.00,-78.00,-1005.00
2024-06-07 10:15:08.971859,-4,2,0,7,0,0,80,82,142,130,75,130.86,107,-101.00,-63.00,-942.00
2024-06-07 10:15:08.983410,0,3,0,7,0,0,80,82,141,130,75,130.82,107,20.00,-64.00,-993.00
2024-06-07 10:15:09.085455,1,3,0,7,0,0,80,82,142,130,75,130.79,107,29.00,-80.00,-935.00
2024-06-07 10:15:09.279019,3,3,0,6,0,0,80,82,143,130,75,130.92,107,35.00,-96.00,-1009.00
2024-06-07 10:15:09.289505,3,4,0,4,0,0,80,81,144,130,75,130.90,108,9.00,-73.00,-1029.00
2024-06-07 10:15:09.392126,2,4,0,4,0,0,80,81,144,130,75,130.85,108,-9.00,-40.00,-1019.00
2024-06-07 10:15:09.493466,1,3,0,3,0,0,80,81,144,130,75,130.97,108,64.00,-80.00,-966.00
2024-06-07 10:15:09.688181,1,3,0,3,0,0,80,81,145,130,75,131.03,108,25.00,-62.00,-1025.00
2024-06-07 10:15:09.697460,1,2,0,3,0,0,80,81,145,130,75,130.99,108,24.00,-46.00,-967.00
2024-06-07 10:15:09.892952,0,2,0,2,0,0,80,81,145,130,75,131.01,108,23.00,-61.00,-984.00
2024-06-07 10:15:09.904456,0,2,0,2,0,0,80,81,145,130,75,130.92,108,-35.00,-49.00,-955.00
2024-06-07 10:15:10.003458,0,2,0,2,0,0,80,81,145,130,75,131.02,108,86.00,-58.00,-1020.00
2024-06-07 10:15:10.202931,6,2,0,2,0,0,80,81,145,130,75,131.09,108,-6.00,-44.00,-1055.00
2024-06-07 10:15:10.207594,4,2,0,1,0,0,80,81,145,130,75,130.95,109,26.00,-48.00,-1021.00
2024-06-07 10:15:10.309444,3,2,0,1,0,0,80,82,146,130,75,131.04,109,46.00,-54.00,-1023.00
2024-06-07 10:15:10.411597,2,1,0,0,0,0,80,82,145,130,75,131.03,109,56.00,-53.00,-988.00
2024-06-07 10:15:10.610604,1,2,0,0,0,0,80,82,146,130,75,131.05,109,67.00,-39.00,-933.00
2024-06-07 10:15:10.615752,0,2,0,0,0,0,80,82,146,130,75,130.92,109,49.00,-24.00,-982.00
2024-06-07 10:15:10.814707,1,1,0,0,0,0,80,82,144,130,75,131.00,109,36.00,-40.00,-1009.00
2024-06-07 10:15:10.819530,1,1,0,0,0,0,80,82,145,130,75,131.00,109,38.00,-29.00,-989.00
2024-06-07 10:15:10.922197,1,1,0,0,0,0,80,82,145,130,75,130.93,109,25.00,-36.00,-982.00
2024-06-07 10:15:11.024005,1,1,0,0,0,0,80,82,142,130,75,130.90,109,0.00,-49.00,-1001.00
2024-06-07 10:15:11.224367,0,1,0,0,0,1,80,82,140,130,75,130.96,109,4.00,-48.00,-991.00
2024-06-07 10:15:11.224526,0,2,0,0,0,0,80,82,141,130,75,130.92,110,44.00,-80.00,-1052.00
2024-06-07 10:15:11.279296,0,2,0,0,0,0,78,81,138,130,75,130.90,110,-17.00,-12.00,-1004.00
2024-06-07 10:15:11.434622,0,3,0,0,0,0,78,81,138,130,75,130.95,110,48.00,-51.00,-1042.00
2024-06-07 10:15:11.483294,0,3,0,0,0,0,78,81,137,130,75,130.90,110,30.00,-53.00,-1002.00
2024-06-07 10:15:11.636085,1,2,0,0,0,0,78,81,138,130,75,130.91,110,4.00,-37.00,-1008.00
2024-06-07 10:15:11.687709,0,2,0,0,0,0,78,81,135,130,75,130.97,110,62.00,-43.00,-1013.00
2024-06-07 10:15:11.838669,0,2,0,0,0,0,78,81,137,130,75,131.03,110,29.00,-35.00,-972.00
2024-06-07 10:15:11.892535,0,2,0,0,0,0,78,81,137,130,75,131.01,110,28.00,-39.00,-1024.00
2024-06-07 10:15:11.993134,1,2,0,0,0,0,78,81,136,130,75,131.02,110,-53.00,-3.00,-969.00
2024-06-07 10:15:12.094782,0,1,0,0,0,0,78,81,138,130,75,131.00,110,45.00,-62.00,-1066.00
2024-06-07 10:15:12.196595,0,2,0,0,0,0,78,81,139,130,75,131.08,111,43.00,-32.00,-1073.00
2024-06-07 10:15:12.298925,0,2,0,0,0,0,79,81,141,130,75,131.03,111,31.00,-42.00,-1060.00
2024-06-07 10:15:12.423423,2,2,0,0,0,-1,79,81,143,130,75,131.01,111,28.00,-54.00,-1016.00
2024-06-07 10:15:12.504346,7,2,0,0,0,0,79,81,144,130,75,130.99,111,-40.00,-12.00,-940.00
2024-06-07 10:15:12.605255,8,2,0,-1,0,0,79,81,145,130,75,130.85,111,35.00,-38.00,-1062.00
2024-06-07 10:15:12.706346,8,2,0,-2,0,0,79,81,148,130,75,131.02,111,1.00,-50.00,-943.00
2024-06-07 10:15:12.809136,8,2,0,-3,0,0,79,81,148,130,75,131.00,111,81.00,-23.00,-987.00
2024-06-07 10:15:12.910493,8,2,0,-4,0,-1,79,81,150,130,75,130.98,111,87.00,-70.00,-968.00
2024-06-07 10:15:13.012394,8,2,0,-5,0,0,79,81,148,130,75,130.93,111,63.00,-62.00,-919.00
2024-06-07 10:15:13.170227,8,3,0,-6,0,0,79,81,147,140,75,130.90,111,51.00,-61.00,-987.00
2024-06-07 10:15:13.216700,7,3,0,-7,0,0,79,81,148,130,75,130.93,112,-5.00,-41.00,-1010.00
2024-06-07 10:15:13.375341,4,3,0,-8,0,0,79,81,147,130,75,130.98,112,82.00,-77.00,-1053.00
2024-06-07 10:15:13.420459,1,3,0,-8,0,0,79,81,145,130,75,130.92,112,25.00,-53.00,-968.00
2024-06-07 10:15:13.582216,-1,2,0,-8,0,0,79,81,147,130,75,130.91,112,16.00,-37.00,-993.00
2024-06-07 10:15:13.624719,-4,2,0,-7,0,0,79,81,145,130,75,130.88,112,33.00,-39.00,-1000.00
2024-06-07 10:15:13.784777,-5,2,0,-6,0,0,79,81,147,130,75,130.89,112,32.00,-38.00,-923.00
2024-06-07 10:15:13.828309,-4,2,0,-5,0,0,79,81,142,130,75,130.87,112,-12.00,-46.00,-899.00
2024-06-07 10:15:14.091486,-3,3,0,-4,0,0,79,81,140,130,75,130.89,112,57.00,-42.00,-1065.00
2024-06-07 10:15:14.091535,-1,2,0,-3,0,0,79,81,141,130,75,130.83,112,-53.00,-37.00,-1019.00
2024-06-07 10:15:14.134257,-1,2,0,-3,0,0,79,81,141,130,75,130.94,112,43.00,-33.00,-1009.00
2024-06-07 10:15:14.299656,-1,3,0,-3,0,0,79,81,140,130,75,130.94,113,-8.00,-17.00,-1004.00
2024-06-07 10:15:14.338275,-2,3,0,-2,0,0,79,81,141,130,75,130.85,113,14.00,-61.00,-1035.00
2024-06-07 10:15:14.440320,-3,6,0,-2,0,0,79,81,140,130,75,130.94,113,-11.00,-4.00,-1072.00
2024-06-07 10:15:14.542318,-2,6,0,-1,0,0,79,81,143,130,75,130.88,113,-44.00,-29.00,-1015.00
2024-06-07 10:15:14.706030,-1,2,0,0,1,0,79,81,140,130,75,130.92,113,-33.00,-17.00,-1006.00
2024-06-07 10:15:14.746217,-1,0,0,0,0,0,79,81,142,130,75,130.94,113,9.00,-33.00,-988.00
2024-06-07 10:15:14.848296,2,2,0,0,0,0,79,81,140,130,75,130.85,113,-7.00,-84.00,-1046.00
2024-06-07 10:15:14.950293,4,2,0,0,0,0,79,81,140,130,75,130.90,113,43.00,-37.00,-1015.00
2024-06-07 10:15:15.001252,4,3,0,0,0,0,79,81,141,130,75,130.94,113,58.00,-50.00,-1019.00
2024-06-07 10:15:15.103846,2,3,0,-1,0,0,79,81,140,130,75,130.90,113,6.00,-75.00,-951.00
2024-06-07 10:15:15.205986,1,3,0,-1,0,0,79,81,139,130,75,130.96,114,40.00,-50.00,-1011.00
2024-06-07 10:15:15.358725,-3,3,0,-1,0,0,80,81,139,130,75,130.85,114,-22.00,-30.00,-987.00
2024-06-07 10:15:15.463233,-2,2,0,0,0,0,80,81,140,130,75,130.91,114,23.00,-70.00,-979.00
2024-06-07 10:15:15.513411,0,2,0,0,0,0,80,81,138,130,75,130.87,114,-83.00,-32.00,-976.00
2024-06-07 10:15:15.615743,0,2,0,0,0,0,80,81,137,130,75,130.89,114,46.00,-83.00,-1068.00
2024-06-07 10:15:15.715668,0,2,0,0,0,0,80,81,138,130,75,130.87,114,-75.00,-34.00,-1006.00
2024-06-07 10:15:15.825793,0,2,0,0,0,0,80,81,138,130,75,130.84,114,-80.00,-42.00,-1061.00
2024-06-07 10:15:15.919379,0,3,0,0,0,0,80,81,138,130,75,130.86,114,12.00,-43.00,-1064.00
2024-06-07 10:15:16.036999,-1,3,0,0,0,0,80,81,137,130,75,130.78,114,-33.00,-60.00,-968.00
2024-06-07 10:15:16.123654,-2,3,0,0,0,0,80,81,137,130,75,130.83,114,8.00,-35.00,-1008.00
2024-06-07 10:15:16.242534,-1,3,0,0,0,0,80,81,137,130,75,130.83,115,-34.00,-43.00,-1051.00
2024-06-07 10:15:16.327206,0,2,0,0,0,0,79,82,137,130,75,130.98,115,13.00,-40.00,-1038.00
2024-06-07 10:15:16.429190,0,3,0,0,0,0,79,82,136,130,75,130.94,115,-33.00,-56.00,-1027.00
2024-06-07 10:15:16.754703,0,3,0,0,0,0,79,82,134,130,75,130.82,115,-35.00,-43.00,-972.00
2024-06-07 10:15:16.754883,0,3,0,0,0,0,79,82,133,130,75,130.83,115,5.00,-26.00,-1035.00
2024-06-07 10:15:16.755158,0,3,0,0,0,0,79,82,131,130,75,130.83,115,-29.00,-49.00,-1054.00
2024-06-07 10:15:16.837247,0,3,0,0,0,0,79,82,130,120,75,130.77,115,-87.00,-21.00,-984.00
2024-06-07 10:15:16.958693,-1,2,0,0,0,0,79,82,129,120,75,130.80,115,14.00,-52.00,-980.00
2024-06-07 10:15:17.041720,-2,2,0,0,0,0,79,82,127,120,75,130.73,115,12.00,-35.00,-1044.00
2024-06-07 10:15:17.164236,-1,2,0,0,0,0,79,82,126,120,75,130.72,115,42.00,-63.00,-1086.00
2024-06-07 10:15:17.246652,-1,2,0,0,0,0,79,82,125,120,75,130.74,116,-87.00,-14.00,-1069.00
2024-06-07 10:15:17.362079,-1,3,0,0,0,0,78,82,123,120,75,130.78,116,-17.00,-58.00,-984.00
2024-06-07 10:15:17.450837,0,3,0,0,0,0,78,82,124,120,75,130.76,116,-60.00,-22.00,-1042.00
2024-06-07 10:15:17.572941,0,1,0,0,0,0,78,82,124,120,75,130.79,116,-34.00,-49.00,-994.00
2024-06-07 10:15:17.654768,0,-6,0,0,0,0,78,82,127,120,75,130.79,116,59.00,-75.00,-1045.00
2024-06-07 10:15:17.756264,-1,-4,0,0,-2,0,78,82,127,120,75,130.76,116,51.00,-63.00,-1031.00
2024-06-07 10:15:17.858150,0,-2,0,0,-3,-1,78,82,129,120,75,130.72,116,-47.00,-23.00,-990.00
2024-06-07 10:15:17.982856,0,0,0,0,-4,-1,78,82,129,120,75,130.77,116,-4.00,-14.00,-1007.00
2024-06-07 10:15:18.062113,0,3,0,0,-3,-1,78,82,129,120,75,130.81,116,-13.00,-35.00,-1039.00
2024-06-07 10:15:18.187461,0,3,0,0,-3,-1,78,82,130,130,75,130.76,116,-52.00,-15.00,-956.00
2024-06-07 10:15:18.266097,-1,3,0,0,-3,0,78,82,132,130,75,130.91,117,9.00,-35.00,-985.00
2024-06-07 10:15:18.394091,-1,3,0,0,-3,0,79,81,132,130,75,130.74,117,-29.00,-51.00,-1002.00
2024-06-07 10:15:18.470401,-1,2,0,0,-2,0,79,81,132,130,75,130.85,117,23.00,-59.00,-1072.00
2024-06-07 10:15:18.597250,-1,2,0,0,-3,0,79,81,133,130,75,130.84,117,-57.00,-21.00,-925.00
2024-06-07 10:15:18.675385,0,2,0,0,-2,0,79,81,134,130,75,130.80,117,-27.00,-48.00,-1016.00
2024-06-07 10:15:18.802294,0,2,0,0,-3,0,79,81,133,130,75,130.88,117,-24.00,-16.00,-987.00
2024-06-07 10:15:18.878110,0,3,0,0,-2,0,79,81,135,130,75,130.82,117,-20.00,-49.00,-1020.00
2024-06-07 10:15:19.006523,0,4,0,0,-2,0,79,81,134,130,75,130.88,117,-64.00,-34.00,-939.00
2024-06-07 10:15:19.031557,0,8,0,0,-2,0,79,81,136,130,75,130.86,117,40.00,-23.00,-1056.00
2024-06-07 10:15:19.133383,0,6,0,0,-1,0,79,81,137,130,75,130.81,117,32.00,-57.00,-1105.00
2024-06-07 10:15:19.235188,1,4,0,0,0,0,79,81,137,130,75,130.86,118,55.00,-52.00,-925.00
2024-06-07 10:15:19.340818,1,4,0,0,0,0,79,81,135,130,75,130.78,118,-37.00,-34.00,-1001.00
2024-06-07 10:15:19.439020,0,3,0,0,0,0,79,81,133,130,75,130.78,118,-73.00,2.00,-963.00
2024-06-07 10:15:19.541111,0,3,0,0,0,0,79,81,133,130,75,130.83,118,-75.00,-119.00,-989.00
2024-06-07 10:15:19.643227,-2,3,0,-1,0,0,79,81,132,130,75,130.79,118,5.00,-48.00,-997.00
2024-06-07 10:15:19.825807,-3,3,0,0,0,0,79,81,130,130,75,130.80,118,-2.00,-58.00,-1000.00
2024-06-07 10:15:19.847055,-2,3,0,0,0,0,79,81,132,130,75,130.77,118,-76.00,-30.00,-954.00
2024-06-07 10:15:20.032223,-1,3,0,0,0,0,79,81,131,130,75,130.74,118,-61.00,-53.00,-1023.00
2024-06-07 10:15:20.051150,0,3,0,0,0,0,79,81,131,130,75,130.71,118,-26.00,-30.00,-1026.00
2024-06-07 10:15:20.153534,0,3,0,0,0,0,79,81,132,130,75,130.74,118,-22.00,-40.00,-1013.00
2024-06-07 10:15:20.255325,0,3,0,0,0,0,79,81,132,130,75,130.69,119,-37.00,-18.00,-959.00
2024-06-07 10:15:20.440396,0,3,0,0,0,0,79,81,134,130,75,130.71,119,-31.00,-25.00,-1077.00
2024-06-07 10:15:20.459056,0,2,0,0,0,-1,79,81,135,130,75,130.77,119,-26.00,-19.00,-1027.00
2024-06-07 10:15:20.561527,0,2,0,0,0,-1,79,81,136,130,75,130.79,119,-22.00,-42.00,-914.00
2024-06-07 10:15:20.663152,0,2,0,0,0,0,79,81,137,130,75,130.70,119,-8.00,-15.00,-945.00
2024-06-07 10:15:20.849924,0,2,0,0,0,0,79,81,137,130,75,130.74,119,-18.00,-26.00,-955.00
2024-06-07 10:15:20.867029,0,2,0,0,0,0,79,81,138,130,75,130.80,119,-14.00,-31.00,-1096.00
2024-06-07 10:15:21.054683,0,2,0,0,0,0,79,81,139,130,75,130.78,119,-32.00,-17.00,-1005.00
2024-06-07 10:15:21.071121,0,2,0,0,0,0,79,81,137,130,75,130.79,119,12.00,-47.00,-919.00
2024-06-07 10:15:21.173071,0,3,0,0,0,0,79,81,137,130,75,130.83,119,-27.00,-21.00,-945.00
2024-06-07 10:15:21.275421,0,3,0,0,0,0,79,81,138,130,75,130.77,120,-62.00,-6.00,-1020.00
2024-06-07 10:15:21.428645,0,3,0,0,0,0,79,81,137,130,75,130.81,120,-6.00,-43.00,-982.00
2024-06-07 10:15:21.478946,-1,8,0,0,0,0,79,81,139,130,75,130.77,120,-44.00,-26.00,-1013.00
2024-06-07 10:15:21.771420,-1,8,0,0,1,0,79,81,140,130,75,130.79,120,-52.00,-17.00,-1021.00
2024-06-07 10:15:21.771473,0,8,0,0,3,0,79,81,140,130,75,130.79,120,62.00,-62.00,-994.00
2024-06-07 10:15:21.784988,-2,5,0,0,3,0,79,81,140,130,74,130.83,120,-50.00,-10.00,-990.00
2024-06-07 10:15:21.976161,-2,2,0,0,4,0,79,81,140,130,74,130.84,120,-29.00,-18.00,-1022.00
2024-06-07 10:15:21.988971,-2,0,0,0,4,0,79,81,140,130,74,130.83,120,-67.00,-37.00,-974.00
2024-06-07 10:15:22.180936,-2,1,0,0,3,0,79,81,140,130,74,130.80,120,-18.00,-46.00,-898.00
2024-06-07 10:15:22.193449,0,1,0,0,2,0,79,81,140,130,74,130.86,120,-40.00,-32.00,-1020.00
2024-06-07 10:15:22.385580,0,2,0,0,2,0,79,81,141,130,74,130.84,121,0.00,-55.00,-1000.00
2024-06-07 10:15:22.397090,0,3,0,0,2,0,79,81,141,130,74,130.81,121,-48.00,-29.00,-973.00
2024-06-07 10:15:22.590509,-1,2,0,0,2,0,79,81,143,130,74,130.86,121,-69.00,-43.00,-970.00
2024-06-07 10:15:22.600884,-2,2,0,0,2,0,79,81,144,140,74,130.83,121,-13.00,-62.00,-946.00
2024-06-07 10:15:22.703300,-2,2,0,0,2,0,79,81,144,140,74,130.84,121,-21.00,-68.00,-1041.00
2024-06-07 10:15:22.899828,-2,2,0,0,2,0,79,81,144,140,74,130.86,121,47.00,-42.00,-1047.00
2024-06-07 10:15:22.907009,-1,3,0,0,1,0,79,81,146,140,74,130.83,121,-20.00,-73.00,-947.00
2024-06-07 10:15:22.958468,0,3,0,0,2,0,79,81,144,140,74,130.87,121,-9.00,-53.00,-1017.00
2024-06-07 10:15:23.060407,0,4,0,0,2,0,79,81,144,140,74,130.88,121,-15.00,-35.00,-999.00
2024-06-07 10:15:23.204900,0,3,0,0,2,0,79,81,144,140,74,130.75,121,0.00,-65.00,-1013.00
2024-06-07 10:15:23.263946,0,3,0,0,2,0,79,81,144,140,74,130.76,122,19.00,-40.00,-1006.00
2024-06-07 10:15:23.512110,0,-2,0,0,1,0,80,81,143,140,74,130.85,122,-78.00,-46.00,-957.00
2024-06-07 10:15:23.513285,0,0,0,0,1,0,80,81,142,130,74,130.78,122,-35.00,-19.00,-1005.00
2024-06-07 10:15:23.570194,0,1,0,0,0,0,80,81,142,130,74,130.77,122,-11.00,-68.00,-1053.00
2024-06-07 10:15:23.717323,0,2,0,0,0,0,80,81,142,130,74,130.78,122,16.00,-27.00,-971.00
2024-06-07 10:15:23.776394,-1,2,0,0,0,0,80,81,143,140,74,130.77,122,-29.00,-31.00,-1018.00
2024-06-07 10:15:23.877216,-1,2,0,0,0,0,80,81,141,130,74,130.73,122,-11.00,-29.00,-907.00
2024-06-07 10:15:24.024598,-1,2,0,0,0,0,80,81,140,130,74,130.80,122,-101.00,-8.00,-1011.00
2024-06-07 10:15:24.080266,0,3,0,0,0,0,80,81,139,130,74,130.73,122,-65.00,0.00,-983.00
2024-06-07 10:15:24.332286,0,3,0,0,0,0,80,81,139,130,74,130.70,123,-21.00,-21.00,-972.00
2024-06-07 10:15:24.332446,0,2,0,0,0,0,80,81,139,130,74,130.77,123,-16.00,-15.00,-1039.00
2024-06-07 10:15:24.386480,-1,2,0,0,0,0,79,82,139,130,74,130.75,123,-5.00,-25.00,-1054.00
2024-06-07 10:15:24.488047,-1,1,0,0,0,0,79,82,138,130,74,130.75,123,-68.00,-27.00,-986.00
2024-06-07 10:15:24.742640,-2,1,0,0,0,0,79,82,138,130,74,130.78,123,-67.00,-16.00,-919.00
2024-06-07 10:15:24.742977,-2,2,0,0,0,0,79,82,139,130,74,130.86,123,-5.00,-49.00,-1032.00
2024-06-07 10:15:24.793955,-2,3,0,0,0,0,79,82,141,130,74,130.79,123,-35.00,-29.00,-1038.00
2024-06-07 10:15:24.945826,-1,3,0,0,0,0,79,82,141,130,74,130.83,123,17.00,-72.00,-1035.00
2024-06-07 10:15:24.998902,0,3,0,0,0,0,79,82,140,130,74,130.81,123,-10.00,-42.00,-952.00
2024-06-07 10:15:25.099859,0,3,0,0,0,0,79,82,143,130,74,130.86,123,0.00,-36.00,-1018.00
2024-06-07 10:15:25.253568,0,3,0,0,0,0,79,82,147,130,74,130.86,124,-49.00,-74.00,-933.00
2024-06-07 10:15:25.313247,-1,3,0,0,0,0,79,82,147,140,74,130.85,124,-66.00,-43.00,-1053.00
2024-06-07 10:15:25.406286,-1,2,0,0,0,0,79,81,150,140,74,130.88,124,-18.00,-50.00,-983.00
2024-06-07 10:15:25.507795,-2,2,0,0,0,-1,79,81,153,140,74,130.88,124,-24.00,-66.00,-981.00
2024-06-07 10:15:25.609879,-1,2,0,0,0,0,79,81,156,140,74,131.04,124,-3.00,-81.00,-892.00
2024-06-07 10:15:25.764954,-1,2,1,0,0,0,79,81,157,140,74,130.97,124,-40.00,-62.00,-922.00
2024-06-07 10:15:25.813791,-1,2,6,0,0,0,79,81,159,150,74,130.90,124,-7.00,-79.00,-912.00
2024-06-07 10:15:25.970365,-1,2,12,0,0,0,79,81,162,150,74,130.87,124,-32.00,-59.00,-1010.00
2024-06-07 10:15:26.018461,-1,2,18,0,0,0,79,81,158,150,74,130.89,124,-4.00,-63.00,-906.00
2024-06-07 10:15:26.177804,-2,1,24,0,0,0,79,81,159,150,74,130.84,124,-14.00,-59.00,-947.00
2024-06-07 10:15:26.221931,-3,1,30,-1,0,1,79,81,158,150,74,130.82,125,-80.00,-37.00,-941.00
2024-06-07 10:15:26.323829,-4,0,36,-1,0,1,79,81,159,140,74,130.77,125,-62.00,-21.00,-957.00
2024-06-07 10:15:26.481697,-4,0,42,-1,0,1,79,82,158,140,74,130.72,125,-66.00,-46.00,-947.00
2024-06-07 10:15:26.528077,-4,-1,48,0,0,1,79,82,154,140,74,130.65,125,-46.00,-15.00,-1049.00
2024-06-07 10:15:26.686689,-3,-1,54,0,0,1,79,82,154,140,74,130.66,125,-85.00,-15.00,-1025.00
2024-06-07 10:15:26.686751,-3,-1,60,0,0,1,79,82,150,140,74,130.66,125,-99.00,1.00,-974.00
2024-06-07 10:15:26.782686,-3,-1,65,0,0,0,79,82,152,140,73,130.60,125,-100.00,8.00,-1031.00
2024-06-07 10:15:26.891316,-4,-2,71,0,0,0,79,82,150,140,73,130.64,125,-72.00,9.00,-954.00
2024-06-07 10:15:26.987187,-4,-2,77,0,0,0,79,82,149,140,73,130.59,125,-142.00,51.00,-1007.00
2024-06-07 10:15:27.089573,-4,-3,83,0,0,0,79,82,148,140,73,130.56,125,-98.00,34.00,-1043.00
2024-06-07 10:15:27.193851,-3,-3,88,0,0,0,79,82,145,130,73,130.61,126,-123.00,51.00,-1049.00
2024-06-07 10:15:27.294378,-3,-3,93,0,0,0,79,82,147,130,73,130.61,126,-10.00,1.00,-995.00
2024-06-07 10:15:27.397346,-2,-2,99,1,0,0,79,81,144,130,73,130.63,126,-85.00,48.00,-1083.00
2024-06-07 10:15:27.503415,-2,-2,104,1,0,0,79,81,141,130,73,130.65,126,-81.00,13.00,-1002.00
2024-06-07 10:15:27.601950,-1,-1,110,1,0,0,79,81,143,130,73,130.72,126,-44.00,13.00,-988.00
2024-06-07 10:15:27.704272,-2,-1,116,1,0,0,79,81,142,130,73,130.73,126,-27.00,21.00,-964.00
2024-06-07 10:15:27.806010,-2,-1,121,0,0,0,79,81,141,130,73,130.75,126,-32.00,35.00,-983.00
2024-06-07 10:15:27.906916,-2,-2,127,0,0,0,79,81,140,130,73,130.65,126,-48.00,52.00,-984.00
2024-06-07 10:15:28.008218,-1,-2,133,0,0,0,79,81,140,130,73,130.70,126,-4.00,88.00,-999.00
2024-06-07 10:15:28.108736,-1,-2,138,0,0,0,79,81,140,130,73,130.72,126,-74.00,63.00,-1028.00
2024-06-07 10:15:28.222490,0,-3,144,0,0,0,79,81,139,130,73,130.73,127,-41.00,57.00,-1018.00
2024-06-07 10:15:28.313236,0,-3,151,0,0,0,79,81,139,130,73,130.78,127,0.00,83.00,-1048.00
2024-06-07 10:15:28.427462,0,-3,157,0,0,0,79,81,140,130,73,130.86,127,33.00,93.00,-994.00
2024-06-07 10:15:28.518281,1,-3,163,0,0,0,79,81,138,130,73,130.84,127,-19.00,99.00,-976.00
2024-06-07 10:15:28.618816,1,-3,169,0,0,0,79,81,138,130,73,130.91,127,27.00,48.00,-980.00
2024-06-07 10:15:28.720986,1,-2,174,0,0,0,79,81,138,130,73,130.88,127,-25.00,48.00,-1002.00
2024-06-07 10:15:28.822703,1,-2,-179,0,0,0,79,81,139,130,73,130.84,127,51.00,88.00,-969.00
2024-06-07 10:15:28.924726,1,-3,-173,0,0,0,79,81,138,130,73,130.81,127,45.00,73.00,-1007.00
2024-06-07 10:15:29.026694,1,-2,-167,0,0,0,79,81,140,130,73,130.85,127,44.00,51.00,-979.00
2024-06-07 10:15:29.144646,2,-2,-161,0,0,0,79,81,139,130,73,130.56,127,40.00,62.00,-1022.00
2024-06-07 10:15:29.230553,2,-2,-155,0,0,0,79,81,140,130,73,130.73,128,79.00,48.00,-1016.00
2024-06-07 10:15:29.348831,2,-2,-148,0,0,0,79,81,139,130,73,130.72,128,52.00,55.00,-1010.00
2024-06-07 10:15:29.441335,3,-1,-142,0,0,0,79,82,139,130,73,130.62,128,24.00,27.00,-1033.00
2024-06-07 10:15:29.536508,4,0,-136,0,0,0,79,82,139,130,73,130.63,128,68.00,71.00,-966.00
2024-06-07 10:15:29.656923,4,0,-130,0,0,0,79,82,140,130,73,130.63,128,58.00,45.00,-915.00
2024-06-07 10:15:29.740632,4,0,-123,0,0,0,79,82,139,130,73,130.54,128,104.00,9.00,-1043.00
2024-06-07 10:15:29.860868,3,0,-117,0,0,0,79,82,137,130,73,130.61,128,67.00,65.00,-1015.00
2024-06-07 10:15:29.944612,3,0,-111,0,0,0,79,82,138,130,73,130.55,128,65.00,20.00,-995.00
2024-06-07 10:15:30.065746,3,0,-105,0,0,0,79,82,138,130,73,130.58,128,26.00,17.00,-954.00
2024-06-07 10:15:30.148640,4,1,-99,0,-1,0,79,82,137,130,73,130.52,128,151.00,27.00,-1033.00
2024-06-07 10:15:30.202940,5,1,-93,0,-1,0,79,82,137,130,73,130.51,129,136.00,-14.00,-1083.00
2024-06-07 10:15:30.303519,4,2,-87,0,0,0,79,82,136,130,73,130.55,129,67.00,18.00,-1002.00
2024-06-07 10:15:30.456414,3,2,-81,0,0,0,78,81,137,130,73,130.54,129,87.00,-3.00,-1044.00
2024-06-07 10:15:30.556672,3,0,-75,1,0,0,78,81,139,130,73,130.54,129,127.00,-32.00,-969.00
2024-06-07 10:15:30.680088,4,1,-69,1,0,0,78,81,137,130,73,130.62,129,58.00,-32.00,-979.00
2024-06-07 10:15:30.709629,4,1,-63,0,0,0,78,81,138,130,73,130.57,129,47.00,-18.00,-1037.00
2024-06-07 10:15:30.884886,3,1,-57,0,0,0,78,81,136,130,73,130.56,129,141.00,-45.00,-1006.00
2024-06-07 10:15:30.913556,4,2,-51,1,-1,0,78,81,136,130,73,130.63,129,104.00,-51.00,-1034.00
2024-06-07 10:15:31.015630,5,3,-45,0,0,0,78,81,136,130,73,130.64,129,-18.00,-55.00,-926.00
2024-06-07 10:15:31.192067,3,3,-39,0,0,0,78,81,134,130,73,130.71,129,56.00,-88.00,-926.00
2024-06-07 10:15:31.219575,0,3,-33,0,0,0,78,81,134,130,73,130.59,130,60.00,-63.00,-990.00
2024-06-07 10:15:31.323115,0,3,-27,0,0,0,78,81,133,130,73,130.72,130,-17.00,-42.00,-1054.00
2024-06-07 10:15:31.499317,0,3,-21,0,0,0,79,81,135,130,73,130.72,130,50.00,-70.00,-993.00
2024-06-07 10:15:31.525517,0,3,-17,0,0,0,79,81,134,130,73,130.64,130,36.00,-60.00,-995.00
2024-06-07 10:15:31.704499,0,2,-13,0,0,0,79,81,134,130,73,130.68,130,33.00,-112.00,-949.00
2024-06-07 10:15:31.730704,0,3,-10,0,0,0,79,81,135,130,73,130.68,130,44.00,-59.00,-1028.00
2024-06-07 10:15:31.911693,0,4,-8,0,0,0,79,81,135,130,73,130.68,130,10.00,-51.00,-948.00
2024-06-07 10:15:31.933503,1,4,-5,0,0,0,79,81,134,130,73,130.61,130,-1.00,-67.00,-1071.00
2024-06-07 10:15:32.113828,0,3,-4,0,0,0,79,81,136,130,73,130.60,130,-34.00,-76.00,-955.00
2024-06-07 10:15:32.137523,0,3,-2,0,0,0,79,81,137,130,73,130.63,130,4.00,-76.00,-920.00
2024-06-07 10:15:32.239650,-1,3,-1,0,0,0,79,81,139,130,73,130.67,131,-40.00,-67.00,-972.00
2024-06-07 10:15:32.341622,-1,2,-1,0,0,0,79,81,140,130,73,130.66,131,-35.00,-67.00,-951.00
2024-06-07 10:15:32.525282,-1,3,0,0,0,0,79,81,141,130,73,130.64,131,21.00,-47.00,-991.00
2024-06-07 10:15:32.545561,0,3,0,0,0,0,79,81,139,130,73,130.59,131,-30.00,-57.00,-983.00
2024-06-07 10:15:32.728215,0,3,0,0,0,0,79,81,142,130,73,130.65,131,-39.00,-36.00,-1013.00
2024-06-07 10:15:32.749560,0,2,0,0,0,0,79,81,141,130,73,130.62,131,-124.00,-25.00,-1039.00
2024-06-07 10:15:32.935661,-1,2,1,0,0,0,79,81,143,130,73,130.58,131,-25.00,-68.00,-983.00
2024-06-07 10:15:32.954696,-1,2,1,0,0,0,79,81,142,130,73,130.58,131,34.00,-82.00,-986.00
2024-06-07 10:15:33.055957,-1,3,2,0,0,0,79,81,143,130,73,130.65,131,-48.00,-44.00,-1001.00
2024-06-07 10:15:33.240114,-1,3,3,0,0,0,79,81,146,130,73,130.62,131,-49.00,-47.00,-977.00
2024-06-07 10:15:33.260455,-2,2,3,0,0,0,79,81,145,130,73,130.64,132,-95.00,-53.00,-934.00
2024-06-07 10:15:33.442452,-2,2,3,0,0,0,79,81,144,130,73,130.67,132,10.00,-94.00,-944.00
2024-06-07 10:15:33.463597,-2,2,3,0,0,0,79,81,144,130,73,130.65,132,-22.00,-67.00,-958.00
2024-06-07 10:15:33.567125,-3,3,3,0,0,0,79,81,145,130,73,130.58,132,-69.00,-40.00,-988.00
2024-06-07 10:15:33.667571,-1,3,3,0,0,0,79,81,146,130,73,130.64,132,-22.00,-78.00,-1007.00
2024-06-07 10:15:33.769560,-1,3,3,0,0,0,79,81,146,130,73,130.59,132,-10.00,-96.00,-981.00
2024-06-07 10:15:33.957577,0,4,3,0,0,0,79,81,146,130,73,130.48,132,-67.00,-58.00,-1053.00
2024-06-07 10:15:33.973834,-1,4,3,0,0,0,79,81,145,130,73,130.54,132,6.00,-68.00,-960.00
2024-06-07 10:15:34.162465,-1,3,3,0,0,0,79,81,146,130,73,130.53,132,-153.00,-14.00,-949.00
2024-06-07 10:15:34.177857,-2,2,3,0,0,0,79,81,147,130,73,130.54,132,-3.00,-55.00,-994.00
2024-06-07 10:15:34.279469,-3,1,3,0,0,0,79,81,149,130,73,130.55,133,-4.00,-68.00,-991.00
2024-06-07 10:15:34.330409,-3,1,2,0,0,0,79,81,152,140,73,130.74,133,-24.00,-35.00,-992.00
2024-06-07 10:15:34.483718,-2,2,-3,0,0,0,79,81,151,140,73,130.76,133,-82.00,-23.00,-947.00
2024-06-07 10:15:34.534764,-2,2,-9,0,0,0,79,81,151,140,73,130.80,133,1.00,-63.00,-948.00
2024-06-07 10:15:34.673673,-2,2,-15,0,0,0,79,81,154,140,73,130.80,133,-52.00,-35.00,-865.00
2024-06-07 10:15:34.741163,-1,1,-21,0,0,0,79,81,153,140,72,130.88,133,-68.00,-41.00,-1065.00
2024-06-07 10:15:34.840392,-1,1,-27,0,0,0,79,81,155,140,72,130.80,133,27.00,-67.00,-978.00
2024-06-07 10:15:34.942669,0,1,-33,0,0,0,79,81,154,140,72,130.81,133,-38.00,-52.00,-986.00
2024-06-07 10:15:35.084582,0,1,-39,0,0,0,79,81,154,140,72,130.80,133,-44.00,-72.00,-968.00
2024-06-07 10:15:35.146436,0,2,-45,0,0,0,79,81,156,140,72,130.89,133,6.00,-46.00,-970.00
2024-06-07 10:15:35.248885,0,2,-51,0,0,0,79,81,154,140,72,130.81,134,27.00,-74.00,-983.00
2024-06-07 10:15:35.390514,0,3,-58,0,0,0,79,81,153,140,72,130.75,134,27.00,-79.00,-952.00
2024-06-07 10:15:35.453045,0,3,-65,0,0,0,78,82,151,140,72,130.79,134,13.00,-51.00,-1025.00
2024-06-07 10:15:35.595240,1,2,-71,0,-1,0,78,82,149,140,72,130.81,134,4.00,-54.00,-998.00
2024-06-07 10:15:35.656695,3,2,-77,0,-1,1,78,82,151,140,72,130.75,134,128.00,-62.00,-1002.00
2024-06-07 10:15:35.800045,4,1,-83,0,-1,1,78,82,150,140,72,130.71,134,81.00,-52.00,-965.00
2024-06-07 10:15:35.860266,5,1,-89,0,-1,0,78,82,149,140,72,130.62,134,80.00,-50.00,-1077.00
2024-06-07 10:15:36.005425,4,0,-95,0,0,0,78,82,150,130,72,130.57,134,149.00,-48.00,-967.00
2024-06-07 10:15:36.064345,4,0,-101,0,-1,0,78,82,147,130,72,130.64,134,44.00,-9.00,-939.00
2024-06-07 10:15:36.167364,4,0,-108,0,-1,0,78,82,147,140,72,130.57,134,88.00,32.00,-1043.00
2024-06-07 10:15:36.268728,5,0,-114,0,-1,0,78,82,147,140,72,130.63,135,76.00,-6.00,-1021.00
2024-06-07 10:15:36.414463,4,-1,-120,0,0,0,78,82,148,140,72,130.57,135,92.00,11.00,-959.00
2024-06-07 10:15:36.473248,3,-2,-126,0,0,0,79,82,148,140,72,130.67,135,23.00,25.00,-980.00
2024-06-07 10:15:36.619262,4,-2,-132,0,0,0,79,82,148,140,72,130.62,135,154.00,-40.00,-998.00
2024-06-07 10:15:36.676340,4,-2,-137,0,0,0,79,82,151,140,72,130.66,135,155.00,-11.00,-962.00
2024-06-07 10:15:36.778704,5,-2,-143,0,0,0,79,82,151,140,72,130.65,135,91.00,17.00,-997.00
2024-06-07 10:15:36.926445,5,-2,-148,0,0,0,79,82,148,140,72,130.66,135,116.00,24.00,-970.00
2024-06-07 10:15:36.982347,5,-2,-154,0,0,0,79,82,147,140,72,130.68,135,56.00,28.00,-938.00
2024-06-07 10:15:37.084333,5,-2,-160,0,0,0,79,82,146,140,72,130.63,135,74.00,79.00,-1028.00
2024-06-07 10:15:37.233641,4,-3,-166,0,0,0,79,82,144,140,72,130.68,135,82.00,52.00,-971.00
2024-06-07 10:15:37.289017,3,-3,-172,0,0,0,79,82,145,130,72,130.82,136,61.00,77.00,-1022.00
2024-06-07 10:15:37.438464,3,-3,-177,0,0,0,79,82,143,130,72,130.77,136,139.00,67.00,-1019.00
2024-06-07 10:15:37.492471,2,-4,176,0,0,0,79,82,142,130,72,130.80,136,55.00,83.00,-1074.00
2024-06-07 10:15:37.643344,1,-4,170,0,0,0,79,82,141,130,72,130.78,136,7.00,91.00,-1005.00
2024-06-07 10:15:37.696298,1,-4,164,0,0,0,79,82,140,130,72,130.76,136,37.00,97.00,-1085.00
2024-06-07 10:15:37.848090,1,-4,158,0,0,0,79,82,140,130,72,130.73,136,88.00,42.00,-993.00
2024-06-07 10:15:37.900248,0,-4,152,0,0,0,79,82,139,130,72,130.62,136,92.00,55.00,-1014.00
2024-06-07 10:15:38.155311,0,-4,146,0,0,0,79,82,139,130,72,130.58,136,-82.00,94.00,-1026.00
2024-06-07 10:15:38.155763,1,-3,139,0,0,0,79,82,139,130,72,130.51,136,-38.00,89.00,-974.00
2024-06-07 10:15:38.206263,0,-3,133,0,0,0,79,82,138,130,72,130.46,136,26.00,57.00,-962.00
2024-06-07 10:15:38.360062,-1,-3,127,0,0,0,79,82,138,130,72,130.46,137,-12.00,73.00,-983.00
2024-06-07 10:15:38.360112,-1,-3,121,0,0,0,79,82,138,130,72,130.45,137,-33.00,46.00,-1028.00
2024-06-07 10:15:38.512915,-1,-3,114,0,0,0,80,82,137,130,72,130.36,137,-34.00,33.00,-979.00
2024-06-07 10:15:38.668208,-3,-1,102,0,0,0,80,82,139,130,72,130.38,137,-42.00,58.00,-1033.00
2024-06-07 10:15:38.716563,-3,-1,96,0,0,0,80,82,140,130,72,130.42,137,-56.00,66.00,-982.00
2024-06-07 10:15:38.767255,-3,0,90,0,0,0,80,82,141,130,72,130.35,137,-16.00,49.00,-970.00
2024-06-07 10:15:38.872134,-3,-1,84,0,0,0,80,82,139,130,72,130.34,137,-40.00,16.00,-1065.00
2024-06-07 10:15:38.971214,-3,-1,78,0,0,0,80,82,143,130,72,130.35,137,-135.00,80.00,-1000.00
2024-06-07 10:15:39.073157,-3,-1,72,0,0,0,80,82,142,130,72,130.37,137,-117.00,62.00,-975.00
2024-06-07 10:15:39.179261,-3,-1,66,0,0,0,80,82,141,130,72,130.39,138,-90.00,28.00,-946.00
2024-06-07 10:15:39.277246,-3,-1,61,0,0,0,80,82,142,130,72,130.27,138,-21.00,-1.00,-997.00
2024-06-07 10:15:39.384445,-3,-1,55,0,0,0,80,82,142,130,72,130.42,138,-90.00,23.00,-1014.00
2024-06-07 10:15:39.482235,-4,-1,49,-1,0,0,79,82,143,130,72,130.39,138,-108.00,31.00,-1062.00
2024-06-07 10:15:39.588841,-5,-1,43,0,0,0,79,82,144,130,72,130.36,138,-52.00,0.00,-1010.00
2024-06-07 10:15:39.685188,-4,-1,37,0,0,0,79,82,145,130,72,130.34,138,-62.00,1.00,-935.00
2024-06-07 10:15:39.794303,-3,-1,31,0,0,0,79,82,145,130,72,130.25,138,-39.00,2.00,-1002.00
2024-06-07 10:15:39.889994,-2,0,25,0,0,0,79,82,146,130,72,130.29,138,-26.00,-26.00,-990.00
2024-06-07 10:15:39.998505,-2,0,20,0,0,0,79,82,145,130,72,130.32,138,-18.00,-23.00,-988.00
2024-06-07 10:15:40.094364,-2,0,16,0,0,0,79,82,146,130,72,130.41,138,-60.00,-22.00,-1001.00
2024-06-07 10:15:40.203343,-3,0,13,0,0,0,79,82,148,130,72,130.43,139,-33.00,-12.00,-983.00
2024-06-07 10:15:40.298190,-4,0,10,0,0,0,79,82,146,140,72,130.41,139,-78.00,-11.00,-989.00
2024-06-07 10:15:40.400478,-4,1,9,0,0,0,79,82,146,130,72,130.41,139,-40.00,-27.00,-998.00
2024-06-07 10:15:40.501392,-5,1,7,0,0,0,79,82,146,130,72,130.47,139,-118.00,-40.00,-1005.00
2024-06-07 10:15:40.605241,-5,1,6,0,0,0,79,82,145,130,72,130.36,139,-67.00,-47.00,-986.00
2024-06-07 10:15:40.705136,-5,1,5,0,0,0,79,82,144,130,72,130.32,139,-74.00,-45.00,-971.00
2024-06-07 10:15:40.807545,-5,2,5,0,0,0,79,82,143,130,71,130.39,139,-37.00,-46.00,-994.00
2024-06-07 10:15:40.920186,-5,1,4,0,0,0,79,82,143,130,71,130.47,139,-41.00,-66.00,-1051.00
2024-06-07 10:15:41.011296,-5,2,5,0,0,0,79,82,142,130,71,130.38,139,-50.00,-29.00,-1010.00
2024-06-07 10:15:41.113509,-4,2,5,0,0,0,79,82,141,130,71,130.37,139,-17.00,-66.00,-1016.00
2024-06-07 10:15:41.215578,-3,2,5,0,0,0,79,82,141,130,71,130.27,140,-35.00,-31.00,-956.00
2024-06-07 10:15:41.329668,-3,2,5,0,0,0,79,82,141,130,71,130.50,140,-92.00,-32.00,-1050.00
2024-06-07 10:15:41.420880,-5,1,5,0,0,0,79,82,142,130,71,130.52,140,-68.00,-32.00,-1065.00
2024-06-07 10:15:41.522850,-5,1,5,0,0,0,79,81,142,130,71,130.41,140,-16.00,-56.00,-1079.00
2024-06-07 10:15:41.625620,-5,2,5,0,0,0,79,81,142,130,71,130.48,140,-67.00,-59.00,-931.00
2024-06-07 10:15:41.725329,-4,3,5,0,0,0,79,81,142,130,71,130.43,140,-110.00,-28.00,-920.00
2024-06-07 10:15:41.830280,-5,2,5,0,0,0,79,81,141,130,71,130.39,140,-59.00,-46.00,-1035.00
2024-06-07 10:15:41.934424,-4,2,5,0,0,0,79,81,142,130,71,130.44,140,-37.00,-58.00,-922.00
2024-06-07 10:15:41.980549,-4,2,5,0,0,0,79,81,140,130,71,130.41,140,-44.00,-75.00,-966.00
2024-06-07 10:15:42.251779,-4,2,5,0,0,0,79,81,138,130,71,130.31,140,-88.00,-39.00,-985.00
2024-06-07 10:15:42.252240,-5,2,5,0,0,0,79,81,139,130,71,130.23,141,-66.00,-47.00,-1010.00
2024-06-07 10:15:42.286251,-5,2,5,0,0,0,79,81,140,130,71,130.22,141,-87.00,-18.00,-1049.00
2024-06-07 10:15:42.388666,-5,1,5,0,0,0,79,81,139,130,71,130.18,141,-36.00,-33.00,-1038.00
2024-06-07 10:15:42.493371,-5,1,5,0,0,0,78,82,141,130,71,130.19,141,-118.00,-18.00,-993.00
2024-06-07 10:15:42.593804,-6,1,5,0,0,0,78,82,141,130,71,130.20,141,-100.00,-22.00,-948.00
2024-06-07 10:15:42.695697,-6,1,4,0,0,0,78,82,142,130,71,130.23,141,-145.00,-10.00,-1047.00
2024-06-07 10:15:42.798232,-5,0,5,0,0,0,78,82,142,130,71,130.31,141,-48.00,-51.00,-985.00
2024-06-07 10:15:42.900439,-2,0,5,1,0,-1,78,82,144,130,71,130.39,141,-48.00,-68.00,-1181.00
2024-06-07 10:15:43.003198,-1,-2,5,0,-1,-7,78,82,150,130,71,130.63,141,-118.00,-63.00,-1744.00
2024-06-07 10:15:43.103735,-1,-33,5,0,-4,-12,78,82,220,140,71,130.64,141,-176.00,109.00,-1304.00
2024-06-07 10:15:43.275230,-1,-145,5,0,-13,-7,78,82,6553,160,71,130.84,142,-78.00,476.00,-1070.00
2024-06-07 10:15:43.308270,-3,85,6,0,-12,8,78,82,409,160,71,130.77,142,-78.00,644.00,-1034.00
2024-06-07 10:15:43.410130,0,3,12,-2,-6,11,78,82,160,140,71,130.66,142,-126.00,88.00,-1661.00
2024-06-07 10:15:43.584940,-1,2,12,-2,-6,8,79,81,154,140,71,130.49,142,-97.00,-29.00,-1323.00
2024-06-07 10:15:43.617997,-3,3,9,-3,-5,4,79,81,149,130,71,130.54,142,-69.00,26.00,-1346.00
2024-06-07 10:15:43.720152,-4,2,5,-3,-4,1,79,81,148,130,71,130.50,142,-105.00,-5.00,-1132.00
2024-06-07 10:15:43.816967,-4,1,5,-3,-4,0,79,81,150,120,71,130.50,142,-57.00,-9.00,-1179.00
2024-06-07 10:15:43.992044,-4,1,4,-2,-4,0,79,81,151,130,71,130.38,142,28.00,-35.00,-1094.00
2024-06-07 10:15:44.021009,-4,2,4,-2,-3,0,79,81,153,130,71,130.43,142,1.00,-6.00,-995.00
2024-06-07 10:15:44.122926,-4,1,4,-2,-2,0,79,81,156,130,71,130.54,142,-7.00,-39.00,-936.00
2024-06-07 10:15:44.299252,-3,1,5,-1,-2,0,79,81,157,130,71,130.63,143,-36.00,-22.00,-949.00
2024-06-07 10:15:44.326783,-3,1,5,-2,-2,0,79,81,157,130,71,130.61,143,-37.00,-9.00,-996.00
2024-06-07 10:15:44.504378,-4,1,4,-2,-2,0,79,81,156,130,71,130.50,143,-71.00,-36.00,-957.00
2024-06-07 10:15:44.531396,-5,1,4,-2,-2,0,79,81,157,130,71,130.50,143,-97.00,-14.00,-918.00
2024-06-07 10:15:44.632978,-6,2,4,-2,-2,1,79,81,158,130,71,130.51,143,-82.00,-9.00,-915.00
2024-06-07 10:15:44.738041,-5,2,4,-2,-2,0,79,81,157,130,71,130.41,143,-51.00,-31.00,-984.00
2024-06-07 10:15:44.837009,-5,2,4,-2,-2,1,79,81,157,130,71,130.44,143,-29.00,-16.00,-1016.00
2024-06-07 10:15:45.016028,-5,2,4,-1,-2,0,79,81,156,130,71,130.46,143,-101.00,-15.00,-924.00
2024-06-07 10:15:45.042593,-5,3,4,-1,-2,0,79,81,157,130,71,130.41,143,-51.00,-36.00,-1004.00
2024-06-07 10:15:45.142979,-5,3,4,-1,-2,1,79,81,155,130,71,130.48,143,-110.00,-36.00,-1046.00
2024-06-07 10:15:45.245009,-4,3,4,-1,-1,0,79,81,155,130,71,130.50,144,-113.00,-32.00,-997.00
2024-06-07 10:15:45.425694,-4,3,4,0,-1,0,79,81,156,130,71,130.42,144,-72.00,18.00,-940.00
2024-06-07 10:15:45.451815,-4,4,4,0,-1,0,79,81,158,130,71,130.41,144,-114.00,-29.00,-1010.00
2024-06-07 10:15:45.558907,-4,4,4,0,-1,0,80,81,159,130,71,130.51,144,-19.00,-13.00,-1046.00
2024-06-07 10:15:45.653221,-3,3,4,0,0,0,80,81,158,130,71,130.59,144,-2.00,-57.00,-961.00
2024-06-07 10:15:45.754924,-3,3,4,0,0,0,80,81,158,130,70,130.51,144,-46.00,-63.00,-995.00
2024-06-07 10:15:45.937641,-3,3,4,0,0,0,80,81,158,140,70,130.34,144,-86.00,-29.00,-946.00
2024-06-07 10:15:45.959526,-3,2,4,0,0,0,80,81,158,140,70,130.39,144,-42.00,-48.00,-981.00
2024-06-07 10:15:46.009919,-4,2,5,0,0,0,80,81,160,140,70,130.37,144,-54.00,-64.00,-969.00
2024-06-07 10:15:46.144305,-4,2,5,0,0,0,80,81,156,140,70,130.32,144,-21.00,-28.00,-956.00
2024-06-07 10:15:46.220295,-4,2,5,0,0,0,80,81,156,140,70,130.28,145,-160.00,2.00,-1040.00
2024-06-07 10:15:46.318582,-5,1,5,0,0,0,80,81,157,130,70,130.31,145,-106.00,-15.00,-985.00
2024-06-07 10:15:46.418950,-5,1,5,0,0,0,80,81,155,130,70,130.30,145,-159.00,-8.00,-1000.00
2024-06-07 10:15:46.522139,-6,1,5,-1,0,0,79,81,155,130,70,130.23,145,-66.00,-50.00,-974.00
2024-06-07 10:15:46.623995,-6,1,5,0,0,0,79,81,152,130,70,130.29,145,-70.00,-50.00,-941.00
2024-06-07 10:15:46.724141,-6,1,5,0,0,0,79,81,150,130,70,130.32,145,-123.00,-15.00,-1010.00
2024-06-07 10:15:46.859982,-7,0,5,0,0,0,79,81,149,130,70,130.33,145,-140.00,-18.00,-1035.00
2024-06-07 10:15:46.934676,-7,0,5,0,0,0,79,81,147,130,70,130.33,145,-119.00,-16.00,-1033.00
2024-06-07 10:15:47.030107,-7,0,5,0,0,0,79,81,146,130,70,130.25,145,-95.00,-6.00,-968.00
2024-06-07 10:15:47.166673,-6,1,5,0,0,0,79,81,146,130,70,130.14,145,-96.00,-14.00,-1037.00
2024-06-07 10:15:47.234038,-5,0,5,0,0,0,79,81,145,130,70,130.15,146,-76.00,-39.00,-1107.00
2024-06-07 10:15:47.373987,-3,1,5,0,0,0,79,81,143,130,70,130.08,146,-72.00,-28.00,-1022.00
2024-06-07 10:15:47.437894,-4,1,5,0,0,0,79,81,143,130,70,130.14,146,-114.00,6.00,-1046.00
2024-06-07 10:15:47.539908,-5,0,5,0,0,0,78,82,143,130,70,130.14,146,-98.00,-19.00,-1034.00
2024-06-07 10:15:47.678491,-5,0,5,0,0,0,78,82,145,130,70,130.14,146,-112.00,-3.00,-967.00
2024-06-07 10:15:47.743846,-7,0,5,0,0,0,78,82,144,130,70,130.09,146,-105.00,-1.00,-1011.00
2024-06-07 10:15:47.883461,-7,0,5,0,0,0,78,82,143,130,70,130.12,146,-82.00,11.00,-1038.00
2024-06-07 10:15:47.947968,-6,-1,5,0,0,0,78,82,146,130,70,130.20,146,-85.00,-24.00,-1029.00
2024-06-07 10:15:48.088162,-4,0,5,0,0,0,78,82,147,130,70,130.22,146,-101.00,-11.00,-1024.00
2024-06-07 10:15:48.151917,-4,0,5,0,0,-1,78,82,147,130,70,130.11,146,-55.00,-25.00,-969.00
2024-06-07 10:15:48.293170,-3,0,5,0,0,0,78,82,148,130,70,130.20,147,-94.00,-47.00,-974.00
2024-06-07 10:15:48.355927,-3,0,5,0,0,0,78,82,147,130,70,130.19,147,-40.00,-53.00,-949.00
2024-06-07 10:15:48.497800,-5,0,5,0,0,0,78,82,149,130,70,130.23,147,-69.00,-29.00,-935.00
2024-06-07 10:15:48.559842,-6,0,5,0,0,0,79,82,150,130,70,130.23,147,-74.00,-44.00,-999.00
2024-06-07 10:15:48.702631,-7,0,5,0,0,0,79,82,150,130,70,130.22,147,-80.00,-16.00,-1020.00
2024-06-07 10:15:48.763848,-6,0,5,0,0,0,79,82,150,130,70,130.24,147,-56.00,-40.00,-981.00
2024-06-07 10:15:48.907360,-5,0,5,0,0,0,79,82,150,130,70,130.12,147,-56.00,-25.00,-1011.00
2024-06-07 10:15:48.967903,-6,0,5,0,0,0,79,82,151,130,70,130.21,147,-16.00,-55.00,-1010.00
2024-06-07 10:15:49.070203,-5,0,5,0,0,0,79,82,153,130,70,130.19,147,-32.00,0.00,-949.00
2024-06-07 10:15:49.214623,-4,0,5,0,0,0,79,82,152,130,70,130.26,147,-114.00,19.00,-997.00
2024-06-07 10:15:49.274411,-5,0,5,0,0,0,79,82,153,130,70,130.27,148,-48.00,-26.00,-990.00
2024-06-07 10:15:49.419229,-5,0,5,0,0,0,79,82,154,130,70,130.19,148,-104.00,25.00,-957.00
2024-06-07 10:15:49.477854,-3,2,4,0,0,0,79,82,154,130,70,130.37,148,-126.00,-102.00,-1515.00
2024-06-07 10:15:49.579817,-1,5,4,0,0,-6,79,82,161,130,70,130.58,148,-113.00,-21.00,-1692.00
2024-06-07 10:15:49.696110,0,29,4,-1,2,-12,79,82,218,140,70,130.60,148,-82.00,86.00,-1604.00
2024-06-07 10:15:49.732766,0,135,5,-2,10,-8,79,82,6553,160,69,130.61,148,-78.00,762.00,-1021.00
2024-06-07 10:15:49.936650,-1,-103,4,-2,10,7,79,82,6553,160,69,130.34,148,-52.00,701.00,-1025.00
2024-06-07 10:15:49.936763,-1,2,0,-2,3,11,79,82,168,150,69,130.74,148,-144.00,431.00,-1208.00
2024-06-07 10:15:50.136032,1,17,-9,-3,7,9,79,82,161,140,69,130.67,148,-96.00,1.00,-1355.00
2024-06-07 10:15:50.140744,-4,-3,-25,-4,8,5,79,82,149,130,69,130.64,148,76.00,-157.00,-1397.00
2024-06-07 10:15:50.340856,-8,-4,-34,-3,5,2,79,82,146,120,69,130.51,149,73.00,-114.00,-1286.00
2024-06-07 10:15:50.344797,-6,-2,-35,-3,3,0,79,82,145,120,69,130.34,149,5.00,-78.00,-1110.00
2024-06-07 10:15:50.555405,-4,0,-27,-2,2,0,79,82,143,120,69,130.39,149,-24.00,-81.00,-1032.00
2024-06-07 10:15:50.555796,-3,0,-15,-3,3,0,80,81,142,120,69,130.38,149,-28.00,-77.00,-1012.00
2024-06-07 10:15:50.652923,-4,-1,-3,-3,2,-1,80,81,144,120,69,130.40,149,-38.00,0.00,-1009.00
2024-06-07 10:15:50.753525,-4,-3,5,-3,2,-1,80,81,146,120,69,130.33,149,-18.00,2.00,-1064.00
2024-06-07 10:15:50.854711,-5,-3,6,-3,2,-1,80,81,147,120,69,130.36,149,-33.00,-31.00,-911.00
2024-06-07 10:15:51.057624,-6,-2,6,-3,1,-1,80,81,149,120,69,130.47,149,-113.00,-1.00,-851.00
2024-06-07 10:15:51.058966,-6,-1,6,-3,1,0,80,81,148,120,69,130.35,149,-93.00,-15.00,-1048.00
2024-06-07 10:15:51.262334,-6,-1,6,-2,0,0,80,81,149,120,69,130.40,149,-27.00,-32.00,-991.00
2024-06-07 10:15:51.262498,-5,0,6,-1,0,0,80,81,151,120,69,130.36,150,-14.00,-47.00,-923.00
2024-06-07 10:15:51.364977,-3,0,6,-1,0,0,80,81,149,120,69,130.38,150,-21.00,-17.00,-1010.00
2024-06-07 10:15:51.467159,-3,0,5,0,0,0,80,81,149,120,69,130.36,150,-48.00,-30.00,-991.00
2024-06-07 10:15:51.569238,-2,0,5,-1,0,0,79,81,150,120,69,130.35,150,-95.00,-26.00,-954.00
2024-06-07 10:15:51.672380,-3,0,5,-1,0,0,79,81,151,120,69,130.31,150,-116.00,-8.00,-956.00
2024-06-07 10:15:51.774132,-5,-1,5,-1,0,0,79,81,151,120,69,130.32,150,-103.00,-18.00,-1005.00
2024-06-07 10:15:51.874724,-6,-1,5,-1,0,0,79,81,150,120,69,130.32,150,-134.00,-18.00,-1006.00
2024-06-07 10:15:51.976718,-6,-1,5,-1,0,0,79,81,150,120,69,130.21,150,-115.00,-7.00,-1038.00
