TS,pitch,roll,yaw,vgx,vgy,vgz,templ,temph,tof,h,bat,baro,time,agx,agy,agz
2024-06-07 10:16:35.191980,0,0,-6,0,0,0,80,83,10,0,65,129.90,172,17.00,16.00,-999.00
2024-06-07 10:16:35.230576,0,0,-6,0,0,0,80,83,10,0,65,129.86,172,17.00,15.00,-1000.00
2024-06-07 10:16:35.330909,0,0,-6,0,0,0,80,83,10,0,65,129.85,172,18.00,15.00,-999.00
2024-06-07 10:16:35.499067,0,0,-6,0,0,0,80,83,10,0,65,129.86,172,17.00,15.00,-998.00
2024-06-07 10:16:35.534746,0,0,-6,0,0,0,80,83,10,0,65,129.87,172,17.00,16.00,-997.00
2024-06-07 10:16:35.703857,0,0,-6,0,0,0,80,83,10,0,65,129.92,172,16.00,13.00,-997.00
2024-06-07 10:16:35.738670,0,0,-6,0,0,0,80,83,10,0,65,129.90,172,17.00,15.00,-1000.00
2024-06-07 10:16:35.908739,0,0,-6,0,0,0,80,83,10,0,65,129.90,172,18.00,16.00,-998.00
2024-06-07 10:16:35.943868,0,0,-6,0,0,0,80,83,10,0,65,129.89,172,18.00,15.00,-998.00
2024-06-07 10:16:36.113527,0,0,-6,0,0,0,80,83,10,0,65,129.88,172,18.00,14.00,-999.00
2024-06-07 10:16:36.148207,0,0,-6,0,0,0,80,83,10,0,65,129.89,172,18.00,17.00,-997.00
2024-06-07 10:16:36.197805,0,0,-6,0,0,0,80,83,10,0,65,129.93,172,17.00,15.00,-998.00
2024-06-07 10:16:36.318269,0,0,-6,0,0,0,80,83,10,0,65,129.87,172,17.00,15.00,-999.00
2024-06-07 10:16:36.401802,0,0,-6,0,0,0,80,83,10,0,65,129.84,172,17.00,16.00,-996.00
2024-06-07 10:16:36.503829,0,0,-6,0,0,0,80,83,10,0,65,129.86,172,16.00,16.00,-1000.00
2024-06-07 10:16:36.625586,0,0,-6,0,0,0,80,83,10,0,65,129.89,172,18.00,16.00,-1000.00
2024-06-07 10:16:36.707916,0,0,-6,0,0,0,80,83,10,0,65,129.85,172,18.00,16.00,-1002.00
2024-06-07 10:16:36.830321,0,0,-6,0,0,0,80,83,10,0,65,129.91,172,17.00,17.00,-999.00
2024-06-07 10:16:36.911815,0,0,-6,0,0,0,80,83,10,0,65,129.88,172,16.00,15.00,-1000.00
2024-06-07 10:16:37.035053,0,0,-6,0,0,0,80,83,10,0,65,129.84,172,17.00,16.00,-999.00
2024-06-07 10:16:37.115842,0,0,-6,0,0,0,80,83,10,0,65,129.89,172,17.00,15.00,-999.00
2024-06-07 10:16:37.239943,0,0,-6,0,0,0,80,83,10,0,65,129.83,172,18.00,16.00,-996.00
2024-06-07 10:16:37.319798,0,0,-6,0,0,0,80,83,10,0,65,129.88,172,18.00,14.00,-999.00
2024-06-07 10:16:37.444786,0,0,-6,0,0,0,80,83,10,0,65,129.86,172,18.00,16.00,-999.00
2024-06-07 10:16:37.523794,0,0,-6,0,0,0,80,83,10,0,65,129.88,172,17.00,15.00,-998.00
2024-06-07 10:16:37.626026,0,0,-6,0,0,0,80,83,10,0,65,129.87,172,16.00,15.00,-998.00
2024-06-07 10:16:37.745444,0,0,-6,0,0,0,80,83,10,0,65,129.87,172,21.00,22.00,-1000.00
2024-06-07 10:16:37.830712,0,0,-6,0,0,0,80,82,10,0,65,129.87,172,13.00,20.00,-998.00
2024-06-07 10:16:37.957019,0,0,-6,0,0,0,80,82,10,0,65,129.87,172,-6.00,21.00,-1022.00
2024-06-07 10:16:38.034703,0,0,-6,0,0,0,80,82,10,0,65,129.87,172,59.00,-57.00,-1028.00
2024-06-07 10:16:38.161505,0,0,-5,0,0,0,80,82,10,0,65,129.87,173,-8.00,5.00,-1109.00
2024-06-07 10:16:38.240898,-1,3,-5,0,0,0,80,82,10,0,65,129.87,173,16.00,-8.00,-1110.00
2024-06-07 10:16:38.340690,-2,4,-6,0,0,-1,80,82,10,0,65,129.87,173,4.00,-9.00,-1330.00
2024-06-07 10:16:38.468661,0,2,-6,0,1,-4,80,82,10,0,65,129.87,173,-31.00,-40.00,-1228.00
2024-06-07 10:16:38.544671,1,-2,-6,0,0,-6,80,82,16,0,65,130.27,173,-104.00,-28.00,-1205.00
2024-06-07 10:16:38.673584,0,-1,-5,0,0,-8,80,82,24,10,65,130.46,173,16.00,-45.00,-1013.00
2024-06-07 10:16:38.748786,0,1,-5,0,0,-8,80,82,33,20,65,130.48,173,-61.00,-14.00,-1008.00
2024-06-07 10:16:38.878523,0,2,-5,0,0,-8,80,84,41,20,65,130.63,173,-32.00,-18.00,-896.00
2024-06-07 10:16:38.952648,0,1,-5,0,0,-7,80,84,51,30,65,130.76,173,35.00,-28.00,-918.00
2024-06-07 10:16:39.085197,-1,0,-5,0,0,-6,80,84,59,40,65,130.72,173,15.00,-10.00,-897.00
2024-06-07 10:16:39.159894,0,0,-5,0,0,-5,80,84,66,40,65,130.74,174,11.00,-25.00,-904.00
2024-06-07 10:16:39.258673,0,0,-6,0,0,-4,80,84,71,50,65,130.83,174,-13.00,-26.00,-879.00
2024-06-07 10:16:39.390132,0,1,-6,0,0,-3,80,84,76,50,65,130.90,174,5.00,-5.00,-911.00
2024-06-07 10:16:39.462875,0,1,-6,0,0,-1,80,84,79,50,65,130.99,174,-43.00,-40.00,-877.00
2024-06-07 10:16:39.595520,-1,1,-6,0,0,-1,80,84,81,60,65,131.02,174,-64.00,-20.00,-904.00
2024-06-07 10:16:39.615906,-1,1,-6,0,0,0,80,84,82,60,65,131.01,174,16.00,-53.00,-953.00
2024-06-07 10:16:39.717639,-1,2,-5,0,0,0,80,84,83,60,65,131.00,174,17.00,-36.00,-944.00
2024-06-07 10:16:39.902244,0,2,-5,0,0,0,80,83,84,60,65,131.07,174,-7.00,-28.00,-992.00
2024-06-07 10:16:39.973755,0,2,-5,0,0,0,80,83,85,60,65,131.09,174,-58.00,-19.00,-1000.00
2024-06-07 10:16:40.107738,0,2,-5,0,0,0,80,83,84,60,65,131.10,174,28.00,-65.00,-928.00
2024-06-07 10:16:40.125597,0,2,-5,0,0,0,80,83,85,60,65,131.02,175,-30.00,-21.00,-978.00
2024-06-07 10:16:40.414293,-1,2,-5,0,0,0,80,83,85,60,65,130.99,175,91.00,-57.00,-998.00
2024-06-07 10:16:40.416120,0,3,-5,0,0,0,80,83,84,60,65,130.96,175,-40.00,-20.00,-996.00
2024-06-07 10:16:40.432266,0,3,-6,0,0,0,80,83,83,60,65,130.98,175,-12.00,-44.00,-915.00
2024-06-07 10:16:40.538084,-1,2,-5,0,0,0,80,83,83,60,65,131.03,175,68.00,-75.00,-1018.00
2024-06-07 10:16:40.635614,-1,3,-5,0,0,0,80,83,83,60,65,130.97,175,24.00,-44.00,-1099.00
2024-06-07 10:16:40.749150,0,3,-5,0,0,0,80,83,83,60,65,131.00,175,-23.00,-40.00,-976.00
2024-06-07 10:16:40.839530,0,3,-5,0,0,0,81,84,82,60,65,130.94,175,-61.00,-29.00,-1073.00
2024-06-07 10:16:41.028642,1,4,-5,0,0,0,81,84,82,60,65,131.07,175,58.00,-88.00,-967.00
2024-06-07 10:16:41.043881,1,4,-6,0,0,0,81,84,82,60,65,130.96,175,-2.00,-36.00,-1001.00
2024-06-07 10:16:41.233750,1,3,-5,0,0,0,81,84,82,60,65,130.99,176,58.00,-68.00,-1042.00
2024-06-07 10:16:41.247557,1,3,-5,0,0,0,81,84,82,60,65,130.95,176,39.00,-68.00,-1018.00
2024-06-07 10:16:41.438400,1,3,-5,0,0,0,81,84,82,60,65,130.90,176,-31.00,-52.00,-977.00
2024-06-07 10:16:41.452262,0,3,-6,0,0,0,81,84,81,60,65,130.99,176,14.00,-72.00,-1029.00
2024-06-07 10:16:41.643014,0,3,-6,0,0,0,81,84,81,60,65,130.92,176,37.00,-72.00,-957.00
2024-06-07 10:16:41.657042,1,3,-5,0,0,0,81,84,80,60,65,130.93,176,29.00,-88.00,-1007.00
2024-06-07 10:16:41.757502,1,4,-5,0,0,0,81,84,79,60,65,130.98,176,-27.00,-37.00,-1086.00
2024-06-07 10:16:41.953984,1,3,-5,0,0,0,80,83,79,60,65,130.89,176,-48.00,-37.00,-984.00
2024-06-07 10:16:41.961475,0,2,-5,-1,0,0,80,83,77,60,65,130.97,176,-11.00,-61.00,-998.00
2024-06-07 10:16:42.155081,-2,1,-5,-1,0,0,80,83,76,60,65,130.97,176,-61.00,-24.00,-1021.00
2024-06-07 10:16:42.165332,-2,2,-5,-1,0,0,80,83,75,60,65,131.06,177,14.00,-60.00,-995.00
2024-06-07 10:16:42.359890,-2,2,-5,0,0,0,80,83,74,50,65,130.92,177,-80.00,-8.00,-997.00
2024-06-07 10:16:42.369462,-1,3,-5,0,0,0,80,83,73,50,65,130.98,177,-49.00,-16.00,-1050.00
2024-06-07 10:16:42.564656,-1,2,-5,0,0,0,80,83,73,50,65,130.97,177,-11.00,-34.00,-1117.00
2024-06-07 10:16:42.573477,-1,2,-6,0,0,0,80,83,72,50,65,131.03,177,31.00,-44.00,-1001.00
2024-06-07 10:16:42.769411,-1,2,-6,0,0,0,80,83,72,50,65,131.07,177,23.00,-59.00,-1020.00
2024-06-07 10:16:42.778979,0,2,-5,0,0,0,80,83,73,50,65,131.06,177,17.00,-32.00,-1014.00
2024-06-07 10:16:43.076779,0,3,-5,0,0,0,81,83,73,50,65,131.05,177,3.00,-51.00,-1047.00
2024-06-07 10:16:43.076855,1,3,-5,0,0,0,81,83,73,50,65,130.99,177,-20.00,-25.00,-1011.00
2024-06-07 10:16:43.083602,1,2,-5,0,0,0,81,83,75,50,65,131.01,177,24.00,-50.00,-1039.00
2024-06-07 10:16:43.281531,1,3,-5,0,0,0,81,83,76,50,65,131.02,178,22.00,-70.00,-972.00
2024-06-07 10:16:43.287500,1,3,-5,0,0,0,81,83,77,50,65,131.05,178,-32.00,-38.00,-988.00
2024-06-07 10:16:43.342902,0,4,-5,0,0,0,81,83,79,50,65,131.08,178,18.00,-54.00,-1018.00
2024-06-07 10:16:43.440613,0,4,-5,0,0,0,81,83,79,60,65,131.04,178,-61.00,-28.00,-1013.00
2024-06-07 10:16:43.588873,0,4,-5,0,0,0,81,83,81,60,65,131.03,178,0.00,-53.00,-1000.00
2024-06-07 10:16:43.644510,0,4,-5,0,0,0,81,83,82,60,65,130.97,178,-61.00,-37.00,-960.00
2024-06-07 10:16:43.752928,0,3,-5,0,0,0,81,83,83,60,65,130.95,178,-47.00,-41.00,-992.00
2024-06-07 10:16:43.848872,0,4,-5,0,0,0,80,82,84,60,65,131.02,178,-97.00,-30.00,-996.00
2024-06-07 10:16:43.998613,0,4,-5,0,0,0,80,82,84,60,65,131.00,178,-91.00,-23.00,-1022.00
2024-06-07 10:16:44.052537,0,4,-5,0,0,0,80,82,84,60,65,130.96,178,54.00,-82.00,-1026.00
2024-06-07 10:16:44.223638,0,4,-5,0,0,0,80,82,84,60,65,130.98,179,4.00,-57.00,-1008.00
2024-06-07 10:16:44.256625,0,4,-5,0,0,0,80,82,84,60,65,130.88,179,-65.00,-49.00,-1013.00
2024-06-07 10:16:44.358573,0,4,-5,0,0,0,80,82,84,60,65,130.94,179,-59.00,-33.00,-1011.00
2024-06-07 10:16:44.510346,-1,4,-5,0,0,0,80,82,84,60,65,130.98,179,-47.00,-25.00,-975.00
2024-06-07 10:16:44.575691,0,4,-5,0,0,0,80,82,85,60,65,130.98,179,-75.00,-21.00,-969.00
2024-06-07 10:16:44.664696,-1,3,-5,0,0,0,80,82,84,60,65,130.89,179,5.00,-61.00,-923.00
2024-06-07 10:16:44.817538,0,3,-5,0,0,0,80,82,83,60,65,130.93,179,-31.00,-56.00,-1057.00
2024-06-07 10:16:44.868484,0,4,-5,0,0,0,80,83,83,60,65,130.96,179,-34.00,-48.00,-960.00
2024-06-07 10:16:45.022882,0,3,-6,0,0,0,80,83,83,60,65,130.99,179,88.00,-85.00,-1013.00
2024-06-07 10:16:45.072427,0,3,-5,0,0,0,80,83,82,60,65,130.93,179,-62.00,-48.00,-1004.00
2024-06-07 10:16:45.174375,0,3,-6,0,0,0,80,83,82,60,65,130.96,180,-11.00,-52.00,-1000.00
2024-06-07 10:16:45.332339,0,3,-6,0,0,0,80,83,80,60,65,131.03,180,111.00,-92.00,-1114.00
2024-06-07 10:16:45.378415,0,3,-6,0,0,0,80,83,81,60,65,130.94,180,-51.00,-47.00,-1134.00
2024-06-07 10:16:45.534241,1,4,-5,0,0,-1,80,83,82,60,65,131.00,180,-45.00,-14.00,-1027.00
2024-06-07 10:16:45.582441,1,4,-5,0,0,-1,80,83,85,60,65,131.11,180,-41.00,-24.00,-1106.00
2024-06-07 10:16:45.739235,1,3,-5,0,0,-2,80,83,88,60,65,131.12,180,65.00,-108.00,-1089.00
2024-06-07 10:16:45.786325,1,3,-5,0,0,-3,80,83,93,70,65,131.13,180,-49.00,-35.00,-1072.00
2024-06-07 10:16:45.943797,0,3,-5,0,0,-5,80,82,97,80,65,131.10,180,-3.00,-48.00,-1070.00
2024-06-07 10:16:45.990216,1,3,-5,0,0,-5,80,82,103,80,65,131.05,180,-44.00,-29.00,-1031.00
2024-06-07 10:16:46.152026,1,2,-5,0,0,-5,80,82,109,90,65,131.16,181,-17.00,-18.00,-988.00
2024-06-07 10:16:46.194446,1,1,-5,0,1,-5,80,82,117,90,65,131.17,181,-32.00,-35.00,-1017.00
2024-06-07 10:16:46.353845,2,1,-6,0,0,-5,80,82,122,100,65,131.30,181,9.00,-42.00,-980.00
2024-06-07 10:16:46.398625,1,2,-6,0,0,-5,80,82,129,100,65,131.34,181,60.00,-46.00,-978.00
2024-06-07 10:16:46.558216,2,2,-6,0,0,-5,80,82,133,110,65,131.42,181,12.00,-12.00,-936.00
2024-06-07 10:16:46.603740,2,1,-6,0,0,-5,80,82,138,120,65,131.48,181,21.00,-75.00,-947.00
2024-06-07 10:16:46.704302,1,1,-6,0,0,-4,80,82,146,120,65,131.58,181,26.00,-34.00,-1028.00
2024-06-07 10:16:46.866337,2,2,-6,0,0,-4,80,82,151,130,65,131.64,181,47.00,-102.00,-948.00
2024-06-07 10:16:46.909868,2,3,-5,0,0,-4,79,82,156,130,65,131.65,181,31.00,-51.00,-993.00
2024-06-07 10:16:47.010438,2,3,-5,0,0,-4,79,82,160,140,65,131.67,181,15.00,-35.00,-963.00
2024-06-07 10:16:47.172610,1,3,-5,0,0,-3,79,82,164,140,65,131.69,182,-1.00,-21.00,-896.00
2024-06-07 10:16:47.214325,0,3,-6,0,0,-2,79,82,166,140,65,131.78,182,-12.00,-24.00,-978.00
2024-06-07 10:16:47.378433,0,3,-6,0,0,-2,79,82,169,150,65,131.74,182,45.00,-61.00,-996.00
2024-06-07 10:16:47.419501,0,3,-5,0,0,-2,79,82,171,150,65,131.72,182,0.00,-28.00,-937.00
2024-06-07 10:16:47.469961,1,3,-5,0,0,-1,79,82,171,150,65,131.75,182,60.00,-91.00,-1069.00
2024-06-07 10:16:47.582196,1,3,-5,0,0,-1,79,82,177,150,65,131.73,182,-11.00,-33.00,-967.00
2024-06-07 10:16:47.673574,1,3,-6,0,0,-1,79,82,178,150,65,131.75,182,27.00,-48.00,-924.00
2024-06-07 10:16:47.787039,1,3,-6,0,0,-1,79,82,177,150,65,131.82,182,14.00,-29.00,-964.00
2024-06-07 10:16:47.878584,1,3,-6,0,0,0,80,83,179,160,65,131.76,182,0.00,-76.00,-940.00
2024-06-07 10:16:47.981870,1,3,-6,0,0,0,80,83,181,160,65,131.81,182,22.00,-40.00,-899.00
2024-06-07 10:16:48.082380,1,3,-6,0,0,0,80,83,182,160,65,131.77,183,16.00,-26.00,-1051.00
2024-06-07 10:16:48.184808,2,3,-6,0,0,0,80,83,185,160,65,131.77,183,37.00,-67.00,-1062.00
2024-06-07 10:16:48.285592,3,3,-5,0,0,0,80,83,181,160,65,131.88,183,26.00,-42.00,-999.00
2024-06-07 10:16:48.426897,2,3,-5,0,0,0,80,83,187,160,65,131.80,183,97.00,-44.00,-990.00
2024-06-07 10:16:48.490616,2,2,-5,0,0,0,80,83,183,160,65,131.88,183,-3.00,-19.00,-882.00
2024-06-07 10:16:48.607528,1,1,-5,0,1,0,80,83,183,160,65,131.79,183,-39.00,-16.00,-1008.00
2024-06-07 10:16:48.695899,0,1,-5,0,1,0,80,83,185,160,65,131.75,183,18.00,-32.00,-993.00
2024-06-07 10:16:48.796287,0,1,-6,0,0,0,80,83,185,160,65,131.76,183,43.00,-35.00,-899.00
2024-06-07 10:16:48.913767,1,1,-5,0,0,0,80,82,186,160,65,131.79,183,72.00,-43.00,-1005.00
2024-06-07 10:16:49.000271,2,1,-5,0,0,0,80,82,183,160,65,131.78,183,-55.00,-23.00,-968.00
2024-06-07 10:16:49.102294,3,1,-5,0,0,0,80,82,186,160,65,131.88,184,21.00,-37.00,-1093.00
2024-06-07 10:16:49.220709,1,2,-5,0,0,0,80,82,184,160,65,131.83,184,16.00,-27.00,-1032.00
2024-06-07 10:16:49.308393,1,3,-5,0,0,0,80,82,185,160,65,131.83,184,21.00,-38.00,-1022.00
2024-06-07 10:16:49.419733,1,2,-5,0,0,0,80,82,183,160,65,131.79,184,-61.00,-10.00,-1038.00
2024-06-07 10:16:49.510924,0,1,-5,0,0,0,80,82,184,160,65,131.78,184,20.00,-23.00,-1013.00
2024-06-07 10:16:49.632388,0,1,-5,0,0,0,80,82,183,160,65,131.81,184,68.00,-63.00,-988.00
2024-06-07 10:16:49.714972,0,0,-5,0,0,0,80,82,183,160,65,131.76,184,-1.00,-39.00,-1032.00
2024-06-07 10:16:49.832286,0,1,-5,0,0,0,80,82,183,160,65,131.88,184,18.00,-38.00,-978.00
2024-06-07 10:16:49.918201,0,0,-5,0,0,0,80,82,181,160,65,131.82,184,-19.00,-42.00,-978.00
2024-06-07 10:16:50.042879,0,1,-5,0,0,0,80,82,178,160,65,131.79,184,25.00,-48.00,-920.00
2024-06-07 10:16:50.122188,0,1,-5,0,0,0,80,82,180,160,65,131.71,185,1.00,-6.00,-973.00
2024-06-07 10:16:50.244622,0,1,-5,0,0,1,80,82,180,160,65,131.79,185,-50.00,-28.00,-983.00
2024-06-07 10:16:50.326134,-1,1,-5,0,0,1,80,82,178,160,65,131.74,185,26.00,-55.00,-1019.00
2024-06-07 10:16:50.449406,0,1,-5,0,0,1,80,82,175,150,65,131.66,185,50.00,-56.00,-953.00
2024-06-07 10:16:50.531185,0,2,-5,0,0,2,80,82,176,150,65,131.68,185,-19.00,-40.00,-919.00
2024-06-07 10:16:50.654204,0,2,-5,0,0,2,80,82,172,150,65,131.70,185,-35.00,-46.00,-1009.00
2024-06-07 10:16:50.734143,0,3,-5,0,0,2,80,82,168,150,65,131.78,185,30.00,-48.00,-910.00
2024-06-07 10:16:50.858883,0,3,-5,0,0,2,80,82,166,150,65,131.65,185,-61.00,-34.00,-1031.00
2024-06-07 10:16:50.938118,-1,3,-5,0,0,2,80,82,166,140,65,131.66,185,-17.00,-42.00,-952.00
2024-06-07 10:16:51.063831,0,3,-5,0,0,2,80,82,163,140,65,131.66,185,16.00,-103.00,-922.00
2024-06-07 10:16:51.142148,0,3,-5,0,0,2,80,82,159,140,65,131.52,186,24.00,-128.00,-1000.00
2024-06-07 10:16:51.268930,0,3,-5,0,0,2,80,82,156,140,65,131.58,186,1.00,-37.00,-1002.00
2024-06-07 10:16:51.346199,0,3,-5,0,0,2,80,82,153,130,65,131.55,186,-11.00,-43.00,-1062.00
2024-06-07 10:16:51.397084,0,3,-5,0,0,2,80,82,153,130,65,131.59,186,6.00,-78.00,-999.00
2024-06-07 10:16:51.499045,0,3,-5,0,0,2,80,82,149,130,65,131.55,186,-4.00,-50.00,-1012.00
2024-06-07 10:16:51.678210,0,3,-5,0,0,1,80,82,145,130,65,131.55,186,-41.00,-47.00,-974.00
2024-06-07 10:16:51.703500,-1,3,-6,0,0,2,80,82,144,120,65,131.54,186,-14.00,-80.00,-929.00
2024-06-07 10:16:51.883714,-2,2,-6,0,0,1,80,82,144,120,65,131.60,186,37.00,-52.00,-1062.00
2024-06-07 10:16:51.908355,-1,2,-6,0,0,1,80,83,139,120,65,131.63,186,-10.00,-81.00,-959.00
2024-06-07 10:16:52.009801,0,2,-6,0,0,2,80,83,138,120,65,131.45,186,32.00,-18.00,-1005.00
2024-06-07 10:16:52.111235,0,2,-5,1,0,2,80,83,134,120,65,131.45,187,5.00,-59.00,-1072.00
2024-06-07 10:16:52.213143,1,2,-5,1,0,1,80,83,133,110,65,131.53,187,2.00,-99.00,-1112.00
2024-06-07 10:16:52.315076,1,4,-6,1,0,1,80,83,132,110,65,131.40,187,42.00,-42.00,-1115.00
2024-06-07 10:16:52.417692,1,4,-6,1,0,0,80,83,132,110,65,131.38,187,36.00,-99.00,-1000.00
2024-06-07 10:16:52.519039,2,4,-5,0,0,0,80,83,131,110,65,131.45,187,71.00,-68.00,-1072.00
2024-06-07 10:16:52.621129,1,4,-5,0,0,0,80,83,130,110,65,131.41,187,17.00,-32.00,-1034.00
2024-06-07 10:16:52.723110,1,3,-5,0,0,0,80,83,130,110,65,131.35,187,3.00,-29.00,-1028.00
2024-06-07 10:16:52.908267,1,3,-5,0,0,0,80,83,130,110,65,131.36,187,42.00,-42.00,-957.00
2024-06-07 10:16:52.934401,1,3,-5,0,0,0,80,82,130,110,65,131.41,187,-6.00,-26.00,-980.00
2024-06-07 10:16:53.030698,1,3,-5,0,0,0,80,82,128,110,65,131.38,187,39.00,-72.00,-1061.00
2024-06-07 10:16:53.131598,0,1,-5,0,0,0,80,82,128,110,65,131.29,188,48.00,-80.00,-1000.00
2024-06-07 10:16:53.316725,0,2,-5,0,0,0,80,82,128,110,65,131.36,188,-63.00,-11.00,-1023.00
2024-06-07 10:16:53.335422,0,3,-5,0,0,0,80,82,127,110,65,131.34,188,49.00,-48.00,-1049.00
2024-06-07 10:16:53.521880,0,4,-5,0,0,0,80,82,127,110,65,131.39,188,80.00,-52.00,-1040.00
2024-06-07 10:16:53.540431,0,3,-6,0,0,0,80,82,126,110,65,131.35,188,37.00,-54.00,-964.00
2024-06-07 10:16:53.726338,1,3,-5,0,0,0,80,82,127,110,65,131.30,188,74.00,-54.00,-973.00
2024-06-07 10:16:53.743725,1,4,-5,0,0,0,80,82,126,110,65,131.40,188,74.00,-89.00,-1006.00
2024-06-07 10:16:53.933564,1,3,-5,0,0,0,80,82,125,110,65,131.36,188,-37.00,-37.00,-988.00
2024-06-07 10:16:53.947114,0,3,-5,0,0,0,80,83,127,110,65,131.32,188,29.00,-48.00,-958.00
2024-06-07 10:16:54.135981,0,3,-5,0,0,0,80,83,127,110,65,131.41,188,27.00,-60.00,-1014.00
2024-06-07 10:16:54.151449,0,4,-6,0,0,0,80,83,126,110,65,131.32,189,58.00,-75.00,-1048.00
2024-06-07 10:16:54.253365,1,4,-5,0,0,0,80,83,127,110,65,131.30,189,35.00,-68.00,-967.00
2024-06-07 10:16:54.443787,0,3,-5,0,0,0,80,83,127,110,65,131.37,189,-28.00,-92.00,-976.00
2024-06-07 10:16:54.457555,-4,3,-6,0,0,0,80,83,126,110,65,131.42,189,27.00,-101.00,-967.00
2024-06-07 10:16:54.750251,-8,3,-6,1,0,0,80,83,127,110,65,131.38,189,24.00,-85.00,-1061.00
2024-06-07 10:16:54.750324,-7,3,-6,2,0,0,80,83,127,110,65,131.34,189,-32.00,-52.00,-990.00
2024-06-07 10:16:54.763274,-7,3,-6,3,0,0,80,83,128,110,65,131.35,189,-19.00,-66.00,-1002.00
2024-06-07 10:16:54.955066,-7,4,-6,4,-1,0,80,83,127,110,65,131.38,189,35.00,-86.00,-1006.00
2024-06-07 10:16:54.966890,-7,4,-6,6,-1,0,81,82,128,110,65,131.33,189,37.00,-93.00,-1051.00
2024-06-07 10:16:55.068946,-6,5,-6,7,-1,0,81,82,128,110,65,131.32,189,-31.00,-66.00,-1027.00
2024-06-07 10:16:55.262499,-3,6,-6,8,-1,0,81,82,128,110,65,131.26,190,-1.00,-103.00,-1007.00
2024-06-07 10:16:55.272968,-1,6,-5,8,-1,0,81,82,128,110,65,131.32,190,-54.00,-96.00,-1056.00
2024-06-07 10:16:55.376115,0,5,-5,8,0,0,81,82,130,110,65,131.28,190,13.00,-92.00,-1004.00
2024-06-07 10:16:55.477020,3,4,-5,8,-1,0,81,82,130,110,65,131.29,190,2.00,-107.00,-1040.00
2024-06-07 10:16:55.672111,6,4,-5,7,0,0,81,82,131,110,65,131.35,190,-51.00,-78.00,-967.00
2024-06-07 10:16:55.672323,6,4,-5,5,0,0,81,82,133,110,65,131.34,190,32.00,-87.00,-1063.00
2024-06-07 10:16:55.731938,5,4,-5,4,0,0,81,82,134,110,65,131.40,190,77.00,-68.00,-1014.00
2024-06-07 10:16:55.876769,4,6,-5,4,0,0,81,82,134,110,65,131.39,190,-9.00,-79.00,-887.00
2024-06-07 10:16:55.936429,3,7,-5,3,0,0,80,82,133,110,65,131.42,190,-26.00,-65.00,-987.00
2024-06-07 10:16:56.037902,2,7,-5,2,0,0,80,82,133,110,65,131.41,190,61.00,-111.00,-930.00
2024-06-07 10:16:56.186752,2,6,-5,2,0,0,80,82,131,110,65,131.43,191,33.00,-118.00,-940.00
2024-06-07 10:16:56.241811,2,6,-5,2,1,0,80,82,132,110,65,131.38,191,7.00,-60.00,-955.00
2024-06-07 10:16:56.389619,3,3,-5,2,1,0,80,82,134,110,65,131.48,191,24.00,-119.00,-1025.00
2024-06-07 10:16:56.445929,5,0,-5,1,0,0,80,82,131,110,65,131.39,191,9.00,-114.00,-1072.00
2024-06-07 10:16:56.593829,4,2,-5,1,0,0,80,82,132,110,65,131.38,191,41.00,-92.00,-927.00
2024-06-07 10:16:56.650058,2,2,-5,0,0,0,80,82,133,110,65,131.40,191,78.00,-110.00,-952.00
2024-06-07 10:16:56.752010,1,2,-5,0,0,0,80,82,133,110,65,131.36,191,49.00,-79.00,-1032.00
2024-06-07 10:16:56.900697,1,3,-5,0,0,0,80,82,133,110,65,131.37,191,133.00,-72.00,-997.00
2024-06-07 10:16:56.956415,1,3,-5,0,0,0,80,82,135,110,65,131.36,191,97.00,-77.00,-991.00
2024-06-07 10:16:57.058068,2,3,-5,0,0,0,80,82,137,110,65,131.28,191,91.00,-64.00,-984.00
2024-06-07 10:16:57.160223,2,4,-5,0,0,0,80,82,136,110,65,131.34,192,48.00,-50.00,-1037.00
2024-06-07 10:16:57.310404,2,3,-5,0,0,0,80,82,134,110,65,131.45,192,44.00,-112.00,-944.00
2024-06-07 10:16:57.363898,2,4,-5,0,0,0,80,82,137,110,65,131.44,192,75.00,-102.00,-970.00
2024-06-07 10:16:57.515039,2,4,-5,0,0,0,80,82,136,110,65,131.37,192,80.00,-103.00,-975.00
2024-06-07 10:16:57.568016,1,5,-5,0,0,0,80,82,137,110,65,131.36,192,78.00,-91.00,-945.00
2024-06-07 10:16:57.719887,1,5,-5,0,0,0,80,82,137,110,65,131.36,192,65.00,-43.00,-952.00
2024-06-07 10:16:57.772277,1,4,-5,0,0,0,80,82,137,110,65,131.40,192,28.00,-81.00,-976.00
2024-06-07 10:16:57.925337,2,4,-5,0,0,0,80,82,137,110,65,131.41,192,23.00,-36.00,-984.00
2024-06-07 10:16:57.978950,3,4,-5,0,0,0,79,82,136,110,65,131.32,192,53.00,-76.00,-981.00
2024-06-07 10:16:58.078081,3,4,-5,0,0,0,79,82,136,110,65,131.38,192,-9.00,-51.00,-1026.00
2024-06-07 10:16:58.232356,3,4,-5,0,0,0,79,82,137,110,65,131.39,193,75.00,-110.00,-1044.00
2024-06-07 10:16:58.282681,3,4,-6,0,0,0,79,82,136,110,65,131.35,193,45.00,-76.00,-967.00
2024-06-07 10:16:58.440387,2,4,-6,0,0,0,79,82,137,110,65,131.32,193,17.00,-88.00,-979.00
2024-06-07 10:16:58.485842,1,4,-6,0,0,0,79,82,137,110,65,131.39,193,-11.00,-82.00,-993.00
2024-06-07 10:16:58.595963,1,3,-6,0,0,0,79,82,138,110,65,131.20,193,112.00,-116.00,-1027.00
2024-06-07 10:16:58.690498,1,4,-5,0,0,0,79,82,138,110,65,131.36,193,24.00,-79.00,-987.00
2024-06-07 10:16:58.797454,3,4,-5,0,0,0,79,82,140,110,65,131.40,193,62.00,-45.00,-970.00
2024-06-07 10:16:58.893891,6,3,-5,0,0,0,79,82,142,110,65,131.42,193,71.00,-99.00,-990.00
2024-06-07 10:16:59.050845,8,2,-5,0,0,0,80,82,141,120,65,131.40,193,21.00,-66.00,-940.00
2024-06-07 10:16:59.097775,8,2,-5,-1,0,0,80,82,142,120,65,131.41,193,91.00,-102.00,-964.00
2024-06-07 10:16:59.256246,8,3,-5,-2,0,0,80,82,142,120,65,131.35,194,81.00,-104.00,-978.00
2024-06-07 10:16:59.302314,7,3,-5,-3,0,0,80,82,142,120,65,131.43,194,128.00,-96.00,-1054.00
2024-06-07 10:16:59.460604,7,4,-5,-4,0,0,80,82,141,120,65,131.42,194,93.00,-80.00,-1005.00
2024-06-07 10:16:59.505816,7,4,-5,-4,0,0,80,82,141,120,65,131.45,194,99.00,-71.00,-978.00
2024-06-07 10:16:59.556746,7,4,-5,-5,0,0,80,82,141,120,65,131.46,194,63.00,-67.00,-1017.00
2024-06-07 10:16:59.666926,7,4,-5,-6,0,0,80,82,140,120,65,131.42,194,104.00,-81.00,-994.00
2024-06-07 10:16:59.760902,6,6,-5,-6,0,0,80,82,139,120,65,131.56,194,13.00,-58.00,-1011.00
2024-06-07 10:16:59.870224,4,6,-5,-7,0,0,80,82,139,120,65,131.52,194,96.00,-126.00,-949.00
2024-06-07 10:17:00.018664,-2,7,-6,-7,1,0,79,82,141,120,65,131.22,194,8.00,-69.00,-999.00
2024-06-07 10:17:00.067374,-4,5,-5,-5,0,0,79,82,139,120,65,131.41,195,82.00,-112.00,-998.00
2024-06-07 10:17:00.177378,-1,7,-5,-4,0,0,79,82,136,110,65,131.48,195,126.00,-165.00,-990.00
2024-06-07 10:17:00.270900,0,7,-5,-3,0,1,79,82,136,110,65,131.47,195,3.00,-141.00,-973.00
2024-06-07 10:17:00.382141,0,8,-5,-3,0,1,79,82,137,110,65,131.43,195,45.00,-133.00,-993.00
2024-06-07 10:17:00.474740,0,9,-5,-3,0,1,79,82,136,110,65,131.50,195,-29.00,-119.00,-1035.00
2024-06-07 10:17:00.587208,0,8,-5,-3,0,0,79,82,135,110,65,131.45,195,63.00,-174.00,-1004.00
2024-06-07 10:17:00.680236,-1,8,-5,-2,0,0,79,82,136,110,65,131.50,195,-11.00,-157.00,-1019.00
2024-06-07 10:17:00.780692,-1,8,-5,-2,0,0,79,82,136,110,65,131.51,195,74.00,-124.00,-992.00
2024-06-07 10:17:00.882669,-1,8,-5,-2,0,0,79,82,135,110,65,131.44,195,31.00,-144.00,-1063.00
2024-06-07 10:17:00.985746,-1,8,-5,-1,0,0,79,83,138,110,65,131.47,195,-41.00,-141.00,-1015.00
2024-06-07 10:17:01.087845,-1,9,-5,-1,0,0,79,83,139,110,65,131.47,196,-35.00,-156.00,-962.00
2024-06-07 10:17:01.202053,-1,9,-5,-1,0,0,79,83,142,110,65,131.55,196,90.00,-136.00,-995.00
2024-06-07 10:17:01.292375,0,9,-5,0,0,0,79,83,141,110,65,131.56,196,20.00,-169.00,-970.00
2024-06-07 10:17:01.394734,0,8,-5,0,0,0,79,83,143,110,65,131.52,196,-11.00,-161.00,-972.00
2024-06-07 10:17:01.494729,-1,8,-5,0,0,0,79,83,144,110,65,131.50,196,15.00,-132.00,-992.00
2024-06-07 10:17:01.610910,-1,8,-5,0,1,0,79,83,145,110,65,131.41,196,-43.00,-141.00,-1002.00
2024-06-07 10:17:01.702385,0,8,-5,0,1,0,79,83,145,120,65,131.48,196,-50.00,-143.00,-1001.00
2024-06-07 10:17:01.800641,1,5,-5,0,1,0,79,83,147,120,65,131.51,196,-4.00,-148.00,-943.00
2024-06-07 10:17:01.918167,-1,3,-5,0,0,0,79,83,146,120,65,131.49,196,46.00,-178.00,-988.00
2024-06-07 10:17:02.004628,-3,6,-6,0,0,0,79,82,146,120,65,131.47,196,-64.00,-131.00,-960.00
2024-06-07 10:17:02.132358,-2,8,-6,0,0,0,79,82,150,120,65,131.50,197,5.00,-126.00,-952.00
2024-06-07 10:17:02.208757,-1,8,-5,0,0,0,79,82,148,120,65,131.34,197,7.00,-130.00,-961.00
2024-06-07 10:17:02.310899,2,8,-5,0,0,0,79,82,147,120,65,131.49,197,-89.00,-100.00,-1013.00
2024-06-07 10:17:02.430696,1,7,-5,0,0,0,79,82,146,120,65,131.47,197,6.00,-139.00,-925.00
2024-06-07 10:17:02.514884,1,7,-5,0,0,0,79,82,144,120,65,131.51,197,-27.00,-141.00,-981.00
2024-06-07 10:17:02.635063,0,8,-5,0,0,0,79,82,145,120,65,131.41,197,38.00,-150.00,-965.00
2024-06-07 10:17:02.718898,0,7,-5,-1,0,1,79,82,144,120,65,131.42,197,-147.00,-92.00,-951.00
2024-06-07 10:17:02.839748,-1,5,-6,-1,0,1,79,82,141,120,65,131.49,197,50.00,-164.00,-980.00
2024-06-07 10:17:02.922731,-2,7,-5,-1,0,1,79,82,139,120,65,131.38,197,-69.00,-118.00,-1032.00
2024-06-07 10:17:03.044780,-2,7,-5,-1,0,0,81,82,140,110,65,131.26,197,-42.00,-86.00,-987.00
2024-06-07 10:17:03.126844,-2,7,-5,-1,0,0,81,82,140,110,65,131.28,198,-16.00,-107.00,-1008.00
2024-06-07 10:17:03.249824,-3,5,-6,0,0,0,81,82,138,110,65,131.27,198,37.00,-110.00,-1054.00
2024-06-07 10:17:03.330743,-2,6,-6,0,0,0,81,82,136,110,65,131.48,198,-7.00,-137.00,-989.00
2024-06-07 10:17:03.432660,-1,6,-6,0,0,0,81,82,136,110,65,131.42,198,-18.00,-118.00,-959.00
2024-06-07 10:17:03.557552,0,7,-5,0,0,0,81,82,136,110,65,131.39,198,36.00,-169.00,-1088.00
2024-06-07 10:17:03.637384,0,8,-5,0,0,0,81,82,134,110,65,131.20,198,-48.00,-89.00,-914.00
2024-06-07 10:17:03.761572,0,9,-6,0,0,0,81,82,136,110,65,131.35,198,43.00,-145.00,-997.00
2024-06-07 10:17:03.840699,0,8,-6,0,0,0,81,82,132,110,65,131.32,198,77.00,-153.00,-1019.00
2024-06-07 10:17:03.892031,0,8,-5,0,0,0,81,82,133,110,65,131.28,198,80.00,-135.00,-1053.00
2024-06-07 10:17:04.069415,1,9,-5,0,0,0,80,82,133,110,65,131.22,198,-27.00,-98.00,-913.00
2024-06-07 10:17:04.095859,1,8,-5,0,0,0,80,82,133,110,65,131.28,199,31.00,-163.00,-1027.00
2024-06-07 10:17:04.197587,1,8,-5,0,0,0,80,82,132,110,65,131.27,199,-4.00,-134.00,-947.00
2024-06-07 10:17:04.300000,2,6,-5,0,0,0,80,82,133,110,65,131.41,199,-45.00,-74.00,-883.00
2024-06-07 10:17:04.402188,1,-2,-5,0,0,0,80,82,134,110,65,131.23,199,-53.00,-146.00,-1107.00
2024-06-07 10:17:04.504283,0,-1,-5,0,-2,0,80,82,134,110,65,131.38,199,60.00,-185.00,-1025.00
2024-06-07 10:17:04.683936,0,3,-5,0,-3,0,80,82,136,110,65,131.30,199,-2.00,-114.00,-979.00
2024-06-07 10:17:04.707877,0,5,-6,0,-4,0,80,82,135,110,65,131.31,199,-63.00,-116.00,-1027.00
2024-06-07 10:17:04.811509,-1,8,-6,0,-4,0,80,82,138,110,64,131.20,199,59.00,-118.00,-998.00
2024-06-07 10:17:04.911694,0,8,-6,0,-3,0,80,82,138,110,64,131.20,199,59.00,-157.00,-978.00
2024-06-07 10:17:05.094192,0,8,-5,0,-3,0,81,82,139,110,64,131.23,199,33.00,-127.00,-980.00
2024-06-07 10:17:05.119564,0,7,-5,0,-2,0,81,82,139,120,64,131.19,200,20.00,-117.00,-919.00
2024-06-07 10:17:05.217790,0,7,-5,0,-2,0,81,82,136,120,64,131.17,200,38.00,-133.00,-934.00
2024-06-07 10:17:05.399803,0,6,-5,0,-2,0,81,82,135,120,64,131.21,200,42.00,-95.00,-995.00
2024-06-07 10:17:05.421492,0,6,-5,0,-2,0,81,82,137,110,64,131.13,200,16.00,-66.00,-1000.00
2024-06-07 10:17:05.604577,0,6,-5,0,-2,0,81,82,135,110,64,131.15,200,-25.00,-63.00,-970.00
2024-06-07 10:17:05.628702,0,5,-5,0,-2,0,81,82,133,110,64,131.08,200,14.00,-75.00,-1007.00
2024-06-07 10:17:05.729013,0,5,-5,0,-2,0,81,82,132,110,64,131.14,200,47.00,-125.00,-993.00
2024-06-07 10:17:05.829482,0,5,-5,0,-1,0,81,82,130,110,64,131.13,200,-49.00,-40.00,-1018.00
2024-06-07 10:17:05.931478,0,5,-5,0,-1,0,81,82,131,110,64,130.99,200,-20.00,-86.00,-1006.00
2024-06-07 10:17:06.116540,0,4,-5,0,-1,0,79,82,129,110,64,131.07,200,-47.00,-86.00,-1024.00
2024-06-07 10:17:06.135427,0,5,-5,0,-1,0,79,82,129,110,64,131.11,201,-35.00,-114.00,-988.00
2024-06-07 10:17:06.321315,0,8,-5,0,-1,0,79,82,126,110,64,131.08,201,19.00,-114.00,-1076.00
2024-06-07 10:17:06.339394,0,8,-5,0,-1,0,79,82,128,110,64,130.94,201,1.00,-118.00,-1022.00
2024-06-07 10:17:06.441634,0,8,-6,0,-1,0,79,82,126,110,64,131.20,201,-10.00,-110.00,-1064.00
2024-06-07 10:17:06.628648,0,9,-6,0,-1,0,79,82,126,110,64,131.14,201,-11.00,-93.00,-1035.00
2024-06-07 10:17:06.645402,0,7,-5,0,0,0,79,82,127,110,64,131.06,201,-93.00,-93.00,-988.00
2024-06-07 10:17:06.833723,0,7,-5,0,0,0,79,82,127,110,64,131.24,201,30.00,-98.00,-1017.00
2024-06-07 10:17:06.849378,0,7,-6,0,0,0,79,82,128,110,64,131.26,201,-17.00,-86.00,-989.00
2024-06-07 10:17:07.043586,0,8,-6,0,0,0,79,82,129,110,64,131.18,201,19.00,-130.00,-964.00
2024-06-07 10:17:07.053768,1,7,-5,0,0,0,80,82,129,110,64,131.16,201,36.00,-105.00,-1021.00
2024-06-07 10:17:07.243059,1,6,-5,0,0,0,80,82,129,110,64,131.10,202,-96.00,-133.00,-990.00
2024-06-07 10:17:07.257420,1,6,-5,0,0,0,80,82,131,110,64,131.17,202,-34.00,-115.00,-946.00
2024-06-07 10:17:07.447928,0,7,-5,0,0,0,80,82,134,110,64,131.11,202,-54.00,-107.00,-1018.00
2024-06-07 10:17:07.461713,0,7,-5,0,0,0,80,82,135,110,64,131.10,202,46.00,-145.00,-978.00
2024-06-07 10:17:07.652686,-1,6,-5,0,0,0,80,82,136,110,64,131.23,202,-3.00,-113.00,-1060.00
2024-06-07 10:17:07.666308,0,7,-5,0,0,0,80,82,137,110,64,131.32,202,-23.00,-83.00,-984.00
2024-06-07 10:17:07.767434,-1,6,-6,0,0,0,80,82,136,110,63,131.22,202,7.00,-78.00,-1004.00
2024-06-07 10:17:07.959961,0,6,-6,0,0,0,80,82,136,110,63,131.27,202,49.00,-104.00,-954.00
2024-06-07 10:17:07.971476,1,6,-5,0,0,0,80,82,135,110,63,131.19,202,-41.00,-107.00,-945.00
2024-06-07 10:17:08.164738,1,6,-5,0,0,0,80,82,134,110,63,131.25,202,39.00,-96.00,-1010.00
2024-06-07 10:17:08.175495,2,6,-5,0,0,0,80,82,134,110,63,131.27,203,24.00,-120.00,-966.00
2024-06-07 10:17:08.369820,1,6,-5,0,0,0,80,82,134,110,63,131.30,203,-44.00,-112.00,-1009.00
2024-06-07 10:17:08.369963,1,7,-5,0,0,0,80,82,135,110,63,131.18,203,79.00,-117.00,-1053.00
2024-06-07 10:17:08.430419,1,6,-5,0,0,0,80,82,133,110,63,131.23,203,-6.00,-123.00,-1000.00
2024-06-07 10:17:08.574494,2,6,-5,0,0,0,80,82,134,110,63,131.23,203,17.00,-165.00,-1068.00
2024-06-07 10:17:08.634462,0,9,-5,0,0,0,80,82,133,110,63,131.23,203,68.00,-121.00,-1057.00
2024-06-07 10:17:08.779863,0,8,-5,0,0,0,80,82,134,110,63,131.26,203,65.00,-136.00,-1002.00
2024-06-07 10:17:08.838295,0,8,-5,0,0,0,80,82,135,110,63,131.27,203,48.00,-116.00,-923.00
2024-06-07 10:17:08.983842,1,8,-5,0,1,0,80,82,132,110,63,131.19,203,20.00,-137.00,-995.00
2024-06-07 10:17:09.042806,1,8,-5,0,1,0,80,82,133,110,63,131.23,203,34.00,-126.00,-1020.00
2024-06-07 10:17:09.188569,0,8,-5,0,1,0,80,82,134,110,63,131.32,204,51.00,-162.00,-1008.00
2024-06-07 10:17:09.246342,0,8,-5,0,1,0,80,82,133,110,63,131.27,204,83.00,-141.00,-985.00
2024-06-07 10:17:09.393353,0,9,-5,0,2,0,80,82,134,110,63,131.15,204,71.00,-138.00,-1040.00
2024-06-07 10:17:09.450628,0,8,-5,0,2,0,80,82,134,110,63,131.21,204,28.00,-130.00,-1043.00
2024-06-07 10:17:09.598184,0,7,-5,0,2,0,80,82,135,110,63,131.30,204,-54.00,-114.00,-1002.00
2024-06-07 10:17:09.655162,1,7,-5,0,2,0,80,82,137,110,63,131.23,204,54.00,-168.00,-944.00
2024-06-07 10:17:09.804866,1,7,-5,0,2,0,80,82,135,110,63,131.32,204,10.00,-109.00,-947.00
2024-06-07 10:17:09.862411,0,7,-5,0,2,0,80,82,135,110,63,131.23,204,-30.00,-107.00,-1050.00
2024-06-07 10:17:09.962382,1,7,-5,0,2,0,80,82,136,110,63,131.33,204,20.00,-152.00,-979.00
2024-06-07 10:17:10.063545,0,7,-5,0,2,0,80,82,136,110,63,131.27,204,-52.00,-70.00,-973.00
2024-06-07 10:17:10.165712,0,7,-5,0,2,0,80,82,138,110,63,131.34,205,-2.00,-116.00,-1023.00
2024-06-07 10:17:10.267383,0,7,-5,0,2,0,80,82,138,110,63,131.26,205,-46.00,-108.00,-1028.00
2024-06-07 10:17:10.370029,0,7,-5,0,2,0,80,82,138,110,63,131.21,205,-56.00,-106.00,-922.00
2024-06-07 10:17:10.471483,0,7,-5,0,2,0,80,82,137,110,63,131.32,205,60.00,-147.00,-971.00
2024-06-07 10:17:10.623975,0,8,-5,0,2,0,80,82,138,110,63,131.17,205,-64.00,-77.00,-932.00
2024-06-07 10:17:10.678197,0,7,-5,0,2,0,80,82,139,110,63,131.16,205,-44.00,-101.00,-1007.00
2024-06-07 10:17:10.777786,0,6,-5,0,2,0,80,82,138,110,62,131.26,205,10.00,-136.00,-948.00
2024-06-07 10:17:10.878768,0,2,-5,0,2,0,80,82,136,110,62,131.27,205,8.00,-147.00,-975.00
2024-06-07 10:17:10.981788,-1,0,-5,0,2,0,80,82,138,110,62,131.25,205,6.00,-104.00,-1031.00
2024-06-07 10:17:11.082654,0,3,-5,0,1,0,80,82,137,110,62,131.14,205,33.00,-82.00,-981.00
2024-06-07 10:17:11.236643,0,4,-5,0,0,0,80,82,135,110,62,131.16,206,44.00,-119.00,-993.00
2024-06-07 10:17:11.286415,1,4,-5,1,0,0,80,82,135,110,62,131.17,206,43.00,-101.00,-1033.00
2024-06-07 10:17:11.388688,1,5,-5,0,0,0,80,82,135,110,62,131.16,206,27.00,-115.00,-991.00
2024-06-07 10:17:11.490465,0,5,-5,0,0,0,80,82,133,110,62,131.17,206,-55.00,-87.00,-928.00
2024-06-07 10:17:11.593908,1,4,-5,0,0,0,80,82,134,110,62,131.23,206,66.00,-107.00,-966.00
2024-06-07 10:17:11.694934,1,5,-5,0,0,0,80,82,132,110,62,131.18,206,73.00,-100.00,-1074.00
2024-06-07 10:17:11.796381,2,5,-5,0,0,0,80,82,132,110,62,131.18,206,96.00,-123.00,-1063.00
2024-06-07 10:17:11.898704,2,5,-5,0,0,0,80,82,131,110,62,131.22,206,16.00,-43.00,-1041.00
2024-06-07 10:17:12.001015,1,4,-5,0,0,0,80,82,132,110,62,131.21,206,-9.00,-78.00,-959.00
2024-06-07 10:17:12.102430,1,4,-5,0,0,0,80,82,131,110,62,131.13,206,-33.00,-100.00,-1012.00
2024-06-07 10:17:12.153971,1,5,-5,0,0,0,80,82,132,110,62,131.18,207,-11.00,-84.00,-1007.00
2024-06-07 10:17:12.261502,0,5,-5,0,0,0,80,82,132,110,62,131.12,207,14.00,-86.00,-973.00
2024-06-07 10:17:12.357624,0,4,-6,0,0,0,80,82,134,110,62,131.12,207,35.00,-87.00,-992.00
2024-06-07 10:17:12.466900,0,3,-5,0,0,0,80,82,134,110,62,131.17,207,29.00,-90.00,-1010.00
2024-06-07 10:17:12.562052,0,4,-5,0,0,0,80,82,134,110,62,131.19,207,81.00,-110.00,-1030.00
2024-06-07 10:17:12.671569,0,3,-5,0,0,0,80,82,133,110,62,131.19,207,36.00,-68.00,-991.00
2024-06-07 10:17:12.765505,0,3,-5,0,0,0,80,82,132,110,62,131.21,207,-6.00,-65.00,-960.00
2024-06-07 10:17:12.876442,0,3,-5,0,0,0,80,82,134,110,62,131.18,207,25.00,-87.00,-1083.00
2024-06-07 10:17:12.970397,1,4,-5,0,0,0,80,82,133,110,62,131.18,207,114.00,-108.00,-968.00
2024-06-07 10:17:13.071827,0,3,-6,0,0,0,79,82,132,110,62,131.23,208,50.00,-85.00,-1011.00
2024-06-07 10:17:13.182797,0,4,-2,0,0,0,79,82,134,110,62,131.18,208,57.00,-91.00,-957.00
2024-06-07 10:17:13.275286,0,4,2,0,0,0,79,82,133,110,62,131.25,208,13.00,-100.00,-999.00
2024-06-07 10:17:13.389147,1,4,8,0,0,0,79,82,134,110,62,131.16,208,28.00,-125.00,-981.00
2024-06-07 10:17:13.480265,0,4,13,0,0,0,79,82,135,110,62,131.16,208,8.00,-81.00,-1034.00
2024-06-07 10:17:13.581878,0,4,19,0,0,0,79,82,134,110,62,131.09,208,-30.00,-81.00,-1009.00
2024-06-07 10:17:13.694841,0,4,25,0,0,0,79,82,133,110,62,131.10,208,-57.00,-87.00,-995.00
2024-06-07 10:17:13.785167,-1,4,31,0,0,0,79,82,134,110,62,131.11,208,-16.00,-80.00,-1068.00
2024-06-07 10:17:13.887764,-2,4,37,0,0,0,79,82,136,110,62,131.11,208,-10.00,-88.00,-971.00
2024-06-07 10:17:14.004089,-2,4,44,0,0,0,79,82,135,110,62,131.06,208,-78.00,-73.00,-1018.00
2024-06-07 10:17:14.091108,-3,3,50,0,0,0,80,82,137,110,62,131.08,209,-100.00,-44.00,-980.00
2024-06-07 10:17:14.206123,-5,2,56,0,0,0,80,82,138,110,62,131.01,209,-38.00,-36.00,-982.00
2024-06-07 10:17:14.295537,-4,1,62,0,0,0,80,82,136,110,62,130.92,209,-14.00,-54.00,-992.00
2024-06-07 10:17:14.400890,-3,1,68,0,0,0,80,82,136,110,62,130.93,209,-69.00,-24.00,-1006.00
2024-06-07 10:17:14.499098,-3,0,73,0,0,0,80,82,135,110,62,130.85,209,-127.00,-48.00,-972.00
2024-06-07 10:17:14.616232,-3,0,79,0,0,0,80,82,135,110,62,130.92,209,-80.00,-22.00,-1063.00
2024-06-07 10:17:14.703046,-3,1,85,0,0,0,80,82,135,110,62,130.85,209,-92.00,27.00,-961.00
2024-06-07 10:17:14.805185,-3,1,91,0,0,0,80,82,134,110,62,130.71,209,-61.00,-20.00,-1017.00
2024-06-07 10:17:14.922792,-5,0,96,0,0,0,80,82,134,110,62,130.91,209,-85.00,15.00,-987.00
2024-06-07 10:17:15.009217,-5,0,102,0,0,0,80,82,134,110,62,130.87,209,-118.00,-21.00,-976.00
2024-06-07 10:17:15.231063,-5,0,108,0,0,0,80,82,133,110,62,130.87,210,-62.00,38.00,-993.00
2024-06-07 10:17:15.231120,-5,-1,113,0,0,0,80,82,134,110,62,130.90,210,-22.00,12.00,-1012.00
2024-06-07 10:17:15.315105,-5,-1,119,0,0,0,80,82,133,110,62,130.92,210,-135.00,49.00,-1012.00
2024-06-07 10:17:15.441509,-5,-1,125,0,0,0,80,82,133,110,62,130.97,210,-66.00,18.00,-983.00
2024-06-07 10:17:15.518960,-4,-1,130,0,0,0,80,82,132,110,62,131.01,210,-98.00,36.00,-989.00
2024-06-07 10:17:15.621781,-4,0,136,0,0,0,80,82,133,110,62,130.92,210,-51.00,25.00,-965.00
2024-06-07 10:17:15.742122,-4,0,141,0,0,0,80,82,131,110,62,130.91,210,-32.00,46.00,-973.00
2024-06-07 10:17:15.825150,-3,-1,147,0,0,0,80,82,132,110,62,131.08,210,-24.00,29.00,-1005.00
2024-06-07 10:17:15.876326,-3,-2,153,0,0,0,80,82,131,110,62,131.06,210,-14.00,28.00,-989.00
2024-06-07 10:17:16.049489,-3,-1,159,0,0,0,80,82,131,110,62,131.11,210,-11.00,52.00,-1086.00
2024-06-07 10:17:16.130993,-2,-1,165,0,0,0,80,82,130,110,62,131.10,211,-90.00,90.00,-1022.00
2024-06-07 10:17:16.254398,-2,-3,171,0,0,0,80,82,131,110,62,131.23,211,10.00,40.00,-1030.00
2024-06-07 10:17:16.334964,-1,-3,178,0,0,0,80,82,130,110,62,131.32,211,-44.00,80.00,-1042.00
2024-06-07 10:17:16.458861,-1,-3,-174,0,0,0,80,82,131,110,62,131.37,211,-24.00,115.00,-1021.00
2024-06-07 10:17:16.539023,0,-4,-167,0,0,0,80,82,131,110,62,131.35,211,-12.00,126.00,-1003.00
2024-06-07 10:17:16.590186,0,-4,-161,0,0,0,80,82,132,110,62,131.33,211,20.00,94.00,-997.00
2024-06-07 10:17:16.766151,0,-3,-155,0,0,0,80,82,132,110,62,131.37,211,-1.00,101.00,-1007.00
2024-06-07 10:17:16.794028,0,-4,-149,0,0,0,80,82,132,110,61,131.32,211,39.00,77.00,-1001.00
2024-06-07 10:17:16.970859,1,-3,-143,-1,0,0,80,82,133,110,61,131.29,211,67.00,47.00,-1022.00
2024-06-07 10:17:16.997977,3,-2,-137,-1,0,0,80,82,132,110,61,131.34,211,116.00,58.00,-1010.00
2024-06-07 10:17:17.101589,3,0,-131,-1,0,0,80,82,132,110,61,131.26,212,17.00,71.00,-959.00
2024-06-07 10:17:17.202022,3,0,-125,0,0,0,80,82,133,110,61,131.28,212,28.00,56.00,-946.00
2024-06-07 10:17:17.380460,3,0,-119,0,0,0,80,82,133,110,61,131.21,212,122.00,40.00,-1011.00
2024-06-07 10:17:17.405987,3,-1,-113,0,0,0,80,82,135,110,61,131.19,212,35.00,57.00,-1013.00
2024-06-07 10:17:17.585321,3,-1,-107,0,0,0,80,82,134,110,61,131.13,212,134.00,15.00,-990.00
2024-06-07 10:17:17.610335,4,0,-101,0,-1,0,80,82,136,110,61,131.19,212,126.00,4.00,-1003.00
2024-06-07 10:17:17.790107,5,0,-95,0,0,0,80,82,135,110,61,131.21,212,55.00,35.00,-984.00
2024-06-07 10:17:17.813985,4,0,-89,0,0,0,80,82,136,110,61,131.15,212,122.00,-18.00,-908.00
2024-06-07 10:17:17.994832,4,0,-82,0,0,0,80,82,137,110,61,131.07,212,119.00,9.00,-1026.00
2024-06-07 10:17:18.018183,4,1,-76,0,0,0,80,82,136,110,61,131.09,212,79.00,-24.00,-990.00
2024-06-07 10:17:18.199976,3,2,-71,0,0,0,80,81,135,110,61,131.08,213,34.00,-5.00,-975.00
2024-06-07 10:17:18.221958,3,3,-65,0,0,0,80,81,137,110,61,131.20,213,65.00,-14.00,-1013.00
2024-06-07 10:17:18.323943,3,4,-59,0,0,0,80,81,136,110,61,131.10,213,88.00,-14.00,-1038.00
2024-06-07 10:17:18.508683,4,3,-54,0,0,0,80,81,137,110,61,131.12,213,141.00,-53.00,-1041.00
2024-06-07 10:17:18.528033,3,4,-49,0,0,0,80,81,135,110,61,131.13,213,36.00,-24.00,-956.00
2024-06-07 10:17:18.630176,3,3,-43,0,0,0,80,81,135,110,61,131.18,213,123.00,-52.00,-1000.00
2024-06-07 10:17:18.732275,3,3,-37,0,0,0,80,81,136,110,61,131.24,213,108.00,-13.00,-990.00
2024-06-07 10:17:18.834213,4,3,-31,0,0,0,80,81,133,110,61,131.19,213,128.00,-11.00,-1020.00
2024-06-07 10:17:19.018850,3,4,-25,0,0,0,80,81,134,110,61,131.27,213,74.00,-52.00,-1030.00
2024-06-07 10:17:19.039918,2,3,-20,0,0,0,80,81,132,110,61,131.29,213,33.00,-26.00,-1000.00
2024-06-07 10:17:19.140445,2,3,-16,0,0,0,78,82,132,110,61,131.25,214,-30.00,-12.00,-1009.00
2024-06-07 10:17:19.326124,1,3,-13,0,0,0,78,82,129,110,61,131.23,214,7.00,-53.00,-1018.00
2024-06-07 10:17:19.344061,0,4,-11,0,0,0,78,82,129,110,61,131.24,214,12.00,-70.00,-934.00
2024-06-07 10:17:19.531388,0,4,-9,0,0,0,78,82,129,110,61,131.29,214,68.00,-70.00,-936.00
2024-06-07 10:17:19.547934,1,4,-8,0,0,0,78,82,128,110,61,131.36,214,-29.00,-53.00,-1038.00
2024-06-07 10:17:19.650038,1,4,-7,0,0,0,78,82,127,110,61,131.32,214,118.00,-67.00,-1084.00
2024-06-07 10:17:19.807831,1,4,-7,0,0,0,78,82,125,110,61,131.33,214,-1.00,-55.00,-986.00
2024-06-07 10:17:19.853975,2,4,-7,0,0,0,78,82,126,110,61,131.26,214,-6.00,-63.00,-1053.00
2024-06-07 10:17:20.042994,2,4,-7,0,0,0,78,82,126,110,61,131.26,214,42.00,-64.00,-1009.00
2024-06-07 10:17:20.057947,2,4,-7,0,0,0,78,82,125,110,61,131.31,214,47.00,-66.00,-981.00
2024-06-07 10:17:20.172673,1,4,-7,0,0,0,80,82,126,110,61,131.28,215,-8.00,-59.00,-989.00
2024-06-07 10:17:20.262018,0,4,-7,0,0,0,80,82,124,110,61,131.27,215,-31.00,-67.00,-920.00
2024-06-07 10:17:20.452744,0,4,-7,0,0,0,80,82,123,110,61,131.21,215,-9.00,-79.00,-959.00
2024-06-07 10:17:20.452955,0,5,-7,0,0,0,80,82,123,110,61,131.18,215,60.00,-52.00,-1141.00
2024-06-07 10:17:20.516976,0,4,-7,0,0,0,80,82,122,110,61,131.21,215,-20.00,-66.00,-1015.00
2024-06-07 10:17:20.657421,0,3,-7,0,0,0,80,82,122,100,61,131.21,215,-33.00,-81.00,-1052.00
2024-06-07 10:17:20.720944,0,4,-7,0,0,0,80,82,121,100,61,131.20,215,-6.00,-86.00,-960.00
2024-06-07 10:17:20.823233,0,5,-7,0,0,0,80,82,123,100,61,131.25,215,21.00,-46.00,-1019.00
2024-06-07 10:17:20.964639,0,4,-7,0,0,0,80,82,122,100,61,131.14,215,-62.00,-48.00,-1005.00
2024-06-07 10:17:21.027738,1,4,-7,0,0,0,80,82,121,100,61,131.17,215,50.00,-74.00,-1053.00
2024-06-07 10:17:21.169451,0,4,-7,0,0,0,79,82,121,100,61,131.25,216,36.00,-71.00,-993.00
2024-06-07 10:17:21.231998,0,4,-8,0,0,0,79,82,121,100,61,131.21,216,41.00,-61.00,-955.00
2024-06-07 10:17:21.374259,0,4,-8,0,0,0,79,82,122,100,61,131.22,216,75.00,-73.00,-974.00
2024-06-07 10:17:21.435857,1,4,-8,1,0,0,79,82,121,100,61,131.23,216,56.00,-47.00,-1042.00
2024-06-07 10:17:21.580438,2,3,-7,0,0,0,79,82,122,100,61,131.26,216,33.00,-51.00,-1045.00
2024-06-07 10:17:21.640557,2,3,-7,0,0,0,79,82,122,110,61,131.11,216,-8.00,-68.00,-974.00
2024-06-07 10:17:21.741839,1,3,-8,0,0,0,79,82,122,110,60,131.27,216,-38.00,-24.00,-956.00
2024-06-07 10:17:21.843826,2,3,-13,0,0,0,79,82,121,110,60,131.19,216,25.00,-33.00,-1010.00
2024-06-07 10:17:21.946311,2,4,-19,0,0,0,79,82,120,110,60,131.21,216,13.00,-39.00,-1008.00
2024-06-07 10:17:22.090932,2,4,-25,0,0,0,79,82,120,100,60,131.16,216,54.00,-71.00,-964.00
2024-06-07 10:17:22.149994,3,3,-30,0,0,0,80,82,120,100,60,131.04,217,92.00,-69.00,-1031.00
2024-06-07 10:17:22.295734,2,3,-37,0,0,0,80,82,120,100,60,131.05,217,56.00,-51.00,-980.00
2024-06-07 10:17:22.353771,3,2,-42,0,0,0,80,82,118,100,60,131.04,217,20.00,-29.00,-967.00
2024-06-07 10:17:22.500500,4,2,-48,0,0,0,80,82,118,100,60,131.09,217,13.00,-11.00,-1068.00
2024-06-07 10:17:22.557765,4,2,-54,0,0,0,80,82,120,100,60,131.08,217,10.00,-11.00,-978.00
2024-06-07 10:17:22.705520,5,1,-60,0,0,0,80,82,120,100,60,130.99,217,4.00,-7.00,-1016.00
2024-06-07 10:17:22.761862,5,1,-67,0,0,0,80,82,122,100,60,131.11,217,176.00,-49.00,-1064.00
2024-06-07 10:17:22.910631,5,0,-73,0,0,0,80,82,122,100,60,131.04,217,130.00,-33.00,-987.00
2024-06-07 10:17:22.966678,5,0,-79,0,0,-1,80,82,125,110,60,131.06,217,142.00,-20.00,-1043.00
2024-06-07 10:17:23.068970,5,0,-85,0,0,-1,80,82,126,110,60,131.02,217,39.00,6.00,-999.00
2024-06-07 10:17:23.170902,5,0,-91,0,0,-1,80,82,129,110,60,131.03,218,61.00,35.00,-939.00
2024-06-07 10:17:23.272751,4,0,-97,0,0,0,80,82,130,110,60,131.07,218,106.00,-9.00,-993.00
2024-06-07 10:17:23.422116,4,0,-104,0,0,0,80,82,132,110,60,131.00,218,95.00,-6.00,-1018.00
2024-06-07 10:17:23.477021,4,0,-110,0,0,0,80,82,132,110,60,131.05,218,105.00,24.00,-1041.00
2024-06-07 10:17:23.627078,5,0,-116,0,0,0,80,82,132,110,60,131.15,218,99.00,-19.00,-991.00
2024-06-07 10:17:23.680743,5,0,-122,-1,0,0,80,82,135,110,60,131.13,218,140.00,-21.00,-937.00
2024-06-07 10:17:23.831708,6,0,-128,-1,0,0,80,82,135,110,60,131.18,218,-9.00,49.00,-944.00
2024-06-07 10:17:23.884715,5,-1,-134,0,0,0,80,82,134,110,60,131.23,218,23.00,54.00,-957.00
2024-06-07 10:17:23.935660,4,-1,-140,0,0,0,80,82,134,110,60,131.14,218,-20.00,73.00,-949.00
2024-06-07 10:17:24.139344,3,-2,-146,0,0,0,80,82,132,110,60,131.16,218,-13.00,71.00,-989.00
2024-06-07 10:17:24.190691,2,-2,-152,0,0,0,79,81,133,110,60,131.15,219,115.00,13.00,-988.00
2024-06-07 10:17:24.343697,2,-2,-158,0,0,0,79,81,133,110,60,131.16,219,6.00,41.00,-960.00
2024-06-07 10:17:24.394597,2,-2,-164,0,0,0,79,81,131,110,60,131.16,219,83.00,9.00,-1001.00
2024-06-07 10:17:24.446012,2,-2,-171,0,0,0,79,81,130,110,60,131.19,219,25.00,60.00,-919.00
2024-06-07 10:17:24.548487,2,-2,-177,0,0,0,79,81,131,110,60,131.19,219,36.00,53.00,-970.00
2024-06-07 10:17:24.650656,1,-2,175,0,0,0,79,81,132,110,60,131.21,219,-14.00,12.00,-1021.00
2024-06-07 10:17:24.753269,1,-3,169,0,0,0,79,81,131,110,60,131.31,219,24.00,31.00,-1023.00
2024-06-07 10:17:24.853685,0,-2,162,0,0,0,79,81,132,110,60,131.33,219,-12.00,66.00,-978.00
2024-06-07 10:17:24.958064,0,-2,156,0,0,0,79,81,132,110,60,131.31,219,-28.00,66.00,-1036.00
2024-06-07 10:17:25.057965,0,-2,150,0,0,0,79,81,131,110,60,131.27,219,23.00,34.00,-1046.00
2024-06-07 10:17:25.165647,-1,-2,144,0,0,0,81,81,133,110,60,131.25,220,11.00,18.00,-949.00
2024-06-07 10:17:25.261742,-1,-2,137,0,0,0,81,81,132,110,60,131.31,220,-43.00,48.00,-967.00
2024-06-07 10:17:25.471269,-1,-2,131,0,0,0,81,81,133,110,60,131.30,220,12.00,43.00,-993.00
2024-06-07 10:17:25.472432,-2,-2,125,0,0,0,81,81,132,110,60,131.29,220,-46.00,25.00,-1027.00
2024-06-07 10:17:25.569074,-2,-1,118,0,0,0,81,81,135,110,60,131.27,220,5.00,54.00,-1017.00
2024-06-07 10:17:25.677206,-2,-1,112,0,0,0,81,81,135,110,60,131.15,220,-48.00,45.00,-1044.00
2024-06-07 10:17:25.772917,-2,0,107,0,0,0,81,81,136,110,60,131.27,220,-54.00,33.00,-1010.00
2024-06-07 10:17:25.873586,-3,-1,101,0,0,0,81,81,135,110,60,131.13,220,-64.00,35.00,-960.00
2024-06-07 10:17:25.982112,-1,0,95,0,0,0,81,81,136,110,60,131.24,220,22.00,24.00,-985.00
2024-06-07 10:17:26.078156,-2,0,89,0,0,0,81,81,136,110,60,131.17,220,-50.00,41.00,-1000.00
2024-06-07 10:17:26.181298,-2,0,84,0,0,0,80,82,135,110,60,131.22,221,-65.00,28.00,-941.00
2024-06-07 10:17:26.283342,-3,0,79,0,0,0,80,82,138,110,60,131.26,221,-2.00,-20.00,-993.00
2024-06-07 10:17:26.385389,-3,0,74,0,0,0,80,82,139,110,60,131.14,221,4.00,-29.00,-1068.00
2024-06-07 10:17:26.486283,-2,1,69,0,0,0,80,82,137,110,60,131.17,221,-35.00,12.00,-963.00
2024-06-07 10:17:26.587606,-2,0,64,0,0,0,80,82,139,110,60,131.33,221,-56.00,27.00,-966.00
2024-06-07 10:17:26.698818,-2,0,58,0,0,0,80,82,138,110,60,131.27,221,-95.00,34.00,-951.00
2024-06-07 10:17:26.791702,-3,0,53,0,0,0,80,82,141,110,60,131.29,221,9.00,5.00,-1038.00
2024-06-07 10:17:26.903694,-3,0,47,0,0,0,80,82,138,110,60,131.23,221,-67.00,2.00,-1040.00
2024-06-07 10:17:26.995586,-3,0,41,0,0,0,80,82,139,110,60,131.30,221,-4.00,-22.00,-1038.00
2024-06-07 10:17:27.097589,-3,0,36,0,0,0,80,82,138,110,60,131.40,221,-94.00,-15.00,-945.00
2024-06-07 10:17:27.199880,-2,3,24,0,0,0,80,81,138,110,60,131.45,222,-6.00,-40.00,-1059.00
2024-06-07 10:17:27.302299,-1,3,18,0,0,0,80,81,139,120,60,131.40,222,-73.00,-19.00,-923.00
2024-06-07 10:17:27.404754,-1,3,12,0,0,0,80,81,136,110,60,131.37,222,13.00,-69.00,-923.00
2024-06-07 10:17:27.512865,0,3,7,0,0,0,80,81,137,110,60,131.44,222,-69.00,-51.00,-870.00
2024-06-07 10:17:27.609847,-1,4,3,0,0,0,80,81,137,110,60,131.54,222,30.00,-62.00,-995.00
2024-06-07 10:17:27.717082,0,4,1,0,0,0,80,81,137,110,60,131.46,222,-37.00,-41.00,-1023.00
2024-06-07 10:17:27.811542,0,4,0,0,0,0,80,81,138,110,60,131.46,222,-65.00,-29.00,-938.00
2024-06-07 10:17:27.913679,0,4,-1,0,0,0,80,81,136,110,60,131.49,222,-29.00,-43.00,-1118.00
2024-06-07 10:17:27.971620,0,3,-2,0,0,0,80,81,136,110,60,131.49,222,-75.00,-20.00,-1010.00
2024-06-07 10:17:28.067985,0,3,-2,0,0,0,80,81,137,110,60,131.43,223,-57.00,-40.00,-943.00
2024-06-07 10:17:28.235995,0,4,-3,0,0,0,79,82,138,110,60,131.48,223,64.00,-82.00,-999.00
2024-06-07 10:17:28.270499,0,3,-3,0,0,0,79,82,138,110,60,131.42,223,-51.00,-31.00,-981.00
2024-06-07 10:17:28.439629,-1,3,-3,0,0,0,79,82,139,110,60,131.34,223,-14.00,-63.00,-1029.00
2024-06-07 10:17:28.476434,-2,3,-4,0,0,0,79,82,139,110,60,131.31,223,54.00,-81.00,-1017.00
2024-06-07 10:17:28.577278,-2,3,-5,0,0,0,79,82,138,110,60,131.45,223,-88.00,-19.00,-1017.00
2024-06-07 10:17:28.747900,-2,3,-5,0,0,0,79,82,138,110,60,131.32,223,-109.00,-12.00,-972.00
2024-06-07 10:17:28.781352,-2,3,-6,0,0,0,79,82,139,110,60,131.45,223,6.00,-64.00,-950.00
2024-06-07 10:17:28.884207,-1,3,-6,0,0,0,79,82,140,120,60,131.36,223,21.00,-63.00,-993.00
2024-06-07 10:17:29.054937,-1,3,-6,0,0,0,79,82,139,120,60,131.35,223,7.00,-79.00,-1045.00
2024-06-07 10:17:29.089587,-1,3,-6,0,0,0,79,82,139,120,60,131.42,224,-74.00,-14.00,-970.00
2024-06-07 10:17:29.191505,-1,3,-5,0,0,0,79,82,139,110,60,131.43,224,-54.00,-34.00,-972.00
2024-06-07 10:17:29.294102,-1,3,-5,0,0,0,79,82,137,110,60,131.37,224,-92.00,-15.00,-971.00
2024-06-07 10:17:29.397767,-1,2,-5,0,0,0,79,82,136,110,60,131.44,224,0.00,-52.00,-970.00
2024-06-07 10:17:29.499415,-2,2,-6,0,0,0,79,82,136,110,60,131.45,224,-56.00,2.00,-1031.00
2024-06-07 10:17:29.602685,-2,1,-6,0,1,0,79,82,136,110,60,131.37,224,-152.00,36.00,-1030.00
2024-06-07 10:17:29.699612,-2,0,-6,0,1,0,79,82,135,110,60,131.32,224,5.00,-39.00,-1010.00
2024-06-07 10:17:29.874628,-1,0,-6,0,0,0,79,82,134,110,59,131.40,224,42.00,-54.00,-1064.00
2024-06-07 10:17:29.909188,-1,1,-6,0,0,0,79,82,132,110,59,131.36,224,-44.00,-14.00,-1055.00
2024-06-07 10:17:30.006760,-1,1,-6,0,0,0,79,82,133,110,59,131.31,224,-16.00,-49.00,-1040.00
2024-06-07 10:17:30.285815,-2,1,-6,0,0,0,79,82,134,110,59,131.41,225,-50.00,-45.00,-983.00
2024-06-07 10:17:30.287499,-2,2,-6,0,0,0,79,82,131,110,59,131.43,225,-10.00,-48.00,-1026.00
2024-06-07 10:17:30.312770,-2,2,-6,0,0,0,79,82,133,110,59,131.40,225,43.00,-69.00,-987.00
2024-06-07 10:17:30.414075,-1,3,-6,0,0,0,79,82,132,110,59,131.43,225,53.00,-69.00,-1005.00
2024-06-07 10:17:30.517291,0,3,-6,0,0,0,79,82,131,110,59,131.34,225,-79.00,-47.00,-1014.00
2024-06-07 10:17:30.617581,-1,3,-6,0,0,0,79,82,131,110,59,131.37,225,43.00,-71.00,-1037.00
2024-06-07 10:17:30.750999,0,3,-6,0,0,0,79,82,131,110,59,131.45,225,-23.00,-33.00,-1054.00
2024-06-07 10:17:30.821405,0,3,-6,0,0,0,79,82,132,110,59,131.47,225,23.00,-68.00,-929.00
2024-06-07 10:17:30.923756,0,1,-6,0,0,0,79,82,132,110,59,131.71,225,59.00,-66.00,-1384.00
2024-06-07 10:17:31.102146,-1,-1,-7,0,-1,-7,79,82,138,110,59,131.82,225,8.00,-123.00,-1733.00
2024-06-07 10:17:31.127366,-2,-29,-7,0,-3,-12,79,82,187,120,59,131.82,226,-7.00,42.00,-1336.00
2024-06-07 10:17:31.307299,-3,-137,-2,0,-12,-8,80,82,6553,140,59,131.95,226,-15.00,589.00,-1044.00
2024-06-07 10:17:31.332676,3,92,-5,0,-12,7,80,82,569,140,59,131.87,226,-30.00,577.00,-980.00
2024-06-07 10:17:31.511693,0,3,-8,0,-6,10,80,82,150,130,59,131.82,226,-23.00,-33.00,-1515.00
2024-06-07 10:17:31.535496,0,5,-6,0,-6,8,80,82,143,120,59,131.59,226,-37.00,-41.00,-1234.00
2024-06-07 10:17:31.637349,0,5,-6,0,-5,5,80,82,140,110,59,131.54,226,-72.00,-32.00,-1377.00
2024-06-07 10:17:31.739463,0,2,-6,0,-5,1,80,82,137,110,59,131.61,226,-24.00,-116.00,-1282.00
2024-06-07 10:17:31.790555,0,3,-6,0,-5,0,80,82,138,100,59,131.60,226,97.00,-54.00,-1168.00
2024-06-07 10:17:31.921261,1,3,-6,0,-4,0,80,82,138,100,59,131.51,226,8.00,-9.00,-1056.00
2024-06-07 10:17:31.995300,2,3,-6,0,-4,0,80,82,141,100,59,131.49,226,13.00,-71.00,-1062.00
2024-06-07 10:17:32.097389,1,3,-6,0,-3,0,80,82,142,100,59,131.51,227,-4.00,-54.00,-980.00
2024-06-07 10:17:32.198471,0,3,-6,0,-3,0,80,82,144,100,59,131.55,227,3.00,-50.00,-971.00
2024-06-07 10:17:32.301231,-1,3,-6,-1,-2,0,80,82,147,110,59,131.54,227,-30.00,-34.00,-982.00
2024-06-07 10:17:32.442455,-1,3,-6,0,-2,0,80,82,149,110,59,131.62,227,38.00,-50.00,-1068.00
2024-06-07 10:17:32.504647,0,3,-6,0,-2,0,80,82,149,110,59,131.61,227,-31.00,-37.00,-1006.00
2024-06-07 10:17:32.638444,0,3,-6,0,-2,0,80,82,149,110,59,131.59,227,-1.00,-49.00,-938.00
2024-06-07 10:17:32.709863,0,3,-6,0,-2,0,80,82,150,110,59,131.57,227,-2.00,-44.00,-973.00
2024-06-07 10:17:32.843572,0,3,-6,0,-2,0,80,82,150,110,59,131.63,227,-20.00,-41.00,-910.00
2024-06-07 10:17:32.915072,0,4,-5,0,-2,1,80,82,150,110,59,131.51,227,39.00,-76.00,-1087.00
2024-06-07 10:17:33.021485,0,6,-5,0,-2,1,80,82,149,110,59,131.47,227,-75.00,-5.00,-974.00
2024-06-07 10:17:33.118087,0,6,-6,0,-1,1,80,82,148,110,59,131.53,228,-44.00,-33.00,-995.00
2024-06-07 10:17:33.219380,0,5,-6,0,-1,1,79,82,149,110,59,131.50,228,-119.00,5.00,-933.00
2024-06-07 10:17:33.320852,0,5,-6,0,-1,1,79,82,145,110,59,131.46,228,12.00,-47.00,-1011.00
2024-06-07 10:17:33.457316,-1,5,-6,0,0,1,79,82,146,110,59,131.50,228,32.00,-67.00,-996.00
2024-06-07 10:17:33.524256,0,4,-6,0,0,0,79,82,144,110,59,131.50,228,1.00,-46.00,-990.00
2024-06-07 10:17:33.662127,0,4,-6,0,0,0,79,82,144,100,59,131.41,228,4.00,-55.00,-943.00
2024-06-07 10:17:33.730086,0,4,-6,0,0,0,79,82,142,100,58,131.48,228,29.00,-75.00,-1038.00
2024-06-07 10:17:33.836230,-1,4,-6,0,0,0,79,82,145,100,58,131.36,228,-38.00,-60.00,-978.00
2024-06-07 10:17:33.932541,-1,4,-6,0,0,0,79,82,144,100,58,131.56,228,-18.00,-74.00,-977.00
2024-06-07 10:17:34.035016,-2,4,-6,0,0,0,79,82,143,100,58,131.39,228,-39.00,-48.00,-978.00
2024-06-07 10:17:34.137050,-2,4,-6,0,0,0,79,82,143,100,58,131.48,229,15.00,-71.00,-962.00
2024-06-07 10:17:34.238357,-1,4,-6,0,0,0,79,82,145,100,58,131.32,229,-35.00,-58.00,-960.00
2024-06-07 10:17:34.340457,-1,4,-6,0,0,0,79,82,145,110,58,131.39,229,-93.00,-46.00,-967.00
2024-06-07 10:17:34.481367,0,4,-6,0,0,0,79,82,143,110,58,131.47,229,-1.00,-21.00,-1059.00
2024-06-07 10:17:34.544650,0,3,-6,0,0,0,79,82,143,110,58,131.44,229,61.00,-93.00,-946.00
2024-06-07 10:17:34.686669,0,3,-6,0,0,0,79,82,142,110,58,131.48,229,30.00,-58.00,-1048.00
2024-06-07 10:17:34.749114,0,3,-6,0,0,0,79,82,146,100,58,131.40,229,-43.00,-26.00,-1004.00
2024-06-07 10:17:34.852046,0,2,-6,0,0,0,79,82,145,100,58,131.47,229,7.00,-47.00,-1032.00
2024-06-07 10:17:34.953355,1,2,-6,0,0,0,79,82,145,110,58,131.47,229,25.00,-30.00,-1030.00
2024-06-07 10:17:35.057332,0,2,-6,0,0,0,79,82,146,110,58,131.52,229,52.00,-57.00,-938.00
2024-06-07 10:17:35.159704,0,2,-6,0,0,0,79,82,146,110,58,131.44,230,25.00,-62.00,-1012.00
2024-06-07 10:17:35.262899,0,2,-6,0,1,0,79,82,148,110,58,131.46,230,-18.00,-16.00,-1006.00
2024-06-07 10:17:35.361394,0,1,-6,0,0,0,79,82,148,110,58,131.48,230,-18.00,-17.00,-985.00
2024-06-07 10:17:35.506167,0,1,-6,0,0,0,79,82,146,110,58,131.56,230,3.00,-79.00,-991.00
2024-06-07 10:17:35.565023,0,1,-6,0,0,0,79,82,147,110,58,131.51,230,1.00,-14.00,-1010.00
2024-06-07 10:17:35.618655,0,1,-6,0,0,0,79,82,149,110,58,131.55,230,-25.00,-19.00,-1028.00
2024-06-07 10:17:35.717285,0,1,-6,0,0,0,79,82,147,110,57,131.47,230,-12.00,-51.00,-1024.00
2024-06-07 10:17:35.917546,0,1,-6,0,0,0,79,82,148,110,57,131.45,230,19.00,-43.00,-982.00
2024-06-07 10:17:35.925493,0,1,-6,0,0,0,79,82,148,110,57,131.47,230,3.00,-37.00,-998.00
2024-06-07 10:17:36.023278,0,1,-6,0,0,0,79,82,149,110,57,131.52,230,0.00,-48.00,-1045.00
2024-06-07 10:17:36.257074,0,1,-6,0,0,0,79,82,147,110,57,131.50,231,33.00,-50.00,-931.00
2024-06-07 10:17:36.257280,1,1,-6,0,0,0,80,82,147,110,57,131.57,231,0.00,-33.00,-1002.00
2024-06-07 10:17:36.329383,1,2,-6,0,0,0,80,82,146,110,57,131.49,231,3.00,-42.00,-986.00
2024-06-07 10:17:36.529792,1,2,-6,0,0,0,80,82,147,110,57,131.50,231,-17.00,-66.00,-1013.00
2024-06-07 10:17:36.533617,0,2,-5,0,0,0,80,82,145,110,57,131.50,231,51.00,-66.00,-999.00
2024-06-07 10:17:36.734703,0,2,-5,0,0,0,80,82,148,110,57,131.49,231,3.00,-55.00,-1015.00
2024-06-07 10:17:36.737420,0,2,-5,0,0,0,80,82,146,110,57,131.53,231,-28.00,-37.00,-1020.00
2024-06-07 10:17:36.839477,0,2,-5,0,0,0,80,82,146,110,57,131.46,231,-17.00,-55.00,-1003.00
2024-06-07 10:17:36.941225,0,2,-5,0,0,0,80,82,147,110,57,131.51,231,-56.00,-14.00,-994.00
2024-06-07 10:17:37.043514,-1,2,-6,0,0,0,80,82,149,110,57,131.49,231,74.00,-45.00,-988.00
2024-06-07 10:17:37.145360,0,1,-6,0,0,0,80,82,146,110,57,131.54,232,-28.00,-55.00,-929.00
2024-06-07 10:17:37.293863,0,2,-6,0,0,0,80,82,146,110,57,131.64,232,2.00,-37.00,-1023.00
2024-06-07 10:17:37.349521,0,1,-5,0,0,0,80,82,147,110,57,131.55,232,-42.00,-23.00,-1014.00
2024-06-07 10:17:37.451190,0,2,-6,0,0,0,80,82,147,110,57,131.87,232,-56.00,-120.00,-1473.00
2024-06-07 10:17:37.553318,0,3,-6,0,0,-4,80,82,153,110,57,131.89,232,-2.00,-56.00,-1692.00
2024-06-07 10:17:37.655736,0,14,-6,0,0,-11,80,82,171,120,57,131.80,232,8.00,-79.00,-1672.00
2024-06-07 10:17:37.758068,-1,107,-6,0,6,-11,80,82,6553,130,57,131.78,232,-17.00,793.00,-1103.00
2024-06-07 10:17:37.860193,0,-125,-6,0,8,3,80,82,6553,140,57,131.64,232,27.00,637.00,-842.00
2024-06-07 10:17:37.962696,0,-12,-5,0,1,12,80,82,167,130,57,131.95,232,21.00,472.00,-1080.00
2024-06-07 10:17:38.063162,-2,30,-9,0,4,11,80,82,189,110,57,131.56,232,-7.00,117.00,-1088.00
2024-06-07 10:17:38.165105,-1,-3,-18,1,8,9,80,82,146,100,57,132.02,233,27.00,-200.00,-1630.00
2024-06-07 10:17:38.270065,-4,-10,-26,1,5,5,79,82,142,100,57,131.52,233,-7.00,-98.00,-1480.00
2024-06-07 10:17:38.369352,-1,-7,-27,0,2,1,79,82,141,90,57,131.53,233,1.00,-63.00,-1313.00
2024-06-07 10:17:38.474792,0,-1,-19,0,0,-1,79,82,146,90,57,131.53,233,-22.00,-34.00,-1128.00
2024-06-07 10:17:38.573112,0,0,-9,0,0,-2,79,82,147,100,57,131.51,233,-36.00,10.00,-1077.00
2024-06-07 10:17:38.674927,0,0,-5,-1,2,-3,79,82,151,100,57,131.58,233,-29.00,-22.00,-940.00
2024-06-07 10:17:38.782174,-1,-1,-5,-1,1,-2,79,82,155,100,57,131.65,233,-2.00,-44.00,-906.00
2024-06-07 10:17:38.879130,-2,-2,-5,0,1,-1,79,82,160,100,57,131.72,233,-56.00,-28.00,-893.00
2024-06-07 10:17:38.981180,-2,-2,-5,0,1,0,79,82,159,110,57,131.73,233,54.00,-61.00,-1004.00
2024-06-07 10:17:39.082986,-1,-1,-5,0,0,0,79,82,161,110,57,131.66,233,-31.00,8.00,-962.00
2024-06-07 10:17:39.134406,-1,0,-5,0,0,0,79,82,166,110,57,131.78,234,-28.00,-31.00,-920.00
2024-06-07 10:17:39.294227,-1,0,-5,0,0,0,79,82,164,110,57,131.79,234,-29.00,-12.00,-939.00
2024-06-07 10:17:39.390192,0,0,-5,0,0,0,79,82,164,110,57,131.71,234,-27.00,-57.00,-952.00
2024-06-07 10:17:39.498782,-1,0,-5,0,0,0,79,82,166,110,57,131.75,234,11.00,-39.00,-1035.00
2024-06-07 10:17:39.594420,0,0,-5,0,0,0,79,82,164,110,57,131.73,234,52.00,-36.00,-980.00
2024-06-07 10:17:39.644069,0,0,-5,0,0,0,79,82,166,110,57,131.74,234,-2.00,-33.00,-930.00
2024-06-07 10:17:39.806694,1,0,-5,0,0,1,79,82,164,110,56,131.76,234,-47.00,-9.00,-1010.00
2024-06-07 10:17:39.849535,0,0,-5,0,0,1,79,82,165,110,56,131.79,234,-46.00,-27.00,-1014.00
2024-06-07 10:17:40.010771,-1,0,-5,0,0,0,79,82,164,110,56,131.76,234,-80.00,-20.00,-978.00
2024-06-07 10:17:40.053020,-2,-1,-5,-1,0,1,79,82,164,110,56,131.75,234,-45.00,-23.00,-987.00
2024-06-07 10:17:40.215797,-4,-1,-5,-1,0,0,79,82,165,110,56,131.74,235,-18.00,-40.00,-1059.00
2024-06-07 10:17:40.257008,-3,0,-6,0,0,0,80,81,163,110,56,131.74,235,-22.00,-25.00,-1014.00
2024-06-07 10:17:40.420442,-3,0,-6,0,0,0,80,81,164,110,56,131.73,235,38.00,-37.00,-960.00
2024-06-07 10:17:40.460896,-1,0,-6,0,0,0,80,81,164,110,56,131.73,235,-88.00,-31.00,-966.00
2024-06-07 10:17:40.562870,0,0,-6,0,0,0,80,81,167,110,56,131.69,235,-6.00,-35.00,-986.00
2024-06-07 10:17:40.830130,0,0,-6,0,0,0,80,81,163,110,56,131.73,235,-16.00,-9.00,-956.00
2024-06-07 10:17:40.830181,0,0,-6,0,0,0,80,81,164,120,56,131.72,235,-36.00,-27.00,-991.00
2024-06-07 10:17:40.869576,0,0,-6,0,0,0,80,81,161,120,56,131.65,235,39.00,-25.00,-995.00
2024-06-07 10:17:41.035044,0,0,-6,0,0,0,80,81,163,110,56,131.72,235,-78.00,-24.00,-993.00
2024-06-07 10:17:41.073939,0,-1,-6,0,0,0,80,81,164,110,56,131.73,235,-15.00,-28.00,-1014.00
2024-06-07 10:17:41.240440,0,-1,-6,0,0,0,80,81,163,110,56,131.74,236,25.00,-51.00,-974.00
