TS,pitch,roll,yaw,vgx,vgy,vgz,templ,temph,tof,h,bat,baro,time,agx,agy,agz
2024-05-17 16:20:08.791601,0,0,12,0,0,0,74,77,10,0,71,190.72,72,3.00,0.00,-1000.00
2024-05-17 16:20:08.837218,0,0,12,0,0,0,74,77,10,0,71,190.73,72,3.00,-1.00,-1002.00
2024-05-17 16:20:08.888145,0,0,12,0,0,0,74,77,10,0,71,190.75,72,4.00,0.00,-1001.00
2024-05-17 16:20:08.996685,0,0,12,0,0,0,74,77,10,0,71,190.72,72,3.00,0.00,-999.00
2024-05-17 16:20:09.092134,0,0,12,0,0,0,74,77,10,0,71,190.73,72,3.00,0.00,-1001.00
2024-05-17 16:20:09.201318,0,0,12,0,0,0,75,77,10,0,71,190.77,72,3.00,-1.00,-1000.00
2024-05-17 16:20:09.296359,0,0,12,0,0,0,75,77,10,0,71,190.73,72,3.00,-1.00,-999.00
2024-05-17 16:20:09.406071,0,0,12,0,0,0,75,77,10,0,71,190.71,72,4.00,-1.00,-1001.00
2024-05-17 16:20:09.500052,0,0,12,0,0,0,75,77,10,0,71,190.75,72,4.00,-1.00,-1000.00
2024-05-17 16:20:09.610962,0,0,12,0,0,0,75,77,10,0,71,190.72,72,3.00,0.00,-1000.00
2024-05-17 16:20:09.704141,0,0,12,0,0,0,75,77,10,0,71,190.65,72,5.00,-1.00,-1000.00
2024-05-17 16:20:09.819346,0,0,12,0,0,0,75,77,10,0,71,190.66,72,3.00,-1.00,-1000.00
2024-05-17 16:20:09.909028,0,0,12,0,0,0,75,77,10,0,71,190.71,72,3.00,0.00,-1000.00
2024-05-17 16:20:10.020422,0,0,12,0,0,0,75,77,10,0,71,190.69,72,4.00,0.00,-998.00
2024-05-17 16:20:10.112129,0,0,12,0,0,0,75,77,10,0,71,190.70,72,3.00,-1.00,-1002.00
2024-05-17 16:20:10.226157,0,0,12,0,0,0,75,77,10,0,71,190.71,72,4.00,0.00,-998.00
2024-05-17 16:20:10.316160,0,0,12,0,0,0,75,77,10,0,71,190.72,72,5.00,0.00,-1000.00
2024-05-17 16:20:10.430052,0,0,12,0,0,0,75,77,10,0,71,190.76,72,4.00,-2.00,-1000.00
2024-05-17 16:20:10.520014,0,0,12,0,0,0,75,77,10,0,71,190.78,72,4.00,-1.00,-997.00
2024-05-17 16:20:10.634847,0,0,12,0,0,0,75,77,10,0,71,190.72,72,3.00,-1.00,-999.00
2024-05-17 16:20:10.724034,0,0,12,0,0,0,75,77,10,0,71,190.71,72,4.00,-1.00,-998.00
2024-05-17 16:20:10.826123,0,0,12,0,0,0,75,77,10,0,71,190.75,72,3.00,-1.00,-1001.00
2024-05-17 16:20:10.942036,0,0,12,0,0,0,75,77,10,0,71,190.75,72,3.00,-1.00,-999.00
2024-05-17 16:20:11.030150,0,0,12,0,0,0,75,77,10,0,71,190.73,72,3.00,-1.00,-1002.00
2024-05-17 16:20:11.133972,0,0,12,0,0,0,75,77,10,0,71,190.75,72,4.00,0.00,-999.00
2024-05-17 16:20:11.234230,0,0,12,0,0,0,75,78,10,0,71,190.72,72,4.00,-1.00,-998.00
2024-05-17 16:20:11.352178,0,0,12,0,0,0,75,78,10,0,71,190.75,72,3.00,0.00,-999.00
2024-05-17 16:20:11.439127,0,0,12,0,0,0,75,78,10,0,71,190.75,72,4.00,-1.00,-1000.00
2024-05-17 16:20:11.556464,0,0,12,0,0,0,75,78,10,0,71,190.75,72,3.00,0.00,-1000.00
2024-05-17 16:20:11.643196,0,0,12,0,0,0,75,78,10,0,71,190.73,72,4.00,-1.00,-1000.00
2024-05-17 16:20:11.744118,0,0,12,0,0,0,75,78,10,0,71,190.73,72,3.00,-2.00,-1000.00
2024-05-17 16:20:11.846069,0,0,12,0,0,0,75,78,10,0,71,190.70,72,4.00,-1.00,-1000.00
2024-05-17 16:20:11.947986,0,0,12,0,0,0,75,78,10,0,71,190.70,72,4.00,-1.00,-1004.00
2024-05-17 16:20:12.068273,0,0,12,0,0,0,75,78,10,0,71,190.72,72,5.00,0.00,-1000.00
2024-05-17 16:20:12.151783,0,0,12,0,0,0,75,78,10,0,71,190.72,72,15.00,-9.00,-998.00
2024-05-17 16:20:12.273063,0,0,12,0,0,0,76,77,10,0,71,190.72,73,1.00,4.00,-997.00
2024-05-17 16:20:12.355867,0,0,12,0,0,0,76,77,10,0,71,190.72,73,-11.00,35.00,-959.00
2024-05-17 16:20:12.457890,0,0,12,0,0,0,76,77,10,0,71,190.72,73,-22.00,29.00,-1067.00
2024-05-17 16:20:12.560328,-1,3,12,0,0,0,76,77,10,0,71,190.72,73,36.00,3.00,-1129.00
2024-05-17 16:20:12.682669,-1,4,12,0,1,-2,76,77,10,0,71,190.72,73,35.00,-9.00,-1328.00
2024-05-17 16:20:12.712890,0,0,12,0,2,-5,76,77,13,0,71,190.78,73,-32.00,-11.00,-1345.00
2024-05-17 16:20:12.814946,2,-4,12,0,1,-7,76,77,14,10,71,191.10,73,-6.00,-29.00,-1125.00
2024-05-17 16:20:12.990551,2,-3,12,0,0,-8,76,77,27,10,71,191.31,73,9.00,-36.00,-1093.00
2024-05-17 16:20:13.018835,0,-2,12,0,0,-8,76,77,37,20,71,191.34,73,-18.00,7.00,-916.00
2024-05-17 16:20:13.120813,0,-1,12,0,0,-8,76,77,47,30,71,191.34,73,32.00,-17.00,-1002.00
2024-05-17 16:20:13.297097,0,-1,12,0,0,-7,75,77,54,40,71,191.56,74,0.00,10.00,-854.00
2024-05-17 16:20:13.324803,0,-1,12,0,0,-6,75,77,57,50,71,191.62,74,0.00,1.00,-844.00
2024-05-17 16:20:13.502955,0,-1,12,0,0,-5,75,77,65,50,71,191.72,74,-26.00,30.00,-884.00
2024-05-17 16:20:13.528788,0,0,12,0,0,-3,75,77,70,60,71,191.81,74,61.00,0.00,-918.00
2024-05-17 16:20:13.707768,0,0,12,0,0,-2,75,77,73,60,71,191.79,74,26.00,-1.00,-872.00
2024-05-17 16:20:13.732851,0,0,12,0,0,-1,75,77,74,60,71,191.83,74,51.00,-33.00,-898.00
2024-05-17 16:20:13.911523,0,0,12,0,0,0,75,77,74,60,71,191.87,74,-43.00,33.00,-957.00
2024-05-17 16:20:13.936840,0,0,12,0,0,0,75,77,73,60,71,191.89,74,17.00,-9.00,-966.00
2024-05-17 16:20:14.116290,0,0,12,0,0,0,75,77,74,60,71,191.85,74,34.00,0.00,-1070.00
2024-05-17 16:20:14.140805,0,0,12,0,0,0,75,77,75,60,71,191.91,74,-56.00,57.00,-965.00
2024-05-17 16:20:14.321100,0,0,12,0,0,0,75,78,74,60,71,191.87,75,33.00,6.00,-1046.00
2024-05-17 16:20:14.344821,0,0,12,0,0,0,75,78,74,60,71,191.87,75,77.00,-19.00,-1029.00
2024-05-17 16:20:14.527091,1,0,12,0,0,0,75,78,77,60,71,191.83,75,-24.00,57.00,-1054.00
2024-05-17 16:20:14.548863,1,0,12,0,0,0,75,78,74,60,71,191.91,75,18.00,1.00,-990.00
2024-05-17 16:20:14.731956,1,0,12,0,0,0,75,78,74,60,71,191.89,75,-48.00,42.00,-1006.00
2024-05-17 16:20:14.752847,0,0,12,0,0,0,75,78,74,60,71,191.88,75,-72.00,23.00,-1040.00
2024-05-17 16:20:14.935563,-1,0,12,0,0,0,75,78,76,60,71,191.93,75,-38.00,33.00,-979.00
2024-05-17 16:20:14.958112,-2,0,12,0,0,0,75,78,77,60,71,191.89,75,28.00,0.00,-969.00
2024-05-17 16:20:15.140436,-1,0,12,0,0,0,75,78,77,70,71,191.88,75,84.00,-16.00,-1001.00
2024-05-17 16:20:15.160750,0,0,12,0,0,0,75,78,74,70,71,191.87,75,-8.00,32.00,-1101.00
2024-05-17 16:20:15.345113,1,0,12,0,0,0,75,77,76,70,71,191.83,76,-42.00,29.00,-928.00
2024-05-17 16:20:15.365873,1,0,12,0,0,0,75,77,77,70,71,191.90,76,-8.00,5.00,-989.00
2024-05-17 16:20:15.549918,1,0,12,0,0,0,75,77,77,70,71,191.93,76,0.00,19.00,-945.00
2024-05-17 16:20:15.568714,0,0,12,0,0,0,75,77,74,70,71,191.97,76,-10.00,12.00,-1011.00
2024-05-17 16:20:15.755070,0,0,12,0,0,0,75,77,77,70,71,191.95,76,34.00,-22.00,-1155.00
2024-05-17 16:20:15.773811,0,0,12,0,0,0,75,77,77,70,71,191.96,76,-87.00,21.00,-999.00
2024-05-17 16:20:15.960321,0,0,12,0,0,0,75,77,79,70,71,191.96,76,-75.00,20.00,-1038.00
2024-05-17 16:20:15.977880,-1,0,12,0,0,0,75,77,80,70,71,191.97,76,43.00,23.00,-970.00
2024-05-17 16:20:16.164368,0,0,12,0,0,0,75,77,81,70,71,191.92,76,20.00,-4.00,-975.00
2024-05-17 16:20:16.164536,0,0,12,0,0,0,75,77,80,70,71,192.00,76,12.00,3.00,-959.00
2024-05-17 16:20:16.283774,0,0,12,0,0,0,75,77,80,70,71,192.01,77,-57.00,44.00,-1015.00
2024-05-17 16:20:16.471522,0,0,12,0,0,0,75,77,82,70,71,192.03,77,69.00,-4.00,-1104.00
2024-05-17 16:20:16.490263,1,0,12,0,0,0,75,77,83,70,71,191.99,77,6.00,13.00,-941.00
2024-05-17 16:20:16.589751,1,0,12,0,0,0,75,77,86,70,71,192.08,77,44.00,-4.00,-1009.00
2024-05-17 16:20:16.691749,1,0,12,0,0,0,75,77,89,70,71,192.02,77,70.00,1.00,-1037.00
2024-05-17 16:20:16.743059,1,0,12,0,0,0,75,77,89,80,71,192.06,77,56.00,17.00,-972.00
2024-05-17 16:20:16.881132,1,0,12,0,0,0,75,77,90,80,71,192.10,77,-26.00,42.00,-960.00
2024-05-17 16:20:16.946901,0,0,12,0,0,0,75,77,95,80,71,192.05,77,49.00,-10.00,-979.00
2024-05-17 16:20:17.086567,0,-1,12,0,0,0,75,77,97,80,71,192.08,77,6.00,-16.00,-951.00
2024-05-17 16:20:17.150715,0,0,12,0,0,0,75,77,97,80,71,192.06,77,58.00,-5.00,-978.00
2024-05-17 16:20:17.296436,0,0,12,0,0,0,75,77,98,80,71,192.06,78,-34.00,18.00,-979.00
2024-05-17 16:20:17.354979,0,0,12,0,0,0,75,77,99,80,71,192.02,78,-44.00,11.00,-855.00
2024-05-17 16:20:17.495824,0,0,12,0,0,0,75,77,99,80,71,192.10,78,2.00,6.00,-953.00
2024-05-17 16:20:17.558837,0,0,12,0,0,0,75,77,99,80,71,192.08,78,12.00,-1.00,-974.00
2024-05-17 16:20:17.700629,0,0,12,0,0,0,75,77,98,80,71,192.12,78,-7.00,59.00,-995.00
2024-05-17 16:20:17.762804,0,0,12,0,0,0,75,77,99,80,71,192.09,78,-26.00,22.00,-944.00
2024-05-17 16:20:17.905441,0,-1,12,0,0,0,75,77,100,80,71,192.08,78,29.00,17.00,-1064.00
2024-05-17 16:20:17.967077,0,-1,12,0,0,0,75,77,99,80,71,192.06,78,-39.00,46.00,-847.00
2024-05-17 16:20:18.110236,0,-1,12,0,0,0,75,77,97,80,71,192.03,78,-46.00,18.00,-1014.00
2024-05-17 16:20:18.176142,0,-1,12,0,0,1,75,77,96,80,71,192.00,78,78.00,13.00,-1089.00
2024-05-17 16:20:18.273207,0,-1,12,0,0,1,75,78,94,80,71,192.08,79,55.00,-3.00,-1037.00
2024-05-17 16:20:18.374863,0,-1,12,0,0,1,75,78,92,80,71,192.00,79,32.00,4.00,-1047.00
2024-05-17 16:20:18.520029,0,0,12,0,0,0,75,78,90,70,71,192.05,79,-21.00,21.00,-934.00
2024-05-17 16:20:18.579652,1,0,12,0,0,0,75,78,91,70,71,192.08,79,38.00,0.00,-1066.00
2024-05-17 16:20:18.724498,1,0,12,0,0,0,75,78,91,70,71,191.99,79,-16.00,25.00,-997.00
2024-05-17 16:20:18.783580,1,0,12,0,0,0,75,78,89,70,71,192.00,79,-13.00,13.00,-940.00
2024-05-17 16:20:18.931418,1,0,12,0,0,0,75,78,87,70,71,192.02,79,16.00,30.00,-959.00
2024-05-17 16:20:18.987797,0,0,12,0,0,0,75,78,87,70,71,192.02,79,22.00,14.00,-995.00
2024-05-17 16:20:19.134200,0,0,12,0,0,0,75,78,86,70,71,192.04,79,12.00,14.00,-1027.00
2024-05-17 16:20:19.192064,0,0,12,0,0,0,75,78,88,70,71,192.08,79,-45.00,9.00,-932.00
2024-05-17 16:20:19.294060,0,-1,12,0,0,0,75,78,87,70,71,191.99,80,27.00,-25.00,-1050.00
2024-05-17 16:20:19.395904,-1,-1,12,0,0,0,75,78,86,70,71,191.94,80,34.00,-16.00,-1001.00
2024-05-17 16:20:19.543478,0,0,12,0,0,0,75,78,85,70,71,192.06,80,17.00,-22.00,-1095.00
2024-05-17 16:20:19.599626,0,0,12,0,0,0,75,78,86,70,71,192.04,80,9.00,-3.00,-1022.00
2024-05-17 16:20:19.701701,0,0,12,0,0,-1,75,78,89,70,71,192.01,80,41.00,14.00,-1125.00
2024-05-17 16:20:19.852250,0,-1,12,0,0,-2,75,78,92,70,71,192.02,80,19.00,10.00,-1120.00
2024-05-17 16:20:19.905589,0,-1,12,0,0,-3,75,78,95,80,71,192.10,80,-8.00,29.00,-1083.00
2024-05-17 16:20:20.055496,0,-1,12,0,0,-4,75,78,99,80,71,192.13,80,-49.00,53.00,-875.00
2024-05-17 16:20:20.109569,0,-1,12,0,0,-4,75,78,105,80,71,192.21,80,41.00,16.00,-1100.00
2024-05-17 16:20:20.278086,0,-1,12,0,0,-5,75,78,109,90,71,192.19,80,52.00,11.00,-1028.00
2024-05-17 16:20:20.317840,0,-1,12,0,0,-5,75,77,113,100,71,192.25,81,-4.00,-4.00,-920.00
2024-05-17 16:20:20.372646,2,-1,12,1,0,-6,75,77,122,100,71,192.31,81,-8.00,15.00,-1117.00
2024-05-17 16:20:20.467769,2,0,12,0,0,-6,75,77,123,110,71,192.29,81,-3.00,6.00,-872.00
2024-05-17 16:20:20.568779,1,0,12,0,0,-5,75,77,130,110,71,192.36,81,7.00,39.00,-961.00
2024-05-17 16:20:20.674123,0,0,12,0,0,-5,75,77,135,120,71,192.46,81,-14.00,25.00,-956.00
2024-05-17 16:20:20.773293,0,0,12,0,0,-4,75,77,138,120,71,192.42,81,-35.00,1.00,-940.00
2024-05-17 16:20:20.874937,0,-1,12,0,0,-4,75,77,141,130,71,192.50,81,-42.00,56.00,-1046.00
2024-05-17 16:20:20.976813,0,-1,12,0,0,-4,75,77,145,130,71,192.51,81,28.00,4.00,-937.00
2024-05-17 16:20:21.079480,0,-1,12,0,0,-3,75,77,148,130,71,192.58,81,32.00,24.00,-974.00
2024-05-17 16:20:21.182817,0,-1,12,0,0,-3,75,77,151,140,71,192.53,81,-27.00,33.00,-973.00
2024-05-17 16:20:21.284258,0,0,12,0,0,-2,75,78,155,140,71,192.55,82,32.00,-1.00,-1045.00
2024-05-17 16:20:21.384590,0,-1,12,0,0,-3,75,78,155,140,71,192.56,82,41.00,-3.00,-940.00
2024-05-17 16:20:21.487186,0,0,12,0,0,-2,75,78,155,140,71,192.57,82,-3.00,17.00,-1046.00
2024-05-17 16:20:21.591171,0,0,12,0,0,-2,75,78,158,150,71,192.64,82,25.00,15.00,-907.00
2024-05-17 16:20:21.691097,1,0,12,0,0,-1,75,78,157,150,71,192.67,82,32.00,10.00,-1031.00
2024-05-17 16:20:21.796322,1,0,12,0,0,-1,75,78,158,150,71,192.68,82,-36.00,31.00,-980.00
2024-05-17 16:20:21.896749,1,0,12,0,0,-1,75,78,158,150,71,192.68,82,92.00,-13.00,-1011.00
2024-05-17 16:20:21.996644,1,0,12,0,0,-1,75,78,160,150,71,192.71,82,15.00,45.00,-1023.00
2024-05-17 16:20:22.103431,1,0,12,0,0,-1,75,78,159,150,71,192.70,82,13.00,0.00,-1026.00
2024-05-17 16:20:22.200480,1,0,12,0,0,-1,75,78,161,150,71,192.74,82,-58.00,11.00,-895.00
2024-05-17 16:20:22.308316,1,0,12,0,0,-1,75,77,161,150,71,192.63,83,-19.00,27.00,-1045.00
2024-05-17 16:20:22.405489,0,0,12,0,0,0,75,77,161,150,71,192.66,83,14.00,-3.00,-1023.00
2024-05-17 16:20:22.514446,0,0,12,0,0,0,75,77,162,150,71,192.73,83,-30.00,23.00,-932.00
2024-05-17 16:20:22.608482,0,0,12,0,0,0,75,77,163,150,71,192.68,83,58.00,25.00,-1064.00
2024-05-17 16:20:22.712262,2,0,12,0,0,0,75,77,161,150,71,192.70,83,51.00,-16.00,-999.00
2024-05-17 16:20:22.817487,2,0,12,0,0,0,75,77,163,150,71,192.73,83,8.00,32.00,-941.00
2024-05-17 16:20:22.914604,1,0,12,0,0,0,75,77,163,150,71,192.72,83,-3.00,34.00,-1117.00
2024-05-17 16:20:23.025167,0,-1,12,0,0,0,75,77,164,150,71,192.69,83,39.00,-2.00,-994.00
2024-05-17 16:20:23.118518,0,0,12,0,0,0,75,77,167,150,71,192.73,83,3.00,2.00,-999.00
2024-05-17 16:20:23.229854,1,0,12,0,0,0,75,77,168,150,71,192.83,84,37.00,-20.00,-1074.00
2024-05-17 16:20:23.322396,1,0,12,0,0,-1,75,76,166,160,71,192.76,84,45.00,-9.00,-1060.00
2024-05-17 16:20:23.434662,1,0,12,0,0,-1,75,76,168,160,71,192.75,84,-8.00,10.00,-953.00
2024-05-17 16:20:23.528075,0,0,12,0,0,-1,75,76,171,160,71,192.76,84,50.00,-16.00,-942.00
2024-05-17 16:20:23.628416,1,0,12,0,0,-1,75,76,173,160,71,192.79,84,43.00,-19.00,-1128.00
2024-05-17 16:20:23.730501,1,0,12,0,0,-1,75,76,172,160,71,192.85,84,-3.00,26.00,-934.00
2024-05-17 16:20:23.845414,1,0,12,0,0,-1,75,76,173,160,71,192.82,84,24.00,-21.00,-1001.00
2024-05-17 16:20:23.934682,1,0,12,0,0,0,75,76,174,160,71,192.88,84,-6.00,-31.00,-975.00
2024-05-17 16:20:23.985503,0,0,12,0,0,0,75,76,177,160,71,192.90,84,-21.00,27.00,-970.00
2024-05-17 16:20:24.153131,0,0,12,0,0,0,75,76,179,160,71,192.85,84,19.00,32.00,-1075.00
2024-05-17 16:20:24.189381,0,0,12,0,0,0,75,76,180,160,71,192.85,85,-42.00,30.00,-988.00
2024-05-17 16:20:24.356276,0,0,12,0,0,0,75,77,180,170,71,192.86,85,13.00,26.00,-952.00
2024-05-17 16:20:24.393563,0,-1,12,0,0,0,75,77,180,170,71,192.88,85,-37.00,41.00,-987.00
2024-05-17 16:20:24.562342,0,0,12,0,0,0,75,77,181,170,71,192.96,85,-42.00,11.00,-1024.00
2024-05-17 16:20:24.597493,0,0,12,0,0,0,75,77,183,170,71,192.88,85,23.00,5.00,-1081.00
2024-05-17 16:20:24.767362,0,0,12,0,0,0,75,77,184,170,71,192.90,85,6.00,16.00,-981.00
2024-05-17 16:20:24.801665,1,0,12,0,0,0,75,77,182,170,71,192.91,85,39.00,8.00,-1045.00
2024-05-17 16:20:24.970733,3,0,12,0,0,0,75,77,187,170,71,192.88,85,17.00,9.00,-940.00
2024-05-17 16:20:25.005436,3,1,12,0,0,0,75,77,189,170,71,192.95,85,-24.00,5.00,-889.00
2024-05-17 16:20:25.175660,1,0,12,0,0,0,75,77,188,170,71,192.98,85,-57.00,36.00,-976.00
2024-05-17 16:20:25.209502,0,0,12,0,0,0,75,77,182,170,71,192.96,86,-46.00,18.00,-1022.00
2024-05-17 16:20:25.381344,1,0,12,0,0,0,74,76,184,170,71,192.99,86,45.00,-9.00,-969.00
2024-05-17 16:20:25.413746,1,0,12,0,0,0,74,76,184,170,71,192.94,86,27.00,-6.00,-994.00
2024-05-17 16:20:25.585420,1,0,12,0,0,0,74,76,187,170,71,192.95,86,15.00,0.00,-996.00
2024-05-17 16:20:25.617629,1,0,12,0,0,0,74,76,190,170,71,192.98,86,-10.00,7.00,-1006.00
2024-05-17 16:20:25.719397,1,0,12,0,0,0,74,76,193,170,71,193.02,86,-15.00,16.00,-999.00
2024-05-17 16:20:25.898230,1,0,12,0,0,0,74,76,191,170,71,192.97,86,45.00,-10.00,-1025.00
2024-05-17 16:20:25.923752,1,0,12,0,0,0,74,76,195,170,71,192.94,86,-12.00,4.00,-926.00
2024-05-17 16:20:26.097739,1,0,12,0,0,0,74,76,196,170,71,193.02,86,34.00,-4.00,-939.00
2024-05-17 16:20:26.127389,1,0,12,-1,0,0,74,76,195,170,71,193.02,86,-47.00,22.00,-944.00
2024-05-17 16:20:26.229467,0,-1,12,-1,0,0,74,76,196,180,71,192.97,87,-4.00,-3.00,-924.00
2024-05-17 16:20:26.331704,0,-1,12,-1,0,0,75,77,197,180,71,192.94,87,76.00,-12.00,-1002.00
2024-05-17 16:20:26.433336,0,-1,12,0,0,0,75,77,195,180,71,192.98,87,-53.00,8.00,-955.00
2024-05-17 16:20:26.609148,0,0,12,0,0,0,75,77,196,180,71,192.86,87,35.00,-21.00,-949.00
2024-05-17 16:20:26.637310,0,0,12,0,0,0,75,77,192,180,71,192.91,87,34.00,-6.00,-894.00
2024-05-17 16:20:26.739254,0,0,12,0,0,1,75,77,190,180,71,192.93,87,-5.00,0.00,-998.00
2024-05-17 16:20:26.919758,0,0,12,0,0,1,75,77,190,170,71,192.86,87,1.00,12.00,-907.00
2024-05-17 16:20:26.943274,0,0,12,-1,0,2,75,77,189,170,71,192.91,87,-51.00,48.00,-1007.00
2024-05-17 16:20:27.123468,-1,-1,12,-1,0,3,75,77,185,170,71,192.83,87,-6.00,-6.00,-1000.00
2024-05-17 16:20:27.147299,-1,-1,12,0,0,3,75,77,184,160,71,192.87,87,-41.00,25.00,-996.00
2024-05-17 16:20:27.327008,0,0,12,0,0,3,75,77,180,160,71,192.88,88,21.00,-12.00,-1039.00
2024-05-17 16:20:27.351341,0,0,12,0,0,3,75,77,175,160,71,192.82,88,-14.00,22.00,-1027.00
2024-05-17 16:20:27.530648,0,0,12,0,0,2,75,77,172,160,71,192.77,88,14.00,5.00,-1069.00
2024-05-17 16:20:27.555802,1,0,12,0,0,2,75,77,174,150,71,192.76,88,29.00,17.00,-1056.00
2024-05-17 16:20:27.735429,1,0,12,0,0,1,75,77,172,150,71,192.71,88,-6.00,26.00,-963.00
2024-05-17 16:20:27.759243,1,0,12,0,0,2,75,77,170,150,71,192.76,88,42.00,-10.00,-1084.00
2024-05-17 16:20:27.940193,1,0,12,0,0,1,75,77,164,150,71,192.73,88,7.00,-11.00,-965.00
2024-05-17 16:20:27.940275,1,0,12,0,0,1,75,77,163,150,71,192.71,88,-12.00,39.00,-1016.00
2024-05-17 16:20:28.016850,0,0,12,0,0,1,75,77,157,150,71,192.63,88,82.00,-23.00,-1025.00
2024-05-17 16:20:28.116228,1,0,12,0,0,1,75,77,154,140,71,192.60,88,-2.00,6.00,-1012.00
2024-05-17 16:20:28.247446,1,0,12,0,0,1,75,77,153,140,71,192.63,89,33.00,2.00,-1026.00
2024-05-17 16:20:28.452259,1,0,12,0,0,1,75,78,150,140,71,192.57,89,-5.00,33.00,-914.00
2024-05-17 16:20:28.452337,1,0,12,0,0,2,75,78,146,140,71,192.52,89,-18.00,9.00,-1020.00
2024-05-17 16:20:28.524138,0,0,12,0,0,2,75,78,143,130,71,192.51,89,115.00,-26.00,-1003.00
2024-05-17 16:20:28.626275,0,-1,12,0,0,2,75,78,141,130,71,192.48,89,-1.00,12.00,-1039.00
2024-05-17 16:20:28.729565,0,-1,12,0,0,1,75,78,139,130,71,192.50,89,53.00,-11.00,-1062.00
2024-05-17 16:20:28.830615,0,-1,12,0,0,1,75,78,137,130,71,192.47,89,47.00,-21.00,-948.00
2024-05-17 16:20:28.964731,0,0,12,0,0,1,75,78,137,120,71,192.45,89,89.00,-5.00,-1145.00
2024-05-17 16:20:29.034462,0,0,12,0,0,0,75,78,136,120,71,192.35,89,21.00,22.00,-1030.00
2024-05-17 16:20:29.169162,0,0,12,0,0,0,75,78,133,120,71,192.44,89,0.00,11.00,-1000.00
2024-05-17 16:20:29.239034,1,0,12,0,0,0,75,78,133,120,71,192.46,90,19.00,5.00,-975.00
2024-05-17 16:20:29.374781,0,0,12,0,0,0,75,77,133,120,71,192.41,90,14.00,6.00,-1037.00
2024-05-17 16:20:29.442322,0,0,12,0,0,0,75,77,134,120,71,192.43,90,82.00,25.00,-1068.00
2024-05-17 16:20:29.578830,0,0,12,0,0,0,75,77,134,120,71,192.38,90,34.00,5.00,-936.00
2024-05-17 16:20:29.646302,0,0,12,0,0,0,75,77,135,120,71,192.44,90,47.00,1.00,-985.00
2024-05-17 16:20:29.748338,0,0,12,0,0,0,75,77,135,120,71,192.45,90,4.00,28.00,-1060.00
2024-05-17 16:20:29.886973,0,0,12,0,0,0,75,77,136,120,71,192.52,90,-16.00,28.00,-928.00
2024-05-17 16:20:29.952406,0,0,12,0,0,0,75,77,138,120,71,192.49,90,-7.00,12.00,-960.00
2024-05-17 16:20:30.090874,0,-1,12,0,0,0,75,77,139,120,71,192.49,90,5.00,36.00,-1011.00
2024-05-17 16:20:30.160280,0,0,12,0,0,0,75,77,140,120,71,192.45,90,-25.00,8.00,-1059.00
2024-05-17 16:20:30.258315,0,0,12,0,0,0,75,77,141,120,71,192.43,91,17.00,2.00,-1017.00
2024-05-17 16:20:30.398405,0,0,12,0,0,0,75,77,140,120,71,192.45,91,22.00,32.00,-1027.00
2024-05-17 16:20:30.462291,0,-1,12,0,0,0,75,77,138,120,71,192.45,91,57.00,-9.00,-991.00
2024-05-17 16:20:30.583226,0,0,12,0,0,0,75,77,135,120,71,192.46,91,43.00,-16.00,-1063.00
2024-05-17 16:20:30.666534,1,0,12,0,0,0,75,77,135,120,71,192.41,91,-19.00,33.00,-925.00
2024-05-17 16:20:30.770971,1,0,12,0,0,0,75,77,133,120,71,192.39,91,-18.00,15.00,-910.00
2024-05-17 16:20:30.871224,-4,0,12,0,0,0,75,77,134,120,71,192.34,91,30.00,17.00,-1047.00
2024-05-17 16:20:31.012159,-8,0,12,1,0,0,75,77,137,120,71,192.41,91,-36.00,28.00,-1032.00
2024-05-17 16:20:31.074237,-8,-1,12,2,0,0,75,77,136,120,71,192.37,91,32.00,-21.00,-1108.00
2024-05-17 16:20:31.217055,-8,-1,12,4,0,0,75,77,135,120,71,192.34,91,14.00,-14.00,-1000.00
2024-05-17 16:20:31.278121,-7,0,12,5,0,0,75,77,132,120,71,192.36,92,8.00,7.00,-996.00
2024-05-17 16:20:31.423425,-5,0,12,7,0,0,75,77,132,120,71,192.39,92,-108.00,30.00,-980.00
2024-05-17 16:20:31.482080,-4,0,12,7,1,0,75,77,130,120,71,192.45,92,-35.00,-1.00,-1141.00
2024-05-17 16:20:31.626656,-4,0,12,7,1,0,75,77,132,120,71,192.40,92,-11.00,0.00,-1028.00
2024-05-17 16:20:31.686089,-3,0,12,7,1,0,75,77,133,120,71,192.34,92,-92.00,10.00,-941.00
2024-05-17 16:20:31.832227,-1,0,12,7,1,0,75,77,133,120,71,192.38,92,-34.00,-10.00,-1145.00
2024-05-17 16:20:31.890061,1,0,12,6,1,0,75,77,135,120,71,192.31,92,-37.00,-17.00,-987.00
2024-05-17 16:20:32.036246,3,0,12,5,1,0,75,77,137,120,71,192.40,92,-102.00,5.00,-1027.00
2024-05-17 16:20:32.043061,3,0,12,4,1,0,75,77,139,120,71,192.40,92,13.00,8.00,-1064.00
2024-05-17 16:20:32.145765,2,-1,12,3,1,0,75,77,140,120,71,192.46,92,-88.00,56.00,-896.00
2024-05-17 16:20:32.246992,1,-1,12,3,1,0,75,77,135,120,71,192.46,93,-20.00,4.00,-1049.00
2024-05-17 16:20:32.445728,0,-2,12,2,1,0,75,76,137,120,71,192.53,93,-40.00,20.00,-959.00
2024-05-17 16:20:32.453890,0,-2,12,2,0,0,75,76,137,120,71,192.46,93,-34.00,6.00,-1061.00
2024-05-17 16:20:32.554404,0,-1,12,2,0,0,75,76,137,120,71,192.44,93,1.00,25.00,-1110.00
2024-05-17 16:20:32.655030,0,-1,12,2,0,0,75,76,137,120,71,192.52,93,-24.00,24.00,-1002.00
2024-05-17 16:20:32.757240,0,-1,12,2,0,0,75,76,137,120,71,192.48,93,-88.00,44.00,-942.00
2024-05-17 16:20:32.960414,-1,-2,12,2,0,0,75,76,138,120,71,192.48,93,-18.00,38.00,-1000.00
2024-05-17 16:20:32.961652,0,-1,12,2,0,0,75,76,138,120,71,192.46,93,-85.00,60.00,-1021.00
2024-05-17 16:20:33.063017,3,0,12,1,0,0,75,76,141,120,71,192.52,93,-74.00,46.00,-982.00
2024-05-17 16:20:33.165098,4,0,12,0,0,0,75,76,141,120,71,192.47,93,-85.00,61.00,-914.00
2024-05-17 16:20:33.267266,0,-1,12,0,0,0,75,76,138,120,71,192.53,94,-53.00,50.00,-960.00
2024-05-17 16:20:33.470919,0,-2,12,0,0,0,74,77,139,120,71,192.53,94,39.00,10.00,-970.00
2024-05-17 16:20:33.471126,0,-2,12,0,0,0,74,77,139,120,71,192.45,94,-49.00,50.00,-970.00
2024-05-17 16:20:33.677838,0,-2,12,0,0,0,74,77,141,120,71,192.50,94,45.00,22.00,-966.00
2024-05-17 16:20:33.678518,0,-2,12,0,0,0,74,77,141,120,71,192.44,94,-2.00,59.00,-1051.00
2024-05-17 16:20:33.777627,0,-1,12,0,0,0,74,77,142,130,71,192.49,94,-6.00,25.00,-987.00
2024-05-17 16:20:33.879737,0,-1,12,0,0,0,74,77,142,130,71,192.54,94,-51.00,32.00,-960.00
2024-05-17 16:20:33.981939,0,-1,12,0,0,0,74,77,141,130,71,192.57,94,20.00,8.00,-949.00
2024-05-17 16:20:34.084393,0,-1,12,0,0,0,74,77,142,130,71,192.47,94,47.00,1.00,-1015.00
2024-05-17 16:20:34.186741,0,0,12,0,0,0,74,77,144,130,71,192.49,94,-20.00,29.00,-952.00
2024-05-17 16:20:34.287263,0,-1,12,0,0,0,74,77,142,130,71,192.48,95,-12.00,56.00,-1048.00
2024-05-17 16:20:34.389348,-1,-1,12,0,0,0,75,77,140,130,71,192.52,95,-6.00,15.00,-991.00
2024-05-17 16:20:34.494438,-1,-1,12,0,0,0,75,77,139,130,71,192.49,95,-35.00,45.00,-984.00
2024-05-17 16:20:34.593181,-1,-1,12,0,0,0,75,77,138,120,71,192.48,95,-44.00,30.00,-1035.00
2024-05-17 16:20:34.698892,-1,-1,12,0,0,0,75,77,137,120,71,192.55,95,-44.00,43.00,-1042.00
2024-05-17 16:20:34.797160,-1,-1,12,0,0,0,75,77,136,120,71,192.49,95,19.00,2.00,-1045.00
2024-05-17 16:20:34.903606,-1,-1,12,0,0,0,75,77,136,120,71,192.43,95,-26.00,31.00,-969.00
2024-05-17 16:20:35.001158,-1,-1,12,0,0,0,75,77,136,120,71,192.49,95,-84.00,21.00,-968.00
2024-05-17 16:20:35.109808,-1,-1,12,0,0,0,75,77,138,120,71,192.45,95,17.00,-9.00,-998.00
2024-05-17 16:20:35.205125,-2,-1,12,0,0,0,75,77,139,120,71,192.52,95,15.00,38.00,-998.00
2024-05-17 16:20:35.314267,-1,0,12,0,0,0,75,77,139,120,71,192.47,96,19.00,1.00,-997.00
2024-05-17 16:20:35.408943,-1,0,12,0,0,0,75,77,140,120,71,192.51,96,-10.00,23.00,-985.00
2024-05-17 16:20:35.510969,4,0,12,0,0,0,75,77,143,120,71,192.48,96,49.00,5.00,-1029.00
2024-05-17 16:20:35.620225,8,0,12,0,0,0,75,77,145,120,71,192.50,96,135.00,-20.00,-1087.00
2024-05-17 16:20:35.664077,8,-1,12,-2,0,0,75,77,146,120,71,192.45,96,47.00,0.00,-1051.00
2024-05-17 16:20:35.766135,8,0,12,-3,-1,0,75,77,148,130,71,192.46,96,74.00,6.00,-1027.00
2024-05-17 16:20:35.927527,8,0,12,-5,-1,0,75,77,148,130,71,192.53,96,56.00,24.00,-935.00
2024-05-17 16:20:35.970468,7,0,12,-6,-1,0,75,77,148,130,71,192.54,96,37.00,-10.00,-932.00
2024-05-17 16:20:36.133507,6,0,12,-7,-1,0,75,77,151,130,71,192.50,96,9.00,27.00,-969.00
2024-05-17 16:20:36.174448,4,-1,12,-8,-1,0,75,77,151,130,71,192.54,96,52.00,0.00,-1119.00
2024-05-17 16:20:36.275914,2,-2,12,-8,-1,0,75,77,147,130,71,192.45,97,36.00,0.00,-892.00
2024-05-17 16:20:36.439394,0,-2,12,-7,-1,0,75,78,152,130,71,192.47,97,54.00,2.00,-910.00
2024-05-17 16:20:36.480582,-2,-1,12,-7,-1,0,75,78,153,130,71,192.53,97,119.00,-27.00,-988.00
2024-05-17 16:20:36.644310,-4,-1,12,-6,-1,0,75,78,152,130,71,192.49,97,-10.00,38.00,-958.00
2024-05-17 16:20:36.684022,-4,-1,12,-5,-1,0,75,78,152,130,71,192.44,97,-2.00,23.00,-957.00
2024-05-17 16:20:36.786966,-4,-1,12,-4,0,0,75,78,153,130,71,192.61,97,10.00,10.00,-1092.00
2024-05-17 16:20:36.951468,-3,-2,12,-3,0,0,75,78,154,130,71,192.53,97,-24.00,22.00,-932.00
2024-05-17 16:20:36.990933,-1,-3,12,-3,0,0,75,78,152,130,71,192.59,97,-14.00,4.00,-905.00
2024-05-17 16:20:37.156290,-1,-3,12,-2,0,0,75,78,153,130,71,192.57,97,8.00,10.00,-1025.00
2024-05-17 16:20:37.195094,-1,-3,12,-2,-1,0,75,78,152,130,71,192.61,97,-4.00,13.00,-986.00
2024-05-17 16:20:37.361072,0,-2,12,-2,-1,0,75,78,152,130,71,192.52,98,30.00,2.00,-998.00
2024-05-17 16:20:37.398893,-4,0,12,-1,0,0,75,77,153,130,71,192.52,98,0.00,24.00,-930.00
2024-05-17 16:20:37.567129,-3,0,12,0,0,0,75,77,152,130,71,192.48,98,98.00,-29.00,-962.00
2024-05-17 16:20:37.603696,0,-1,12,0,0,0,75,77,152,130,71,192.44,98,-73.00,35.00,-989.00
2024-05-17 16:20:37.772120,0,-1,12,0,0,0,75,77,151,130,71,192.46,98,45.00,-1.00,-1004.00
2024-05-17 16:20:37.806923,0,-1,12,0,0,0,75,77,146,130,71,192.52,98,6.00,6.00,-959.00
2024-05-17 16:20:37.977554,0,-1,12,0,0,0,75,77,145,130,71,192.49,98,-19.00,22.00,-989.00
2024-05-17 16:20:38.011709,0,-1,12,0,0,1,75,77,143,130,71,192.46,98,0.00,17.00,-918.00
2024-05-17 16:20:38.180327,-1,-1,12,0,0,1,75,77,143,130,71,192.44,98,27.00,-13.00,-1025.00
2024-05-17 16:20:38.215496,0,-1,12,0,0,1,75,77,140,130,71,192.45,99,-12.00,17.00,-1072.00
2024-05-17 16:20:38.385242,-1,-1,12,0,0,1,75,77,138,130,71,192.42,99,25.00,5.00,-1072.00
2024-05-17 16:20:38.419255,0,0,12,0,0,0,75,77,135,120,71,192.40,99,49.00,-26.00,-1039.00
2024-05-17 16:20:38.593289,0,0,12,0,0,0,75,77,132,120,71,192.41,99,-6.00,3.00,-1004.00
2024-05-17 16:20:38.622913,0,0,12,0,0,0,75,77,132,120,71,192.38,99,-71.00,42.00,-1048.00
2024-05-17 16:20:38.795687,0,0,12,0,0,0,75,77,132,120,71,192.38,99,5.00,10.00,-1077.00
2024-05-17 16:20:38.826881,0,-1,12,0,0,0,75,77,130,120,71,192.31,99,-54.00,28.00,-991.00
2024-05-17 16:20:38.999698,0,-1,12,0,0,0,75,77,132,120,71,192.39,99,-8.00,0.00,-983.00
2024-05-17 16:20:39.030894,0,-1,12,0,0,0,75,77,133,120,71,192.44,99,33.00,11.00,-1006.00
2024-05-17 16:20:39.204380,-1,-1,12,0,0,0,75,77,134,120,71,192.39,99,-42.00,16.00,-942.00
2024-05-17 16:20:39.204811,0,-1,12,0,0,0,75,77,134,120,71,192.36,100,-20.00,7.00,-968.00
2024-05-17 16:20:39.287421,0,-1,12,0,0,0,75,77,134,120,71,192.41,100,5.00,7.00,-1020.00
2024-05-17 16:20:39.438991,0,-1,12,0,0,0,75,77,133,120,71,192.29,100,-69.00,45.00,-920.00
2024-05-17 16:20:39.491808,0,-1,12,0,0,0,75,77,132,120,71,192.29,100,-71.00,44.00,-962.00
2024-05-17 16:20:39.596923,0,-1,12,0,0,0,75,77,130,120,71,192.28,100,-4.00,8.00,-1034.00
2024-05-17 16:20:39.693990,0,-2,12,0,0,0,75,77,131,120,71,192.34,100,-16.00,12.00,-926.00
2024-05-17 16:20:39.799344,1,-8,12,0,0,0,75,77,132,120,71,192.36,100,-18.00,29.00,-1016.00
2024-05-17 16:20:39.899955,0,-8,12,0,-2,0,75,77,134,120,71,192.37,100,13.00,-8.00,-1001.00
2024-05-17 16:20:39.999777,0,-6,12,0,-3,0,75,77,133,120,71,192.37,100,96.00,3.00,-1115.00
2024-05-17 16:20:40.130090,0,-3,12,0,-3,0,75,77,133,120,71,192.34,100,1.00,5.00,-975.00
2024-05-17 16:20:40.203808,0,0,12,0,-3,0,75,77,132,120,71,192.31,101,8.00,48.00,-1003.00
2024-05-17 16:20:40.331735,0,0,12,0,-3,0,75,77,132,120,71,192.37,101,49.00,0.00,-952.00
2024-05-17 16:20:40.409490,0,0,12,0,-3,0,75,77,133,120,71,192.36,101,14.00,6.00,-968.00
2024-05-17 16:20:40.509845,0,0,12,1,-2,0,75,77,132,120,71,192.32,101,30.00,21.00,-1018.00
2024-05-17 16:20:40.637862,0,0,12,0,-2,0,75,77,130,120,71,192.41,101,-9.00,40.00,-954.00
2024-05-17 16:20:40.714141,0,-1,12,0,-2,0,75,77,132,120,71,192.38,101,49.00,10.00,-1101.00
2024-05-17 16:20:40.815639,0,-1,12,0,-2,0,75,77,131,120,71,192.29,101,-15.00,9.00,-891.00
2024-05-17 16:20:40.945465,0,-1,12,0,-2,0,75,77,132,120,71,192.36,101,28.00,26.00,-1084.00
2024-05-17 16:20:41.019734,0,-1,12,1,-2,0,75,77,132,120,71,192.41,101,-1.00,34.00,-1029.00
2024-05-17 16:20:41.149873,0,-2,12,1,-2,0,75,77,131,120,71,192.33,101,36.00,-1.00,-1051.00
2024-05-17 16:20:41.224504,0,-1,12,0,-2,0,75,77,131,120,71,192.38,102,-18.00,38.00,-1012.00
2024-05-17 16:20:41.325932,0,-2,12,0,-2,0,75,77,132,120,71,192.39,102,3.00,28.00,-967.00
2024-05-17 16:20:41.457069,-1,-2,12,0,-2,0,74,77,135,120,71,192.38,102,46.00,15.00,-1041.00
2024-05-17 16:20:41.529721,-1,-2,12,1,-2,0,74,77,134,120,71,192.39,102,-32.00,22.00,-930.00
2024-05-17 16:20:41.661942,0,-1,12,1,-2,0,74,77,134,120,71,192.40,102,-49.00,42.00,-957.00
2024-05-17 16:20:41.734750,2,0,12,0,-2,0,74,77,137,120,71,192.35,102,31.00,17.00,-962.00
2024-05-17 16:20:41.837500,0,3,12,0,-2,0,74,77,136,120,71,192.32,102,-4.00,25.00,-927.00
2024-05-17 16:20:41.969322,0,3,12,0,-1,0,74,77,136,120,71,192.30,102,-44.00,37.00,-1006.00
2024-05-17 16:20:42.040842,0,0,12,0,0,0,74,77,134,120,71,192.29,102,64.00,-3.00,-1059.00
2024-05-17 16:20:42.174092,0,0,12,0,0,0,74,77,135,120,71,192.36,102,-35.00,26.00,-910.00
2024-05-17 16:20:42.244832,0,0,12,0,0,0,74,77,133,120,71,192.49,103,-18.00,30.00,-954.00
2024-05-17 16:20:42.378826,-1,-1,12,0,0,0,74,77,137,120,71,192.42,103,74.00,0.00,-1038.00
2024-05-17 16:20:42.454316,0,-1,12,0,0,0,75,78,139,120,71,192.42,103,42.00,13.00,-1020.00
2024-05-17 16:20:42.550850,0,-1,12,0,0,0,75,78,136,120,71,192.41,103,-54.00,54.00,-973.00
2024-05-17 16:20:42.686382,0,-1,12,0,0,0,75,78,138,120,71,192.42,103,-12.00,50.00,-960.00
2024-05-17 16:20:42.759504,0,-2,12,0,0,0,75,78,139,120,71,192.38,103,21.00,7.00,-991.00
2024-05-17 16:20:42.860440,0,-1,12,0,0,0,75,78,138,120,71,192.45,103,82.00,-9.00,-986.00
2024-05-17 16:20:42.908758,1,0,12,0,0,0,75,78,143,130,71,192.50,103,56.00,18.00,-990.00
2024-05-17 16:20:43.095665,1,0,12,0,0,0,75,78,143,130,71,192.55,103,32.00,4.00,-971.00
2024-05-17 16:20:43.112764,2,0,12,1,0,0,75,78,144,130,71,192.49,103,21.00,-1.00,-938.00
2024-05-17 16:20:43.302733,2,0,12,0,0,0,75,78,143,130,71,192.52,104,81.00,-6.00,-1050.00
2024-05-17 16:20:43.316729,2,0,12,0,0,0,75,78,142,130,71,192.44,104,-10.00,11.00,-915.00
2024-05-17 16:20:43.507631,1,0,12,0,0,0,75,77,138,130,71,192.53,104,51.00,-10.00,-1048.00
2024-05-17 16:20:43.520753,0,-1,12,0,0,0,75,77,137,120,71,192.45,104,-32.00,39.00,-1001.00
2024-05-17 16:20:43.711968,0,-1,12,0,0,0,75,77,136,120,71,192.54,104,27.00,24.00,-1058.00
2024-05-17 16:20:43.726450,0,-1,12,0,0,0,75,77,134,120,71,192.50,104,67.00,-20.00,-1000.00
2024-05-17 16:20:43.826683,0,-1,12,0,0,0,75,77,134,120,71,192.48,104,77.00,-7.00,-1052.00
2024-05-17 16:20:43.993355,0,-1,12,0,0,0,75,77,133,120,71,192.49,104,14.00,29.00,-1073.00
2024-05-17 16:20:44.030565,0,-1,12,0,0,0,75,77,133,120,71,192.49,104,48.00,14.00,-1036.00
2024-05-17 16:20:44.221746,0,-1,12,0,0,0,75,77,133,120,71,192.48,104,48.00,-1.00,-1056.00
2024-05-17 16:20:44.235183,0,5,12,0,0,0,75,77,133,120,71,192.50,105,-20.00,54.00,-979.00
2024-05-17 16:20:44.427652,0,7,12,0,1,0,75,77,135,120,71,192.50,105,25.00,17.00,-1069.00
2024-05-17 16:20:44.438673,0,4,12,0,2,0,76,78,134,120,71,192.45,105,-13.00,13.00,-996.00
2024-05-17 16:20:44.541368,0,2,12,0,3,0,76,78,133,120,71,192.48,105,68.00,-26.00,-1058.00
2024-05-17 16:20:44.733824,0,0,12,0,3,0,76,78,131,120,71,192.40,105,-68.00,34.00,-976.00
2024-05-17 16:20:44.745151,0,-2,12,0,3,0,76,78,133,120,71,192.38,105,-21.00,13.00,-1034.00
2024-05-17 16:20:44.939802,0,-2,12,0,3,0,76,78,132,120,71,192.36,105,32.00,0.00,-1053.00
2024-05-17 16:20:44.948679,0,-1,12,0,2,0,76,78,132,120,71,192.38,105,66.00,-3.00,-1063.00
2024-05-17 16:20:45.143309,0,-1,12,0,2,0,76,78,133,120,71,192.42,105,35.00,-3.00,-1079.00
2024-05-17 16:20:45.152470,0,0,12,0,2,0,76,78,133,120,71,192.47,105,8.00,6.00,-1066.00
2024-05-17 16:20:45.348224,0,0,12,0,2,0,76,78,136,120,71,192.44,106,37.00,-31.00,-966.00
2024-05-17 16:20:45.356816,0,0,12,0,2,0,76,78,136,120,71,192.39,106,42.00,-23.00,-1031.00
2024-05-17 16:20:45.553069,0,0,12,0,2,0,74,77,136,120,71,192.40,106,-61.00,24.00,-949.00
2024-05-17 16:20:45.561332,0,0,12,0,2,0,74,77,137,120,71,192.41,106,23.00,16.00,-1033.00
2024-05-17 16:20:45.757820,0,0,12,0,2,0,74,77,139,120,71,192.47,106,31.00,-15.00,-1087.00
2024-05-17 16:20:45.765042,0,-1,12,0,2,0,74,77,138,120,71,192.45,106,-30.00,36.00,-941.00
2024-05-17 16:20:45.963767,0,-4,12,0,2,0,74,77,138,120,71,192.51,106,-23.00,21.00,-1019.00
2024-05-17 16:20:45.972045,0,-6,12,0,1,0,74,77,138,120,71,192.47,106,53.00,-32.00,-989.00
2024-05-17 16:20:46.070892,0,-3,12,0,0,0,74,77,139,120,71,192.48,106,25.00,26.00,-1032.00
2024-05-17 16:20:46.269875,0,-2,12,0,0,0,74,77,139,120,71,192.51,106,29.00,3.00,-1030.00
2024-05-17 16:20:46.274636,0,-1,12,0,0,0,74,77,138,120,71,192.42,107,-45.00,45.00,-938.00
2024-05-17 16:20:46.474761,0,-1,12,0,0,0,74,77,138,120,71,192.55,107,-10.00,44.00,-981.00
2024-05-17 16:20:46.478520,0,0,12,0,0,0,75,77,136,120,71,192.46,107,106.00,-7.00,-1120.00
2024-05-17 16:20:46.683840,0,0,12,0,0,0,75,77,136,120,71,192.50,107,43.00,-2.00,-995.00
2024-05-17 16:20:46.684047,0,0,12,0,0,0,75,77,137,120,71,192.46,107,23.00,19.00,-1000.00
2024-05-17 16:20:46.784549,0,-1,12,0,0,0,75,77,136,120,71,192.51,107,-34.00,47.00,-996.00
2024-05-17 16:20:46.886695,0,-1,12,0,0,0,75,77,136,120,71,192.52,107,-68.00,36.00,-909.00
2024-05-17 16:20:47.089095,0,0,12,0,0,0,75,77,135,120,71,192.53,107,58.00,-6.00,-1046.00
2024-05-17 16:20:47.090554,0,0,12,0,0,0,75,77,135,120,71,192.54,107,41.00,4.00,-1025.00
2024-05-17 16:20:47.141510,0,0,12,0,0,0,75,77,137,120,71,192.47,107,14.00,12.00,-981.00
2024-05-17 16:20:47.295309,0,-1,12,0,0,0,75,77,137,120,71,192.54,108,-10.00,21.00,-925.00
2024-05-17 16:20:47.346639,0,0,12,0,0,0,75,77,136,120,71,192.42,108,31.00,5.00,-1032.00
2024-05-17 16:20:47.499724,0,-1,12,0,0,0,75,77,135,120,71,192.47,108,17.00,18.00,-1037.00
2024-05-17 16:20:47.549685,0,-1,12,0,0,0,75,77,135,120,71,192.48,108,0.00,34.00,-991.00
2024-05-17 16:20:47.703905,0,-1,12,0,0,0,75,77,134,120,71,192.49,108,-26.00,50.00,-999.00
2024-05-17 16:20:47.757452,0,-1,12,0,0,0,75,77,133,120,71,192.45,108,52.00,-2.00,-981.00
2024-05-17 16:20:47.855808,0,0,12,0,0,0,75,77,135,120,71,192.45,108,53.00,0.00,-985.00
2024-05-17 16:20:48.012680,0,-1,12,0,0,0,75,77,135,120,71,192.51,108,36.00,0.00,-999.00
2024-05-17 16:20:48.059390,0,0,12,0,0,0,75,77,135,120,71,192.47,108,-3.00,23.00,-985.00
2024-05-17 16:20:48.215669,0,-1,12,0,0,0,75,77,135,120,71,192.48,108,-47.00,51.00,-980.00
2024-05-17 16:20:48.263411,0,0,17,0,0,0,75,77,136,120,71,192.47,109,-85.00,53.00,-948.00
2024-05-17 16:20:48.432326,0,-1,22,0,0,0,75,77,134,120,71,192.47,109,48.00,-19.00,-966.00
2024-05-17 16:20:48.467458,0,0,28,0,0,0,75,78,135,120,71,192.51,109,-35.00,24.00,-1034.00
2024-05-17 16:20:48.627044,1,0,34,0,0,0,75,78,135,120,71,192.51,109,38.00,9.00,-1004.00
2024-05-17 16:20:48.671755,0,-1,40,0,0,0,75,78,137,120,71,192.57,109,0.00,20.00,-955.00
2024-05-17 16:20:48.830171,0,-1,46,0,0,0,75,78,138,120,71,192.54,109,-112.00,67.00,-897.00
2024-05-17 16:20:48.876434,0,-1,52,0,0,0,75,78,139,120,71,192.49,109,65.00,-8.00,-1141.00
2024-05-17 16:20:49.035477,0,0,57,0,0,0,75,78,137,120,71,192.54,109,-31.00,11.00,-882.00
2024-05-17 16:20:49.080406,0,0,63,0,0,0,75,78,139,120,71,192.53,109,22.00,32.00,-1058.00
2024-05-17 16:20:49.242409,1,0,69,0,0,0,75,78,140,120,71,192.53,109,94.00,-20.00,-1069.00
2024-05-17 16:20:49.287392,0,0,75,0,0,0,75,78,140,120,71,192.54,110,0.00,7.00,-942.00
2024-05-17 16:20:49.386404,0,0,81,0,0,0,75,78,142,120,71,192.56,110,-81.00,23.00,-931.00
2024-05-17 16:20:49.547755,0,0,86,0,0,0,75,78,143,120,71,192.56,110,54.00,-6.00,-981.00
2024-05-17 16:20:49.590387,1,0,92,0,0,0,75,78,145,130,71,192.61,110,-8.00,25.00,-958.00
2024-05-17 16:20:49.751440,1,0,98,0,0,0,75,78,144,130,71,192.55,110,46.00,-1.00,-990.00
2024-05-17 16:20:49.795470,0,0,104,0,0,0,75,78,143,130,71,192.52,110,87.00,-25.00,-931.00
2024-05-17 16:20:49.957065,1,0,110,0,0,0,75,78,145,130,71,192.49,110,-18.00,39.00,-974.00
2024-05-17 16:20:49.998374,1,0,115,0,0,0,75,78,141,130,71,192.54,110,98.00,-26.00,-1036.00
2024-05-17 16:20:50.161387,0,0,121,0,0,0,75,78,141,130,71,192.51,110,-29.00,4.00,-938.00
2024-05-17 16:20:50.202354,0,0,127,0,0,0,75,78,141,130,71,192.51,110,69.00,-62.00,-994.00
2024-05-17 16:20:50.367533,0,0,133,0,0,0,75,78,138,130,71,192.50,111,-30.00,0.00,-940.00
2024-05-17 16:20:50.406438,1,0,138,0,0,0,75,78,136,130,71,192.48,111,17.00,-8.00,-972.00
2024-05-17 16:20:50.571961,0,0,144,0,0,0,75,78,135,130,71,192.52,111,9.00,18.00,-964.00
2024-05-17 16:20:50.610323,0,0,150,0,0,1,75,78,135,120,71,192.45,111,-28.00,3.00,-1046.00
2024-05-17 16:20:50.777972,0,0,155,0,0,1,75,78,134,120,71,192.50,111,-13.00,-13.00,-1011.00
2024-05-17 16:20:50.814291,0,-1,161,0,0,0,75,78,134,120,71,192.49,111,14.00,-2.00,-1034.00
2024-05-17 16:20:50.980278,0,0,167,0,0,0,75,78,134,120,71,192.53,111,-19.00,9.00,-1092.00
2024-05-17 16:20:50.980327,0,0,172,0,0,0,75,78,135,120,71,192.49,111,-14.00,4.00,-1002.00
2024-05-17 16:20:51.069362,0,0,178,0,0,0,75,78,136,120,71,192.47,111,-2.00,-3.00,-918.00
2024-05-17 16:20:51.195909,0,1,-176,0,0,0,75,78,137,120,71,192.53,111,0.00,17.00,-913.00
2024-05-17 16:20:51.274146,0,1,-170,0,0,0,75,78,138,120,71,192.52,112,8.00,-42.00,-1083.00
2024-05-17 16:20:51.389909,0,1,-165,0,0,0,75,78,138,120,71,192.53,112,25.00,-5.00,-972.00
2024-05-17 16:20:51.477323,0,1,-159,0,0,0,75,78,139,120,71,192.48,112,11.00,22.00,-1017.00
2024-05-17 16:20:51.594617,0,1,-154,0,0,0,75,78,140,120,71,192.51,112,-5.00,-12.00,-962.00
2024-05-17 16:20:51.681295,0,0,-148,0,0,0,75,78,141,120,71,192.52,112,-44.00,-4.00,-948.00
2024-05-17 16:20:51.783629,0,0,-143,0,0,0,75,78,142,120,71,192.48,112,-4.00,-10.00,-1071.00
2024-05-17 16:20:51.885248,0,1,-137,0,0,0,75,78,142,120,71,192.47,112,9.00,-37.00,-923.00
2024-05-17 16:20:52.012087,0,1,-131,0,0,0,75,78,143,130,71,192.58,112,44.00,3.00,-1037.00
2024-05-17 16:20:52.090788,0,1,-126,0,0,0,75,78,143,130,71,192.60,112,-47.00,24.00,-1004.00
2024-05-17 16:20:52.209153,0,0,-120,0,0,0,75,78,143,130,71,192.51,112,-46.00,5.00,-975.00
2024-05-17 16:20:52.293458,-1,0,-114,0,0,0,75,78,143,130,71,192.51,113,17.00,4.00,-1090.00
2024-05-17 16:20:52.415370,-1,1,-108,0,0,0,75,78,143,130,71,192.51,113,-33.00,13.00,-1033.00
2024-05-17 16:20:52.497316,-1,0,-96,0,0,0,75,78,142,130,71,192.57,113,10.00,-11.00,-968.00
2024-05-17 16:20:52.619150,-1,0,-90,0,0,0,75,78,142,120,71,192.53,113,-32.00,0.00,-979.00
2024-05-17 16:20:52.701285,-1,0,-85,0,0,0,75,78,141,120,71,192.53,113,-6.00,21.00,-1090.00
2024-05-17 16:20:52.803294,-1,0,-79,0,0,0,75,78,141,120,71,192.54,113,28.00,-17.00,-1029.00
2024-05-17 16:20:52.925878,-1,0,-73,0,0,0,75,78,141,130,71,192.53,113,-51.00,34.00,-960.00
2024-05-17 16:20:53.007832,-1,0,-67,0,0,0,75,78,141,130,71,192.52,113,-22.00,-25.00,-971.00
2024-05-17 16:20:53.133708,-2,0,-61,0,0,0,75,78,141,120,71,192.49,113,16.00,30.00,-955.00
2024-05-17 16:20:53.212680,-1,0,-55,0,0,0,75,78,141,120,71,192.52,114,-4.00,-2.00,-1099.00
2024-05-17 16:20:53.314877,-1,0,-49,0,0,0,75,78,141,120,71,192.55,114,-2.00,24.00,-929.00
2024-05-17 16:20:53.417155,-1,0,-43,0,0,0,75,78,141,120,71,192.52,114,26.00,15.00,-1113.00
2024-05-17 16:20:53.517644,-1,0,-37,0,0,0,75,77,142,120,71,192.50,114,-50.00,21.00,-987.00
2024-05-17 16:20:53.625358,-1,0,-31,0,0,0,75,77,141,120,71,192.51,114,2.00,-3.00,-944.00
2024-05-17 16:20:53.721211,-1,0,-25,0,0,0,75,77,140,120,71,192.49,114,25.00,3.00,-1104.00
2024-05-17 16:20:53.828105,0,0,-19,0,0,0,75,77,139,120,71,192.51,114,18.00,-8.00,-1049.00
2024-05-17 16:20:53.925195,0,0,-13,0,0,0,75,77,139,120,71,192.52,114,-9.00,14.00,-870.00
2024-05-17 16:20:54.053244,-1,0,-7,0,0,0,75,77,139,120,71,192.48,114,0.00,30.00,-1002.00
2024-05-17 16:20:54.129354,-1,0,-2,0,0,0,75,77,141,120,71,192.44,114,-57.00,0.00,-997.00
2024-05-17 16:20:54.257019,-1,0,1,0,0,0,75,77,141,120,71,192.46,115,-9.00,7.00,-983.00
2024-05-17 16:20:54.337873,-1,0,4,0,0,0,75,77,141,120,71,192.52,115,12.00,10.00,-1046.00
2024-05-17 16:20:54.435180,-1,0,6,0,0,0,75,77,142,130,71,192.45,115,-55.00,44.00,-989.00
2024-05-17 16:20:54.564217,-1,-1,7,0,0,0,75,77,141,130,71,192.53,115,-11.00,1.00,-903.00
2024-05-17 16:20:54.639137,-1,-1,8,0,0,0,75,77,141,130,71,192.54,115,-13.00,10.00,-1079.00
2024-05-17 16:20:54.770179,-1,-1,9,0,0,0,75,77,140,130,71,192.60,115,40.00,10.00,-1053.00
2024-05-17 16:20:54.792711,0,-1,10,0,0,0,75,77,140,130,71,192.55,115,-20.00,-7.00,-914.00
2024-05-17 16:20:54.976985,0,-1,10,0,0,0,75,77,139,130,71,192.55,115,-13.00,14.00,-1083.00
2024-05-17 16:20:54.997667,0,0,10,0,0,0,75,77,137,130,71,192.49,115,-11.00,11.00,-918.00
2024-05-17 16:20:55.180707,0,0,10,0,0,0,75,77,135,120,71,192.52,115,65.00,13.00,-1055.00
2024-05-17 16:20:55.201527,0,0,10,0,0,0,75,77,133,120,71,192.45,116,-6.00,20.00,-1003.00
2024-05-17 16:20:55.383546,0,0,10,0,0,1,75,77,131,120,71,192.43,116,34.00,-19.00,-954.00
2024-05-17 16:20:55.404348,0,0,10,0,0,1,75,77,130,120,71,192.48,116,4.00,27.00,-1083.00
2024-05-17 16:20:55.588389,0,0,10,0,0,0,76,78,132,120,71,192.45,116,-75.00,38.00,-1086.00
2024-05-17 16:20:55.608303,-1,0,10,0,0,0,76,78,134,120,71,192.42,116,-39.00,31.00,-1047.00
2024-05-17 16:20:55.796335,-1,0,10,0,0,0,76,78,135,120,71,192.43,116,-35.00,33.00,-1047.00
2024-05-17 16:20:55.814378,-1,0,10,0,0,0,76,78,136,120,71,192.40,116,-36.00,11.00,-1083.00
2024-05-17 16:20:55.914300,0,0,10,0,0,0,76,78,135,120,71,192.41,116,-7.00,-8.00,-931.00
2024-05-17 16:20:56.102696,0,0,10,0,0,0,76,78,136,120,71,192.50,116,11.00,24.00,-1006.00
2024-05-17 16:20:56.118181,0,0,10,0,0,0,76,78,137,120,71,192.54,116,35.00,28.00,-1131.00
2024-05-17 16:20:56.306458,0,0,10,0,0,0,76,78,137,120,71,192.56,117,-10.00,14.00,-1025.00
2024-05-17 16:20:56.322181,0,0,10,0,0,0,76,78,138,120,71,192.57,117,12.00,16.00,-962.00
2024-05-17 16:20:56.511794,0,0,10,0,0,0,76,78,138,120,71,192.55,117,8.00,1.00,-969.00
2024-05-17 16:20:56.525978,0,0,10,0,0,0,76,77,140,120,71,192.53,117,7.00,-9.00,-1123.00
2024-05-17 16:20:56.714770,0,0,10,0,0,0,76,77,140,130,71,192.59,117,-10.00,15.00,-926.00
2024-05-17 16:20:56.729990,0,0,10,0,0,0,76,77,143,130,71,192.64,117,30.00,-6.00,-968.00
2024-05-17 16:20:56.832007,0,0,10,0,0,0,76,77,142,130,71,192.59,117,26.00,11.00,-966.00
2024-05-17 16:20:57.024613,0,0,10,0,0,0,76,77,143,130,71,192.59,117,-30.00,61.00,-974.00
2024-05-17 16:20:57.036060,0,0,4,0,0,0,76,77,144,130,71,192.62,117,-3.00,17.00,-1037.00
2024-05-17 16:20:57.227548,0,0,-1,0,0,0,76,77,144,130,71,192.56,117,-61.00,23.00,-957.00
2024-05-17 16:20:57.240013,0,0,-7,0,0,0,76,77,144,130,71,192.62,118,-102.00,46.00,-941.00
2024-05-17 16:20:57.433722,-1,0,-12,0,0,0,76,77,145,130,71,192.64,118,-69.00,41.00,-1046.00
2024-05-17 16:20:57.444146,-2,0,-18,0,0,0,76,77,146,130,71,192.59,118,3.00,5.00,-962.00
2024-05-17 16:20:57.636298,-1,0,-24,0,0,0,75,78,146,130,71,192.58,118,-18.00,8.00,-984.00
2024-05-17 16:20:57.649104,-1,0,-30,0,0,0,75,78,147,130,71,192.61,118,-77.00,4.00,-1000.00
2024-05-17 16:20:57.842051,-1,-1,-36,0,0,0,75,78,148,130,71,192.62,118,47.00,-30.00,-1053.00
2024-05-17 16:20:57.852031,0,-1,-41,0,0,0,75,78,147,130,71,192.61,118,49.00,1.00,-989.00
2024-05-17 16:20:58.046855,2,-1,-47,0,0,0,75,78,151,130,71,192.62,118,54.00,-24.00,-986.00
2024-05-17 16:20:58.056115,2,-1,-53,0,0,0,75,78,152,130,71,192.56,118,0.00,-12.00,-900.00
2024-05-17 16:20:58.252877,2,-1,-59,0,0,0,75,78,152,130,71,192.61,118,-19.00,-15.00,-1069.00
2024-05-17 16:20:58.259881,0,-1,-64,0,0,0,75,78,147,130,71,192.62,119,31.00,-7.00,-997.00
2024-05-17 16:20:58.455792,0,-1,-70,0,0,0,75,78,146,130,71,192.61,119,-24.00,16.00,-961.00
2024-05-17 16:20:58.464565,-1,-1,-76,0,1,0,75,78,148,130,71,192.64,119,-53.00,20.00,-922.00
2024-05-17 16:20:58.660288,-2,-1,-81,0,1,0,76,78,147,130,71,192.59,119,-3.00,11.00,-1025.00
2024-05-17 16:20:58.668581,-3,0,-87,0,0,0,76,78,146,130,71,192.56,119,-35.00,15.00,-939.00
2024-05-17 16:20:58.865004,-2,0,-93,0,0,0,76,78,144,130,71,192.55,119,65.00,-47.00,-1003.00
2024-05-17 16:20:58.873276,-1,0,-98,0,0,0,76,78,141,130,71,192.52,119,-1.00,-4.00,-1017.00
2024-05-17 16:20:58.924090,0,0,-104,0,0,0,76,78,140,130,71,192.56,119,87.00,-25.00,-1101.00
2024-05-17 16:20:59.069810,0,0,-110,0,0,0,76,78,138,130,71,192.50,119,-5.00,-5.00,-995.00
2024-05-17 16:20:59.128067,0,0,-116,0,0,0,76,78,137,120,71,192.47,119,-13.00,10.00,-964.00
2024-05-17 16:20:59.274692,0,0,-121,0,0,0,76,78,136,120,71,192.50,120,15.00,17.00,-1023.00
2024-05-17 16:20:59.335385,0,0,-127,0,0,0,76,78,136,120,71,192.49,120,-27.00,4.00,-919.00
2024-05-17 16:20:59.434975,0,1,-133,0,0,1,76,78,134,120,71,192.40,120,-13.00,-8.00,-1016.00
2024-05-17 16:20:59.581801,0,1,-139,0,0,0,76,78,132,120,71,192.44,120,40.00,-9.00,-987.00
2024-05-17 16:20:59.638374,0,1,-145,0,0,0,76,78,131,120,71,192.40,120,18.00,16.00,-994.00
2024-05-17 16:20:59.786576,0,1,-151,0,0,0,76,78,132,120,71,192.40,120,-19.00,5.00,-977.00
2024-05-17 16:20:59.842267,0,1,-157,0,0,0,76,78,132,120,71,192.44,120,-18.00,17.00,-942.00
2024-05-17 16:20:59.991521,0,1,-163,0,0,0,76,78,133,120,71,192.41,120,-29.00,-1.00,-998.00
2024-05-17 16:21:00.045947,0,1,-170,0,0,0,76,78,132,120,71,192.45,120,-18.00,11.00,-919.00
2024-05-17 16:21:00.196227,0,1,-176,0,0,0,76,78,130,120,71,192.40,120,7.00,12.00,-968.00
2024-05-17 16:21:00.249949,-1,1,176,0,0,0,76,78,131,120,71,192.45,121,-50.00,-5.00,-878.00
2024-05-17 16:21:00.401324,-1,1,170,0,0,0,76,78,133,120,71,192.37,121,-28.00,4.00,-1058.00
2024-05-17 16:21:00.453928,-2,1,164,0,0,0,76,78,134,120,71,192.43,121,16.00,2.00,-956.00
2024-05-17 16:21:00.605838,-1,1,157,0,0,0,75,78,135,120,71,192.51,121,-12.00,-6.00,-1017.00
2024-05-17 16:21:00.657991,0,2,151,0,0,-1,75,78,140,120,71,192.51,121,2.00,-31.00,-965.00
2024-05-17 16:21:00.810806,1,2,145,0,0,-1,75,78,141,120,71,192.52,121,44.00,-27.00,-1054.00
2024-05-17 16:21:00.870106,2,1,139,0,0,-1,75,78,142,120,71,192.56,121,11.00,10.00,-1005.00
2024-05-17 16:21:00.968948,2,0,133,0,0,0,75,78,144,120,71,192.56,121,-61.00,12.00,-976.00
2024-05-17 16:21:01.066908,2,0,127,0,0,0,75,78,144,130,71,192.60,121,32.00,-18.00,-920.00
2024-05-17 16:21:01.220223,2,0,121,0,0,0,75,78,145,130,71,192.54,121,8.00,36.00,-965.00
2024-05-17 16:21:01.270891,1,0,115,0,0,0,75,78,142,130,71,192.58,122,10.00,0.00,-993.00
2024-05-17 16:21:01.426006,1,0,109,0,0,0,75,78,142,130,71,192.57,122,-38.00,17.00,-986.00
2024-05-17 16:21:01.474911,2,0,103,0,0,0,75,78,142,130,71,192.59,122,46.00,1.00,-989.00
2024-05-17 16:21:01.631045,1,0,97,0,0,0,75,77,138,130,71,192.55,122,44.00,-5.00,-1006.00
2024-05-17 16:21:01.678901,3,0,91,0,0,0,75,77,139,130,71,192.55,122,94.00,-9.00,-1072.00
2024-05-17 16:21:01.834642,3,0,85,0,0,0,75,77,138,130,71,192.54,122,45.00,-5.00,-956.00
2024-05-17 16:21:01.883227,3,0,79,0,0,0,75,77,137,120,71,192.56,122,137.00,-23.00,-1041.00
2024-05-17 16:21:02.039392,2,1,74,0,0,0,75,77,134,120,71,192.51,122,-1.00,36.00,-985.00
2024-05-17 16:21:02.086839,2,0,68,0,0,1,75,77,130,120,71,192.47,122,-53.00,26.00,-1006.00
2024-05-17 16:21:02.244209,1,0,62,0,-1,0,75,77,125,120,71,192.51,122,64.00,-6.00,-980.00
2024-05-17 16:21:02.294620,1,0,56,0,-1,1,75,77,123,120,71,192.42,123,80.00,-4.00,-1077.00
2024-05-17 16:21:02.393024,1,0,51,0,-1,0,75,77,122,120,71,192.38,123,14.00,18.00,-1025.00
2024-05-17 16:21:02.552854,1,0,45,0,0,0,75,77,121,110,71,192.37,123,26.00,11.00,-1100.00
2024-05-17 16:21:02.596877,0,0,39,0,0,0,76,79,120,110,71,192.42,123,-8.00,31.00,-944.00
2024-05-17 16:21:02.756237,1,0,33,0,0,0,76,79,120,110,71,192.44,123,57.00,-16.00,-1021.00
2024-05-17 16:21:02.800835,1,0,27,0,0,0,76,79,124,110,71,192.34,123,57.00,-11.00,-1117.00
2024-05-17 16:21:02.851698,0,0,23,0,0,0,76,79,123,110,71,192.40,123,-29.00,27.00,-1036.00
2024-05-17 16:21:02.962362,1,0,20,0,0,0,76,79,122,110,71,192.45,123,39.00,0.00,-986.00
2024-05-17 16:21:03.055634,1,0,18,0,0,0,76,79,121,110,71,192.35,123,-16.00,-3.00,-942.00
2024-05-17 16:21:03.165803,1,0,16,0,0,0,76,79,122,110,71,192.43,123,49.00,-20.00,-1048.00
2024-05-17 16:21:03.259750,1,-1,15,0,0,0,76,79,127,110,71,192.48,124,-2.00,36.00,-1064.00
2024-05-17 16:21:03.363431,0,-1,14,0,0,0,76,79,129,110,71,192.48,124,-30.00,36.00,-1032.00
2024-05-17 16:21:03.463760,1,0,13,0,0,-1,76,79,125,120,71,192.40,124,35.00,-13.00,-991.00
2024-05-17 16:21:03.566572,2,0,12,0,0,-1,75,79,126,120,71,192.48,124,62.00,-15.00,-981.00
2024-05-17 16:21:03.677979,1,0,12,0,0,0,75,79,127,120,71,192.50,124,-14.00,12.00,-1005.00
2024-05-17 16:21:03.769948,1,0,12,0,0,0,75,79,130,120,71,192.47,124,48.00,16.00,-1036.00
2024-05-17 16:21:03.871934,0,0,12,0,0,0,75,79,129,120,71,192.45,124,18.00,13.00,-941.00
2024-05-17 16:21:03.985137,1,-1,12,0,0,0,75,79,128,120,71,192.44,124,60.00,-23.00,-1033.00
2024-05-17 16:21:04.075956,1,-1,12,0,0,0,75,79,127,120,71,192.42,124,40.00,-4.00,-959.00
2024-05-17 16:21:04.190156,1,0,12,0,0,0,75,79,125,120,71,192.50,124,51.00,3.00,-967.00
2024-05-17 16:21:04.280039,2,0,12,0,0,0,75,79,124,120,71,192.45,125,51.00,1.00,-981.00
2024-05-17 16:21:04.396097,2,0,12,0,0,0,75,79,123,120,71,192.41,125,-5.00,17.00,-997.00
2024-05-17 16:21:04.483934,2,0,12,0,0,0,75,79,123,120,71,192.53,125,-12.00,33.00,-1036.00
2024-05-17 16:21:04.599411,2,0,12,0,0,0,75,79,123,120,71,192.48,125,-40.00,26.00,-1078.00
2024-05-17 16:21:04.687798,1,-1,12,-1,0,0,75,79,123,120,71,192.45,125,-38.00,31.00,-989.00
2024-05-17 16:21:04.789938,0,-1,12,-1,0,0,75,79,125,120,71,192.49,125,63.00,-3.00,-985.00
2024-05-17 16:21:04.906934,-1,-1,12,0,0,0,75,79,123,110,71,192.43,125,51.00,0.00,-1115.00
2024-05-17 16:21:04.993952,0,-1,12,0,0,0,75,79,123,110,71,192.39,125,-56.00,47.00,-912.00
2024-05-17 16:21:05.111442,0,-1,12,0,0,0,75,79,125,110,71,192.44,125,-11.00,46.00,-1017.00
2024-05-17 16:21:05.197914,0,0,12,0,0,0,75,79,124,110,71,192.44,125,-35.00,46.00,-992.00
2024-05-17 16:21:05.299878,0,-1,12,0,0,0,75,79,125,110,71,192.39,126,-61.00,38.00,-1055.00
2024-05-17 16:21:05.418744,0,-1,12,0,0,0,75,79,126,110,71,192.45,126,-1.00,32.00,-960.00
2024-05-17 16:21:05.503765,0,-1,12,0,0,0,75,79,127,120,71,192.47,126,78.00,25.00,-1044.00
2024-05-17 16:21:05.605647,0,-1,12,0,0,-1,76,79,126,120,71,192.48,126,-3.00,-4.00,-1094.00
2024-05-17 16:21:05.727008,2,0,12,0,0,-1,76,79,129,120,71,192.64,126,5.00,16.00,-1586.00
2024-05-17 16:21:05.809795,0,0,12,0,0,-5,76,79,137,120,71,192.58,126,22.00,51.00,-1581.00
2024-05-17 16:21:05.911622,-1,-14,12,1,0,-11,76,79,231,130,71,192.75,126,2.00,369.00,-1108.00
2024-05-17 16:21:06.035350,-3,-105,13,3,-6,-11,76,79,172,140,71,192.87,126,-49.00,750.00,-1111.00
2024-05-17 16:21:06.116628,2,117,14,3,-10,3,76,79,199,150,71,193.14,126,19.00,267.00,-1569.00
2024-05-17 16:21:06.218538,0,15,9,2,-2,10,76,79,143,140,71,192.49,126,-48.00,-119.00,-1534.00
2024-05-17 16:21:06.268654,0,4,9,2,-1,6,76,79,137,130,71,192.62,127,-65.00,12.00,-1197.00
2024-05-17 16:21:06.442663,0,1,11,1,0,3,76,79,136,120,71,192.48,127,29.00,-3.00,-1194.00
2024-05-17 16:21:06.472636,0,0,12,1,0,1,76,79,132,120,71,192.56,127,12.00,37.00,-1141.00
2024-05-17 16:21:06.647856,0,-1,12,1,0,0,76,78,132,120,71,192.62,127,51.00,-19.00,-1116.00
2024-05-17 16:21:06.732498,1,0,12,1,0,0,76,78,131,120,71,192.55,127,-14.00,7.00,-1010.00
2024-05-17 16:21:06.829745,3,2,12,1,0,0,76,78,135,120,71,192.59,127,0.00,-12.00,-897.00
2024-05-17 16:21:06.880514,3,2,12,0,0,0,76,78,134,120,71,192.51,127,-38.00,24.00,-903.00
2024-05-17 16:21:07.066963,2,0,12,0,0,0,76,78,132,120,71,192.48,127,1.00,18.00,-1052.00
2024-05-17 16:21:07.084569,2,0,12,0,0,0,76,78,128,120,71,192.57,127,50.00,-16.00,-971.00
2024-05-17 16:21:07.186748,2,0,12,0,0,0,76,78,127,120,71,192.48,128,-2.00,30.00,-883.00
2024-05-17 16:21:07.288584,1,0,12,0,0,0,76,78,124,120,71,192.49,128,-34.00,50.00,-1027.00
2024-05-17 16:21:07.466538,0,0,12,0,0,0,76,78,124,120,71,192.52,128,17.00,-17.00,-984.00
2024-05-17 16:21:07.492800,0,0,12,0,0,0,76,78,123,120,71,192.45,128,13.00,4.00,-987.00
2024-05-17 16:21:07.673591,0,0,12,0,0,0,75,78,123,120,71,192.45,128,24.00,14.00,-1065.00
2024-05-17 16:21:07.696586,1,0,12,0,0,0,75,78,121,120,71,192.48,128,10.00,13.00,-1002.00
2024-05-17 16:21:07.798614,1,0,12,0,0,0,75,78,119,120,71,192.44,128,26.00,20.00,-918.00
2024-05-17 16:21:07.979913,1,0,12,0,0,0,75,78,118,120,71,192.45,128,-15.00,26.00,-957.00
2024-05-17 16:21:08.002583,0,0,12,0,0,0,75,78,118,120,71,192.38,128,69.00,-12.00,-1084.00
2024-05-17 16:21:08.183293,1,0,12,0,0,0,75,78,118,120,71,192.38,128,-7.00,8.00,-1047.00
2024-05-17 16:21:08.206552,0,0,12,0,0,0,75,78,121,110,71,192.45,129,21.00,0.00,-1061.00
2024-05-17 16:21:08.389498,1,0,12,0,0,0,75,78,120,110,71,192.38,129,11.00,13.00,-911.00
2024-05-17 16:21:08.411154,0,0,12,0,0,0,75,78,121,120,71,192.39,129,-20.00,35.00,-971.00
2024-05-17 16:21:08.593246,0,0,12,0,0,0,75,78,127,120,71,192.50,129,4.00,3.00,-1028.00
2024-05-17 16:21:08.614528,0,0,12,0,0,0,76,78,127,120,71,192.45,129,-19.00,19.00,-925.00
2024-05-17 16:21:08.718356,0,0,12,0,0,0,76,78,130,120,71,192.51,129,30.00,-10.00,-1005.00
2024-05-17 16:21:08.820790,0,0,12,0,0,0,76,78,128,120,71,192.46,129,-13.00,26.00,-1032.00
2024-05-17 16:21:08.922099,0,0,12,0,0,0,76,78,132,120,71,192.52,129,28.00,3.00,-1039.00
2024-05-17 16:21:09.023065,1,0,12,0,0,0,76,78,134,120,71,192.49,129,-1.00,-17.00,-988.00
2024-05-17 16:21:09.207381,1,0,12,0,0,0,76,78,134,120,71,192.54,129,44.00,7.00,-1030.00
2024-05-17 16:21:09.230464,1,0,12,0,0,0,76,78,135,130,71,192.49,130,34.00,-8.00,-1047.00
2024-05-17 16:21:09.328729,1,0,12,0,0,0,76,78,136,130,71,192.59,130,39.00,3.00,-1007.00
2024-05-17 16:21:09.514600,0,0,12,0,0,0,76,78,137,130,71,192.60,130,-13.00,24.00,-957.00
2024-05-17 16:21:09.534125,0,0,12,0,0,0,76,78,138,130,71,192.57,130,-16.00,24.00,-887.00
2024-05-17 16:21:09.634719,0,0,12,0,0,0,76,78,138,130,71,192.52,130,9.00,2.00,-1076.00
2024-05-17 16:21:09.736902,0,0,12,0,0,0,76,78,138,130,71,192.59,130,6.00,-2.00,-1037.00
2024-05-17 16:21:09.838784,0,0,12,0,0,0,76,78,138,130,71,192.49,130,-7.00,-15.00,-965.00
2024-05-17 16:21:09.940907,0,0,12,0,0,0,76,78,138,130,71,192.63,130,-28.00,32.00,-1041.00
2024-05-17 16:21:09.991620,1,0,12,0,0,0,76,78,138,130,71,192.48,130,-39.00,23.00,-963.00
2024-05-17 16:21:10.130640,0,0,12,0,0,0,76,78,137,130,71,192.48,130,46.00,30.00,-1011.00
2024-05-17 16:21:10.195856,1,0,12,0,0,0,76,78,136,130,71,192.56,131,31.00,-3.00,-999.00
2024-05-17 16:21:10.333840,2,0,12,0,0,0,76,78,138,130,71,192.58,131,-35.00,11.00,-971.00
2024-05-17 16:21:10.399996,1,0,12,0,0,0,76,78,139,120,71,192.62,131,-4.00,29.00,-1020.00
2024-05-17 16:21:10.538698,0,0,12,0,0,0,76,78,137,120,71,192.55,131,11.00,23.00,-937.00
2024-05-17 16:21:10.603694,0,0,12,0,0,0,76,78,139,120,71,192.58,131,-45.00,18.00,-1003.00
2024-05-17 16:21:10.743728,0,0,12,0,0,0,76,78,141,120,71,192.58,131,57.00,-4.00,-1002.00
2024-05-17 16:21:10.809935,0,0,12,0,0,0,76,78,140,120,71,192.62,131,10.00,-9.00,-975.00
2024-05-17 16:21:10.948228,0,0,12,0,0,0,76,78,141,120,71,192.60,131,32.00,11.00,-1070.00
2024-05-17 16:21:11.014792,0,0,12,0,0,0,76,78,139,120,71,192.59,131,-56.00,38.00,-908.00
2024-05-17 16:21:11.115320,0,0,12,0,0,0,76,78,139,120,71,192.54,131,89.00,-25.00,-1121.00
2024-05-17 16:21:11.216725,1,0,12,0,0,0,76,78,142,120,71,192.64,132,46.00,-1.00,-964.00
2024-05-17 16:21:11.359688,1,0,12,0,0,0,76,78,143,130,71,192.58,132,-9.00,18.00,-962.00
2024-05-17 16:21:11.420471,2,0,12,0,0,0,76,78,147,130,71,192.61,132,4.00,-4.00,-919.00
2024-05-17 16:21:11.567672,2,0,12,0,0,0,76,78,147,130,71,192.57,132,51.00,-11.00,-1027.00
2024-05-17 16:21:11.624622,2,0,12,0,0,0,77,78,148,130,71,192.69,132,-27.00,26.00,-1012.00
2024-05-17 16:21:11.726599,1,0,12,-1,0,0,77,78,143,130,71,192.61,132,-32.00,10.00,-926.00
2024-05-17 16:21:11.870213,0,0,12,-1,0,1,77,78,146,130,71,192.57,132,45.00,-12.00,-1055.00
2024-05-17 16:21:11.931374,0,-1,12,-1,0,0,77,78,147,130,71,192.64,132,97.00,-34.00,-1134.00
2024-05-17 16:21:12.076665,0,-1,12,0,0,0,77,78,143,130,71,192.63,132,49.00,-19.00,-941.00
2024-05-17 16:21:12.134612,1,0,12,0,0,0,77,78,145,130,71,192.68,132,15.00,13.00,-973.00
2024-05-17 16:21:12.236505,1,0,12,0,0,0,77,78,144,130,71,192.58,133,8.00,15.00,-992.00
2024-05-17 16:21:12.383642,0,0,12,0,0,0,77,78,142,130,71,192.83,133,0.00,12.00,-1307.00
2024-05-17 16:21:12.440393,-1,2,12,0,1,-4,77,78,147,130,71,192.89,133,31.00,11.00,-1710.00
2024-05-17 16:21:12.592024,-1,11,12,0,2,-11,77,78,165,130,71,192.78,133,3.00,-44.00,-1813.00
2024-05-17 16:21:12.646964,-1,101,12,-1,9,-11,77,78,360,150,71,192.91,133,62.00,674.00,-1228.00
2024-05-17 16:21:12.746631,1,-136,10,-2,12,3,77,78,221,150,71,192.89,133,50.00,744.00,-873.00
2024-05-17 16:21:12.894410,0,-22,14,0,5,11,77,78,164,140,71,193.28,133,2.00,683.00,-1208.00
2024-05-17 16:21:12.951620,-4,22,13,0,7,9,77,78,164,130,71,192.75,133,53.00,108.00,-1166.00
2024-05-17 16:21:13.101043,0,-1,13,0,10,5,77,78,140,130,71,192.67,133,40.00,-107.00,-1469.00
2024-05-17 16:21:13.154310,1,-8,12,0,9,2,77,78,140,120,71,192.56,133,7.00,-56.00,-1354.00
2024-05-17 16:21:13.304088,1,-9,12,0,6,0,77,78,139,120,71,192.46,134,-49.00,-12.00,-1097.00
2024-05-17 16:21:13.358309,1,-7,12,0,4,0,77,78,136,120,71,192.48,134,56.00,-40.00,-1173.00
2024-05-17 16:21:13.508117,0,-3,12,0,3,-1,77,78,137,120,71,192.53,134,-9.00,-13.00,-995.00
2024-05-17 16:21:13.562303,0,-2,12,0,2,-1,77,78,135,120,71,192.45,134,10.00,21.00,-1005.00
2024-05-17 16:21:13.713097,0,-1,12,0,2,-1,76,79,136,120,71,192.56,134,49.00,17.00,-1026.00
2024-05-17 16:21:13.773425,0,-1,12,0,2,-1,76,79,136,120,71,192.62,134,40.00,10.00,-939.00
2024-05-17 16:21:13.878825,0,-1,12,0,2,0,76,79,134,120,71,192.52,134,9.00,8.00,-925.00
2024-05-17 16:21:13.975623,0,-2,12,0,2,0,76,79,134,120,71,192.49,134,-31.00,49.00,-1011.00
2024-05-17 16:21:14.021295,0,-4,12,0,2,0,76,79,133,120,71,192.56,134,-28.00,18.00,-977.00
2024-05-17 16:21:14.224932,0,-5,13,0,1,0,76,79,131,120,71,192.43,134,-76.00,49.00,-943.00
2024-05-17 16:21:14.225235,-1,-4,12,0,0,0,76,79,131,120,71,192.44,135,-50.00,35.00,-964.00
2024-05-17 16:21:14.327465,-1,-3,12,0,0,0,76,79,129,120,71,192.52,135,-56.00,59.00,-1045.00
2024-05-17 16:21:14.429639,-1,-2,12,0,0,0,76,79,127,120,70,192.44,135,14.00,11.00,-1029.00
2024-05-17 16:21:14.532100,-1,-2,12,0,0,0,76,79,125,120,70,192.47,135,-42.00,46.00,-994.00
2024-05-17 16:21:14.634470,0,-2,12,0,0,0,76,78,123,110,70,192.48,135,-83.00,61.00,-952.00
2024-05-17 16:21:14.737040,0,-2,12,0,0,0,76,78,122,110,70,192.42,135,-55.00,62.00,-1052.00
2024-05-17 16:21:14.839752,0,-2,12,0,0,0,76,78,121,110,70,192.43,135,-29.00,58.00,-1042.00
2024-05-17 16:21:14.939319,0,-3,12,0,0,0,76,78,121,110,70,192.48,135,-1.00,40.00,-1012.00
2024-05-17 16:21:15.045447,0,-3,12,0,0,0,76,78,120,110,70,192.41,135,33.00,10.00,-1023.00
2024-05-17 16:21:15.143404,0,-2,12,0,0,0,76,78,119,110,70,192.38,135,51.00,18.00,-998.00
2024-05-17 16:21:15.248922,0,-2,12,0,0,0,76,78,117,110,70,192.39,136,4.00,5.00,-972.00
2024-05-17 16:21:15.347265,0,-2,12,0,0,0,76,78,115,110,70,192.39,136,13.00,23.00,-1017.00
2024-05-17 16:21:15.453839,0,-1,12,0,0,0,76,78,115,110,70,192.40,136,66.00,7.00,-1019.00
2024-05-17 16:21:15.553781,0,-1,12,0,0,0,76,78,114,110,70,192.39,136,64.00,17.00,-1072.00
2024-05-17 16:21:15.653252,0,-1,12,0,0,0,75,78,113,110,70,192.37,136,-9.00,26.00,-1031.00
2024-05-17 16:21:15.760918,0,-1,12,0,0,0,75,78,113,110,70,192.36,136,-1.00,27.00,-888.00
2024-05-17 16:21:15.857639,0,-1,12,0,0,0,75,78,112,110,70,192.37,136,0.00,22.00,-931.00
