TS,pitch,roll,yaw,vgx,vgy,vgz,templ,temph,tof,h,bat,baro,time,agx,agy,agz
2024-06-07 10:18:31.415680,1,0,2,0,0,0,82,84,10,0,52,129.96,256,21.00,-13.00,-999.00
2024-06-07 10:18:31.466419,1,0,2,0,0,0,82,84,10,0,52,129.99,256,20.00,-13.00,-998.00
2024-06-07 10:18:31.626280,1,0,2,0,0,0,82,85,10,0,52,129.96,256,21.00,-14.00,-1000.00
2024-06-07 10:18:31.672878,1,0,2,0,0,0,82,85,10,0,52,129.98,256,21.00,-13.00,-999.00
2024-06-07 10:18:31.772583,1,0,2,0,0,0,82,85,10,0,52,130.01,256,22.00,-11.00,-1000.00
2024-06-07 10:18:31.872929,1,0,2,0,0,0,82,85,10,0,52,129.98,256,21.00,-13.00,-997.00
2024-06-07 10:18:32.029977,1,0,2,0,0,0,82,85,10,0,52,129.99,256,19.00,-13.00,-1000.00
2024-06-07 10:18:32.076965,1,0,2,0,0,0,82,85,10,0,52,129.99,256,21.00,-13.00,-1001.00
2024-06-07 10:18:32.234702,1,0,2,0,0,0,82,85,10,0,52,129.99,256,22.00,-12.00,-997.00
2024-06-07 10:18:32.281322,1,0,2,0,0,0,82,85,10,0,52,130.01,256,22.00,-14.00,-1000.00
2024-06-07 10:18:32.439468,1,0,2,0,0,0,82,85,10,0,52,130.03,256,21.00,-12.00,-1000.00
2024-06-07 10:18:32.439529,1,0,2,0,0,0,82,85,10,0,52,130.02,256,20.00,-13.00,-999.00
2024-06-07 10:18:32.587056,1,0,2,0,0,0,81,85,10,0,52,130.00,256,21.00,-14.00,-998.00
2024-06-07 10:18:32.849303,1,0,2,0,0,0,81,85,10,0,52,130.00,256,20.00,-14.00,-999.00
2024-06-07 10:18:32.849526,1,0,2,0,0,0,81,85,10,0,52,130.02,256,21.00,-13.00,-998.00
2024-06-07 10:18:32.849921,1,0,2,0,0,0,81,85,10,0,52,129.98,256,21.00,-12.00,-1000.00
2024-06-07 10:18:32.945819,1,0,2,0,0,0,81,85,10,0,52,130.00,256,21.00,-12.00,-1000.00
2024-06-07 10:18:33.048424,1,0,2,0,0,0,81,85,10,0,52,129.99,256,21.00,-12.00,-1001.00
2024-06-07 10:18:33.150237,1,0,2,0,0,0,81,85,10,0,52,129.99,256,22.00,-13.00,-1002.00
2024-06-07 10:18:33.250015,1,0,2,0,0,0,81,85,10,0,52,129.95,256,22.00,-14.00,-998.00
2024-06-07 10:18:33.361175,1,0,2,0,0,0,81,85,10,0,52,129.99,256,21.00,-13.00,-999.00
2024-06-07 10:18:33.457749,1,0,2,0,0,0,81,85,10,0,52,130.02,256,22.00,-11.00,-1001.00
2024-06-07 10:18:33.556343,1,0,2,0,0,0,82,83,10,0,52,130.01,256,23.00,-14.00,-1000.00
2024-06-07 10:18:33.668309,1,0,2,0,0,0,82,83,10,0,52,129.98,256,21.00,-11.00,-1000.00
2024-06-07 10:18:33.760673,1,0,2,0,0,0,82,83,10,0,52,129.94,256,20.00,-13.00,-998.00
2024-06-07 10:18:33.878227,1,0,2,0,0,0,82,83,10,0,52,129.96,256,22.00,-13.00,-999.00
2024-06-07 10:18:33.964338,1,0,2,0,0,0,82,83,10,0,52,130.02,256,22.00,-12.00,-998.00
2024-06-07 10:18:34.066883,1,0,2,0,0,0,82,83,10,0,52,129.99,256,16.00,-8.00,-1000.00
2024-06-07 10:18:34.181234,1,0,2,0,0,0,82,83,10,0,52,129.99,256,20.00,-15.00,-997.00
2024-06-07 10:18:34.271343,1,0,2,0,0,0,82,83,10,0,52,129.99,257,35.00,2.00,-999.00
2024-06-07 10:18:34.374038,1,0,2,0,0,0,82,83,10,0,52,129.99,257,39.00,-23.00,-996.00
2024-06-07 10:18:34.478502,1,0,3,0,0,0,82,83,10,0,52,129.99,257,-26.00,-10.00,-1018.00
2024-06-07 10:18:34.576197,0,1,3,0,0,0,83,84,10,0,52,129.99,257,-7.00,10.00,-1089.00
2024-06-07 10:18:34.692264,-1,4,2,0,0,0,83,84,10,0,52,129.99,257,61.00,-24.00,-1107.00
2024-06-07 10:18:34.779946,-2,4,2,0,1,-2,83,84,10,0,52,129.99,257,-52.00,15.00,-1262.00
2024-06-07 10:18:34.898724,-1,1,2,1,2,-5,83,84,12,0,52,129.99,257,51.00,-66.00,-1170.00
2024-06-07 10:18:34.984524,2,-3,2,1,1,-7,83,84,19,10,52,130.48,257,49.00,-115.00,-1135.00
2024-06-07 10:18:35.086164,3,-4,2,0,0,-8,83,84,28,10,52,130.61,257,-1.00,-64.00,-998.00
2024-06-07 10:18:35.204577,1,-1,2,0,0,-8,83,84,34,20,52,130.70,257,-37.00,-15.00,-985.00
2024-06-07 10:18:35.289917,1,0,2,0,0,-8,83,84,43,30,52,130.76,258,-27.00,8.00,-948.00
2024-06-07 10:18:35.409254,0,0,2,0,0,-7,83,84,51,30,52,130.83,258,15.00,-28.00,-937.00
2024-06-07 10:18:35.493788,0,0,2,0,0,-6,83,84,58,40,52,130.86,258,24.00,-32.00,-870.00
2024-06-07 10:18:35.614535,0,2,2,0,-1,-4,82,84,64,50,52,130.90,258,-16.00,-8.00,-910.00
2024-06-07 10:18:35.697927,0,2,2,0,-1,-3,82,84,68,50,52,130.98,258,-74.00,6.00,-910.00
2024-06-07 10:18:35.818687,0,2,2,0,-1,-2,82,84,72,60,52,131.03,258,15.00,-25.00,-951.00
2024-06-07 10:18:35.901849,0,3,2,0,-1,-1,82,84,74,60,52,131.08,258,-62.00,-23.00,-926.00
2024-06-07 10:18:36.023442,0,3,2,0,-1,0,82,84,77,60,52,131.08,258,-1.00,-18.00,-918.00
2024-06-07 10:18:36.105807,0,3,2,0,-1,0,82,84,77,60,52,131.06,258,79.00,-55.00,-1043.00
2024-06-07 10:18:36.228464,0,3,2,0,-1,0,82,84,79,60,52,131.10,259,19.00,-56.00,-996.00
2024-06-07 10:18:36.310905,0,4,2,0,0,0,82,84,80,60,52,131.15,259,-92.00,-39.00,-1025.00
2024-06-07 10:18:36.433055,0,4,2,0,0,0,82,84,81,60,52,131.08,259,-22.00,-36.00,-1049.00
2024-06-07 10:18:36.462526,-2,3,2,0,0,0,82,84,83,60,52,131.02,259,76.00,-90.00,-1018.00
2024-06-07 10:18:36.638179,-1,4,2,0,0,0,82,84,83,70,52,131.18,259,15.00,-42.00,-938.00
2024-06-07 10:18:36.666697,0,4,2,0,0,0,82,84,84,70,52,131.16,259,-50.00,-51.00,-953.00
2024-06-07 10:18:36.842797,-1,4,2,0,0,0,82,84,84,70,52,131.19,259,75.00,-60.00,-1049.00
2024-06-07 10:18:36.871264,0,4,2,0,0,0,82,84,85,70,52,131.14,259,-53.00,-30.00,-958.00
2024-06-07 10:18:36.973245,-1,3,2,0,0,0,82,84,86,70,52,131.13,259,-44.00,-49.00,-943.00
2024-06-07 10:18:37.074563,-1,4,2,0,0,0,82,84,87,70,52,131.26,259,36.00,-83.00,-1031.00
2024-06-07 10:18:37.177965,0,4,2,0,0,0,82,84,88,70,52,131.15,260,-41.00,-62.00,-943.00
2024-06-07 10:18:37.278603,-1,4,2,0,0,0,82,84,90,70,52,131.19,260,-64.00,-56.00,-953.00
2024-06-07 10:18:37.457082,-2,4,2,0,0,0,82,84,91,70,52,131.26,260,-43.00,-44.00,-1065.00
2024-06-07 10:18:37.485805,0,4,2,0,0,0,82,84,91,70,52,131.23,260,-3.00,-96.00,-999.00
2024-06-07 10:18:37.585362,0,5,2,0,0,0,82,84,92,70,52,131.21,260,-19.00,-57.00,-980.00
2024-06-07 10:18:37.688448,0,5,2,0,0,0,82,84,92,70,52,131.28,260,-68.00,-44.00,-891.00
2024-06-07 10:18:37.796805,-1,4,2,0,0,1,82,84,92,70,52,131.31,260,48.00,-89.00,-1018.00
2024-06-07 10:18:37.890523,-2,3,2,0,0,0,82,84,91,70,52,131.27,260,-92.00,-50.00,-1029.00
2024-06-07 10:18:37.992534,-1,3,2,0,0,0,82,84,90,70,52,131.21,260,-10.00,-65.00,-938.00
2024-06-07 10:18:38.094423,0,4,2,0,0,1,82,84,91,70,52,131.22,260,7.00,-98.00,-951.00
2024-06-07 10:18:38.196533,0,4,2,0,0,0,82,84,89,70,52,131.23,261,7.00,-87.00,-1089.00
2024-06-07 10:18:38.298629,0,4,2,0,0,0,82,84,88,70,52,131.22,261,-28.00,-63.00,-960.00
2024-06-07 10:18:38.400519,0,4,2,0,0,0,82,84,87,70,52,131.13,261,24.00,-106.00,-1029.00
2024-06-07 10:18:38.502502,-1,4,2,0,0,0,82,84,85,70,52,131.14,261,6.00,-65.00,-982.00
2024-06-07 10:18:38.604501,-1,4,2,0,0,1,82,84,82,70,52,131.12,261,-116.00,-59.00,-1000.00
2024-06-07 10:18:38.706594,-1,2,2,0,0,0,82,84,81,70,52,131.25,261,55.00,-119.00,-1034.00
2024-06-07 10:18:38.808538,-1,3,2,0,0,0,82,84,79,70,52,131.29,261,38.00,-134.00,-1060.00
2024-06-07 10:18:38.996193,-1,4,2,0,0,0,82,84,78,70,52,131.22,261,48.00,-113.00,-997.00
2024-06-07 10:18:39.012907,-2,4,2,0,0,0,82,84,77,70,52,131.32,261,41.00,-139.00,-1060.00
2024-06-07 10:18:39.114756,-2,4,2,0,0,0,82,84,77,60,52,131.26,261,47.00,-124.00,-1110.00
2024-06-07 10:18:39.300596,-1,5,2,0,0,0,82,84,76,60,52,131.14,262,57.00,-118.00,-979.00
2024-06-07 10:18:39.318516,0,5,2,0,0,0,82,84,76,60,52,131.11,262,-22.00,-82.00,-1016.00
2024-06-07 10:18:39.507084,0,6,2,0,0,0,82,84,76,60,52,131.13,262,29.00,-131.00,-1019.00
2024-06-07 10:18:39.522336,0,5,2,0,0,0,82,84,76,60,52,131.23,262,-43.00,-100.00,-1083.00
2024-06-07 10:18:39.709834,-1,5,2,0,0,0,82,84,75,60,52,131.21,262,31.00,-152.00,-995.00
2024-06-07 10:18:39.726476,-1,5,2,0,0,0,82,84,75,60,52,131.18,262,-95.00,-74.00,-999.00
2024-06-07 10:18:39.828412,-1,4,2,0,0,0,82,84,74,60,52,131.21,262,-15.00,-102.00,-959.00
2024-06-07 10:18:39.938311,0,4,2,0,0,0,82,84,74,60,52,131.18,262,-73.00,-78.00,-987.00
2024-06-07 10:18:40.032581,0,4,2,0,0,0,82,84,74,60,52,131.18,262,-32.00,-89.00,-1031.00
2024-06-07 10:18:40.226202,0,4,2,0,0,0,82,84,73,60,52,131.23,262,-35.00,-98.00,-1023.00
2024-06-07 10:18:40.236420,0,4,2,0,0,0,82,84,73,60,52,131.18,263,105.00,-133.00,-979.00
2024-06-07 10:18:40.288789,0,5,2,1,0,0,82,84,73,60,52,131.18,263,15.00,-63.00,-1020.00
2024-06-07 10:18:40.427254,1,4,2,1,0,0,82,84,73,60,52,131.21,263,-46.00,-107.00,-980.00
2024-06-07 10:18:40.491580,0,5,2,0,0,0,82,84,73,60,52,131.24,263,20.00,-97.00,-1036.00
2024-06-07 10:18:40.631438,0,5,2,0,0,0,82,84,73,60,52,131.23,263,48.00,-120.00,-954.00
2024-06-07 10:18:40.698395,1,5,2,1,0,0,82,84,74,60,52,131.19,263,52.00,-111.00,-1024.00
2024-06-07 10:18:40.799074,1,4,2,0,0,0,82,84,75,60,52,131.18,263,-5.00,-38.00,-1023.00
2024-06-07 10:18:40.901130,1,4,2,0,0,0,82,84,74,60,52,131.23,263,29.00,-91.00,-995.00
2024-06-07 10:18:41.003829,0,4,2,0,0,0,82,84,74,60,52,131.21,263,62.00,-85.00,-920.00
2024-06-07 10:18:41.103671,1,4,2,1,0,0,82,84,75,60,52,131.17,263,87.00,-99.00,-1064.00
2024-06-07 10:18:41.246703,1,4,2,0,0,0,82,84,75,60,52,131.16,264,-26.00,-37.00,-937.00
2024-06-07 10:18:41.308243,1,4,2,0,0,0,82,84,75,60,52,131.17,264,56.00,-60.00,-1039.00
2024-06-07 10:18:41.450838,0,3,2,0,0,0,82,84,76,60,52,131.15,264,2.00,-101.00,-1004.00
2024-06-07 10:18:41.511626,1,3,2,0,0,0,82,84,76,60,52,131.17,264,-9.00,-52.00,-944.00
2024-06-07 10:18:41.655441,0,3,2,0,0,0,82,84,77,60,52,131.11,264,64.00,-77.00,-970.00
2024-06-07 10:18:41.716830,1,2,2,0,0,0,82,84,78,60,52,131.24,264,0.00,-59.00,-997.00
2024-06-07 10:18:41.819880,1,2,2,0,0,0,82,84,78,60,52,131.13,264,54.00,-78.00,-949.00
2024-06-07 10:18:41.919538,0,3,2,0,0,0,82,84,79,60,52,131.26,264,-38.00,-72.00,-1022.00
2024-06-07 10:18:42.065058,0,3,2,0,0,0,82,84,79,60,52,131.17,264,6.00,-63.00,-1042.00
2024-06-07 10:18:42.123532,0,3,2,0,0,0,82,84,79,60,52,131.23,264,70.00,-106.00,-972.00
2024-06-07 10:18:42.225521,0,3,2,0,0,0,82,84,79,60,52,131.13,265,23.00,-90.00,-931.00
2024-06-07 10:18:42.372253,1,2,2,1,0,0,82,84,78,60,52,131.14,265,57.00,-123.00,-1025.00
2024-06-07 10:18:42.429497,3,3,2,0,0,0,82,84,78,60,52,131.22,265,46.00,-88.00,-1003.00
2024-06-07 10:18:42.577076,1,4,2,0,0,0,82,84,77,60,52,131.23,265,88.00,-108.00,-969.00
2024-06-07 10:18:42.633585,1,5,2,0,0,0,82,84,76,60,52,131.17,265,-48.00,-63.00,-1007.00
2024-06-07 10:18:42.735737,0,4,2,0,0,0,82,84,75,60,52,131.21,265,-10.00,-27.00,-1044.00
2024-06-07 10:18:42.884292,0,4,2,0,0,0,82,84,75,60,52,131.14,265,-47.00,-51.00,-1010.00
2024-06-07 10:18:42.939654,0,3,2,0,0,0,82,84,75,60,52,131.15,265,16.00,-61.00,-1055.00
2024-06-07 10:18:43.089694,0,4,2,0,0,0,82,84,74,60,52,131.16,265,6.00,-77.00,-1031.00
2024-06-07 10:18:43.144428,0,4,2,0,0,0,82,84,74,60,52,131.14,265,13.00,-65.00,-988.00
2024-06-07 10:18:43.294172,0,4,2,0,0,0,82,84,74,60,52,131.10,266,9.00,-61.00,-917.00
2024-06-07 10:18:43.348748,0,4,2,0,0,0,82,84,74,60,52,131.12,266,-87.00,-63.00,-980.00
2024-06-07 10:18:43.498936,0,4,2,0,0,0,82,84,75,60,52,131.16,266,13.00,-75.00,-950.00
2024-06-07 10:18:43.552368,-1,4,2,0,0,0,82,84,76,60,52,131.12,266,-80.00,-67.00,-1026.00
2024-06-07 10:18:43.703589,-1,4,2,0,0,0,81,84,76,60,52,131.10,266,-19.00,-48.00,-1012.00
2024-06-07 10:18:43.756336,0,4,2,0,0,0,81,84,76,60,52,131.10,266,9.00,-83.00,-987.00
2024-06-07 10:18:43.908307,0,4,2,0,0,0,81,84,77,60,52,131.11,266,-49.00,-59.00,-920.00
2024-06-07 10:18:43.960459,0,4,2,0,0,0,81,84,76,60,52,131.14,266,114.00,-90.00,-1043.00
2024-06-07 10:18:44.114728,0,4,2,0,0,0,81,84,75,60,52,131.13,266,-32.00,-79.00,-969.00
2024-06-07 10:18:44.114950,0,4,2,0,0,0,81,84,74,60,52,131.16,266,-8.00,-91.00,-981.00
2024-06-07 10:18:44.215840,1,4,2,0,0,0,81,84,72,60,52,131.11,267,36.00,-93.00,-965.00
2024-06-07 10:18:44.324465,1,4,2,0,0,0,81,84,72,60,52,131.05,267,49.00,-107.00,-996.00
2024-06-07 10:18:44.420107,1,4,2,0,0,0,81,84,71,60,52,131.08,267,54.00,-96.00,-1004.00
2024-06-07 10:18:44.523748,0,4,2,0,0,0,81,84,71,60,52,131.10,267,70.00,-76.00,-1065.00
2024-06-07 10:18:44.625361,0,3,2,0,0,0,82,84,72,60,52,131.13,267,32.00,-63.00,-1075.00
2024-06-07 10:18:44.725396,0,3,2,0,0,0,82,84,72,60,52,131.05,267,82.00,-96.00,-942.00
2024-06-07 10:18:44.829834,0,3,2,0,0,0,82,84,73,60,52,131.07,267,-61.00,-37.00,-995.00
2024-06-07 10:18:44.929433,0,3,2,0,0,0,82,84,73,60,52,131.08,267,44.00,-85.00,-1089.00
2024-06-07 10:18:45.034842,0,3,2,0,0,-1,82,84,76,60,52,131.10,267,-24.00,-38.00,-1055.00
2024-06-07 10:18:45.133367,0,3,2,0,0,-2,82,84,78,60,52,131.23,267,66.00,-119.00,-1050.00
2024-06-07 10:18:45.239418,0,3,2,0,0,-3,82,84,82,70,52,131.15,268,23.00,-59.00,-1052.00
2024-06-07 10:18:45.339066,0,3,2,0,0,-4,82,84,86,70,52,131.26,268,-13.00,-68.00,-1147.00
2024-06-07 10:18:45.439352,0,3,2,0,0,-4,82,84,91,70,52,131.23,268,65.00,-107.00,-1125.00
2024-06-07 10:18:45.649024,0,3,2,0,0,-5,82,84,96,80,52,131.27,268,-33.00,-63.00,-992.00
2024-06-07 10:18:45.649092,0,3,2,0,0,-5,82,84,101,80,52,131.34,268,-12.00,-79.00,-987.00
2024-06-07 10:18:45.748772,0,3,2,0,0,-5,82,84,108,90,52,131.42,268,19.00,-54.00,-1022.00
2024-06-07 10:18:45.847726,-1,3,2,0,0,-5,82,84,113,100,52,131.54,268,-41.00,-60.00,-980.00
2024-06-07 10:18:45.956213,-1,3,2,0,0,-5,82,84,120,100,52,131.57,268,44.00,-54.00,-937.00
2024-06-07 10:18:46.052914,0,2,2,0,0,-5,82,84,125,110,52,131.70,268,67.00,-99.00,-987.00
2024-06-07 10:18:46.155718,0,2,2,1,0,-5,82,84,128,110,52,131.59,268,50.00,-81.00,-1000.00
2024-06-07 10:18:46.263347,2,3,2,1,0,-5,82,84,134,120,52,131.71,269,0.00,-16.00,-907.00
2024-06-07 10:18:46.360145,2,3,2,0,0,-4,82,84,135,120,52,131.74,269,-2.00,-66.00,-990.00
2024-06-07 10:18:46.460196,1,3,2,0,0,-3,82,84,138,130,52,131.78,269,64.00,-69.00,-938.00
2024-06-07 10:18:46.570638,2,3,2,0,0,-3,82,84,140,130,52,131.80,269,43.00,-78.00,-970.00
2024-06-07 10:18:46.664475,2,3,2,0,0,-2,81,84,144,130,52,131.78,269,38.00,-104.00,-939.00
2024-06-07 10:18:46.775515,2,3,2,0,0,-1,81,84,145,130,52,131.73,269,12.00,-25.00,-972.00
2024-06-07 10:18:46.868134,1,3,2,0,0,-1,81,84,147,130,52,131.88,269,51.00,-53.00,-979.00
2024-06-07 10:18:46.980192,0,3,2,0,0,-1,81,84,148,130,52,131.81,269,117.00,-64.00,-982.00
2024-06-07 10:18:47.072155,0,3,2,0,0,0,81,84,147,130,52,131.76,269,6.00,-15.00,-1002.00
2024-06-07 10:18:47.185041,0,3,2,0,0,0,81,84,149,130,52,131.81,269,11.00,-14.00,-966.00
2024-06-07 10:18:47.276652,1,3,2,0,0,-1,81,84,151,140,52,131.86,270,38.00,-60.00,-1024.00
2024-06-07 10:18:47.378847,1,3,2,0,0,-1,81,84,155,140,52,131.84,270,-45.00,-14.00,-993.00
2024-06-07 10:18:47.481229,1,4,2,0,0,-1,81,84,154,140,52,131.87,270,5.00,-16.00,-1043.00
2024-06-07 10:18:47.534147,1,4,2,0,0,-1,81,84,156,140,52,132.02,270,-13.00,-45.00,-1012.00
2024-06-07 10:18:47.697026,0,3,2,0,0,-1,82,84,163,140,52,132.01,270,69.00,-67.00,-991.00
2024-06-07 10:18:47.786390,1,4,2,0,0,-1,82,84,165,140,52,131.96,270,-31.00,-38.00,-933.00
2024-06-07 10:18:47.888077,1,4,2,0,0,-1,82,84,167,150,52,132.02,270,35.00,-42.00,-1028.00
2024-06-07 10:18:48.004227,1,3,2,0,0,-2,82,84,167,150,52,132.03,270,57.00,-84.00,-933.00
2024-06-07 10:18:48.041636,2,4,2,1,0,-2,82,84,172,150,52,131.99,270,25.00,-62.00,-1041.00
2024-06-07 10:18:48.143454,3,4,2,0,0,-2,82,84,175,150,52,132.04,270,-54.00,-11.00,-903.00
2024-06-07 10:18:48.311507,2,4,2,0,0,-1,82,84,176,160,52,132.08,271,17.00,-34.00,-983.00
2024-06-07 10:18:48.347748,1,4,2,0,0,-1,82,84,177,160,52,132.12,271,38.00,-62.00,-877.00
2024-06-07 10:18:48.517135,2,4,2,0,0,0,82,84,177,160,52,132.13,271,-36.00,-9.00,-1000.00
2024-06-07 10:18:48.551867,2,4,2,0,0,0,82,84,178,160,52,132.10,271,63.00,-60.00,-951.00
2024-06-07 10:18:48.721490,2,4,2,0,0,0,80,83,178,160,52,132.11,271,82.00,-49.00,-1029.00
2024-06-07 10:18:48.756413,2,4,2,0,0,0,80,83,177,160,52,132.07,271,-12.00,-47.00,-960.00
2024-06-07 10:18:48.926288,2,4,2,0,0,0,80,83,176,160,52,131.98,271,57.00,-77.00,-964.00
2024-06-07 10:18:48.960582,2,4,2,0,0,0,80,83,178,160,52,131.95,271,24.00,-41.00,-1027.00
2024-06-07 10:18:49.062891,2,4,2,0,0,0,80,83,179,160,52,131.93,271,51.00,-69.00,-1005.00
2024-06-07 10:18:49.165563,2,3,2,0,0,0,80,83,177,160,52,131.98,271,27.00,-19.00,-999.00
2024-06-07 10:18:49.266639,3,3,2,0,0,0,80,83,179,160,52,131.95,272,47.00,-20.00,-990.00
2024-06-07 10:18:49.368104,2,3,2,0,1,0,80,83,180,160,52,131.99,272,31.00,-34.00,-990.00
2024-06-07 10:18:49.540347,1,2,2,0,1,0,80,83,180,160,52,131.99,272,72.00,-57.00,-1004.00
2024-06-07 10:18:49.571318,2,2,2,0,1,0,80,83,182,160,52,132.05,272,61.00,-23.00,-988.00
2024-06-07 10:18:49.745174,2,1,2,0,1,0,81,83,181,160,52,132.05,272,52.00,-4.00,-1022.00
2024-06-07 10:18:49.775408,3,1,2,0,1,0,81,83,184,160,52,132.03,272,28.00,-19.00,-955.00
2024-06-07 10:18:49.950100,3,1,2,0,1,0,81,83,183,160,52,132.11,272,15.00,-25.00,-938.00
2024-06-07 10:18:49.979377,4,1,2,0,1,0,81,83,181,160,52,132.04,272,-25.00,-17.00,-987.00
2024-06-07 10:18:50.095677,3,1,2,0,1,0,81,83,182,160,52,131.96,272,95.00,-48.00,-927.00
2024-06-07 10:18:50.183196,2,0,2,0,0,0,81,83,180,160,52,132.10,272,14.00,0.00,-1000.00
2024-06-07 10:18:50.359407,2,1,2,0,0,0,81,83,180,160,52,131.98,273,70.00,1.00,-1030.00
2024-06-07 10:18:50.387226,1,0,2,0,0,0,81,83,176,160,52,131.90,273,25.00,-12.00,-925.00
2024-06-07 10:18:50.564155,1,1,2,0,0,1,81,83,171,160,52,131.95,273,63.00,-27.00,-950.00
2024-06-07 10:18:50.591820,1,1,2,0,0,1,81,83,170,160,52,131.95,273,28.00,-48.00,-937.00
2024-06-07 10:18:50.693232,1,1,3,0,0,3,82,83,167,150,52,131.90,273,-6.00,0.00,-921.00
2024-06-07 10:18:50.795218,1,1,3,0,0,3,82,83,161,150,52,131.86,273,29.00,-36.00,-972.00
2024-06-07 10:18:50.973863,2,1,3,0,0,3,82,83,156,150,52,131.88,273,89.00,-72.00,-1009.00
2024-06-07 10:18:50.999387,2,2,3,0,0,3,82,83,153,140,52,131.86,273,108.00,-55.00,-1042.00
2024-06-07 10:18:51.101578,2,3,2,0,0,3,82,83,150,140,52,131.89,273,81.00,-17.00,-1013.00
2024-06-07 10:18:51.280997,2,3,2,0,0,2,82,83,147,130,52,131.78,274,59.00,-47.00,-1055.00
2024-06-07 10:18:51.307722,2,3,2,0,0,2,82,83,147,130,52,131.73,274,7.00,-25.00,-1089.00
2024-06-07 10:18:51.410323,2,3,2,0,0,2,82,83,142,130,52,131.72,274,50.00,-9.00,-1028.00
2024-06-07 10:18:51.509177,3,3,2,0,0,2,82,83,141,130,52,131.71,274,-6.00,-20.00,-974.00
2024-06-07 10:18:51.690643,3,3,2,0,0,1,82,83,139,120,52,131.72,274,31.00,-25.00,-1052.00
2024-06-07 10:18:51.713169,3,3,2,0,0,1,81,83,137,120,52,131.70,274,20.00,-36.00,-976.00
2024-06-07 10:18:51.895559,2,3,2,0,0,1,81,83,136,120,52,131.71,274,44.00,-60.00,-972.00
2024-06-07 10:18:51.917125,1,3,2,0,0,1,81,83,136,120,52,131.67,274,82.00,-53.00,-1048.00
2024-06-07 10:18:52.019964,2,4,2,0,0,0,81,83,136,120,52,131.66,274,9.00,-28.00,-1015.00
2024-06-07 10:18:52.070338,1,3,2,0,0,0,81,83,137,120,52,131.73,274,12.00,-29.00,-921.00
2024-06-07 10:18:52.202736,1,3,2,0,0,0,81,83,137,120,52,131.70,275,66.00,-77.00,-987.00
2024-06-07 10:18:52.274294,2,3,2,0,0,0,81,83,138,120,52,131.63,275,26.00,-41.00,-1032.00
2024-06-07 10:18:52.407791,3,3,2,0,0,0,81,83,141,120,52,131.68,275,-17.00,-20.00,-984.00
2024-06-07 10:18:52.479989,2,3,2,0,0,0,81,83,142,120,52,131.71,275,119.00,-63.00,-1066.00
2024-06-07 10:18:52.580507,3,3,2,0,0,0,81,83,144,120,52,131.70,275,28.00,-43.00,-980.00
2024-06-07 10:18:52.683828,3,3,2,0,0,0,81,83,147,130,52,131.75,275,28.00,-3.00,-925.00
2024-06-07 10:18:52.786702,3,2,2,0,0,0,81,83,149,130,52,131.70,275,35.00,-73.00,-933.00
2024-06-07 10:18:52.887766,3,3,2,0,0,0,81,83,148,130,52,131.72,275,34.00,-46.00,-968.00
2024-06-07 10:18:52.988336,3,2,2,0,0,0,81,83,151,130,52,131.78,275,38.00,-23.00,-961.00
2024-06-07 10:18:53.093844,3,2,2,0,0,0,81,83,149,130,52,131.74,275,47.00,-33.00,-936.00
2024-06-07 10:18:53.192039,4,2,2,0,0,0,81,83,151,130,52,131.81,276,7.00,-18.00,-1020.00
2024-06-07 10:18:53.294380,3,2,2,0,0,0,81,83,152,130,52,131.78,276,-4.00,-55.00,-922.00
2024-06-07 10:18:53.396072,3,2,2,0,0,0,81,83,151,130,52,131.73,276,92.00,-88.00,-1041.00
2024-06-07 10:18:53.497910,3,2,2,0,0,0,81,83,153,130,52,131.75,276,38.00,-20.00,-956.00
2024-06-07 10:18:53.636583,2,3,2,0,0,0,81,83,150,130,52,131.67,276,101.00,-58.00,-946.00
2024-06-07 10:18:53.702626,4,3,2,0,0,0,82,83,152,130,52,131.76,276,72.00,-41.00,-959.00
2024-06-07 10:18:53.803942,4,2,2,0,0,0,82,83,151,130,52,131.78,276,97.00,-57.00,-942.00
2024-06-07 10:18:53.943556,4,2,2,0,0,0,82,83,152,130,52,131.80,276,14.00,-50.00,-978.00
2024-06-07 10:18:54.008028,2,2,2,-1,0,1,82,83,151,130,52,131.74,276,41.00,-23.00,-1025.00
2024-06-07 10:18:54.110140,0,1,2,-1,0,0,82,83,148,130,52,131.79,276,27.00,-26.00,-1017.00
2024-06-07 10:18:54.251093,-6,0,2,0,0,0,82,83,149,130,52,131.75,277,111.00,-53.00,-1037.00
2024-06-07 10:18:54.313822,-8,1,2,0,0,0,82,83,149,130,52,131.64,277,55.00,-30.00,-964.00
2024-06-07 10:18:54.462309,-7,1,2,2,0,0,82,83,146,130,52,131.72,277,78.00,-37.00,-989.00
2024-06-07 10:18:54.518130,-6,1,2,4,0,0,82,83,146,130,52,131.84,277,14.00,-30.00,-1072.00
2024-06-07 10:18:54.661344,-5,1,2,5,0,1,82,83,143,130,52,131.76,277,-33.00,-15.00,-980.00
2024-06-07 10:18:54.722475,-5,1,2,6,0,0,81,83,143,120,52,131.68,277,32.00,-41.00,-1064.00
2024-06-07 10:18:54.865294,-4,1,2,6,0,0,81,83,140,120,52,131.75,277,-15.00,-48.00,-962.00
2024-06-07 10:18:54.925868,-3,2,2,7,0,0,81,83,137,120,52,131.78,277,-21.00,-40.00,-1061.00
2024-06-07 10:18:55.027881,-1,2,2,8,0,0,81,83,136,120,52,131.78,277,18.00,-56.00,-1022.00
2024-06-07 10:18:55.130304,1,2,2,8,0,0,81,83,136,120,52,131.81,277,-17.00,-64.00,-972.00
2024-06-07 10:18:55.276115,3,2,2,7,0,0,81,83,135,120,52,131.82,278,-43.00,-18.00,-1045.00
2024-06-07 10:18:55.334482,5,2,2,6,0,0,81,83,134,120,52,131.76,278,24.00,-43.00,-972.00
2024-06-07 10:18:55.479375,6,2,2,5,0,0,81,83,133,120,52,131.81,278,-60.00,-22.00,-1042.00
2024-06-07 10:18:55.540274,4,2,2,4,0,0,81,83,134,120,52,131.84,278,27.00,-37.00,-974.00
2024-06-07 10:18:55.643478,3,2,2,3,0,0,81,83,135,120,52,131.87,278,56.00,-105.00,-1031.00
2024-06-07 10:18:55.745115,3,2,2,3,0,0,81,83,133,120,52,131.75,278,-14.00,-43.00,-1052.00
2024-06-07 10:18:55.843796,3,3,2,3,0,0,81,83,137,120,52,131.74,278,35.00,-55.00,-1042.00
2024-06-07 10:18:55.991430,3,2,2,3,0,0,81,83,138,120,52,131.73,278,49.00,-19.00,-972.00
2024-06-07 10:18:56.047717,4,1,2,3,0,0,81,83,139,120,52,131.79,278,47.00,-51.00,-983.00
2024-06-07 10:18:56.149763,5,2,2,2,0,0,81,83,138,120,52,131.79,278,59.00,-54.00,-962.00
2024-06-07 10:18:56.298520,7,1,2,1,0,0,81,83,140,120,52,131.78,279,31.00,-7.00,-1026.00
2024-06-07 10:18:56.303311,5,1,2,1,0,0,81,83,141,120,52,131.84,279,54.00,-64.00,-979.00
2024-06-07 10:18:56.405203,3,1,2,0,0,0,81,83,141,120,52,131.75,279,-6.00,-7.00,-1001.00
2024-06-07 10:18:56.605916,2,1,2,0,0,0,81,83,141,120,52,131.94,279,3.00,-55.00,-938.00
2024-06-07 10:18:56.609015,2,0,3,0,0,0,81,83,142,120,52,131.80,279,27.00,-16.00,-1031.00
2024-06-07 10:18:56.710981,3,1,3,0,0,0,81,83,142,120,52,131.87,279,88.00,-44.00,-1077.00
2024-06-07 10:18:56.813100,4,1,3,1,0,0,81,83,142,120,52,131.79,279,-6.00,-12.00,-1003.00
2024-06-07 10:18:56.915033,5,1,3,1,0,0,81,83,144,120,52,131.78,279,33.00,-24.00,-968.00
2024-06-07 10:18:57.118124,4,1,3,0,0,0,81,83,145,120,52,131.77,279,5.00,-7.00,-1049.00
2024-06-07 10:18:57.119994,3,1,3,0,0,0,81,83,146,130,52,131.83,279,29.00,-27.00,-990.00
2024-06-07 10:18:57.223643,3,1,3,0,0,0,81,83,145,130,52,131.82,280,-43.00,3.00,-1036.00
2024-06-07 10:18:57.323723,3,1,3,0,0,0,81,83,146,130,52,131.84,280,114.00,-83.00,-935.00
2024-06-07 10:18:57.528283,2,0,2,0,0,0,81,83,145,130,52,131.80,280,88.00,-53.00,-963.00
2024-06-07 10:18:57.528507,2,1,2,0,0,0,81,83,146,130,52,131.78,280,-36.00,-2.00,-957.00
2024-06-07 10:18:57.630253,2,0,2,0,0,0,81,83,142,130,52,131.76,280,101.00,-45.00,-978.00
2024-06-07 10:18:57.732651,1,0,2,0,0,0,82,83,143,130,52,131.81,280,8.00,3.00,-1069.00
2024-06-07 10:18:57.834483,0,0,2,-1,0,0,82,83,142,120,52,131.79,280,70.00,-41.00,-1021.00
2024-06-07 10:18:57.937093,0,0,3,0,0,0,82,83,141,120,52,131.92,280,35.00,-21.00,-985.00
2024-06-07 10:18:58.039448,2,0,3,0,0,0,82,83,142,120,52,131.94,280,66.00,-57.00,-981.00
2024-06-07 10:18:58.139753,2,0,2,0,0,0,82,83,141,120,52,131.80,280,102.00,-51.00,-1017.00
2024-06-07 10:18:58.244789,3,1,2,0,0,0,82,83,138,120,52,131.79,281,23.00,0.00,-982.00
2024-06-07 10:18:58.344752,3,1,2,0,0,0,82,83,140,120,52,131.80,281,18.00,-24.00,-980.00
2024-06-07 10:18:58.445870,3,1,2,0,0,0,82,83,141,120,52,131.78,281,52.00,-57.00,-1002.00
2024-06-07 10:18:58.551433,3,1,2,0,0,0,82,83,139,120,52,131.72,281,39.00,0.00,-925.00
2024-06-07 10:18:58.649711,7,2,2,-1,0,0,82,83,139,120,52,131.70,281,35.00,-19.00,-1043.00
2024-06-07 10:18:58.756556,8,0,2,-2,0,0,82,84,136,120,52,131.70,281,90.00,-45.00,-1001.00
2024-06-07 10:18:58.853706,8,0,2,-3,0,0,82,84,136,120,52,131.69,281,113.00,-75.00,-947.00
2024-06-07 10:18:58.961874,8,0,2,-4,0,0,82,84,133,120,52,131.64,281,24.00,-36.00,-990.00
2024-06-07 10:18:59.058012,8,0,2,-5,0,0,82,84,133,120,52,131.65,281,-12.00,-6.00,-1079.00
2024-06-07 10:18:59.159664,8,0,2,-5,0,0,82,84,132,120,52,131.66,281,75.00,-33.00,-1010.00
2024-06-07 10:18:59.271307,8,1,2,-6,0,0,82,84,133,120,52,131.68,282,97.00,-14.00,-1051.00
2024-06-07 10:18:59.368548,8,1,2,-7,0,0,82,84,131,120,52,131.74,282,142.00,-38.00,-1119.00
2024-06-07 10:18:59.466777,5,0,2,-7,0,0,82,84,131,120,52,131.66,282,104.00,-76.00,-927.00
2024-06-07 10:18:59.577389,1,1,2,-7,0,0,82,84,131,120,52,131.69,282,88.00,-51.00,-969.00
2024-06-07 10:18:59.669890,-1,1,2,-7,0,0,82,84,129,120,52,131.67,282,93.00,-3.00,-1039.00
2024-06-07 10:18:59.780173,-2,1,2,-6,0,0,81,84,129,120,52,131.68,282,48.00,-5.00,-983.00
2024-06-07 10:18:59.873560,-2,0,2,-5,0,0,81,84,129,120,52,131.61,282,84.00,-22.00,-1051.00
2024-06-07 10:18:59.979044,-1,0,2,-4,0,0,81,84,129,120,52,131.65,282,28.00,-13.00,-1051.00
2024-06-07 10:19:00.077677,0,0,2,-3,0,0,81,84,128,120,52,131.60,282,25.00,6.00,-977.00
2024-06-07 10:19:00.179619,1,0,2,-3,-1,0,81,84,130,120,52,131.66,282,143.00,-67.00,-1087.00
2024-06-07 10:19:00.231214,1,1,2,-2,-1,0,81,84,129,120,52,131.59,283,-1.00,-29.00,-897.00
2024-06-07 10:19:00.394636,2,3,2,-2,0,0,81,84,129,120,52,131.63,283,99.00,-41.00,-1051.00
2024-06-07 10:19:00.435332,0,3,2,-2,0,0,81,84,128,120,52,131.66,283,33.00,-9.00,-1036.00
2024-06-07 10:19:00.600384,-1,2,2,-2,0,0,81,84,130,120,52,131.68,283,70.00,-29.00,-1033.00
2024-06-07 10:19:00.639161,-2,1,2,-1,0,0,81,84,128,120,52,131.66,283,130.00,-61.00,-1054.00
2024-06-07 10:19:00.805390,0,-1,2,0,0,0,81,83,129,120,52,131.68,283,45.00,-54.00,-973.00
2024-06-07 10:19:00.842754,1,-3,2,0,0,0,81,83,128,110,52,131.71,283,94.00,-41.00,-1085.00
2024-06-07 10:19:01.010436,1,-2,3,0,0,0,81,83,129,110,52,131.76,283,88.00,-42.00,-1044.00
2024-06-07 10:19:01.048685,1,-1,3,0,-1,0,81,83,129,110,52,131.77,283,19.00,-25.00,-961.00
2024-06-07 10:19:01.148880,0,0,3,0,-1,0,81,83,132,110,52,131.73,283,24.00,-30.00,-1026.00
2024-06-07 10:19:01.251803,0,6,3,0,-1,0,81,83,131,120,52,131.76,284,-18.00,4.00,-946.00
2024-06-07 10:19:01.354642,0,4,3,0,0,0,81,83,132,120,52,131.75,284,32.00,-60.00,-957.00
2024-06-07 10:19:01.455740,0,2,3,0,0,0,81,83,133,120,52,131.77,284,21.00,-45.00,-997.00
2024-06-07 10:19:01.556835,0,2,2,0,0,0,81,83,132,120,52,131.73,284,-2.00,-50.00,-933.00
2024-06-07 10:19:01.727186,0,2,2,0,0,0,81,83,134,120,52,131.82,284,24.00,-36.00,-1001.00
2024-06-07 10:19:01.760869,0,2,2,0,0,0,80,83,135,120,52,131.80,284,32.00,-38.00,-1005.00
2024-06-07 10:19:01.862876,0,1,2,0,0,0,80,83,134,120,52,131.81,284,-65.00,-31.00,-875.00
2024-06-07 10:19:02.033180,0,1,2,0,0,0,80,83,134,120,52,131.84,284,-30.00,-12.00,-1014.00
2024-06-07 10:19:02.068306,0,1,2,0,0,0,80,83,135,120,52,131.76,284,49.00,-33.00,-949.00
2024-06-07 10:19:02.169671,0,1,2,0,0,0,80,83,136,120,52,131.82,284,43.00,-45.00,-1017.00
2024-06-07 10:19:02.340324,1,0,2,0,0,0,80,83,134,120,52,131.85,285,30.00,-12.00,-1104.00
2024-06-07 10:19:02.375044,1,0,2,0,0,0,80,83,136,120,52,131.75,285,48.00,-33.00,-962.00
2024-06-07 10:19:02.478834,1,0,2,0,0,0,80,83,137,120,52,131.82,285,16.00,-15.00,-1002.00
2024-06-07 10:19:02.576984,1,0,2,0,0,0,80,83,137,120,52,131.83,285,3.00,-21.00,-1051.00
2024-06-07 10:19:02.750121,1,0,2,0,0,0,80,83,138,120,52,131.82,285,37.00,-16.00,-1039.00
2024-06-07 10:19:02.780897,0,0,2,0,0,0,81,83,138,120,51,131.86,285,52.00,-48.00,-947.00
2024-06-07 10:19:02.962596,0,0,2,0,0,0,81,83,137,120,51,131.86,285,26.00,-51.00,-901.00
2024-06-07 10:19:02.984823,1,1,2,0,0,0,81,83,139,120,51,131.83,285,4.00,-40.00,-1004.00
2024-06-07 10:19:03.086812,0,1,2,0,0,0,81,83,136,120,51,131.81,285,56.00,-50.00,-1069.00
2024-06-07 10:19:03.188715,1,1,2,0,0,0,81,83,136,120,51,131.88,285,76.00,1.00,-1075.00
2024-06-07 10:19:03.291068,2,1,2,0,0,0,81,83,137,120,51,131.80,286,-21.00,-15.00,-1009.00
2024-06-07 10:19:03.569131,2,1,2,0,0,0,81,83,137,120,51,131.79,286,32.00,0.00,-978.00
2024-06-07 10:19:03.569209,3,-1,2,0,0,0,81,83,136,120,51,131.85,286,2.00,-36.00,-1021.00
2024-06-07 10:19:03.596473,3,-5,2,0,-1,0,81,83,136,120,51,131.87,286,41.00,-18.00,-1014.00
2024-06-07 10:19:03.774638,2,-4,2,0,-2,0,81,83,136,120,51,131.90,286,29.00,-33.00,-999.00
2024-06-07 10:19:03.800742,1,0,2,0,-3,0,81,83,136,120,51,131.86,286,4.00,9.00,-989.00
2024-06-07 10:19:03.902794,0,1,2,0,-3,0,81,83,136,120,51,131.82,286,115.00,-29.00,-988.00
2024-06-07 10:19:04.081090,1,2,2,0,-3,0,81,83,134,120,51,131.80,286,-61.00,37.00,-985.00
2024-06-07 10:19:04.106722,1,1,2,0,-2,0,81,83,136,120,51,131.87,286,118.00,-32.00,-1060.00
2024-06-07 10:19:04.286350,1,1,2,0,-3,0,81,83,136,120,51,131.82,287,41.00,-50.00,-1030.00
2024-06-07 10:19:04.310844,2,1,2,0,-3,0,81,83,135,120,51,131.81,287,47.00,-18.00,-1003.00
2024-06-07 10:19:04.361449,1,1,2,0,-2,0,81,83,135,120,51,131.91,287,68.00,0.00,-1019.00
2024-06-07 10:19:04.494514,1,1,2,0,-2,0,81,83,134,120,51,131.80,287,41.00,0.00,-996.00
2024-06-07 10:19:04.565705,1,1,2,0,-2,0,81,83,135,120,51,131.85,287,36.00,34.00,-954.00
2024-06-07 10:19:04.695377,2,0,2,0,-2,0,81,83,133,120,51,131.88,287,36.00,12.00,-996.00
2024-06-07 10:19:04.773957,2,0,2,0,-2,0,81,83,132,120,51,131.83,287,77.00,-5.00,-1002.00
2024-06-07 10:19:04.872026,2,0,2,0,-2,0,81,83,129,120,51,131.80,287,63.00,-30.00,-936.00
2024-06-07 10:19:05.005016,2,0,2,0,-2,0,81,83,129,120,51,131.73,287,46.00,-12.00,-1036.00
2024-06-07 10:19:05.076054,2,0,2,0,-1,0,81,83,128,120,51,131.85,287,87.00,-18.00,-1067.00
2024-06-07 10:19:05.177356,2,0,2,0,-1,0,81,83,127,120,51,131.80,288,51.00,41.00,-1085.00
2024-06-07 10:19:05.310306,2,0,2,0,-1,0,81,83,125,110,51,131.83,288,5.00,26.00,-1008.00
2024-06-07 10:19:05.382272,2,2,2,0,-1,0,81,83,126,110,51,131.83,288,64.00,-24.00,-973.00
2024-06-07 10:19:05.720036,2,4,2,0,0,0,81,83,125,110,51,131.80,288,41.00,-1.00,-1002.00
2024-06-07 10:19:05.722386,2,2,2,0,0,0,81,83,126,110,51,131.74,288,42.00,-2.00,-1152.00
2024-06-07 10:19:05.723720,2,1,2,0,0,0,81,83,125,110,51,131.75,288,36.00,0.00,-989.00
2024-06-07 10:19:05.790987,1,0,2,0,0,0,80,83,125,110,50,131.70,288,51.00,-35.00,-966.00
2024-06-07 10:19:05.927653,2,1,2,0,0,0,80,83,125,110,50,131.77,288,2.00,-11.00,-1011.00
2024-06-07 10:19:05.996736,2,0,2,0,0,0,80,83,125,110,50,131.75,288,65.00,8.00,-996.00
2024-06-07 10:19:06.097036,2,0,2,0,0,0,80,83,126,110,50,131.64,288,63.00,-4.00,-1045.00
2024-06-07 10:19:06.200955,3,0,2,0,0,0,80,83,126,110,50,131.78,289,14.00,-29.00,-993.00
2024-06-07 10:19:06.301190,2,1,2,0,0,0,80,83,128,110,50,131.71,289,14.00,13.00,-936.00
2024-06-07 10:19:06.402820,1,0,2,0,0,0,80,83,127,120,50,131.71,289,68.00,-45.00,-1137.00
2024-06-07 10:19:06.505604,1,0,2,0,0,0,80,83,130,120,50,131.73,289,30.00,-10.00,-982.00
2024-06-07 10:19:06.607257,1,0,2,0,0,0,80,83,129,120,50,131.74,289,78.00,-23.00,-971.00
2024-06-07 10:19:06.746679,1,0,2,0,0,0,80,83,131,120,50,131.79,289,10.00,-19.00,-1004.00
2024-06-07 10:19:06.810758,1,0,2,0,0,0,80,83,130,120,50,131.77,289,17.00,2.00,-1031.00
2024-06-07 10:19:06.948823,1,0,2,0,0,0,80,83,131,120,50,131.76,289,11.00,-21.00,-948.00
2024-06-07 10:19:07.014696,1,0,2,0,0,0,80,83,129,120,50,131.79,289,56.00,-21.00,-951.00
2024-06-07 10:19:07.153805,1,0,2,0,0,0,80,83,130,120,50,131.88,289,51.00,-15.00,-1052.00
2024-06-07 10:19:07.221378,1,0,3,0,0,0,80,83,127,120,50,131.77,290,5.00,-21.00,-945.00
2024-06-07 10:19:07.320485,1,1,3,0,0,0,80,83,128,120,50,131.76,290,-9.00,6.00,-1050.00
2024-06-07 10:19:07.462402,1,1,2,0,0,0,80,83,128,120,50,131.83,290,59.00,-39.00,-984.00
2024-06-07 10:19:07.524440,2,1,2,0,0,0,80,83,127,120,50,131.77,290,38.00,-35.00,-1072.00
2024-06-07 10:19:07.665150,2,1,2,0,0,0,80,83,125,110,50,131.74,290,79.00,-29.00,-976.00
2024-06-07 10:19:07.734842,2,1,2,0,0,0,80,83,125,110,50,131.79,290,-19.00,-22.00,-1000.00
2024-06-07 10:19:07.830748,1,1,2,0,0,0,81,83,125,110,50,131.71,290,70.00,-38.00,-1064.00
2024-06-07 10:19:07.972948,1,4,2,0,0,0,81,83,127,110,50,131.67,290,65.00,-66.00,-1099.00
2024-06-07 10:19:08.035266,1,8,2,0,0,0,81,83,126,110,50,131.63,290,24.00,-27.00,-923.00
2024-06-07 10:19:08.179501,1,8,2,0,1,0,81,83,126,110,50,131.74,290,43.00,-50.00,-954.00
2024-06-07 10:19:08.238889,2,8,2,0,2,0,81,83,126,110,50,131.76,291,78.00,-39.00,-969.00
2024-06-07 10:19:08.289190,3,4,2,0,3,0,81,83,125,110,50,131.75,291,58.00,-23.00,-1003.00
2024-06-07 10:19:08.484207,3,1,2,0,3,0,81,83,124,120,50,131.79,291,43.00,-59.00,-1004.00
2024-06-07 10:19:08.493258,2,0,2,0,3,0,81,83,123,110,50,131.72,291,26.00,-25.00,-1033.00
2024-06-07 10:19:08.689166,2,0,2,0,3,0,81,83,123,110,50,131.71,291,55.00,-70.00,-964.00
2024-06-07 10:19:08.697165,2,1,2,0,2,0,81,83,122,110,50,131.67,291,78.00,-65.00,-1063.00
2024-06-07 10:19:08.893782,2,1,2,0,2,0,81,83,124,110,50,131.78,291,135.00,-75.00,-972.00
2024-06-07 10:19:08.901352,2,2,2,0,1,0,81,83,123,110,50,131.72,291,99.00,-48.00,-974.00
2024-06-07 10:19:09.098588,2,3,2,0,1,0,81,83,124,110,50,131.67,291,71.00,-32.00,-1023.00
2024-06-07 10:19:09.106835,1,3,2,0,1,0,81,83,123,110,50,131.67,291,33.00,-64.00,-1018.00
2024-06-07 10:19:09.208534,2,3,2,0,1,0,81,83,122,110,50,131.69,292,49.00,-43.00,-989.00
2024-06-07 10:19:09.310448,2,3,2,0,2,0,81,83,122,110,50,131.65,292,29.00,-15.00,-902.00
2024-06-07 10:19:09.509488,3,3,2,0,2,0,81,83,122,110,50,131.66,292,68.00,-50.00,-1020.00
2024-06-07 10:19:09.516772,2,2,2,0,2,0,81,83,121,110,50,131.65,292,89.00,-58.00,-1001.00
2024-06-07 10:19:09.616786,2,2,2,0,2,0,81,83,120,110,50,131.69,292,26.00,-14.00,-1037.00
2024-06-07 10:19:09.815397,2,1,2,0,2,0,81,83,120,110,50,131.59,292,44.00,-46.00,-1062.00
2024-06-07 10:19:09.820499,2,2,2,0,2,0,81,83,118,110,49,131.65,292,39.00,-37.00,-978.00
2024-06-07 10:19:10.020158,2,2,2,0,2,0,81,83,118,110,49,131.66,292,72.00,-72.00,-1028.00
2024-06-07 10:19:10.024413,3,2,2,0,2,0,81,83,119,110,49,131.70,292,88.00,-54.00,-1008.00
2024-06-07 10:19:10.126719,3,1,2,0,2,0,81,83,118,110,49,131.66,292,5.00,-15.00,-986.00
2024-06-07 10:19:10.228728,3,-1,2,0,2,0,81,83,120,110,49,131.69,293,71.00,-36.00,-976.00
2024-06-07 10:19:10.330857,3,-2,2,0,1,0,81,83,120,110,49,131.63,293,72.00,-18.00,-1043.00
2024-06-07 10:19:10.432406,2,0,2,0,0,0,81,83,121,110,49,131.67,293,40.00,-8.00,-1060.00
2024-06-07 10:19:10.534811,2,0,3,0,0,0,81,83,122,110,49,131.64,293,31.00,-10.00,-941.00
2024-06-07 10:19:10.636787,2,0,3,0,0,0,81,83,124,110,49,131.66,293,27.00,0.00,-1079.00
2024-06-07 10:19:10.738873,2,1,2,0,0,-1,81,83,125,110,49,131.68,293,87.00,-30.00,-1100.00
2024-06-07 10:19:10.943393,2,1,2,0,0,-1,81,83,128,110,49,131.76,293,57.00,-9.00,-1071.00
2024-06-07 10:19:10.943898,2,1,2,0,0,-1,81,83,128,120,49,131.78,293,61.00,-8.00,-1023.00
2024-06-07 10:19:11.046089,2,0,2,0,0,0,81,83,130,120,49,131.85,293,62.00,6.00,-952.00
2024-06-07 10:19:11.148182,2,0,2,0,0,0,81,83,133,120,49,131.76,293,28.00,14.00,-980.00
2024-06-07 10:19:11.250293,1,0,2,0,0,0,81,83,134,120,49,131.75,294,-20.00,27.00,-1013.00
2024-06-07 10:19:11.351318,2,0,2,0,0,0,81,83,135,120,49,131.82,294,4.00,31.00,-1007.00
2024-06-07 10:19:11.453952,2,0,2,0,0,0,81,83,138,120,49,131.88,294,-22.00,-5.00,-908.00
2024-06-07 10:19:11.556738,2,1,2,0,0,0,81,83,139,120,49,131.85,294,75.00,-32.00,-1011.00
2024-06-07 10:19:11.606253,3,1,2,0,0,0,81,83,139,120,49,131.87,294,23.00,9.00,-939.00
2024-06-07 10:19:11.761116,3,1,2,0,0,0,81,83,142,120,49,131.89,294,-55.00,33.00,-888.00
2024-06-07 10:19:11.860517,3,1,2,0,0,0,81,83,141,120,49,131.87,294,14.00,42.00,-1041.00
2024-06-07 10:19:11.911132,3,1,2,0,0,0,81,83,142,120,49,131.87,294,95.00,-19.00,-960.00
2024-06-07 10:19:12.013560,3,1,2,0,0,0,81,83,141,120,49,131.81,294,38.00,-9.00,-968.00
2024-06-07 10:19:12.127761,3,1,2,0,0,0,81,83,143,120,49,131.85,294,71.00,-13.00,-989.00
2024-06-07 10:19:12.221863,3,1,2,0,0,0,81,83,144,120,49,131.87,295,28.00,20.00,-984.00
2024-06-07 10:19:12.319161,4,1,2,0,0,0,81,83,143,130,49,131.87,295,60.00,-12.00,-928.00
2024-06-07 10:19:12.421423,2,1,2,0,0,0,81,83,143,130,49,131.91,295,15.00,16.00,-934.00
2024-06-07 10:19:12.580541,3,1,3,0,0,0,81,83,142,120,49,131.80,295,55.00,-22.00,-994.00
2024-06-07 10:19:12.626089,3,1,8,0,0,0,81,83,145,120,49,131.79,295,40.00,-5.00,-1029.00
2024-06-07 10:19:12.785237,3,1,14,0,0,0,81,83,142,120,49,131.82,295,83.00,-49.00,-1058.00
2024-06-07 10:19:12.829070,3,2,21,0,0,0,81,83,143,130,49,131.83,295,97.00,-63.00,-999.00
2024-06-07 10:19:12.989808,3,2,27,0,0,0,81,83,144,130,49,131.82,295,-42.00,-19.00,-954.00
2024-06-07 10:19:13.038043,3,3,33,0,0,0,81,83,144,130,49,131.79,295,26.00,-24.00,-961.00
2024-06-07 10:19:13.135152,1,3,39,0,0,0,81,83,145,130,49,131.83,295,10.00,-19.00,-937.00
2024-06-07 10:19:13.296994,1,3,45,0,0,0,81,83,143,130,49,131.83,296,-69.00,-22.00,-981.00
2024-06-07 10:19:13.339011,1,2,51,0,0,0,81,83,143,130,49,131.93,296,30.00,-31.00,-1081.00
2024-06-07 10:19:13.501801,0,2,57,0,0,0,81,83,142,120,49,131.88,296,75.00,-44.00,-1036.00
2024-06-07 10:19:13.542995,0,3,63,0,0,0,81,83,142,120,49,131.85,296,47.00,-34.00,-941.00
2024-06-07 10:19:13.809053,0,3,69,0,0,0,81,83,140,120,49,131.80,296,5.00,-34.00,-1029.00
2024-06-07 10:19:13.809293,0,3,75,0,0,0,81,83,141,120,48,131.88,296,62.00,-35.00,-1077.00
2024-06-07 10:19:13.849048,-1,3,81,0,0,0,82,83,141,120,48,131.89,296,35.00,-52.00,-1037.00
2024-06-07 10:19:14.013779,-1,3,87,0,0,0,82,83,140,120,48,131.88,296,-61.00,-27.00,-973.00
2024-06-07 10:19:14.053201,-2,3,94,0,0,0,82,83,140,120,48,131.84,296,27.00,-12.00,-1065.00
2024-06-07 10:19:14.218498,-3,2,100,0,0,0,82,83,142,120,48,131.81,296,-60.00,27.00,-992.00
2024-06-07 10:19:14.256907,-3,2,107,0,0,0,82,83,141,120,48,131.75,297,-38.00,-6.00,-1030.00
2024-06-07 10:19:14.423420,-3,0,114,-1,0,0,82,83,143,120,48,131.68,297,9.00,-7.00,-1028.00
2024-06-07 10:19:14.461300,-3,0,120,-1,0,0,82,83,144,120,48,131.76,297,25.00,0.00,-995.00
2024-06-07 10:19:14.562873,-3,-1,126,-1,0,0,82,83,145,120,48,131.74,297,-111.00,67.00,-973.00
2024-06-07 10:19:14.730488,-3,-2,132,-1,0,0,82,83,147,120,48,131.89,297,-68.00,41.00,-981.00
2024-06-07 10:19:14.766846,-4,-3,138,-1,0,0,82,83,146,130,48,131.82,297,-55.00,64.00,-899.00
2024-06-07 10:19:14.935380,-2,-3,144,-1,0,0,81,83,144,130,48,131.97,297,-32.00,68.00,-952.00
2024-06-07 10:19:14.980811,-1,-3,149,-1,0,0,81,83,146,130,48,131.86,297,-31.00,56.00,-1057.00
2024-06-07 10:19:15.072845,-1,-3,155,-1,0,0,81,83,146,130,48,131.89,297,-35.00,55.00,-943.00
2024-06-07 10:19:15.242789,0,-3,161,-1,0,0,81,83,145,130,48,131.97,297,11.00,29.00,-974.00
2024-06-07 10:19:15.276953,-1,-3,166,-1,0,0,81,83,146,130,48,131.94,298,-3.00,72.00,-1009.00
2024-06-07 10:19:15.447353,-1,-3,172,0,0,0,81,83,144,130,48,131.79,298,-13.00,64.00,-1028.00
2024-06-07 10:19:15.481074,-1,-3,177,0,0,0,81,83,142,130,48,131.82,298,0.00,45.00,-1057.00
2024-06-07 10:19:15.532659,0,-4,-176,0,0,0,81,83,142,130,48,131.79,298,-20.00,77.00,-995.00
2024-06-07 10:19:15.652149,0,-4,-171,0,0,0,81,83,143,120,48,131.85,298,12.00,67.00,-1032.00
2024-06-07 10:19:15.736264,0,-4,-165,0,0,0,81,83,142,120,48,131.85,298,36.00,10.00,-940.00
2024-06-07 10:19:15.888956,0,-3,-160,-1,0,0,80,83,140,120,48,131.84,298,-10.00,42.00,-996.00
2024-06-07 10:19:16.061775,1,-3,-155,-1,0,0,80,83,139,120,48,131.78,298,5.00,28.00,-1077.00
2024-06-07 10:19:16.062211,1,-2,-150,0,1,0,80,83,138,120,48,131.78,298,-15.00,35.00,-1020.00
2024-06-07 10:19:16.144519,0,-1,-144,0,1,0,80,83,138,120,48,131.75,298,-35.00,57.00,-1070.00
2024-06-07 10:19:16.293399,0,-2,-139,0,1,0,80,83,137,120,48,131.89,299,30.00,47.00,-1008.00
2024-06-07 10:19:16.348169,0,-2,-133,0,0,0,80,83,135,120,48,131.81,299,6.00,24.00,-1007.00
2024-06-07 10:19:16.471402,0,-2,-128,0,0,0,80,83,134,120,48,131.80,299,50.00,26.00,-1019.00
2024-06-07 10:19:16.552237,0,-2,-123,0,0,0,80,83,136,120,48,131.79,299,21.00,72.00,-970.00
2024-06-07 10:19:16.676321,0,-2,-118,0,0,0,80,83,134,120,48,131.84,299,1.00,36.00,-985.00
2024-06-07 10:19:16.756107,1,-2,-113,0,0,0,80,83,134,120,48,131.81,299,1.00,13.00,-1039.00
2024-06-07 10:19:16.858126,1,-2,-108,0,0,0,82,83,133,120,48,131.74,299,12.00,17.00,-985.00
2024-06-07 10:19:16.984264,1,-1,-104,0,0,0,82,83,132,120,48,131.74,299,15.00,42.00,-991.00
2024-06-07 10:19:17.062380,1,-1,-99,0,0,0,82,83,131,120,48,131.82,299,42.00,28.00,-996.00
2024-06-07 10:19:17.188404,1,-2,-94,0,0,0,82,83,132,120,48,131.72,299,19.00,46.00,-1031.00
2024-06-07 10:19:17.266061,1,-1,-88,0,0,0,82,83,130,120,48,131.80,300,15.00,34.00,-1002.00
2024-06-07 10:19:17.392960,2,-1,-83,0,0,0,82,83,131,120,48,131.77,300,30.00,19.00,-1015.00
2024-06-07 10:19:17.470231,2,-2,-78,0,0,0,82,83,132,120,48,131.74,300,59.00,3.00,-1007.00
2024-06-07 10:19:17.602884,2,-2,-72,0,0,0,82,83,131,120,48,131.73,300,43.00,1.00,-995.00
2024-06-07 10:19:17.674165,2,-2,-66,0,0,0,82,83,133,120,48,131.76,300,22.00,47.00,-1028.00
2024-06-07 10:19:17.802758,2,-1,-61,0,1,0,82,83,131,120,48,131.75,300,21.00,28.00,-1001.00
2024-06-07 10:19:17.878246,1,-1,-55,0,1,0,81,83,134,120,48,131.80,300,27.00,38.00,-999.00
2024-06-07 10:19:18.007358,1,-1,-49,0,0,0,81,83,133,120,48,131.81,300,56.00,20.00,-1009.00
2024-06-07 10:19:18.082846,2,0,-43,0,0,0,81,83,134,120,48,131.86,300,26.00,13.00,-1001.00
2024-06-07 10:19:18.213647,2,-1,-38,0,0,0,81,83,134,120,48,131.94,300,31.00,4.00,-1019.00
2024-06-07 10:19:18.286026,2,0,-32,0,0,0,81,83,134,120,48,131.86,301,55.00,10.00,-1009.00
2024-06-07 10:19:18.389957,2,0,-26,0,0,0,81,83,133,120,48,131.77,301,33.00,11.00,-1014.00
2024-06-07 10:19:18.490079,2,0,-20,0,0,0,81,83,134,120,48,131.80,301,49.00,9.00,-1006.00
2024-06-07 10:19:18.621743,2,0,-15,0,0,0,81,83,134,120,48,131.81,301,44.00,27.00,-1032.00
2024-06-07 10:19:18.694067,2,1,-11,0,0,0,81,83,135,120,48,131.79,301,22.00,6.00,-1001.00
2024-06-07 10:19:18.826672,2,0,-7,0,0,0,81,83,133,120,47,131.78,301,23.00,5.00,-1000.00
2024-06-07 10:19:18.898386,3,1,-2,0,0,0,82,83,134,120,47,131.74,301,-7.00,-36.00,-984.00
2024-06-07 10:19:19.031363,3,1,-1,0,0,0,82,83,135,120,47,131.70,301,20.00,-21.00,-1057.00
2024-06-07 10:19:19.102865,2,2,0,0,0,0,82,83,134,120,47,131.69,301,33.00,-37.00,-1019.00
2024-06-07 10:19:19.205772,2,2,1,0,0,0,82,83,137,120,47,131.65,302,39.00,23.00,-971.00
2024-06-07 10:19:19.306362,2,1,1,0,0,0,82,83,135,120,47,131.72,302,6.00,27.00,-1028.00
2024-06-07 10:19:19.410454,1,1,2,0,0,0,82,83,136,120,47,131.75,302,-15.00,-28.00,-1030.00
2024-06-07 10:19:19.512207,0,1,2,0,0,0,82,83,137,120,47,131.85,302,39.00,-35.00,-1006.00
2024-06-07 10:19:19.562727,1,1,3,0,0,0,82,83,136,120,47,131.75,302,-10.00,-28.00,-1023.00
2024-06-07 10:19:19.662843,2,2,4,0,0,0,82,83,135,120,47,131.78,302,-13.00,1.00,-1022.00
2024-06-07 10:19:19.850638,2,2,6,0,0,0,82,83,137,120,47,131.81,302,34.00,-44.00,-970.00
2024-06-07 10:19:19.866759,1,2,7,0,0,0,81,83,135,120,47,131.76,302,-56.00,-1.00,-971.00
2024-06-07 10:19:20.058789,1,2,8,0,0,0,81,83,137,120,47,131.82,302,-28.00,-8.00,-1023.00
2024-06-07 10:19:20.072273,1,1,9,0,0,0,81,83,137,120,47,131.79,302,50.00,-67.00,-942.00
2024-06-07 10:19:20.260860,0,1,9,0,0,0,81,83,137,120,47,131.81,303,65.00,-40.00,-1042.00
2024-06-07 10:19:20.275135,0,1,9,0,0,0,81,83,138,120,47,131.73,303,36.00,-53.00,-1049.00
2024-06-07 10:19:20.467520,0,2,9,-1,0,0,81,83,137,120,47,131.70,303,-47.00,-42.00,-946.00
2024-06-07 10:19:20.479407,0,2,9,0,0,0,81,83,136,120,47,131.78,303,30.00,-22.00,-1014.00
2024-06-07 10:19:20.669997,0,2,9,0,0,0,81,83,136,120,47,131.76,303,-33.00,-26.00,-1017.00
2024-06-07 10:19:20.682718,0,2,9,0,0,0,81,83,135,120,47,131.85,303,7.00,-42.00,-1009.00
2024-06-07 10:19:20.874641,0,3,9,0,0,0,81,83,135,120,47,131.69,303,-45.00,-59.00,-946.00
2024-06-07 10:19:20.888064,0,3,9,0,0,0,81,84,134,120,47,131.78,303,5.00,-66.00,-1026.00
2024-06-07 10:19:21.079485,0,3,9,0,0,0,81,84,134,120,47,131.77,303,39.00,-48.00,-1090.00
2024-06-07 10:19:21.092059,0,4,9,0,0,0,81,84,136,120,47,131.71,303,16.00,-42.00,-975.00
2024-06-07 10:19:21.192798,0,4,9,0,0,0,81,84,134,120,47,131.77,304,0.00,-42.00,-958.00
2024-06-07 10:19:21.386453,0,3,7,0,0,0,81,84,135,120,47,131.82,304,-17.00,-10.00,-968.00
2024-06-07 10:19:21.396687,0,2,1,0,0,0,81,84,136,120,47,131.81,304,53.00,-35.00,-1030.00
2024-06-07 10:19:21.591335,0,2,-4,0,0,0,81,84,136,120,47,131.73,304,-43.00,-27.00,-1041.00
2024-06-07 10:19:21.600729,0,2,-10,0,0,0,81,84,137,120,47,131.73,304,49.00,-71.00,-1019.00
2024-06-07 10:19:21.796482,1,2,-15,0,0,0,81,84,137,120,47,131.71,304,0.00,-68.00,-948.00
2024-06-07 10:19:21.804845,2,2,-21,0,0,0,81,84,136,120,47,131.78,304,45.00,-44.00,-944.00
2024-06-07 10:19:22.000957,2,2,-27,0,0,0,81,83,137,120,47,131.77,304,38.00,-30.00,-952.00
2024-06-07 10:19:22.008564,2,2,-33,0,0,0,81,83,136,120,47,131.79,304,23.00,-24.00,-1026.00
2024-06-07 10:19:22.122349,2,1,-39,0,0,0,81,83,138,120,47,131.76,304,112.00,-51.00,-1023.00
2024-06-07 10:19:22.212588,3,1,-44,0,0,0,81,83,139,120,47,131.83,305,70.00,-50.00,-993.00
2024-06-07 10:19:22.410409,3,1,-50,0,0,0,81,83,140,120,47,131.74,305,27.00,1.00,-1026.00
2024-06-07 10:19:22.417082,3,1,-55,0,0,0,81,83,139,120,47,131.74,305,131.00,-54.00,-1013.00
2024-06-07 10:19:22.518670,3,1,-61,0,0,0,81,83,141,120,47,131.77,305,75.00,-48.00,-1026.00
2024-06-07 10:19:22.717779,4,1,-67,0,0,0,81,83,142,120,47,131.79,305,80.00,-21.00,-950.00
2024-06-07 10:19:22.722526,3,1,-73,0,0,0,81,83,143,120,47,131.78,305,94.00,-11.00,-965.00
2024-06-07 10:19:22.824767,3,1,-79,0,0,0,81,83,144,120,47,131.79,305,103.00,-2.00,-952.00
2024-06-07 10:19:23.024920,3,0,-85,0,0,0,82,83,147,120,47,131.83,305,75.00,-11.00,-953.00
2024-06-07 10:19:23.028629,3,0,-90,0,0,0,82,83,148,130,47,131.88,305,-8.00,43.00,-959.00
2024-06-07 10:19:23.229706,3,0,-96,0,0,0,82,83,148,130,47,131.92,305,84.00,-31.00,-997.00
2024-06-07 10:19:23.232573,3,0,-102,0,0,0,82,83,148,130,47,131.88,306,-21.00,21.00,-928.00
2024-06-07 10:19:23.334579,2,0,-108,0,0,0,82,83,151,130,47,131.91,306,63.00,8.00,-953.00
2024-06-07 10:19:23.385978,1,-1,-114,0,0,0,82,83,150,130,47,131.86,306,78.00,22.00,-992.00
2024-06-07 10:19:23.541069,2,-1,-120,0,0,0,82,83,149,130,47,131.88,306,81.00,8.00,-927.00
2024-06-07 10:19:23.589818,3,-1,-127,0,0,0,82,83,148,130,47,131.84,306,43.00,36.00,-923.00
2024-06-07 10:19:23.742050,2,-2,-133,0,0,0,82,83,147,130,47,131.87,306,73.00,3.00,-986.00
2024-06-07 10:19:23.794876,2,-2,-140,0,0,0,82,83,149,130,46,131.79,306,10.00,45.00,-924.00
2024-06-07 10:19:23.946500,1,-2,-146,0,0,0,81,83,147,130,46,131.75,306,3.00,57.00,-1026.00
2024-06-07 10:19:24.000490,0,-3,-152,0,0,0,81,83,147,130,46,131.84,306,98.00,29.00,-973.00
2024-06-07 10:19:24.100144,0,-3,-158,0,0,1,81,83,147,130,46,131.81,306,-15.00,77.00,-1007.00
2024-06-07 10:19:24.253887,0,-3,-164,0,0,0,81,83,144,130,46,131.75,307,57.00,29.00,-955.00
2024-06-07 10:19:24.303947,0,-2,-170,0,0,0,81,83,145,120,46,131.76,307,98.00,26.00,-1092.00
2024-06-07 10:19:24.405866,1,-2,-176,0,0,0,81,83,146,120,46,131.86,307,25.00,30.00,-1052.00
2024-06-07 10:19:24.507870,1,-2,178,0,0,0,81,83,143,120,46,131.79,307,4.00,69.00,-1011.00
2024-06-07 10:19:24.663326,0,-2,172,0,0,0,81,83,144,120,46,131.78,307,49.00,18.00,-985.00
2024-06-07 10:19:24.711788,1,-2,166,0,0,0,81,83,141,120,46,131.81,307,36.00,52.00,-961.00
2024-06-07 10:19:24.868142,1,-2,160,0,0,0,81,83,146,120,46,131.79,307,-93.00,125.00,-935.00
2024-06-07 10:19:24.916680,0,-2,154,0,0,0,81,83,143,120,46,131.84,307,-70.00,59.00,-1020.00
2024-06-07 10:19:25.018338,-2,-2,149,0,0,0,81,83,144,120,46,131.81,307,-21.00,79.00,-1046.00
2024-06-07 10:19:25.119740,-3,-2,143,0,0,0,81,83,143,120,46,131.88,307,-11.00,40.00,-1067.00
2024-06-07 10:19:25.222103,-3,-2,137,0,0,0,81,83,142,120,46,131.85,308,7.00,48.00,-938.00
2024-06-07 10:19:25.382436,-2,-1,131,0,0,0,81,83,145,120,46,131.87,308,21.00,49.00,-989.00
2024-06-07 10:19:25.425912,-1,-1,125,0,0,0,81,83,142,120,46,131.89,308,-27.00,30.00,-1015.00
2024-06-07 10:19:25.587497,-1,-1,119,0,0,0,81,83,144,120,46,131.78,308,30.00,35.00,-1006.00
2024-06-07 10:19:25.629725,0,-2,113,-1,0,0,81,83,143,120,46,131.77,308,-35.00,54.00,-1047.00
2024-06-07 10:19:25.731766,-1,-2,107,0,0,0,81,83,142,120,46,131.89,308,-67.00,50.00,-971.00
2024-06-07 10:19:25.892088,-2,-2,101,0,0,0,81,83,142,120,46,131.71,308,-44.00,49.00,-1049.00
2024-06-07 10:19:25.935947,-3,-1,95,0,0,0,81,83,141,120,46,131.80,308,-23.00,-15.00,-1002.00
2024-06-07 10:19:26.096871,-4,0,89,0,0,0,81,83,143,120,46,131.72,308,-61.00,39.00,-976.00
2024-06-07 10:19:26.139877,-4,0,83,0,0,0,81,83,141,120,46,131.71,308,-64.00,28.00,-999.00
2024-06-07 10:19:26.242140,-4,0,77,0,0,0,81,83,140,120,46,131.70,309,6.00,-7.00,-951.00
2024-06-07 10:19:26.404153,-4,0,71,0,0,0,81,83,140,120,46,131.69,309,-52.00,-13.00,-1008.00
2024-06-07 10:19:26.446795,-3,0,65,0,0,0,81,83,137,120,46,131.62,309,-89.00,14.00,-985.00
2024-06-07 10:19:26.609215,-3,1,59,0,0,0,81,83,135,120,46,131.67,309,-38.00,22.00,-946.00
2024-06-07 10:19:26.649735,-2,1,53,0,0,0,81,83,133,120,46,131.68,309,-59.00,2.00,-1039.00
2024-06-07 10:19:26.813736,-3,1,47,0,0,0,81,83,132,120,46,131.73,309,-35.00,-22.00,-923.00
2024-06-07 10:19:26.854408,-3,2,41,0,0,0,81,83,131,120,46,131.68,309,-99.00,-14.00,-1036.00
2024-06-07 10:19:26.955673,-3,2,35,0,0,0,80,83,129,120,46,131.74,309,-88.00,7.00,-964.00
2024-06-07 10:19:27.057678,-3,3,30,0,0,0,80,83,131,120,46,131.62,309,-58.00,-2.00,-1001.00
2024-06-07 10:19:27.226393,-3,3,25,0,0,0,80,83,130,120,46,131.69,309,-17.00,-40.00,-1035.00
2024-06-07 10:19:27.230352,-2,3,22,0,0,0,80,83,131,120,46,131.69,310,-98.00,-11.00,-987.00
2024-06-07 10:19:27.314117,0,3,19,0,0,0,80,83,131,120,46,131.73,310,13.00,-43.00,-1069.00
2024-06-07 10:19:27.417645,0,3,17,0,0,0,80,83,132,120,46,131.73,310,-26.00,-47.00,-1004.00
2024-06-07 10:19:27.517091,0,3,15,0,0,0,80,83,132,120,46,131.75,310,-29.00,-21.00,-1032.00
2024-06-07 10:19:27.633669,-1,3,14,0,0,0,80,83,132,120,46,131.81,310,-84.00,-26.00,-974.00
2024-06-07 10:19:27.728703,-2,2,13,-1,1,0,80,83,133,120,45,131.71,310,-62.00,19.00,-1026.00
2024-06-07 10:19:27.823128,-2,1,12,-1,1,0,80,83,136,120,45,131.74,310,-19.00,-25.00,-1020.00
2024-06-07 10:19:27.940423,-3,1,11,0,0,-1,81,83,135,120,45,131.73,310,-31.00,1.00,-983.00
2024-06-07 10:19:28.027073,-2,2,11,0,0,0,81,83,137,120,45,131.66,310,-60.00,-21.00,-901.00
2024-06-07 10:19:28.129633,-1,2,11,0,0,0,81,83,138,120,45,131.66,310,3.00,-27.00,-993.00
2024-06-07 10:19:28.231179,-1,2,11,0,0,0,81,83,137,120,45,131.69,311,2.00,-35.00,-1023.00
2024-06-07 10:19:28.350604,0,3,11,0,0,0,81,83,137,120,45,131.59,311,-30.00,-54.00,-972.00
2024-06-07 10:19:28.434690,0,3,11,0,0,0,81,83,136,120,45,131.76,311,-54.00,-53.00,-979.00
2024-06-07 10:19:28.556152,-1,4,11,0,0,0,81,83,135,120,45,131.80,311,-95.00,-36.00,-943.00
2024-06-07 10:19:28.638565,-2,4,11,-1,0,0,81,83,134,120,45,131.68,311,-37.00,-30.00,-1047.00
2024-06-07 10:19:28.759434,-3,3,11,-1,0,0,81,83,134,120,45,131.78,311,5.00,-68.00,-967.00
2024-06-07 10:19:28.842648,-3,3,11,0,0,0,81,83,133,120,45,131.76,311,15.00,-51.00,-1059.00
2024-06-07 10:19:28.964154,-2,3,11,0,0,0,82,84,134,120,45,131.76,311,-32.00,-44.00,-941.00
2024-06-07 10:19:29.046905,-2,2,11,0,1,0,82,84,134,120,45,131.65,311,-69.00,-39.00,-1054.00
2024-06-07 10:19:29.152496,-2,2,11,0,1,0,82,84,134,120,45,131.67,311,-48.00,-19.00,-1034.00
2024-06-07 10:19:29.250458,-2,1,11,0,1,0,82,84,134,120,45,131.64,312,-60.00,1.00,-927.00
2024-06-07 10:19:29.373827,-2,1,11,0,1,0,82,84,134,120,45,131.69,312,15.00,-63.00,-1046.00
2024-06-07 10:19:29.455141,-3,1,11,0,1,0,82,84,135,120,45,131.67,312,-63.00,-26.00,-1010.00
2024-06-07 10:19:29.578668,-3,1,11,0,0,0,82,84,135,120,45,131.68,312,-31.00,-16.00,-1023.00
2024-06-07 10:19:29.658503,-3,1,11,0,0,0,82,84,137,120,45,131.68,312,-10.00,-49.00,-1010.00
2024-06-07 10:19:29.789100,-3,2,11,0,0,0,82,84,137,120,45,131.68,312,-68.00,-45.00,-1052.00
2024-06-07 10:19:29.862799,-3,2,11,0,0,0,82,84,137,120,45,131.67,312,-41.00,-32.00,-999.00
2024-06-07 10:19:29.966501,-2,2,11,0,0,0,81,83,140,120,45,131.73,312,-5.00,-30.00,-1012.00
2024-06-07 10:19:30.066588,-2,2,11,0,0,0,81,83,141,120,45,131.88,312,-64.00,-19.00,-931.00
2024-06-07 10:19:30.193203,-2,2,11,0,0,0,81,83,143,120,45,131.70,312,-20.00,-24.00,-1011.00
2024-06-07 10:19:30.270322,-2,2,11,0,0,0,81,83,143,120,45,131.76,313,-51.00,-46.00,-928.00
2024-06-07 10:19:30.397885,-2,2,11,0,0,0,81,83,142,120,45,131.68,313,-29.00,-65.00,-1015.00
2024-06-07 10:19:30.475043,-2,2,11,0,0,0,81,83,143,120,45,131.71,313,23.00,-16.00,-972.00
2024-06-07 10:19:30.577668,-2,3,11,0,0,0,81,83,145,120,45,131.85,313,-20.00,-54.00,-990.00
2024-06-07 10:19:30.707939,-1,3,11,0,0,0,81,83,142,120,45,131.82,313,-26.00,-45.00,-1020.00
2024-06-07 10:19:30.729440,-1,3,11,0,0,0,81,83,143,120,45,131.75,313,9.00,-23.00,-1001.00
2024-06-07 10:19:30.910145,-1,2,11,0,0,0,81,83,143,120,45,131.77,313,-41.00,-62.00,-966.00
2024-06-07 10:19:30.985548,0,1,11,0,0,0,81,83,143,120,45,131.85,313,-11.00,-48.00,-928.00
2024-06-07 10:19:31.086818,-1,1,11,0,0,0,81,83,143,120,45,131.90,313,19.00,-25.00,-1013.00
2024-06-07 10:19:31.195642,0,1,11,0,0,0,81,83,143,120,45,131.73,313,31.00,-77.00,-1031.00
2024-06-07 10:19:31.241034,0,2,11,0,0,0,81,83,140,120,45,131.81,314,9.00,-81.00,-969.00
2024-06-07 10:19:31.423705,0,2,11,0,0,0,81,83,140,120,45,131.69,314,-7.00,-74.00,-1046.00
2024-06-07 10:19:31.445913,0,2,11,0,0,0,81,83,138,120,45,131.77,314,-45.00,-60.00,-966.00
2024-06-07 10:19:31.545686,0,2,11,0,0,0,81,83,137,120,45,131.77,314,-83.00,6.00,-965.00
2024-06-07 10:19:31.647630,-1,2,11,0,0,0,81,83,135,120,45,131.72,314,-61.00,-17.00,-1006.00
2024-06-07 10:19:31.831813,-3,1,11,0,0,0,81,83,134,120,45,131.73,314,31.00,-52.00,-1066.00
2024-06-07 10:19:31.851492,-3,1,11,0,0,0,81,83,134,120,45,131.75,314,-14.00,-8.00,-1088.00
2024-06-07 10:19:31.956205,-2,1,11,0,0,0,81,83,135,120,45,131.77,314,-30.00,-55.00,-979.00
2024-06-07 10:19:32.055870,-2,1,11,0,0,0,81,83,136,120,45,131.73,314,0.00,-71.00,-1022.00
2024-06-07 10:19:32.241044,0,2,11,0,0,0,81,83,135,120,45,131.76,314,-4.00,-43.00,-977.00
2024-06-07 10:19:32.262089,0,3,11,1,0,0,81,83,137,120,45,131.82,315,-32.00,-28.00,-961.00
2024-06-07 10:19:32.362929,0,3,11,0,0,0,81,83,137,120,45,131.76,315,0.00,-26.00,-1016.00
2024-06-07 10:19:32.463500,0,2,11,0,0,0,81,83,139,120,45,131.81,315,-14.00,-35.00,-973.00
2024-06-07 10:19:32.650627,0,2,11,0,0,0,81,83,139,120,45,131.75,315,2.00,-40.00,-984.00
2024-06-07 10:19:32.667930,0,1,11,0,0,0,81,83,140,120,45,131.81,315,-17.00,-32.00,-982.00
2024-06-07 10:19:32.856443,0,1,11,0,0,0,81,83,143,120,45,131.82,315,4.00,-48.00,-1006.00
2024-06-07 10:19:32.871624,0,1,11,0,0,0,81,83,142,120,45,131.86,315,18.00,-52.00,-1027.00
2024-06-07 10:19:32.984955,0,1,11,0,0,0,82,83,140,120,45,131.79,315,1.00,-46.00,-893.00
2024-06-07 10:19:33.075620,0,1,11,0,0,0,82,83,140,120,45,131.81,315,85.00,-54.00,-1002.00
2024-06-07 10:19:33.267046,0,2,11,0,0,0,82,83,138,120,45,131.78,315,-37.00,-14.00,-954.00
2024-06-07 10:19:33.281277,0,2,12,0,0,0,82,83,138,120,45,131.76,316,-43.00,-14.00,-938.00
2024-06-07 10:19:33.382626,0,2,12,0,0,0,82,83,137,120,45,131.76,316,39.00,-38.00,-1030.00
2024-06-07 10:19:33.483479,-1,1,11,0,0,0,82,83,135,120,45,131.76,316,-104.00,0.00,-991.00
2024-06-07 10:19:33.674739,-1,1,11,0,0,0,82,83,134,120,45,131.79,316,-30.00,-38.00,-987.00
2024-06-07 10:19:33.687356,-2,1,11,0,0,0,82,83,130,120,45,131.75,316,10.00,-39.00,-1061.00
2024-06-07 10:19:33.879670,-2,1,11,0,0,0,82,83,130,120,44,131.77,316,-5.00,-47.00,-1012.00
2024-06-07 10:19:33.891702,-2,1,11,0,0,1,82,83,131,120,44,131.70,316,117.00,-65.00,-1048.00
2024-06-07 10:19:34.086812,-2,1,11,0,0,0,81,83,129,120,44,131.57,316,-50.00,-26.00,-1029.00
2024-06-07 10:19:34.097549,-1,2,11,0,0,0,81,83,130,120,44,131.67,316,-24.00,-26.00,-1036.00
2024-06-07 10:19:34.199939,-1,2,11,0,0,0,81,83,129,110,44,131.68,316,-91.00,1.00,-1065.00
2024-06-07 10:19:34.299615,-1,2,11,0,0,0,81,83,130,110,44,131.66,317,-67.00,-10.00,-1054.00
2024-06-07 10:19:34.350419,-1,2,11,0,0,0,81,83,132,120,44,131.70,317,51.00,-57.00,-1087.00
2024-06-07 10:19:34.493735,-1,1,11,0,0,0,81,83,132,120,44,131.71,317,-24.00,-9.00,-1037.00
2024-06-07 10:19:34.556590,-1,1,11,0,0,0,81,83,133,120,44,131.67,317,-96.00,-10.00,-974.00
2024-06-07 10:19:34.656119,-2,1,11,0,0,0,81,83,133,120,44,131.72,317,16.00,-58.00,-958.00
2024-06-07 10:19:34.802373,-2,1,11,0,0,0,81,83,134,120,44,131.71,317,-81.00,-8.00,-953.00
2024-06-07 10:19:34.860086,0,1,11,0,0,0,81,83,134,120,44,131.70,317,-47.00,-14.00,-987.00
2024-06-07 10:19:35.013487,-1,1,11,0,0,0,81,83,134,120,44,131.71,317,69.00,-49.00,-1019.00
2024-06-07 10:19:35.064515,0,1,11,0,0,0,81,83,135,120,44,131.77,317,-77.00,4.00,-941.00
2024-06-07 10:19:35.211103,-1,1,11,0,0,0,81,83,137,120,44,131.72,318,-46.00,-25.00,-951.00
2024-06-07 10:19:35.270563,-1,1,11,0,0,0,81,83,138,120,44,131.78,318,-42.00,-10.00,-983.00
2024-06-07 10:19:35.370534,0,1,11,0,0,0,81,83,140,120,44,131.75,318,-109.00,-18.00,-1046.00
2024-06-07 10:19:35.477644,0,2,11,0,0,0,81,83,140,120,44,131.82,318,-108.00,6.00,-1044.00
2024-06-07 10:19:35.574220,-1,1,11,0,0,-1,81,83,146,120,44,131.78,318,-5.00,-3.00,-1011.00
2024-06-07 10:19:35.723595,-1,1,11,0,0,-1,81,83,144,120,44,131.76,318,-43.00,-53.00,-962.00
2024-06-07 10:19:35.780708,0,1,11,0,0,0,81,83,144,130,44,131.75,318,-11.00,4.00,-982.00
2024-06-07 10:19:35.881191,0,1,11,0,0,0,81,83,144,130,44,131.74,318,-51.00,-12.00,-964.00
2024-06-07 10:19:35.982155,-1,1,11,0,0,0,80,83,146,130,44,131.75,318,16.00,-56.00,-1007.00
2024-06-07 10:19:36.086164,-1,0,11,0,0,0,80,83,144,130,44,131.77,318,-53.00,-6.00,-941.00
2024-06-07 10:19:36.250256,-2,0,11,0,0,0,80,83,146,130,44,131.84,319,-14.00,-28.00,-933.00
2024-06-07 10:19:36.308640,-2,0,11,0,0,0,80,83,141,130,44,131.73,319,-55.00,-37.00,-1052.00
2024-06-07 10:19:36.396636,-2,0,11,0,0,1,80,83,141,120,44,131.71,319,-40.00,-70.00,-987.00
2024-06-07 10:19:36.495824,-2,1,11,0,0,0,80,83,139,120,44,131.71,319,-49.00,-22.00,-1039.00
2024-06-07 10:19:36.596222,-2,1,11,0,0,0,80,83,138,120,44,131.76,319,-102.00,-37.00,-1047.00
2024-06-07 10:19:36.849159,-2,2,11,0,0,0,80,83,138,120,44,131.68,319,-20.00,-63.00,-959.00
2024-06-07 10:19:36.849364,-2,3,11,0,0,1,80,83,135,120,44,131.66,319,16.00,-40.00,-950.00
2024-06-07 10:19:36.902337,-2,3,11,0,0,0,80,83,133,120,44,131.67,319,-106.00,-27.00,-992.00
2024-06-07 10:19:37.053810,-1,3,11,0,0,0,81,83,130,120,44,131.70,319,29.00,-72.00,-1124.00
2024-06-07 10:19:37.106581,-1,2,11,0,0,0,81,83,127,120,44,131.66,319,-78.00,-24.00,-1010.00
2024-06-07 10:19:37.208981,-2,2,11,0,0,0,81,83,127,120,44,131.65,320,-78.00,-28.00,-953.00
2024-06-07 10:19:37.309999,-3,2,11,0,0,0,81,83,127,110,44,131.62,320,-9.00,-102.00,-1087.00
2024-06-07 10:19:37.414088,-3,2,11,0,0,0,81,83,126,110,44,131.61,320,-5.00,-52.00,-1030.00
2024-06-07 10:19:37.513754,-3,2,11,0,0,0,81,83,124,110,44,131.72,320,20.00,-59.00,-1073.00
2024-06-07 10:19:37.668289,-2,2,11,0,0,0,81,83,124,110,44,131.58,320,-4.00,-59.00,-1007.00
2024-06-07 10:19:37.717367,-2,2,11,0,0,0,81,83,123,110,44,131.70,320,6.00,-51.00,-982.00
2024-06-07 10:19:37.876833,-1,2,11,0,0,0,81,83,123,110,44,131.69,320,-62.00,-64.00,-1085.00
2024-06-07 10:19:37.921961,-1,3,11,0,0,0,81,83,123,110,44,131.69,320,22.00,-95.00,-1163.00
2024-06-07 10:19:38.079406,-1,3,11,0,0,0,82,83,123,110,44,131.75,320,-17.00,-50.00,-922.00
2024-06-07 10:19:38.125170,-1,3,11,0,0,0,82,83,124,110,44,131.78,320,-2.00,-42.00,-1114.00
2024-06-07 10:19:38.282597,-1,3,11,0,0,0,82,83,126,110,44,131.73,321,-87.00,-55.00,-954.00
