TS,pitch,roll,yaw,vgx,vgy,vgz,templ,temph,tof,h,bat,baro,time,agx,agy,agz
2024-06-07 10:20:12.791380,1,0,-3,0,0,0,83,85,10,0,42,130.39,328,28.00,14.00,-998.00
2024-06-07 10:20:12.807199,1,0,-3,0,0,0,83,85,10,0,42,130.44,328,29.00,15.00,-999.00
2024-06-07 10:20:12.907712,1,0,-3,0,0,0,83,85,10,0,42,130.42,328,27.00,13.00,-999.00
2024-06-07 10:20:13.098469,1,0,-3,0,0,0,83,85,10,0,42,130.42,328,29.00,16.00,-1000.00
2024-06-07 10:20:13.111528,1,0,-3,0,0,0,83,85,10,0,42,130.37,328,28.00,15.00,-999.00
2024-06-07 10:20:13.303211,1,0,-3,0,0,0,83,86,10,0,42,130.43,328,30.00,15.00,-1000.00
2024-06-07 10:20:13.315432,1,0,-3,0,0,0,83,86,10,0,42,130.39,328,27.00,14.00,-999.00
2024-06-07 10:20:13.508058,1,0,-3,0,0,0,83,86,10,0,42,130.43,328,27.00,15.00,-1001.00
2024-06-07 10:20:13.519368,1,0,-3,0,0,0,83,86,10,0,42,130.41,328,29.00,15.00,-1000.00
2024-06-07 10:20:13.719762,1,0,-3,0,0,0,83,86,10,0,42,130.40,328,28.00,15.00,-1000.00
2024-06-07 10:20:13.724908,1,0,-3,0,0,0,83,86,10,0,42,130.44,328,29.00,15.00,-1001.00
2024-06-07 10:20:13.825431,1,0,-3,0,0,0,83,86,10,0,42,130.41,328,29.00,14.00,-1000.00
2024-06-07 10:20:14.020125,1,0,-3,0,0,0,83,86,10,0,42,130.46,328,29.00,14.00,-1000.00
2024-06-07 10:20:14.029350,1,0,-3,0,0,0,83,86,10,0,42,130.42,328,28.00,14.00,-999.00
2024-06-07 10:20:14.224877,1,0,-3,0,0,0,83,86,10,0,42,130.39,328,29.00,17.00,-1000.00
2024-06-07 10:20:14.233755,1,0,-3,0,0,0,83,85,10,0,42,130.41,328,27.00,14.00,-998.00
2024-06-07 10:20:14.429544,1,0,-3,0,0,0,83,85,10,0,42,130.39,328,28.00,15.00,-1001.00
2024-06-07 10:20:14.437608,1,0,-3,0,0,0,83,85,10,0,42,130.43,328,29.00,15.00,-1000.00
2024-06-07 10:20:14.488391,1,0,-3,0,0,0,83,85,10,0,42,130.41,328,28.00,15.00,-996.00
2024-06-07 10:20:14.634347,1,0,-3,0,0,0,83,85,10,0,42,130.41,328,21.00,2.00,-997.00
2024-06-07 10:20:14.692423,1,0,-3,0,0,0,83,85,10,0,42,130.41,328,-5.00,15.00,-967.00
2024-06-07 10:20:14.839189,1,0,-3,0,0,0,83,85,10,0,42,130.41,328,30.00,7.00,-1003.00
2024-06-07 10:20:14.896266,1,0,-3,0,0,0,83,85,10,0,42,130.41,328,-5.00,6.00,-1012.00
2024-06-07 10:20:15.044049,1,0,-3,0,0,0,83,85,10,0,42,130.41,328,39.00,-31.00,-984.00
2024-06-07 10:20:15.100426,-1,2,-4,0,0,0,83,85,10,0,42,130.41,328,18.00,-4.00,-1128.00
2024-06-07 10:20:15.249075,-3,3,-4,0,0,-1,83,85,10,0,42,130.41,328,58.00,-25.00,-1138.00
2024-06-07 10:20:15.304613,-1,2,-4,1,0,-4,83,85,10,0,42,130.41,329,28.00,-63.00,-1280.00
2024-06-07 10:20:15.407335,2,0,-4,1,0,-6,83,85,13,0,42,130.61,329,79.00,-142.00,-1155.00
2024-06-07 10:20:15.556003,3,0,-4,1,0,-7,83,85,21,10,42,131.08,329,132.00,-111.00,-1074.00
2024-06-07 10:20:15.610782,3,2,-4,1,-1,-7,83,85,29,20,42,131.18,329,70.00,-67.00,-1052.00
2024-06-07 10:20:15.712651,3,3,-4,0,-1,-7,83,85,34,20,42,131.29,329,3.00,-58.00,-905.00
2024-06-07 10:20:15.814333,3,4,-4,0,-1,-7,83,85,42,30,42,131.31,329,73.00,-94.00,-991.00
2024-06-07 10:20:15.965577,3,3,-4,0,-1,-6,83,85,48,40,42,131.37,329,37.00,-54.00,-911.00
2024-06-07 10:20:16.022027,2,4,-4,0,-1,-5,83,85,55,40,42,131.41,329,72.00,-92.00,-912.00
2024-06-07 10:20:16.120261,2,6,-4,0,-1,-4,83,85,59,50,42,131.42,329,13.00,-56.00,-886.00
2024-06-07 10:20:16.222920,1,6,-4,0,-1,-3,82,85,65,50,42,131.52,329,64.00,-55.00,-898.00
2024-06-07 10:20:16.324441,1,5,-4,0,-1,-2,82,85,68,50,42,131.50,330,49.00,-61.00,-937.00
2024-06-07 10:20:16.477587,1,5,-4,0,0,-2,82,85,71,50,42,131.58,330,36.00,-90.00,-961.00
2024-06-07 10:20:16.528317,1,5,-4,0,-1,-1,82,85,74,60,42,131.53,330,73.00,-90.00,-968.00
2024-06-07 10:20:16.682365,2,6,-4,0,0,-1,82,85,76,60,42,131.58,330,-44.00,-51.00,-966.00
2024-06-07 10:20:16.732250,1,5,-4,0,0,0,82,85,79,60,42,131.58,330,15.00,-96.00,-900.00
2024-06-07 10:20:16.887164,0,5,-4,0,0,0,82,85,80,60,42,131.64,330,82.00,-57.00,-957.00
2024-06-07 10:20:16.936305,1,5,-4,0,0,0,82,85,82,60,42,131.66,330,104.00,-83.00,-1018.00
2024-06-07 10:20:17.092364,2,4,-4,0,0,0,82,85,84,60,42,131.74,330,72.00,-67.00,-942.00
2024-06-07 10:20:17.140351,2,4,-4,0,0,0,82,85,85,60,42,131.66,330,31.00,-44.00,-981.00
2024-06-07 10:20:17.296745,3,4,-4,0,0,0,83,85,87,70,42,131.70,330,29.00,-80.00,-955.00
2024-06-07 10:20:17.344323,2,4,-4,0,0,0,83,85,88,70,42,131.62,331,30.00,-46.00,-1026.00
2024-06-07 10:20:17.448563,3,4,-4,0,0,0,83,85,89,70,42,131.71,331,13.00,-66.00,-903.00
2024-06-07 10:20:17.558728,2,4,-4,0,0,0,83,85,89,70,42,131.75,331,35.00,-65.00,-1025.00
2024-06-07 10:20:17.650346,2,4,-4,0,0,0,83,85,91,70,42,131.74,331,118.00,-64.00,-1043.00
2024-06-07 10:20:17.808771,2,3,-4,0,0,0,83,85,92,70,42,131.73,331,79.00,-102.00,-902.00
2024-06-07 10:20:17.858134,2,4,-4,0,0,0,83,85,93,70,42,131.67,331,-33.00,-39.00,-999.00
2024-06-07 10:20:17.956613,2,3,-4,0,0,0,83,85,92,70,42,131.65,331,57.00,-69.00,-1006.00
2024-06-07 10:20:18.007699,2,3,-4,0,0,0,83,85,92,70,42,131.76,331,-28.00,-25.00,-896.00
2024-06-07 10:20:18.116616,2,3,-4,0,0,0,83,85,91,70,42,131.73,331,94.00,-88.00,-935.00
2024-06-07 10:20:18.321059,1,3,-4,0,0,0,83,85,91,70,42,131.72,331,-6.00,-62.00,-1017.00
2024-06-07 10:20:18.369782,2,3,-4,0,0,0,83,85,92,70,42,131.71,332,126.00,-98.00,-1038.00
2024-06-07 10:20:18.466234,2,3,-4,0,0,0,83,85,91,70,42,131.79,332,10.00,-74.00,-970.00
2024-06-07 10:20:18.632703,2,4,-4,0,0,0,83,85,90,70,42,131.73,332,50.00,-81.00,-933.00
2024-06-07 10:20:18.634950,0,4,-4,0,0,1,83,85,90,70,42,131.69,332,-7.00,-41.00,-995.00
2024-06-07 10:20:18.721859,1,4,-4,0,0,0,83,85,89,70,42,131.67,332,100.00,-86.00,-990.00
2024-06-07 10:20:18.832725,2,4,-4,0,0,0,83,85,88,70,42,131.70,332,-5.00,-89.00,-965.00
2024-06-07 10:20:18.925380,2,4,-4,0,0,0,83,85,88,70,42,131.67,332,55.00,-60.00,-1030.00
2024-06-07 10:20:19.038557,3,5,-4,0,0,0,83,85,88,70,42,131.64,332,80.00,-119.00,-968.00
2024-06-07 10:20:19.129392,3,4,-4,0,0,0,83,85,86,70,42,131.64,332,81.00,-98.00,-961.00
2024-06-07 10:20:19.231543,2,5,-4,0,0,0,82,85,86,70,42,131.68,332,71.00,-76.00,-1051.00
2024-06-07 10:20:19.344677,2,4,-4,0,0,0,82,85,85,70,42,131.62,333,89.00,-95.00,-968.00
2024-06-07 10:20:19.436628,3,4,-4,0,0,0,82,85,85,70,42,131.56,333,34.00,-41.00,-1035.00
2024-06-07 10:20:19.538756,4,4,-4,0,0,0,82,85,85,70,42,131.71,333,82.00,-88.00,-992.00
2024-06-07 10:20:19.640637,5,4,-4,0,0,0,82,85,84,70,42,131.55,333,75.00,-60.00,-1038.00
2024-06-07 10:20:19.742131,4,3,-4,0,0,0,82,85,83,70,42,131.48,333,-6.00,-72.00,-1031.00
2024-06-07 10:20:19.843232,3,3,-4,0,0,0,82,85,83,70,42,131.46,333,40.00,-66.00,-992.00
2024-06-07 10:20:19.959169,2,4,-4,0,0,0,82,85,83,70,42,131.48,333,68.00,-83.00,-1016.00
2024-06-07 10:20:20.047461,3,3,-4,0,0,0,82,85,83,70,42,131.53,333,8.00,-43.00,-972.00
2024-06-07 10:20:20.164368,3,3,-4,0,0,0,82,85,82,70,42,131.60,333,42.00,-45.00,-1042.00
2024-06-07 10:20:20.251073,2,3,-4,0,0,0,83,85,82,70,42,131.57,333,36.00,-66.00,-978.00
2024-06-07 10:20:20.368773,2,3,-4,0,0,0,83,85,81,70,42,131.59,334,75.00,-87.00,-929.00
2024-06-07 10:20:20.455192,2,4,-4,0,0,0,83,85,81,70,42,131.54,334,-8.00,-37.00,-1018.00
2024-06-07 10:20:20.573527,4,5,-3,0,0,0,83,85,81,70,42,131.61,334,23.00,-86.00,-991.00
2024-06-07 10:20:20.659574,4,4,-3,0,0,0,83,85,80,70,42,131.67,334,35.00,-63.00,-883.00
2024-06-07 10:20:20.778337,3,5,-4,0,0,0,83,85,80,70,42,131.56,334,-41.00,-68.00,-951.00
2024-06-07 10:20:20.863052,3,5,-4,0,0,0,83,85,79,60,42,131.64,334,83.00,-105.00,-969.00
2024-06-07 10:20:20.983174,3,4,-4,0,0,0,83,85,79,60,42,131.56,334,18.00,-44.00,-988.00
2024-06-07 10:20:21.067010,3,5,-3,0,0,0,83,85,78,60,42,131.61,334,92.00,-83.00,-993.00
2024-06-07 10:20:21.169142,3,4,-3,0,0,0,83,85,78,60,42,131.51,334,8.00,-74.00,-1012.00
2024-06-07 10:20:21.271256,3,4,-3,0,0,0,83,84,78,60,42,131.54,334,-19.00,-48.00,-936.00
2024-06-07 10:20:21.392752,2,4,-4,-1,0,0,83,84,77,60,42,131.45,335,112.00,-78.00,-1058.00
2024-06-07 10:20:21.475266,1,4,-4,0,0,0,83,84,76,60,42,131.43,335,82.00,-46.00,-984.00
2024-06-07 10:20:21.597857,2,4,-4,0,0,0,83,84,77,60,42,131.32,335,24.00,-53.00,-1061.00
2024-06-07 10:20:21.679201,2,3,-4,0,1,0,83,84,77,60,42,131.41,335,109.00,-79.00,-982.00
2024-06-07 10:20:21.802390,2,2,-4,0,0,0,83,84,77,60,42,131.40,335,96.00,-83.00,-992.00
2024-06-07 10:20:21.883108,4,3,-4,0,0,0,83,84,77,60,42,131.38,335,81.00,-53.00,-991.00
2024-06-07 10:20:22.007317,4,4,-3,0,0,0,83,84,77,60,42,131.45,335,57.00,-69.00,-926.00
2024-06-07 10:20:22.087232,4,3,-3,0,0,0,83,84,77,60,42,131.40,335,82.00,-86.00,-1061.00
2024-06-07 10:20:22.138140,3,3,-4,-1,0,0,83,84,77,60,42,131.44,335,38.00,-38.00,-993.00
2024-06-07 10:20:22.314501,2,3,-4,-1,0,0,82,85,78,60,42,131.41,335,-7.00,-47.00,-1033.00
2024-06-07 10:20:22.342248,1,2,-4,-1,0,0,82,85,78,60,42,131.34,336,60.00,-62.00,-1028.00
2024-06-07 10:20:22.519250,0,3,-4,0,0,0,82,85,78,60,42,131.35,336,36.00,-69.00,-1001.00
2024-06-07 10:20:22.547059,1,3,-4,0,0,0,82,85,79,60,42,131.36,336,26.00,-46.00,-1064.00
2024-06-07 10:20:22.723989,1,3,-4,0,0,0,82,85,79,60,42,131.44,336,55.00,-55.00,-1008.00
2024-06-07 10:20:22.751449,2,3,-4,0,0,0,82,85,79,60,42,131.39,336,67.00,-72.00,-1044.00
2024-06-07 10:20:22.931632,3,3,-4,0,0,0,82,85,78,60,42,131.45,336,81.00,-54.00,-987.00
2024-06-07 10:20:22.955092,2,3,-4,0,0,0,82,85,78,60,42,131.39,336,-17.00,-60.00,-973.00
2024-06-07 10:20:23.057086,2,2,-4,0,0,0,82,85,78,60,42,131.30,336,55.00,-35.00,-984.00
2024-06-07 10:20:23.238425,0,2,-4,0,0,0,82,85,77,60,42,131.31,336,-1.00,-23.00,-954.00
2024-06-07 10:20:23.261824,0,2,-4,0,0,0,82,84,76,60,42,131.49,336,-24.00,-32.00,-913.00
2024-06-07 10:20:23.443169,0,2,-4,0,0,0,82,84,76,60,42,131.43,337,77.00,-73.00,-1104.00
2024-06-07 10:20:23.466634,1,3,-4,0,0,0,82,84,75,60,42,131.42,337,-2.00,-22.00,-998.00
2024-06-07 10:20:23.567031,2,3,-4,0,0,0,82,84,75,60,42,131.38,337,-17.00,-10.00,-939.00
2024-06-07 10:20:23.669673,2,3,-4,0,0,0,82,84,75,60,42,131.43,337,52.00,-40.00,-972.00
2024-06-07 10:20:23.771235,2,3,-4,0,0,0,82,84,76,60,42,131.44,337,36.00,-41.00,-1084.00
2024-06-07 10:20:23.953032,3,4,-4,0,0,0,82,84,76,60,42,131.28,337,-47.00,-4.00,-1021.00
2024-06-07 10:20:23.975034,2,4,-4,0,0,0,82,84,78,60,42,131.35,337,106.00,-80.00,-1091.00
2024-06-07 10:20:24.077504,2,3,-4,0,0,-2,82,84,81,60,42,131.55,337,-8.00,-38.00,-1113.00
2024-06-07 10:20:24.179049,3,3,-4,0,0,-3,82,84,84,70,42,131.57,337,25.00,-52.00,-1122.00
2024-06-07 10:20:24.281000,3,3,-4,0,0,-4,82,84,88,70,42,131.67,338,-19.00,-47.00,-1033.00
2024-06-07 10:20:24.467661,2,3,-4,0,0,-5,82,84,94,80,42,131.65,338,74.00,-88.00,-1084.00
2024-06-07 10:20:24.485804,2,3,-4,0,0,-5,82,84,100,80,42,131.65,338,76.00,-101.00,-1043.00
2024-06-07 10:20:24.672539,1,2,-4,0,0,-5,82,84,104,90,42,131.74,338,8.00,-37.00,-1109.00
2024-06-07 10:20:24.689512,1,2,-4,0,0,-5,82,84,112,90,42,131.79,338,-55.00,-47.00,-978.00
2024-06-07 10:20:24.874724,1,3,-4,0,0,-5,82,84,116,100,42,131.85,338,1.00,-48.00,-956.00
2024-06-07 10:20:24.893172,1,3,-4,0,0,-5,82,84,123,110,42,131.94,338,26.00,-74.00,-1024.00
2024-06-07 10:20:24.995338,2,4,-4,0,0,-5,82,84,128,110,42,131.97,338,21.00,-55.00,-952.00
2024-06-07 10:20:25.104846,2,4,-4,0,0,-5,82,84,135,120,42,131.97,338,-24.00,-58.00,-920.00
2024-06-07 10:20:25.199772,3,4,-4,0,0,-5,82,84,139,120,42,132.04,338,60.00,-58.00,-963.00
2024-06-07 10:20:25.388170,3,3,-3,0,0,-5,81,84,144,130,42,132.01,339,33.00,-23.00,-952.00
2024-06-07 10:20:25.402903,2,3,-4,0,0,-4,81,84,150,130,42,132.09,339,64.00,-67.00,-1038.00
2024-06-07 10:20:25.505019,0,3,-4,0,0,-3,81,84,153,140,42,132.13,339,-9.00,-49.00,-876.00
2024-06-07 10:20:25.695747,1,4,-4,0,0,-3,81,84,155,140,42,132.12,339,-13.00,-60.00,-990.00
2024-06-07 10:20:25.708880,1,4,-4,0,0,-3,81,84,159,140,42,132.08,339,74.00,-64.00,-987.00
2024-06-07 10:20:25.900388,2,4,-4,0,0,-2,81,84,162,150,42,132.15,339,8.00,-55.00,-918.00
2024-06-07 10:20:25.912838,3,3,-4,0,0,-2,81,84,166,150,42,132.19,339,-6.00,-13.00,-945.00
2024-06-07 10:20:25.964553,2,2,-4,0,0,-1,81,84,167,150,42,132.23,339,-5.00,-53.00,-931.00
2024-06-07 10:20:26.103544,1,2,-4,0,0,-1,81,84,168,150,42,132.25,339,-34.00,-6.00,-944.00
2024-06-07 10:20:26.168288,0,3,-4,0,0,-1,81,84,170,150,42,132.21,339,29.00,-40.00,-1003.00
2024-06-07 10:20:26.269792,2,3,-4,0,0,-1,82,84,170,160,42,132.26,340,46.00,-47.00,-956.00
2024-06-07 10:20:26.411078,3,2,-4,0,0,0,82,84,172,160,42,132.37,340,104.00,-95.00,-967.00
2024-06-07 10:20:26.474530,3,3,-4,0,0,0,82,84,172,160,42,132.32,340,103.00,-85.00,-944.00
2024-06-07 10:20:26.615132,4,4,-4,0,0,0,82,84,174,160,42,132.40,340,11.00,-64.00,-963.00
2024-06-07 10:20:26.679704,3,4,-4,0,0,0,82,84,174,160,42,132.41,340,36.00,-66.00,-981.00
2024-06-07 10:20:26.779912,2,5,-4,0,0,0,82,84,177,160,42,132.34,340,35.00,-74.00,-1009.00
2024-06-07 10:20:26.882387,2,4,-4,0,0,0,82,84,177,160,42,132.40,340,61.00,-74.00,-1052.00
2024-06-07 10:20:27.024843,2,4,-4,0,0,0,82,84,177,160,42,132.41,340,37.00,-78.00,-962.00
2024-06-07 10:20:27.091601,2,4,-4,0,0,0,82,84,176,160,42,132.45,340,14.00,-78.00,-958.00
2024-06-07 10:20:27.189628,2,4,-4,0,0,0,82,84,176,160,42,132.39,340,70.00,-76.00,-992.00
2024-06-07 10:20:27.290426,3,4,-4,0,0,0,82,84,180,160,42,132.34,341,-3.00,-47.00,-990.00
2024-06-07 10:20:27.394444,2,3,-4,0,0,0,82,84,182,160,42,132.46,341,17.00,-40.00,-918.00
2024-06-07 10:20:27.494070,1,3,-4,0,0,0,82,84,178,160,42,132.42,341,69.00,-119.00,-980.00
2024-06-07 10:20:27.639300,2,4,-4,0,0,0,82,84,180,160,42,132.51,341,96.00,-71.00,-1003.00
2024-06-07 10:20:27.698003,2,4,-4,0,0,0,82,84,182,160,42,132.44,341,133.00,-59.00,-1025.00
2024-06-07 10:20:27.844098,3,3,-4,0,0,0,82,84,182,160,42,132.44,341,34.00,-40.00,-981.00
2024-06-07 10:20:27.903469,4,4,-3,0,0,0,82,84,180,160,42,132.48,341,134.00,-73.00,-980.00
2024-06-07 10:20:28.003982,4,3,-3,0,0,0,82,84,182,160,42,132.48,341,19.00,-50.00,-1034.00
2024-06-07 10:20:28.140841,3,3,-4,0,0,0,82,84,178,160,42,132.35,341,3.00,-19.00,-997.00
2024-06-07 10:20:28.208691,2,4,-4,0,0,0,82,84,182,160,42,132.34,341,1.00,-21.00,-1067.00
2024-06-07 10:20:28.310030,3,4,-4,0,0,0,82,84,182,160,42,132.35,342,37.00,-71.00,-933.00
2024-06-07 10:20:28.412371,2,3,-4,0,0,0,82,84,181,160,42,132.37,342,79.00,-83.00,-1053.00
2024-06-07 10:20:28.513939,3,3,-4,0,0,0,82,84,184,160,42,132.39,342,63.00,-90.00,-970.00
2024-06-07 10:20:28.663122,4,3,-4,0,0,0,82,84,184,160,42,132.37,342,22.00,-56.00,-943.00
2024-06-07 10:20:28.718425,3,3,-4,0,0,0,82,84,184,160,42,132.43,342,54.00,-86.00,-977.00
2024-06-07 10:20:28.819781,3,3,-4,0,0,1,82,84,185,160,42,132.41,342,63.00,-39.00,-995.00
2024-06-07 10:20:28.921999,2,2,-4,0,0,1,82,84,182,160,42,132.35,342,74.00,-87.00,-967.00
2024-06-07 10:20:29.072763,3,3,-4,0,0,1,82,84,182,160,42,132.42,342,41.00,-104.00,-898.00
2024-06-07 10:20:29.125872,2,3,-4,0,0,2,82,84,179,160,42,132.35,342,18.00,-29.00,-940.00
2024-06-07 10:20:29.277561,1,3,-4,0,0,2,82,84,177,160,42,132.45,342,-4.00,-61.00,-1002.00
2024-06-07 10:20:29.329753,0,2,-4,0,0,2,82,84,175,160,42,132.42,343,72.00,-95.00,-1004.00
2024-06-07 10:20:29.432124,1,3,-4,0,0,2,82,84,173,160,42,132.25,343,-20.00,-48.00,-915.00
2024-06-07 10:20:29.584854,2,3,-4,0,0,2,82,84,172,150,42,132.32,343,30.00,-66.00,-946.00
2024-06-07 10:20:29.635777,2,4,-4,0,0,2,82,84,170,150,42,132.28,343,74.00,-71.00,-981.00
2024-06-07 10:20:29.791939,2,4,-4,0,0,2,82,84,166,150,42,132.18,343,27.00,-52.00,-950.00
2024-06-07 10:20:29.841177,3,4,-4,0,0,2,82,84,165,150,42,132.21,343,66.00,-57.00,-1025.00
2024-06-07 10:20:29.994304,3,3,-4,0,0,2,82,84,160,150,42,132.14,343,71.00,-38.00,-983.00
2024-06-07 10:20:30.043914,3,2,-4,0,0,2,82,84,158,140,42,132.09,343,85.00,-104.00,-1005.00
2024-06-07 10:20:30.199113,3,3,-4,0,0,2,82,84,156,140,42,132.13,343,24.00,-79.00,-1025.00
2024-06-07 10:20:30.199320,2,3,-4,0,0,2,82,84,153,140,42,132.04,343,-11.00,-18.00,-954.00
2024-06-07 10:20:30.349755,1,3,-4,0,0,2,81,84,152,140,42,132.03,344,34.00,-54.00,-1038.00
2024-06-07 10:20:30.404486,2,3,-3,0,0,2,81,84,150,130,42,132.08,344,13.00,-62.00,-1021.00
2024-06-07 10:20:30.503732,1,3,-3,-1,0,2,81,84,148,130,42,132.07,344,20.00,-64.00,-970.00
2024-06-07 10:20:30.608696,0,2,-3,0,0,1,81,84,146,130,42,132.10,344,-16.00,-81.00,-990.00
2024-06-07 10:20:30.708445,0,3,-3,-1,0,1,81,84,145,130,42,132.14,344,10.00,-93.00,-982.00
2024-06-07 10:20:30.810767,0,4,-3,-1,0,1,81,84,143,130,42,132.05,344,41.00,-75.00,-956.00
2024-06-07 10:20:30.912205,0,4,-3,0,0,1,81,84,142,130,42,131.98,344,55.00,-96.00,-1018.00
2024-06-07 10:20:31.015517,0,4,-3,0,0,1,81,84,140,130,42,132.04,344,41.00,-66.00,-1024.00
2024-06-07 10:20:31.114628,1,4,-3,0,0,1,81,84,139,120,42,132.10,344,-42.00,-88.00,-1006.00
2024-06-07 10:20:31.217261,0,4,-4,0,0,0,81,84,138,120,42,132.03,344,-19.00,-62.00,-977.00
2024-06-07 10:20:31.327207,0,5,-4,0,0,0,81,83,135,120,42,132.07,345,-20.00,-78.00,-947.00
2024-06-07 10:20:31.422414,0,5,-4,0,0,1,81,83,132,120,42,132.15,345,17.00,-82.00,-1000.00
2024-06-07 10:20:31.524714,0,4,-4,0,0,1,81,83,129,120,42,132.04,345,112.00,-133.00,-1016.00
2024-06-07 10:20:31.625206,1,5,-4,0,0,1,81,83,128,120,42,132.05,345,80.00,-119.00,-1004.00
2024-06-07 10:20:31.726774,1,5,-4,0,0,0,81,83,126,120,42,132.07,345,5.00,-108.00,-932.00
2024-06-07 10:20:31.839159,0,5,-4,0,0,0,81,83,127,110,42,132.02,345,-44.00,-72.00,-986.00
2024-06-07 10:20:31.931752,0,5,-4,0,0,0,81,83,123,110,42,132.03,345,-44.00,-76.00,-1022.00
2024-06-07 10:20:32.042638,0,5,-4,0,0,0,81,83,124,110,42,131.98,345,-46.00,-100.00,-1046.00
2024-06-07 10:20:32.134822,0,5,-3,0,0,0,81,83,121,110,42,131.86,345,10.00,-109.00,-1068.00
2024-06-07 10:20:32.236768,0,6,-3,0,0,0,81,83,121,110,42,131.83,345,-26.00,-98.00,-938.00
2024-06-07 10:20:32.349673,0,6,-3,0,0,0,81,83,120,110,42,131.82,346,-1.00,-79.00,-998.00
2024-06-07 10:20:32.441665,0,5,-3,0,0,0,81,83,119,110,42,131.92,346,7.00,-88.00,-1020.00
2024-06-07 10:20:32.543729,0,5,-4,0,0,0,81,83,118,110,42,131.91,346,25.00,-118.00,-1002.00
2024-06-07 10:20:32.646161,0,5,-4,0,0,0,81,83,118,110,42,131.84,346,-20.00,-86.00,-1055.00
2024-06-07 10:20:32.748570,0,6,-4,0,0,0,81,83,117,110,42,131.89,346,14.00,-82.00,-1008.00
2024-06-07 10:20:32.849565,0,6,-4,0,0,0,81,83,120,100,42,131.89,346,-30.00,-109.00,-998.00
2024-06-07 10:20:32.950806,1,5,-4,0,0,0,81,83,118,100,42,131.81,346,35.00,-128.00,-1134.00
2024-06-07 10:20:33.052680,1,5,-4,0,0,0,81,83,120,100,42,131.86,346,23.00,-96.00,-915.00
2024-06-07 10:20:33.169679,0,5,-4,0,0,0,81,83,121,110,42,131.93,346,33.00,-112.00,-1027.00
2024-06-07 10:20:33.256761,0,5,-4,0,0,0,81,83,121,110,42,131.92,346,54.00,-96.00,-998.00
2024-06-07 10:20:33.361494,1,5,-4,0,0,-1,81,83,122,110,42,131.89,347,13.00,-83.00,-1020.00
2024-06-07 10:20:33.460639,1,4,-4,0,0,0,81,83,123,110,42,131.95,347,-26.00,-62.00,-928.00
2024-06-07 10:20:33.562536,1,4,-4,0,0,0,81,83,124,110,42,131.97,347,79.00,-108.00,-971.00
2024-06-07 10:20:33.664636,0,4,-4,0,0,0,81,83,124,110,42,131.94,347,7.00,-92.00,-981.00
2024-06-07 10:20:33.784409,0,2,-4,0,0,0,81,83,125,110,42,132.02,347,12.00,-106.00,-1100.00
2024-06-07 10:20:33.868579,-6,4,-4,0,0,0,81,83,126,110,42,131.99,347,15.00,-96.00,-1041.00
2024-06-07 10:20:33.997866,-6,5,-4,2,-1,0,81,83,126,110,42,132.11,347,-22.00,-71.00,-1000.00
2024-06-07 10:20:34.072602,-5,5,-4,3,-1,0,81,83,125,110,42,132.08,347,-23.00,-144.00,-975.00
2024-06-07 10:20:34.174741,-6,6,-4,4,-2,0,81,83,126,110,42,131.98,347,23.00,-109.00,-985.00
2024-06-07 10:20:34.227272,-5,6,-4,5,-2,0,81,83,125,110,42,131.99,347,-1.00,-122.00,-1058.00
2024-06-07 10:20:34.397519,-4,7,-4,6,-2,0,82,84,125,110,42,132.01,348,13.00,-132.00,-959.00
2024-06-07 10:20:34.480527,-3,7,-4,6,-2,0,82,84,125,110,42,132.11,348,49.00,-157.00,-1052.00
2024-06-07 10:20:34.604926,-2,7,-4,6,-2,0,82,84,123,110,42,132.01,348,-54.00,-120.00,-989.00
2024-06-07 10:20:34.633597,-1,8,-3,6,-2,0,82,84,124,110,42,132.19,348,15.00,-163.00,-1009.00
2024-06-07 10:20:34.808452,0,8,-3,6,-1,0,82,84,124,110,42,132.04,348,-5.00,-130.00,-1041.00
2024-06-07 10:20:34.839421,2,8,-3,5,-1,0,82,84,125,110,42,132.07,348,18.00,-136.00,-1051.00
2024-06-07 10:20:34.939799,3,8,-3,4,0,0,82,84,124,110,42,131.97,348,0.00,-109.00,-996.00
2024-06-07 10:20:35.114404,3,8,-3,3,0,0,82,84,124,110,42,132.01,348,23.00,-124.00,-1054.00
2024-06-07 10:20:35.143532,2,8,-3,3,0,0,82,84,124,110,42,132.06,348,-22.00,-115.00,-940.00
2024-06-07 10:20:35.319316,2,8,-3,2,0,0,82,84,125,110,42,132.12,348,-54.00,-123.00,-953.00
2024-06-07 10:20:35.347532,1,8,-4,2,0,0,82,84,125,110,42,132.07,349,14.00,-129.00,-933.00
2024-06-07 10:20:35.449855,0,8,-4,1,0,0,82,84,123,110,42,131.97,349,-32.00,-99.00,-976.00
2024-06-07 10:20:35.626339,0,6,-4,1,1,0,82,84,123,110,42,132.10,349,-71.00,-113.00,-991.00
2024-06-07 10:20:35.654622,-1,5,-4,0,1,0,82,84,122,110,42,132.00,349,-64.00,-106.00,-917.00
2024-06-07 10:20:35.755508,-3,5,-4,0,1,0,82,84,121,110,42,131.97,349,-42.00,-107.00,-995.00
2024-06-07 10:20:35.857484,-3,4,-4,0,1,0,82,84,121,110,42,131.84,349,-109.00,-73.00,-1021.00
2024-06-07 10:20:36.036217,-3,4,-4,0,1,0,82,84,120,110,42,131.78,349,-123.00,-48.00,-988.00
2024-06-07 10:20:36.061859,-4,4,-4,0,1,0,82,84,121,110,42,131.79,349,-70.00,-77.00,-944.00
2024-06-07 10:20:36.242802,-4,4,-4,1,1,0,82,84,120,110,42,131.73,349,-67.00,-85.00,-1043.00
2024-06-07 10:20:36.266678,-2,4,-3,1,1,0,82,84,121,110,42,131.74,349,-103.00,-50.00,-1014.00
2024-06-07 10:20:36.445423,-2,3,-4,1,1,0,81,84,122,110,42,131.71,350,-95.00,-40.00,-935.00
2024-06-07 10:20:36.472995,-3,3,-4,1,1,0,81,84,122,110,42,131.79,350,-40.00,-60.00,-979.00
2024-06-07 10:20:36.571476,-2,2,-4,1,1,0,81,84,124,110,42,131.79,350,-153.00,-45.00,-959.00
2024-06-07 10:20:36.752701,-3,3,-4,1,0,0,81,84,125,110,42,131.79,350,-10.00,-88.00,-914.00
2024-06-07 10:20:36.775559,-3,3,-4,1,0,0,81,84,125,110,42,131.76,350,18.00,-119.00,-1109.00
2024-06-07 10:20:36.957496,-2,3,-4,2,0,0,81,84,126,110,42,131.76,350,-22.00,-75.00,-1031.00
2024-06-07 10:20:36.979830,-1,4,-4,2,0,0,81,84,128,110,42,131.83,350,-14.00,-49.00,-1020.00
2024-06-07 10:20:37.082329,0,4,-4,2,0,0,81,84,130,110,42,131.83,350,-101.00,-50.00,-1016.00
2024-06-07 10:20:37.185111,4,3,-4,1,0,0,81,84,131,110,42,131.81,350,-86.00,-78.00,-988.00
2024-06-07 10:20:37.286300,0,3,-4,0,0,0,81,84,133,110,42,131.80,350,35.00,-111.00,-1009.00
2024-06-07 10:20:37.387777,-1,4,-4,0,0,0,82,83,133,110,42,131.74,351,-40.00,-47.00,-978.00
2024-06-07 10:20:37.491844,-1,3,-4,0,0,0,82,83,132,120,42,131.83,351,-12.00,-48.00,-952.00
2024-06-07 10:20:37.591619,-1,3,-4,0,0,0,82,83,131,120,42,131.83,351,-135.00,-21.00,-936.00
2024-06-07 10:20:37.778811,-1,3,-4,0,0,0,82,83,130,120,42,131.77,351,27.00,-89.00,-1007.00
2024-06-07 10:20:37.795458,-1,2,-4,0,0,0,82,83,129,120,41,131.84,351,-74.00,-38.00,-972.00
2024-06-07 10:20:37.848409,0,3,-4,0,0,0,82,83,128,120,41,131.89,351,53.00,-80.00,-992.00
2024-06-07 10:20:37.949118,0,4,-4,0,0,0,82,83,128,120,41,131.83,351,30.00,-77.00,-996.00
2024-06-07 10:20:38.050495,0,3,-4,0,0,0,82,83,127,110,41,131.77,351,-2.00,-74.00,-1042.00
2024-06-07 10:20:38.153109,0,3,-4,0,0,0,82,83,128,110,41,131.79,351,30.00,-78.00,-914.00
2024-06-07 10:20:38.254462,0,3,-4,0,0,0,82,83,125,110,41,131.78,351,14.00,-73.00,-971.00
2024-06-07 10:20:38.356526,0,4,-4,0,0,0,81,84,126,110,41,131.90,352,-74.00,-23.00,-978.00
2024-06-07 10:20:38.458712,0,3,-4,0,0,0,81,84,126,110,41,131.83,352,-101.00,-14.00,-968.00
2024-06-07 10:20:38.561792,-1,3,-4,0,0,0,81,84,125,110,41,131.91,352,-5.00,-79.00,-1067.00
2024-06-07 10:20:38.662498,-2,4,-4,0,0,0,81,84,126,110,41,131.90,352,35.00,-95.00,-1016.00
2024-06-07 10:20:38.800748,-1,4,-4,0,0,0,81,84,126,110,41,131.82,352,-111.00,-37.00,-939.00
2024-06-07 10:20:38.867519,-2,4,-4,0,0,0,81,84,126,110,41,131.77,352,8.00,-97.00,-988.00
2024-06-07 10:20:39.005522,-1,3,-4,0,0,0,81,84,130,110,41,131.81,352,-15.00,-49.00,-980.00
2024-06-07 10:20:39.072662,-1,3,-4,0,0,0,81,84,129,110,41,131.84,352,-11.00,-71.00,-1065.00
2024-06-07 10:20:39.174404,0,4,-4,0,0,0,81,84,131,110,41,132.01,352,-3.00,-77.00,-996.00
2024-06-07 10:20:39.278700,0,4,-4,0,0,0,81,84,133,110,41,131.93,353,51.00,-101.00,-1085.00
2024-06-07 10:20:39.376363,5,5,-4,0,0,0,81,83,134,110,41,132.00,353,-23.00,-41.00,-994.00
2024-06-07 10:20:39.479348,8,4,-3,-1,0,0,81,83,134,120,41,132.02,353,13.00,-126.00,-1053.00
2024-06-07 10:20:39.619888,7,5,-3,-2,0,0,81,83,135,120,41,132.02,353,10.00,-104.00,-963.00
2024-06-07 10:20:39.682280,7,4,-4,-3,0,0,81,83,136,120,41,132.05,353,16.00,-115.00,-984.00
2024-06-07 10:20:39.825054,7,4,-4,-4,0,0,81,83,137,120,40,132.03,353,69.00,-85.00,-998.00
2024-06-07 10:20:39.886314,6,4,-4,-4,0,0,81,83,135,120,40,132.05,353,72.00,-93.00,-1024.00
2024-06-07 10:20:40.029511,6,5,-4,-5,0,0,81,83,135,120,40,131.98,353,90.00,-123.00,-1011.00
2024-06-07 10:20:40.090295,6,5,-4,-5,0,0,81,83,134,120,40,131.93,353,111.00,-118.00,-1029.00
2024-06-07 10:20:40.192326,6,6,-4,-6,0,0,81,83,132,120,40,131.96,353,56.00,-91.00,-942.00
2024-06-07 10:20:40.338294,6,6,-4,-6,0,0,81,83,131,120,40,131.86,354,30.00,-53.00,-998.00
2024-06-07 10:20:40.396402,4,6,-4,-6,0,0,81,84,130,120,40,131.95,354,80.00,-83.00,-1006.00
2024-06-07 10:20:40.541527,0,5,-4,-6,1,0,81,84,128,120,40,131.97,354,79.00,-69.00,-1037.00
2024-06-07 10:20:40.600335,-2,3,-4,-5,1,0,81,84,127,110,40,131.97,354,44.00,-98.00,-987.00
2024-06-07 10:20:40.702353,-3,3,-4,-4,1,0,81,84,126,110,40,131.92,354,72.00,-75.00,-1003.00
2024-06-07 10:20:40.848602,-2,2,-4,-4,0,0,81,84,123,110,40,131.92,354,-14.00,-79.00,-974.00
2024-06-07 10:20:40.906638,0,4,-3,-3,0,0,81,84,125,110,40,131.94,354,-11.00,-68.00,-1048.00
2024-06-07 10:20:41.053479,0,5,-4,-3,0,0,81,84,124,110,40,131.89,354,-102.00,-41.00,-930.00
2024-06-07 10:20:41.110856,-1,5,-4,-3,0,0,81,84,122,110,40,131.92,354,-24.00,-76.00,-982.00
2024-06-07 10:20:41.212270,0,6,-4,-2,0,0,81,84,124,110,40,131.83,354,75.00,-104.00,-982.00
2024-06-07 10:20:41.314611,0,6,-4,-2,0,0,81,84,122,110,40,131.84,355,59.00,-135.00,-992.00
2024-06-07 10:20:41.416265,0,6,-4,-2,0,0,80,83,121,110,40,131.87,355,-8.00,-66.00,-987.00
2024-06-07 10:20:41.518254,0,6,-4,-2,0,0,80,83,120,110,40,131.82,355,-47.00,-37.00,-991.00
2024-06-07 10:20:41.620204,0,5,-4,-2,1,0,80,83,120,110,40,131.72,355,73.00,-90.00,-1057.00
2024-06-07 10:20:41.722222,0,1,-4,-2,1,0,80,83,122,110,40,131.80,355,7.00,-99.00,-1041.00
2024-06-07 10:20:41.824782,0,2,-4,-2,0,0,80,83,121,110,40,131.83,355,62.00,-79.00,-963.00
2024-06-07 10:20:41.975129,-2,3,-4,-2,0,-1,80,83,125,110,40,131.78,355,42.00,-59.00,-1080.00
2024-06-07 10:20:41.977200,-4,4,-4,-1,0,-1,80,83,125,110,40,131.75,355,46.00,-88.00,-931.00
2024-06-07 10:20:42.079974,-2,4,-4,-1,0,-1,80,83,125,110,40,131.80,355,-29.00,-46.00,-953.00
2024-06-07 10:20:42.181413,-2,3,-4,-1,0,0,80,83,127,110,40,131.69,355,-43.00,-33.00,-879.00
2024-06-07 10:20:42.385276,-2,3,-4,0,0,0,80,83,126,110,40,131.78,356,-25.00,-58.00,-985.00
2024-06-07 10:20:42.385436,-1,3,-4,0,0,0,81,84,126,110,40,131.74,356,-74.00,-67.00,-1007.00
2024-06-07 10:20:42.487347,-1,3,-4,0,0,0,81,84,126,110,40,131.84,356,22.00,-65.00,-962.00
2024-06-07 10:20:42.589694,0,3,-4,0,0,0,81,84,125,110,40,131.76,356,0.00,-57.00,-976.00
2024-06-07 10:20:42.692005,0,3,-4,0,0,0,81,84,125,110,40,131.81,356,-5.00,-75.00,-967.00
2024-06-07 10:20:42.794864,0,3,-4,0,0,0,81,84,126,110,39,131.76,356,-56.00,-47.00,-995.00
2024-06-07 10:20:42.896491,0,4,-4,0,0,0,81,84,123,110,39,131.83,356,57.00,-89.00,-1075.00
2024-06-07 10:20:42.999218,0,3,-4,0,0,0,81,84,124,110,39,131.69,356,19.00,-94.00,-950.00
2024-06-07 10:20:43.099364,0,3,-4,0,0,0,81,84,124,110,39,131.75,356,57.00,-92.00,-1001.00
2024-06-07 10:20:43.201743,1,4,-4,0,0,0,81,84,123,110,39,131.79,356,87.00,-103.00,-1016.00
2024-06-07 10:20:43.317208,0,4,-4,0,0,0,81,84,123,110,39,131.79,357,38.00,-104.00,-1046.00
2024-06-07 10:20:43.415790,0,3,-4,0,0,0,81,83,124,110,39,131.81,357,-48.00,-26.00,-972.00
2024-06-07 10:20:43.513584,0,4,-4,0,0,0,81,83,124,110,39,131.81,357,-23.00,-61.00,-1031.00
2024-06-07 10:20:43.609281,0,4,-4,0,0,0,81,83,127,110,39,131.80,357,44.00,-104.00,-961.00
2024-06-07 10:20:43.717663,-1,5,-4,0,0,0,81,83,128,110,39,131.82,357,58.00,-119.00,-976.00
2024-06-07 10:20:43.813203,-1,4,-4,0,0,0,81,83,129,110,39,131.90,357,2.00,-74.00,-996.00
2024-06-07 10:20:43.927576,0,4,-4,0,0,0,81,83,130,110,39,131.77,357,64.00,-140.00,-1034.00
2024-06-07 10:20:44.017132,0,5,-4,0,0,0,81,83,133,110,39,131.87,357,16.00,-95.00,-963.00
2024-06-07 10:20:44.119345,0,5,-3,0,0,0,81,83,134,110,39,131.88,357,52.00,-84.00,-1020.00
2024-06-07 10:20:44.228616,0,4,-3,0,0,0,81,83,136,120,39,131.77,357,-116.00,-21.00,-986.00
2024-06-07 10:20:44.324401,-2,-2,-3,0,0,0,81,83,138,120,39,131.68,358,-41.00,-58.00,-990.00
2024-06-07 10:20:44.433007,-2,-5,-3,0,0,0,80,83,140,120,39,131.68,358,14.00,-84.00,-1024.00
2024-06-07 10:20:44.527141,-2,-3,-3,-1,-1,0,80,83,140,120,39,131.83,358,-89.00,-22.00,-918.00
2024-06-07 10:20:44.637466,-3,-1,-4,0,-2,0,80,83,140,120,39,131.88,358,14.00,-73.00,-919.00
2024-06-07 10:20:44.731133,-2,2,-4,0,-3,0,80,83,140,120,38,131.92,358,-46.00,-33.00,-979.00
2024-06-07 10:20:44.842315,-2,4,-4,0,-3,0,80,83,142,120,38,131.95,358,-49.00,-19.00,-973.00
2024-06-07 10:20:44.935067,-2,3,-4,0,-2,0,80,83,141,120,38,131.88,358,-53.00,-29.00,-1032.00
2024-06-07 10:20:45.037545,-2,3,-3,0,-2,0,80,83,141,120,38,131.88,358,46.00,-60.00,-1028.00
2024-06-07 10:20:45.139732,-1,2,-3,0,-2,0,80,83,139,120,38,131.76,358,4.00,-50.00,-1013.00
2024-06-07 10:20:45.252548,-1,2,-4,0,-2,0,80,83,140,120,38,131.88,358,-65.00,-36.00,-967.00
2024-06-07 10:20:45.346105,-1,2,-4,0,-2,0,80,83,139,120,38,131.90,359,5.00,-54.00,-1041.00
2024-06-07 10:20:45.448531,-1,3,-4,0,-2,0,81,83,136,120,38,131.91,359,42.00,-60.00,-938.00
2024-06-07 10:20:45.549942,0,2,-4,0,-2,0,81,83,137,120,38,131.86,359,-65.00,-32.00,-967.00
2024-06-07 10:20:45.651434,0,2,-4,0,-1,0,81,83,137,120,38,131.95,359,0.00,-6.00,-970.00
2024-06-07 10:20:45.701683,0,1,-4,0,-1,0,81,83,136,120,38,131.91,359,5.00,-23.00,-1007.00
2024-06-07 10:20:45.802110,0,1,-5,0,-1,0,81,83,135,120,38,131.82,359,-5.00,-34.00,-995.00
2024-06-07 10:20:45.968793,0,0,-4,0,-1,0,81,83,134,120,38,131.78,359,53.00,-58.00,-973.00
2024-06-07 10:20:46.006050,0,0,-4,0,-1,0,81,83,132,120,38,131.83,359,-6.00,-27.00,-1030.00
2024-06-07 10:20:46.158522,0,1,-4,0,-1,0,81,83,131,120,38,131.87,359,-39.00,-7.00,-1002.00
2024-06-07 10:20:46.210085,0,1,-4,0,-1,0,81,83,131,120,38,131.83,359,-3.00,-16.00,-979.00
2024-06-07 10:20:46.381505,0,1,-4,0,-1,0,81,83,131,120,38,131.89,360,3.00,-15.00,-1044.00
2024-06-07 10:20:46.414058,0,1,-4,0,-1,0,80,83,129,120,38,131.87,360,-35.00,-42.00,-1013.00
2024-06-07 10:20:46.516048,0,0,-4,0,-1,0,80,83,129,110,38,131.89,360,-71.00,-12.00,-993.00
2024-06-07 10:20:46.685843,0,0,-4,0,-1,0,80,83,128,110,38,131.79,360,9.00,21.00,-1011.00
2024-06-07 10:20:46.720163,0,0,-4,0,-1,0,80,83,129,110,37,131.82,360,-32.00,-1.00,-1027.00
2024-06-07 10:20:46.890275,0,0,-4,0,-1,0,80,83,127,110,37,131.79,360,-61.00,27.00,-998.00
2024-06-07 10:20:46.924359,-1,0,-4,0,-1,0,80,83,129,110,37,131.87,360,-27.00,-40.00,-994.00
2024-06-07 10:20:47.095242,-4,1,-4,0,-1,0,80,83,129,110,37,131.79,360,-20.00,-7.00,-989.00
2024-06-07 10:20:47.129708,-5,2,-4,0,-1,0,80,83,131,110,37,131.83,360,-72.00,-16.00,-996.00
2024-06-07 10:20:47.299878,-4,6,-4,0,0,0,80,83,132,110,37,131.87,360,-42.00,8.00,-942.00
2024-06-07 10:20:47.334528,-3,4,-4,1,0,0,80,83,130,110,37,131.79,361,-51.00,-32.00,-1051.00
2024-06-07 10:20:47.437455,0,2,-4,1,0,0,80,83,130,110,37,131.77,361,-56.00,16.00,-1052.00
2024-06-07 10:20:47.536975,1,1,-4,0,0,0,80,83,129,110,37,131.86,361,-12.00,-45.00,-1008.00
2024-06-07 10:20:47.709392,0,0,-4,0,0,0,80,83,130,110,37,131.81,361,29.00,-17.00,-1031.00
2024-06-07 10:20:47.741429,0,-1,-4,0,0,0,80,83,130,110,37,131.83,361,27.00,-31.00,-1067.00
2024-06-07 10:20:47.915877,0,0,-4,0,0,0,80,83,130,110,37,131.81,361,-10.00,12.00,-940.00
2024-06-07 10:20:47.944986,0,0,-4,0,0,0,80,83,128,120,37,131.78,361,-4.00,-16.00,-973.00
2024-06-07 10:20:48.121662,0,0,-4,0,0,0,80,83,129,110,37,131.76,361,-3.00,28.00,-930.00
2024-06-07 10:20:48.149100,-1,0,-4,0,0,0,80,83,128,110,37,131.81,361,24.00,-24.00,-961.00
2024-06-07 10:20:48.323919,0,0,-4,0,0,0,80,83,125,110,37,131.82,361,30.00,-50.00,-1054.00
2024-06-07 10:20:48.352959,0,2,-4,0,0,0,80,83,127,110,37,131.77,362,6.00,-23.00,-1026.00
2024-06-07 10:20:48.528651,0,2,-4,0,0,0,81,83,127,110,37,131.84,362,17.00,-43.00,-973.00
2024-06-07 10:20:48.557009,-1,1,-4,0,0,0,81,83,127,110,37,131.82,362,-42.00,10.00,-1025.00
2024-06-07 10:20:48.733516,-2,1,-4,-1,0,0,81,83,127,110,37,131.80,362,-85.00,43.00,-1018.00
2024-06-07 10:20:48.761477,-4,0,-4,-1,1,0,81,83,127,110,37,131.82,362,-26.00,13.00,-1045.00
2024-06-07 10:20:48.938751,-5,-1,-4,-1,1,0,81,83,129,110,37,131.89,362,-65.00,21.00,-903.00
2024-06-07 10:20:48.966986,-5,-1,-4,0,1,0,81,83,129,110,37,131.90,362,-18.00,-21.00,-1033.00
2024-06-07 10:20:49.067310,-4,-1,-4,0,0,0,81,83,130,110,37,131.84,362,37.00,-22.00,-988.00
2024-06-07 10:20:49.169452,-2,0,-4,0,0,0,81,83,131,110,37,131.74,362,-55.00,13.00,-1055.00
2024-06-07 10:20:49.348137,-1,0,-4,0,0,0,81,83,131,110,37,131.78,362,-99.00,43.00,-952.00
2024-06-07 10:20:49.348302,-2,0,-4,0,0,0,81,83,133,110,37,131.87,363,-52.00,-13.00,-1005.00
2024-06-07 10:20:49.552814,-1,0,-4,0,0,0,81,83,134,120,37,131.78,363,-2.00,-9.00,-990.00
2024-06-07 10:20:49.552970,-1,0,-4,0,0,0,81,83,134,120,37,131.82,363,-41.00,-2.00,-1019.00
2024-06-07 10:20:49.628018,0,0,-4,0,0,0,81,83,135,120,37,131.86,363,28.00,-7.00,-973.00
2024-06-07 10:20:49.731833,0,0,-4,1,0,0,81,83,135,120,36,131.84,363,-83.00,38.00,-1005.00
2024-06-07 10:20:49.831911,0,0,-4,0,0,0,81,83,138,120,36,131.88,363,-101.00,14.00,-978.00
2024-06-07 10:20:49.962287,0,5,-4,0,0,0,81,83,138,120,36,131.89,363,-21.00,7.00,-995.00
2024-06-07 10:20:50.035920,0,8,-4,0,2,0,81,83,136,120,36,131.80,363,17.00,-4.00,-948.00
2024-06-07 10:20:50.167055,0,5,-4,0,3,0,81,83,135,120,36,131.84,363,-26.00,-14.00,-1088.00
2024-06-07 10:20:50.241870,0,2,-4,0,4,0,81,83,133,120,36,131.91,363,-43.00,-1.00,-940.00
2024-06-07 10:20:50.342653,0,1,-4,0,4,0,81,83,133,120,36,131.86,364,-32.00,-3.00,-971.00
2024-06-07 10:20:50.476842,-1,-1,-4,0,4,0,80,83,133,120,36,131.88,364,-11.00,-1.00,-1066.00
2024-06-07 10:20:50.546156,-1,-1,-4,0,4,0,80,83,131,120,36,131.82,364,-73.00,11.00,-1017.00
2024-06-07 10:20:50.684976,-1,0,-4,0,3,0,80,83,133,120,36,131.84,364,-19.00,-25.00,-1007.00
2024-06-07 10:20:50.750657,-1,0,-4,0,3,0,80,83,129,120,36,131.89,364,-75.00,19.00,-990.00
2024-06-07 10:20:50.852637,0,0,-4,0,3,0,80,83,131,120,36,131.93,364,-20.00,-13.00,-980.00
2024-06-07 10:20:50.954137,0,0,-4,0,3,0,80,83,129,120,36,131.87,364,13.00,-44.00,-975.00
2024-06-07 10:20:51.055815,0,0,-4,0,3,0,80,83,129,110,36,131.90,364,-14.00,-10.00,-1016.00
2024-06-07 10:20:51.191333,0,-3,-4,0,2,0,80,83,128,110,36,131.83,364,2.00,-15.00,-1006.00
2024-06-07 10:20:51.262691,-1,-4,-4,0,2,0,80,83,130,110,36,131.79,364,8.00,-11.00,-1023.00
2024-06-07 10:20:51.361834,-1,-2,-4,0,1,0,80,83,128,110,36,131.73,365,-58.00,11.00,-887.00
2024-06-07 10:20:51.464237,-1,0,-4,0,0,0,81,83,127,110,36,131.80,365,13.00,-18.00,-1019.00
2024-06-07 10:20:51.566006,-1,0,-4,0,0,0,81,83,128,110,36,131.80,365,-3.00,-27.00,-986.00
2024-06-07 10:20:51.703106,-1,0,-4,0,0,0,81,83,127,110,36,131.79,365,-27.00,-4.00,-1005.00
2024-06-07 10:20:51.769983,-1,0,-4,0,0,0,81,83,125,110,35,131.74,365,-62.00,-14.00,-1003.00
2024-06-07 10:20:51.908241,-1,0,-4,0,0,0,81,83,126,110,35,131.70,365,-35.00,-38.00,-1015.00
2024-06-07 10:20:51.974710,-2,0,-4,0,0,0,81,83,124,110,35,131.72,365,-13.00,6.00,-1001.00
2024-06-07 10:20:52.076277,-1,0,-4,0,0,0,81,83,124,110,35,131.67,365,-50.00,32.00,-977.00
2024-06-07 10:20:52.178001,-2,0,-4,0,0,0,81,83,124,110,35,131.69,365,-12.00,-29.00,-1000.00
2024-06-07 10:20:52.318078,-2,0,-4,0,0,0,81,83,124,110,35,131.77,365,-8.00,0.00,-1026.00
2024-06-07 10:20:52.381864,-2,0,-4,0,0,0,81,83,123,110,35,131.76,366,-34.00,-2.00,-1034.00
2024-06-07 10:20:52.522885,-2,0,-4,0,0,0,81,83,123,110,35,131.76,366,-6.00,-29.00,-972.00
2024-06-07 10:20:52.585869,-2,0,-4,0,0,0,81,83,124,110,35,131.79,366,-13.00,-22.00,-970.00
2024-06-07 10:20:52.727217,-2,1,-4,0,0,0,81,83,122,110,35,131.71,366,-2.00,1.00,-967.00
2024-06-07 10:20:52.790612,-2,1,-4,0,0,0,81,83,121,110,35,131.80,366,-12.00,-21.00,-991.00
2024-06-07 10:20:52.892122,-2,0,-4,0,0,0,81,83,122,110,35,131.61,366,-34.00,-45.00,-989.00
2024-06-07 10:20:53.034395,-1,0,-4,0,0,0,81,83,120,110,35,131.71,366,-17.00,9.00,-1065.00
2024-06-07 10:20:53.096285,-2,1,-4,0,0,0,81,83,121,110,35,131.76,366,-3.00,9.00,-1026.00
2024-06-07 10:20:53.147112,-2,1,-4,0,0,0,81,83,122,110,35,131.77,366,-78.00,-33.00,-1024.00
2024-06-07 10:20:53.342098,-2,1,-4,0,0,0,81,83,121,110,35,131.79,366,-28.00,-13.00,-1029.00
2024-06-07 10:20:53.351511,-3,1,-4,0,0,0,81,83,121,110,35,131.72,367,-105.00,13.00,-966.00
2024-06-07 10:20:53.454306,-3,0,-2,0,0,0,81,84,119,110,35,131.79,367,2.00,-20.00,-1036.00
2024-06-07 10:20:53.554758,-1,0,3,0,0,0,81,84,119,110,35,131.65,367,-27.00,-19.00,-985.00
2024-06-07 10:20:53.751498,0,0,9,0,0,0,81,84,119,110,35,131.69,367,-32.00,-1.00,-1007.00
2024-06-07 10:20:53.758754,0,0,15,0,0,0,81,84,119,110,35,131.80,367,-33.00,-16.00,-1016.00
2024-06-07 10:20:53.861660,0,0,21,0,0,0,81,84,118,110,35,131.71,367,-26.00,10.00,-1007.00
2024-06-07 10:20:53.963279,0,0,27,0,0,0,81,84,116,110,35,131.75,367,9.00,-20.00,-958.00
2024-06-07 10:20:54.160658,0,0,33,0,0,0,81,84,116,110,35,131.70,367,-20.00,-9.00,-1026.00
2024-06-07 10:20:54.166730,-1,0,40,0,0,0,81,84,115,100,35,131.78,367,-33.00,59.00,-1080.00
2024-06-07 10:20:54.367292,-1,-1,46,0,0,0,81,84,115,100,35,131.84,368,-57.00,34.00,-1063.00
2024-06-07 10:20:54.371193,-2,-1,53,0,0,0,81,84,114,100,35,131.77,368,-31.00,23.00,-1000.00
2024-06-07 10:20:54.570748,-1,-1,59,0,0,0,81,83,114,100,35,131.76,368,-26.00,28.00,-989.00
2024-06-07 10:20:54.574698,-1,-1,66,0,0,0,81,83,115,100,35,131.78,368,-9.00,29.00,-967.00
2024-06-07 10:20:54.775057,0,0,72,0,0,0,81,83,114,100,35,131.81,368,2.00,14.00,-982.00
2024-06-07 10:20:54.778697,0,0,78,0,0,0,81,83,114,100,34,131.82,368,-9.00,43.00,-1030.00
2024-06-07 10:20:54.979846,0,0,85,0,0,0,81,83,114,100,34,131.83,368,-40.00,28.00,-1059.00
2024-06-07 10:20:54.982687,0,0,91,0,0,0,81,83,115,100,34,131.72,368,-31.00,14.00,-1014.00
2024-06-07 10:20:55.084979,0,-1,97,0,0,-1,81,83,115,100,34,131.78,368,11.00,24.00,-1071.00
2024-06-07 10:20:55.186656,0,-1,103,0,0,-1,81,83,116,100,34,131.85,368,-35.00,39.00,-1045.00
2024-06-07 10:20:55.389426,2,0,109,0,1,-1,81,83,115,100,34,131.81,369,109.00,-25.00,-1027.00
2024-06-07 10:20:55.390627,3,0,115,0,0,0,81,83,118,100,34,131.82,369,18.00,40.00,-982.00
2024-06-07 10:20:55.594233,2,0,121,0,0,0,81,84,118,100,34,131.85,369,21.00,39.00,-981.00
2024-06-07 10:20:55.595851,2,0,127,0,0,0,81,84,118,100,34,131.80,369,67.00,18.00,-919.00
2024-06-07 10:20:55.798932,2,-1,133,0,0,0,81,84,118,100,34,131.80,369,-5.00,42.00,-956.00
2024-06-07 10:20:55.799642,1,-2,139,0,0,0,81,84,119,100,34,131.82,369,24.00,36.00,-1038.00
2024-06-07 10:20:55.901814,1,-2,145,0,0,0,81,84,119,110,34,131.86,369,37.00,2.00,-1063.00
2024-06-07 10:20:56.004057,2,-2,150,0,0,-1,81,84,120,110,34,131.83,369,37.00,2.00,-1036.00
2024-06-07 10:20:56.106251,3,0,156,0,0,-1,81,84,122,110,34,131.89,369,51.00,9.00,-992.00
2024-06-07 10:20:56.209662,3,0,162,0,0,0,81,84,121,110,34,131.88,369,48.00,-12.00,-925.00
2024-06-07 10:20:56.310676,3,0,168,0,0,0,81,84,124,110,34,131.88,370,108.00,-14.00,-992.00
2024-06-07 10:20:56.411720,3,1,174,0,0,0,81,84,124,110,34,131.83,370,49.00,-11.00,-1029.00
2024-06-07 10:20:56.513560,3,1,-179,0,0,0,81,84,123,110,34,131.82,370,140.00,-19.00,-968.00
2024-06-07 10:20:56.618250,4,1,-173,0,0,0,81,84,123,110,34,131.82,370,25.00,-33.00,-940.00
2024-06-07 10:20:56.717600,4,1,-167,0,0,0,81,84,125,110,34,131.75,370,17.00,9.00,-1034.00
2024-06-07 10:20:56.823044,2,0,-161,0,0,0,81,84,124,110,34,131.82,370,26.00,-13.00,-960.00
2024-06-07 10:20:56.921628,1,0,-155,1,0,0,81,84,124,110,34,131.79,370,-20.00,3.00,-1005.00
2024-06-07 10:20:57.028939,0,0,-149,0,0,0,81,84,125,110,34,131.80,370,34.00,-23.00,-1013.00
2024-06-07 10:20:57.125552,1,0,-143,0,0,0,81,84,125,110,34,131.76,370,30.00,-31.00,-996.00
2024-06-07 10:20:57.178397,1,1,-137,0,0,0,81,84,127,110,34,131.82,370,29.00,-20.00,-1009.00
2024-06-07 10:20:57.278548,2,2,-131,0,0,0,81,84,128,110,34,131.78,371,-9.00,11.00,-986.00
2024-06-07 10:20:57.437470,2,2,-125,0,0,0,81,84,128,110,34,131.84,371,-22.00,-26.00,-958.00
2024-06-07 10:20:57.482746,1,2,-119,0,0,0,81,83,128,110,34,131.87,371,41.00,-26.00,-1002.00
2024-06-07 10:20:57.642280,1,3,-113,0,0,0,81,83,129,110,34,131.88,371,35.00,-46.00,-990.00
2024-06-07 10:20:57.686512,1,4,-107,0,0,0,81,83,132,110,34,131.88,371,-6.00,-40.00,-952.00
2024-06-07 10:20:57.846900,0,4,-100,0,0,0,81,83,131,110,34,131.93,371,-22.00,-5.00,-967.00
2024-06-07 10:20:57.890557,0,3,-94,0,0,0,81,83,133,110,34,131.95,371,-45.00,-11.00,-1024.00
2024-06-07 10:20:58.051816,-1,2,-88,0,0,0,81,83,132,120,34,131.94,371,-33.00,-4.00,-1004.00
2024-06-07 10:20:58.094682,-2,1,-82,0,0,0,81,83,135,120,34,131.92,371,39.00,-35.00,-1002.00
2024-06-07 10:20:58.256681,0,2,-76,0,0,0,81,83,133,120,34,131.93,371,-30.00,2.00,-975.00
2024-06-07 10:20:58.298650,0,3,-70,0,0,0,81,83,136,120,34,131.95,372,-24.00,-32.00,-1036.00
2024-06-07 10:20:58.461573,0,2,-64,0,0,0,81,83,136,120,34,131.97,372,-12.00,-6.00,-1006.00
2024-06-07 10:20:58.502740,-1,2,-58,0,0,0,81,84,137,120,34,131.90,372,-60.00,-20.00,-986.00
2024-06-07 10:20:58.666240,-2,1,-52,0,0,0,81,84,136,120,34,131.94,372,-10.00,-14.00,-986.00
2024-06-07 10:20:58.706532,-2,1,-46,0,0,0,81,84,139,120,34,131.93,372,-28.00,-2.00,-936.00
2024-06-07 10:20:58.871164,-2,1,-40,0,0,0,81,84,138,120,34,131.82,372,62.00,-39.00,-1087.00
2024-06-07 10:20:58.910743,-1,0,-34,1,0,0,81,84,138,120,34,131.87,372,-12.00,-16.00,-970.00
2024-06-07 10:20:59.075882,-1,0,-28,0,0,0,81,84,138,120,34,131.88,372,-80.00,9.00,-1024.00
2024-06-07 10:20:59.115481,-2,0,-23,0,0,0,81,84,138,120,34,131.84,372,-115.00,19.00,-994.00
2024-06-07 10:20:59.280655,-4,0,-18,0,0,0,81,84,139,120,34,131.85,372,-62.00,13.00,-952.00
2024-06-07 10:20:59.319450,-4,0,-15,0,0,0,81,84,140,120,34,131.81,373,-55.00,35.00,-952.00
2024-06-07 10:20:59.485496,-4,0,-12,0,0,0,81,84,138,120,34,131.82,373,-7.00,-4.00,-982.00
2024-06-07 10:20:59.523447,-2,0,-10,1,0,0,81,83,138,120,34,131.88,373,1.00,-2.00,-1002.00
2024-06-07 10:20:59.690870,-1,0,-9,1,0,0,81,83,135,120,34,131.73,373,-30.00,-2.00,-1019.00
2024-06-07 10:20:59.727455,0,0,-8,1,0,0,81,83,136,120,34,131.81,373,-21.00,-6.00,-970.00
2024-06-07 10:20:59.895516,-1,0,-7,0,0,0,81,83,135,120,34,131.80,373,0.00,-15.00,-987.00
2024-06-07 10:20:59.931555,-1,1,-6,0,0,0,81,83,135,120,34,131.87,373,-40.00,2.00,-993.00
2024-06-07 10:21:00.099943,-2,1,-5,0,0,0,81,83,135,120,34,131.89,373,6.00,21.00,-984.00
2024-06-07 10:21:00.135595,-3,0,-5,0,0,0,81,83,135,120,34,131.91,373,-90.00,24.00,-1018.00
2024-06-07 10:21:00.304772,-4,-1,-5,0,0,0,81,83,134,120,34,131.96,373,-29.00,8.00,-993.00
2024-06-07 10:21:00.339621,-4,-1,-5,0,0,0,81,83,135,120,34,131.88,374,30.00,0.00,-1004.00
2024-06-07 10:21:00.509736,-3,0,-5,0,0,0,81,83,134,120,34,131.93,374,-98.00,28.00,-1022.00
2024-06-07 10:21:00.544305,-3,0,-5,0,0,0,81,83,135,120,34,131.91,374,-16.00,1.00,-973.00
2024-06-07 10:21:00.646830,-3,0,-5,0,0,0,81,83,135,120,34,131.89,374,-57.00,16.00,-1028.00
2024-06-07 10:21:00.696709,-3,0,-5,0,0,0,81,83,134,120,33,131.94,374,0.00,9.00,-978.00
2024-06-07 10:21:00.816759,-2,-1,-5,0,0,0,81,83,135,120,33,131.91,374,-38.00,22.00,-992.00
2024-06-07 10:21:00.901164,-2,-1,-5,0,0,0,81,83,135,120,33,131.92,374,-28.00,-9.00,-1055.00
2024-06-07 10:21:01.021511,-2,-1,-5,0,0,0,81,83,134,120,33,131.90,374,-38.00,12.00,-999.00
2024-06-07 10:21:01.104699,-2,-1,-5,0,0,0,81,83,136,120,33,131.76,374,-29.00,-7.00,-946.00
2024-06-07 10:21:01.226405,-2,0,-5,0,0,0,81,83,133,120,33,131.70,374,-67.00,34.00,-967.00
2024-06-07 10:21:01.308495,-2,-1,-5,0,0,0,81,83,134,120,33,131.83,375,-45.00,-4.00,-995.00
2024-06-07 10:21:01.431151,-3,-1,-5,0,0,0,81,83,132,120,33,131.80,375,-43.00,-39.00,-978.00
2024-06-07 10:21:01.513562,-4,-1,-5,0,0,0,81,83,131,120,33,131.86,375,-56.00,12.00,-1071.00
2024-06-07 10:21:01.638699,-4,-1,-5,0,0,0,81,83,133,120,33,131.84,375,-79.00,15.00,-1046.00
2024-06-07 10:21:01.717377,-4,-1,-5,0,0,0,81,83,132,120,33,131.91,375,-51.00,-34.00,-1009.00
2024-06-07 10:21:01.841303,-4,-1,-5,0,0,0,81,83,132,120,33,131.86,375,-70.00,-2.00,-986.00
2024-06-07 10:21:01.921504,-3,0,-5,0,0,0,81,83,132,120,33,131.83,375,-6.00,16.00,-998.00
2024-06-07 10:21:02.023339,-3,0,-5,0,0,0,81,83,132,120,33,131.83,375,-46.00,-29.00,-924.00
2024-06-07 10:21:02.147858,-3,0,-9,0,0,0,81,83,131,120,33,131.90,375,-31.00,16.00,-975.00
2024-06-07 10:21:02.227364,-2,0,-15,0,0,0,81,83,131,120,33,131.89,375,-34.00,-3.00,-980.00
2024-06-07 10:21:02.352764,-2,0,-21,0,0,0,81,83,131,120,33,131.79,376,-3.00,-38.00,-1041.00
2024-06-07 10:21:02.431571,-3,0,-27,0,0,0,81,83,130,120,33,131.84,376,-41.00,7.00,-926.00
2024-06-07 10:21:02.533551,-3,0,-33,0,0,0,81,83,128,120,33,131.82,376,-109.00,-5.00,-953.00
2024-06-07 10:21:02.659817,-3,1,-39,0,0,0,81,83,130,110,33,131.84,376,-76.00,-8.00,-1025.00
2024-06-07 10:21:02.737349,-3,1,-45,0,0,0,81,83,127,110,33,131.82,376,-14.00,-27.00,-1032.00
2024-06-07 10:21:02.865513,-2,1,-51,0,0,0,81,83,128,110,33,131.80,376,27.00,-23.00,-1022.00
2024-06-07 10:21:02.941318,-1,1,-57,0,0,0,81,83,126,110,33,131.86,376,-73.00,18.00,-989.00
2024-06-07 10:21:03.069489,-2,1,-62,0,0,0,81,83,126,110,33,131.94,376,-74.00,6.00,-1018.00
2024-06-07 10:21:03.145300,-3,1,-68,0,0,0,81,83,127,110,33,131.87,376,-49.00,-10.00,-998.00
2024-06-07 10:21:03.274205,-4,1,-74,0,0,0,81,83,126,110,33,131.91,376,7.00,-45.00,-1005.00
2024-06-07 10:21:03.352483,-3,1,-80,0,0,0,81,83,124,110,33,131.79,377,35.00,-26.00,-1107.00
2024-06-07 10:21:03.451242,0,2,-86,0,-1,0,81,83,126,110,33,131.79,377,-27.00,-15.00,-1045.00
2024-06-07 10:21:03.553300,0,1,-92,0,-1,0,82,83,124,110,33,131.93,377,-63.00,-17.00,-991.00
2024-06-07 10:21:03.683816,0,1,-97,0,0,0,82,83,124,110,33,131.95,377,58.00,-62.00,-977.00
2024-06-07 10:21:03.757562,0,1,-103,0,0,0,82,83,124,110,33,132.01,377,66.00,-52.00,-975.00
2024-06-07 10:21:03.889328,1,2,-109,0,0,0,82,83,124,110,33,131.98,377,-49.00,-26.00,-977.00
2024-06-07 10:21:03.961611,2,2,-115,0,0,0,82,83,122,110,33,131.88,377,77.00,-66.00,-932.00
2024-06-07 10:21:04.093420,1,2,-121,0,0,0,82,83,124,110,33,131.87,377,-27.00,-29.00,-976.00
2024-06-07 10:21:04.165375,1,3,-126,0,0,0,82,83,122,110,33,131.88,377,40.00,-55.00,-997.00
2024-06-07 10:21:04.301049,1,3,-132,0,0,0,82,83,119,110,33,131.84,377,-14.00,-21.00,-991.00
2024-06-07 10:21:04.369319,1,3,-138,0,0,0,82,83,118,110,33,131.73,378,61.00,-42.00,-964.00
2024-06-07 10:21:04.420422,2,3,-144,0,0,0,82,83,119,110,33,131.74,378,27.00,-39.00,-933.00
2024-06-07 10:21:04.605616,2,3,-150,0,0,0,81,84,118,110,33,131.81,378,84.00,-40.00,-933.00
2024-06-07 10:21:04.624251,4,3,-156,0,0,0,81,84,116,110,33,131.74,378,83.00,-55.00,-1018.00
2024-06-07 10:21:04.810223,5,1,-162,0,0,0,81,84,116,100,32,131.77,378,140.00,-56.00,-1080.00
2024-06-07 10:21:04.828207,5,1,-168,0,0,0,81,84,115,100,32,131.76,378,94.00,-26.00,-992.00
2024-06-07 10:21:05.014911,5,0,-174,0,0,0,81,84,114,100,32,131.69,378,11.00,-16.00,-1046.00
2024-06-07 10:21:05.033594,5,0,179,0,0,0,81,84,114,100,32,131.82,378,69.00,-28.00,-1064.00
2024-06-07 10:21:05.219818,4,0,173,0,0,0,81,84,114,100,32,131.80,378,86.00,-47.00,-983.00
2024-06-07 10:21:05.240059,4,1,167,0,0,0,81,84,113,100,32,131.74,378,96.00,-4.00,-979.00
2024-06-07 10:21:05.339185,4,1,160,0,0,0,81,84,114,100,32,131.67,379,81.00,7.00,-1018.00
2024-06-07 10:21:05.527036,5,0,154,0,0,0,81,84,114,100,32,131.70,379,-15.00,40.00,-942.00
2024-06-07 10:21:05.543221,4,-1,148,0,0,0,81,83,116,100,32,131.75,379,71.00,55.00,-1025.00
2024-06-07 10:21:05.645224,3,-2,143,0,0,-1,81,83,117,100,32,131.75,379,137.00,-27.00,-1079.00
2024-06-07 10:21:05.834553,4,-3,137,0,0,-1,81,83,117,100,32,131.77,379,79.00,1.00,-959.00
2024-06-07 10:21:05.849209,4,-3,132,0,0,-1,81,83,118,100,32,131.78,379,94.00,-32.00,-955.00
2024-06-07 10:21:06.038960,4,-1,127,1,0,-1,81,83,118,100,32,131.85,379,87.00,13.00,-993.00
2024-06-07 10:21:06.054233,3,0,121,1,0,0,81,83,119,110,32,131.81,379,30.00,57.00,-1017.00
2024-06-07 10:21:06.248503,3,0,115,0,0,0,81,83,120,110,32,131.73,379,79.00,12.00,-988.00
2024-06-07 10:21:06.257984,4,-1,109,0,0,0,81,83,119,110,32,131.79,379,15.00,30.00,-943.00
2024-06-07 10:21:06.449241,4,-1,103,0,0,0,81,83,118,110,32,131.86,380,-46.00,82.00,-971.00
2024-06-07 10:21:06.461159,3,-3,97,0,0,0,81,83,118,110,32,131.83,380,-44.00,82.00,-982.00
2024-06-07 10:21:06.563140,1,-4,92,0,0,0,80,83,116,110,32,131.85,380,107.00,-7.00,-1024.00
2024-06-07 10:21:06.755808,1,-3,87,0,0,0,80,83,117,110,32,131.75,380,-18.00,45.00,-1030.00
2024-06-07 10:21:06.767138,1,-3,82,1,0,0,80,83,117,110,32,131.81,380,14.00,46.00,-1003.00
2024-06-07 10:21:06.960599,1,-2,76,1,0,0,80,83,117,100,32,131.82,380,55.00,29.00,-1018.00
2024-06-07 10:21:06.971309,2,-1,71,1,0,0,80,83,117,100,32,131.85,380,-49.00,77.00,-1029.00
2024-06-07 10:21:07.073240,3,-2,65,1,0,0,80,83,117,100,32,131.82,380,65.00,-6.00,-1004.00
2024-06-07 10:21:07.268030,3,-3,60,1,0,0,80,83,118,100,32,131.84,380,85.00,0.00,-1011.00
2024-06-07 10:21:07.277392,3,-2,55,1,0,0,80,83,115,100,32,131.84,380,9.00,50.00,-986.00
2024-06-07 10:21:07.472664,3,-1,49,1,0,0,80,83,118,100,32,131.79,381,72.00,19.00,-963.00
2024-06-07 10:21:07.481131,2,-2,43,1,0,0,80,83,118,100,32,131.80,381,-62.00,104.00,-967.00
2024-06-07 10:21:07.583027,2,-2,37,0,0,0,81,83,118,100,32,131.79,381,66.00,24.00,-1042.00
2024-06-07 10:21:07.686641,1,-3,31,0,0,0,81,83,119,100,32,131.91,381,44.00,40.00,-984.00
2024-06-07 10:21:07.787452,0,-3,24,0,0,0,81,83,119,110,32,131.81,381,26.00,36.00,-950.00
2024-06-07 10:21:07.984675,0,-3,17,0,0,0,81,83,120,110,32,131.79,381,-35.00,24.00,-963.00
2024-06-07 10:21:07.991478,0,-3,11,0,0,0,81,83,121,110,32,131.90,381,16.00,21.00,-1005.00
2024-06-07 10:21:08.190238,-1,-3,6,0,0,0,81,83,120,110,32,131.86,381,19.00,46.00,-935.00
2024-06-07 10:21:08.190642,-1,-3,2,0,0,0,81,83,120,110,32,131.85,381,-25.00,14.00,-1018.00
2024-06-07 10:21:08.246281,0,-3,0,0,0,0,81,83,123,110,32,131.97,381,17.00,55.00,-964.00
2024-06-07 10:21:08.394267,-1,-2,-1,0,0,0,81,83,125,110,32,131.85,382,40.00,46.00,-1031.00
2024-06-07 10:21:08.450444,-1,-2,-1,0,0,0,81,83,124,110,32,131.80,382,-26.00,81.00,-956.00
2024-06-07 10:21:08.552114,-2,-3,-3,0,0,0,81,83,124,110,32,131.73,382,22.00,68.00,-987.00
2024-06-07 10:21:08.654218,-1,-3,-4,0,0,0,81,83,125,110,32,131.88,382,21.00,34.00,-1002.00
2024-06-07 10:21:08.804684,0,-3,-4,0,0,0,81,83,125,110,31,131.90,382,24.00,29.00,-1043.00
2024-06-07 10:21:08.858640,-1,-2,-5,0,0,0,81,83,125,110,31,131.83,382,17.00,53.00,-986.00
2024-06-07 10:21:09.008739,-2,-2,-6,0,0,0,81,83,126,110,31,131.79,382,-53.00,37.00,-969.00
2024-06-07 10:21:09.062192,-2,-2,-7,0,0,0,81,83,126,110,31,131.85,382,-71.00,17.00,-979.00
2024-06-07 10:21:09.168808,-2,-2,-7,0,0,0,81,83,126,110,31,131.82,382,-47.00,42.00,-979.00
2024-06-07 10:21:09.266214,-3,-2,-8,0,0,0,81,83,125,110,31,131.84,383,-21.00,41.00,-1003.00
2024-06-07 10:21:09.418723,-3,-2,-8,0,0,0,81,83,125,110,31,131.74,383,0.00,23.00,-986.00
2024-06-07 10:21:09.470707,-3,-2,-9,0,0,0,81,83,125,110,31,131.88,383,-59.00,34.00,-957.00
2024-06-07 10:21:09.573805,-3,-1,-9,0,0,0,81,83,126,110,31,131.87,383,-59.00,11.00,-1048.00
2024-06-07 10:21:09.674223,-3,0,-9,0,0,0,81,83,127,110,31,131.86,383,-76.00,37.00,-930.00
2024-06-07 10:21:09.828075,-3,-1,-9,0,0,0,81,83,127,110,31,131.80,383,-35.00,25.00,-1022.00
2024-06-07 10:21:09.878312,-3,-1,-9,0,0,0,81,83,126,110,31,131.80,383,-35.00,42.00,-989.00
2024-06-07 10:21:10.032726,-4,-1,-9,0,0,0,81,83,128,110,31,131.79,383,-64.00,-9.00,-974.00
2024-06-07 10:21:10.082703,-4,-1,-9,0,0,0,81,83,128,110,31,131.75,383,-53.00,36.00,-983.00
2024-06-07 10:21:10.237584,-4,-1,-9,0,0,0,81,83,128,110,31,131.74,383,-41.00,38.00,-984.00
2024-06-07 10:21:10.286124,-4,-1,-9,0,0,0,81,83,128,110,31,131.76,384,-81.00,50.00,-1016.00
2024-06-07 10:21:10.388047,-4,-1,-9,0,0,0,81,83,130,110,31,131.77,384,-96.00,-2.00,-1014.00
2024-06-07 10:21:10.544711,-4,-1,-9,0,0,0,81,83,131,110,31,131.85,384,-80.00,58.00,-976.00
2024-06-07 10:21:10.592024,-4,-1,-9,0,0,0,81,83,131,110,31,131.80,384,-39.00,5.00,-988.00
2024-06-07 10:21:10.694072,-4,-1,-9,0,0,0,81,83,130,110,31,131.79,384,-28.00,11.00,-899.00
2024-06-07 10:21:10.852114,-3,0,-9,0,0,0,81,83,131,120,31,131.76,384,-99.00,15.00,-941.00
2024-06-07 10:21:10.898118,-3,0,-9,0,0,0,81,83,132,120,31,131.85,384,-30.00,14.00,-1012.00
2024-06-07 10:21:11.056760,-3,0,-9,0,0,0,81,83,131,120,31,131.87,384,-81.00,33.00,-946.00
2024-06-07 10:21:11.102093,-2,-1,-9,0,0,0,81,83,131,120,31,131.92,384,-23.00,-12.00,-993.00
2024-06-07 10:21:11.261547,-2,-1,-9,0,0,0,81,83,133,120,31,131.85,384,-7.00,-24.00,-1015.00
2024-06-07 10:21:11.306435,-2,-1,-9,0,0,0,81,83,133,120,31,131.87,385,-70.00,55.00,-908.00
2024-06-07 10:21:11.466413,-3,-1,-9,0,0,0,81,83,132,120,31,131.88,385,-28.00,42.00,-998.00
2024-06-07 10:21:11.510306,-4,-2,-9,0,0,0,81,83,133,120,31,131.79,385,11.00,-11.00,-1063.00
2024-06-07 10:21:11.671107,-3,-2,-9,0,0,0,80,84,132,120,31,131.90,385,-45.00,42.00,-1001.00
2024-06-07 10:21:11.714008,-4,-2,-9,0,0,0,80,84,133,120,31,131.82,385,-25.00,-3.00,-1071.00
2024-06-07 10:21:11.875965,-5,-3,-9,0,0,0,80,84,133,120,31,131.91,385,2.00,-16.00,-1039.00
2024-06-07 10:21:11.876352,-4,-2,-9,0,0,0,80,84,134,120,31,131.88,385,-69.00,31.00,-881.00
2024-06-07 10:21:11.969496,-3,-1,-9,0,0,0,80,84,133,120,31,131.79,385,-63.00,54.00,-1031.00
2024-06-07 10:21:12.081540,-3,-1,-9,0,0,0,80,84,134,120,31,131.83,385,-71.00,46.00,-907.00
2024-06-07 10:21:12.174870,-2,-1,-9,0,0,0,80,84,134,120,31,131.94,385,-95.00,63.00,-1086.00
2024-06-07 10:21:12.275035,-2,-2,-9,0,0,0,80,84,133,120,31,131.89,386,-17.00,32.00,-1004.00
2024-06-07 10:21:12.387800,-3,-2,-9,0,0,0,80,84,133,120,31,131.92,386,-36.00,31.00,-1008.00
2024-06-07 10:21:12.480069,-3,-2,-9,0,0,0,80,84,135,120,31,131.85,386,-24.00,13.00,-1042.00
2024-06-07 10:21:12.582078,-4,-2,-9,0,0,0,81,83,134,120,31,131.99,386,-63.00,59.00,-966.00
2024-06-07 10:21:12.683966,-4,-2,-9,0,0,0,81,83,136,120,31,131.74,386,-37.00,67.00,-1007.00
2024-06-07 10:21:12.786686,-3,-3,-9,0,0,0,81,83,135,120,30,131.73,386,-49.00,53.00,-988.00
2024-06-07 10:21:12.887619,-3,-4,-9,0,0,0,81,83,138,120,30,131.88,386,-35.00,47.00,-1030.00
2024-06-07 10:21:12.989008,-3,-4,-9,0,0,0,81,83,138,120,30,131.66,386,-88.00,17.00,-1019.00
2024-06-07 10:21:13.090955,-4,-3,-9,0,0,0,81,83,141,120,30,131.83,386,-90.00,9.00,-991.00
2024-06-07 10:21:13.207099,-5,-2,-9,0,0,0,81,83,142,120,30,131.90,386,-130.00,22.00,-998.00
2024-06-07 10:21:13.299167,-5,-1,-9,0,0,0,81,83,144,120,30,131.88,387,-61.00,33.00,-955.00
2024-06-07 10:21:13.397423,-5,-1,-9,0,0,0,81,83,143,120,30,131.78,387,-54.00,43.00,-1034.00
2024-06-07 10:21:13.514663,-4,-2,-9,0,0,0,81,83,144,120,30,131.83,387,-36.00,29.00,-972.00
2024-06-07 10:21:13.600962,-4,-2,-9,0,0,0,81,83,147,120,30,131.76,387,-82.00,7.00,-943.00
2024-06-07 10:21:13.703528,-5,-1,-9,0,0,0,81,83,149,130,30,131.77,387,-87.00,-9.00,-962.00
2024-06-07 10:21:13.821467,-6,0,-9,0,0,0,81,83,147,130,30,131.78,387,-142.00,5.00,-961.00
2024-06-07 10:21:13.907820,-6,0,-9,0,0,0,81,83,149,130,30,131.80,387,-54.00,0.00,-972.00
2024-06-07 10:21:14.026250,-6,0,-9,0,0,1,81,83,146,130,30,131.84,387,-48.00,45.00,-979.00
2024-06-07 10:21:14.111313,-6,-1,-9,0,0,0,81,83,147,130,30,131.76,387,-71.00,5.00,-1034.00
2024-06-07 10:21:14.213916,-6,-1,-9,0,0,1,81,83,144,130,30,131.63,387,-150.00,37.00,-958.00
2024-06-07 10:21:14.333698,-6,-1,-9,0,0,0,81,83,143,130,30,131.62,388,-65.00,-5.00,-1027.00
2024-06-07 10:21:14.417291,-5,0,-9,0,0,0,81,83,143,130,30,131.70,388,-123.00,30.00,-1000.00
2024-06-07 10:21:14.538302,-4,0,-9,0,0,0,81,83,140,120,30,131.57,388,-142.00,19.00,-983.00
2024-06-07 10:21:14.621211,-5,-1,-9,0,0,0,81,83,141,120,30,131.59,388,-105.00,20.00,-972.00
2024-06-07 10:21:14.743045,-6,-1,-9,0,0,0,81,83,140,120,30,131.61,388,-99.00,1.00,-1029.00
2024-06-07 10:21:14.825388,-6,-1,-9,0,0,0,81,83,138,120,30,131.42,388,-118.00,34.00,-1022.00
2024-06-07 10:21:14.948000,-6,-1,-9,0,0,0,81,83,136,120,30,131.57,388,-83.00,-4.00,-947.00
2024-06-07 10:21:15.029125,-6,0,-9,0,0,1,81,83,135,120,30,131.56,388,-125.00,11.00,-993.00
2024-06-07 10:21:15.152804,-6,0,-9,0,0,0,81,83,135,120,30,131.59,388,-133.00,11.00,-986.00
2024-06-07 10:21:15.232972,-6,0,-9,0,0,0,81,83,133,120,30,131.59,388,-73.00,6.00,-1048.00
2024-06-07 10:21:15.357914,-5,0,-9,0,0,0,81,83,132,120,30,131.56,389,-131.00,0.00,-1033.00
2024-06-07 10:21:15.437109,-5,0,-9,0,0,0,81,83,130,120,30,131.55,389,-143.00,36.00,-1039.00
2024-06-07 10:21:15.562696,-5,0,-9,0,0,0,81,83,130,120,30,131.42,389,-110.00,24.00,-1056.00
2024-06-07 10:21:15.641622,-5,-1,-9,0,0,0,81,83,129,120,30,131.51,389,-73.00,10.00,-999.00
2024-06-07 10:21:15.769379,-5,0,-9,0,0,0,81,83,127,110,30,131.49,389,-109.00,39.00,-982.00
2024-06-07 10:21:15.845389,-5,0,-9,0,0,0,81,83,127,110,30,131.39,389,-114.00,56.00,-1010.00
2024-06-07 10:21:15.972255,-6,0,-9,0,0,0,81,83,125,110,30,131.43,389,-136.00,32.00,-1022.00
2024-06-07 10:21:15.998250,-6,0,-9,0,0,0,81,83,127,110,30,131.43,389,-92.00,42.00,-962.00
2024-06-07 10:21:16.102123,-5,0,-9,0,0,0,81,83,125,110,30,131.47,389,-109.00,51.00,-1063.00
2024-06-07 10:21:16.202978,-5,0,-9,0,0,0,81,83,126,110,30,131.51,389,-63.00,44.00,-1007.00
2024-06-07 10:21:16.304814,-4,0,-9,0,0,0,81,83,124,110,30,131.39,390,-143.00,52.00,-1021.00
2024-06-07 10:21:16.406350,-4,-1,-9,0,0,0,81,83,125,110,30,131.44,390,-83.00,9.00,-959.00
2024-06-07 10:21:16.507879,-5,-1,-9,0,0,0,81,83,126,110,30,131.48,390,-110.00,32.00,-948.00
2024-06-07 10:21:16.611190,-6,-1,-9,0,0,0,81,83,126,110,30,131.50,390,-98.00,37.00,-973.00
2024-06-07 10:21:16.711866,-6,-1,-9,0,0,0,81,83,127,110,30,131.57,390,-92.00,14.00,-1031.00
2024-06-07 10:21:16.893862,-6,-2,-9,0,0,0,81,83,126,110,30,131.54,390,-81.00,60.00,-956.00
2024-06-07 10:21:16.918481,-6,-2,-9,0,0,0,81,83,127,110,30,131.65,390,-73.00,0.00,-966.00
2024-06-07 10:21:17.022535,-5,-1,-9,0,0,0,81,83,126,110,30,131.62,390,-102.00,42.00,-1048.00
2024-06-07 10:21:17.121140,-5,-1,-9,0,0,0,81,83,126,110,30,131.57,390,-96.00,4.00,-1019.00
2024-06-07 10:21:17.223087,-5,-2,-9,0,0,0,81,83,128,110,30,131.64,390,-132.00,35.00,-1052.00
2024-06-07 10:21:17.324758,-5,-1,-9,0,0,0,81,83,127,110,30,131.59,391,-129.00,36.00,-977.00
2024-06-07 10:21:17.426754,-5,-2,-9,0,0,0,81,83,128,110,30,131.62,391,-104.00,44.00,-1002.00
2024-06-07 10:21:17.528939,-5,-1,-9,0,0,0,81,83,129,110,30,131.56,391,-122.00,15.00,-988.00
2024-06-07 10:21:17.635467,-5,-1,-9,0,0,0,80,83,129,110,30,131.51,391,-79.00,21.00,-986.00
2024-06-07 10:21:17.733772,-6,-1,-9,0,0,0,80,83,129,110,29,131.59,391,-103.00,-15.00,-980.00
2024-06-07 10:21:17.838235,-6,0,-9,0,0,0,80,83,129,110,29,131.47,391,-66.00,25.00,-1002.00
2024-06-07 10:21:17.937816,-5,0,-9,0,0,0,80,83,131,110,29,131.43,391,-157.00,51.00,-1039.00
2024-06-07 10:21:18.039843,-5,0,-9,0,0,0,80,83,133,110,29,131.50,391,-118.00,12.00,-1018.00
2024-06-07 10:21:18.225419,-5,-1,-9,0,0,0,80,83,135,110,29,131.60,391,-90.00,-17.00,-953.00
2024-06-07 10:21:18.243621,-5,0,-9,0,0,0,80,83,134,120,29,131.50,391,-123.00,32.00,-981.00
2024-06-07 10:21:18.429594,-5,0,-9,0,0,0,80,83,135,120,29,131.57,392,-87.00,40.00,-955.00
2024-06-07 10:21:18.447712,-6,0,-9,0,0,0,80,83,138,120,29,131.58,392,-99.00,-32.00,-923.00
2024-06-07 10:21:18.634278,-6,-1,-9,0,0,0,80,83,137,120,29,131.58,392,-37.00,6.00,-944.00
2024-06-07 10:21:18.651737,-5,0,-9,0,0,0,81,83,137,120,29,131.62,392,-94.00,46.00,-962.00
2024-06-07 10:21:18.839063,-4,-1,-9,0,0,0,81,83,137,120,29,131.68,392,-112.00,10.00,-973.00
