TS,pitch,roll,yaw,vgx,vgy,vgz,templ,temph,tof,h,bat,baro,time,agx,agy,agz
2024-06-07 10:21:50.071159,1,0,-3,0,0,0,82,85,10,0,28,130.91,400,32.00,11.00,-1000.00
2024-06-07 10:21:50.118669,1,0,-3,0,0,0,82,85,10,0,28,130.88,400,32.00,12.00,-1002.00
2024-06-07 10:21:50.275926,1,0,-3,0,0,0,82,85,10,0,28,130.85,400,30.00,13.00,-998.00
2024-06-07 10:21:50.324533,1,0,-3,0,0,0,82,85,10,0,28,130.87,400,32.00,12.00,-1000.00
2024-06-07 10:21:50.424332,1,0,-3,0,0,0,82,85,10,0,28,130.85,400,32.00,13.00,-998.00
2024-06-07 10:21:50.582796,1,0,-3,0,0,0,82,85,10,0,28,130.80,400,31.00,14.00,-1000.00
2024-06-07 10:21:50.628332,1,0,-3,0,0,0,82,85,10,0,28,130.87,400,31.00,14.00,-998.00
2024-06-07 10:21:50.788149,1,0,-3,0,0,0,82,85,10,0,28,130.84,400,34.00,13.00,-1000.00
2024-06-07 10:21:50.832406,1,0,-3,0,0,0,82,85,10,0,28,130.81,400,32.00,14.00,-998.00
2024-06-07 10:21:50.992520,1,0,-3,0,0,0,82,85,10,0,28,130.92,400,31.00,12.00,-1000.00
2024-06-07 10:21:51.036390,1,0,-3,0,0,0,82,85,10,0,28,130.91,400,32.00,14.00,-999.00
2024-06-07 10:21:51.138928,1,0,-3,0,0,0,82,85,10,0,28,130.87,400,32.00,14.00,-998.00
2024-06-07 10:21:51.300201,1,0,-3,0,0,0,82,85,10,0,28,130.86,400,31.00,13.00,-999.00
2024-06-07 10:21:51.342722,1,0,-3,0,0,0,82,85,10,0,28,130.89,400,31.00,12.00,-1000.00
2024-06-07 10:21:51.504809,1,0,-3,0,0,0,82,85,10,0,28,130.91,400,32.00,12.00,-999.00
2024-06-07 10:21:51.504987,1,0,-3,0,0,0,82,85,10,0,28,130.85,400,31.00,12.00,-997.00
2024-06-07 10:21:51.606804,1,0,-3,0,0,0,82,85,10,0,28,130.87,400,33.00,13.00,-1001.00
2024-06-07 10:21:51.699472,1,0,-3,0,0,0,82,85,10,0,28,130.91,400,31.00,13.00,-998.00
2024-06-07 10:21:51.801378,1,0,-3,0,0,0,83,85,10,0,28,130.85,400,32.00,13.00,-1000.00
2024-06-07 10:21:51.903304,1,0,-3,0,0,0,83,85,10,0,28,130.83,400,31.00,11.00,-997.00
2024-06-07 10:21:52.006980,1,0,-3,0,0,0,83,85,10,0,28,130.84,400,32.00,13.00,-999.00
2024-06-07 10:21:52.107193,1,0,-3,0,0,0,83,85,10,0,28,130.87,400,32.00,11.00,-998.00
2024-06-07 10:21:52.221201,1,0,-3,0,0,0,83,85,10,0,28,130.85,400,32.00,12.00,-999.00
2024-06-07 10:21:52.313107,1,0,-3,0,0,0,83,85,10,0,28,130.86,400,30.00,14.00,-999.00
2024-06-07 10:21:52.415489,1,0,-3,0,0,0,83,85,10,0,28,130.88,400,31.00,12.00,-997.00
2024-06-07 10:21:52.515186,1,0,-3,0,0,0,83,85,10,0,28,130.89,400,31.00,10.00,-996.00
2024-06-07 10:21:52.630857,1,0,-3,0,0,0,83,85,10,0,28,130.87,400,26.00,13.00,-1002.00
2024-06-07 10:21:52.719166,1,0,-3,0,0,0,83,85,10,0,28,130.87,401,41.00,16.00,-1003.00
2024-06-07 10:21:52.835653,1,0,-3,0,0,0,82,84,10,0,28,130.87,401,15.00,-43.00,-953.00
2024-06-07 10:21:52.923195,1,0,-3,0,0,0,82,84,10,0,28,130.87,401,51.00,-7.00,-979.00
2024-06-07 10:21:53.040618,0,0,-1,0,0,0,82,84,10,0,28,130.87,401,-37.00,6.00,-1041.00
2024-06-07 10:21:53.127289,0,0,-2,0,0,0,82,84,10,0,28,130.87,401,7.00,-24.00,-1055.00
2024-06-07 10:21:53.349968,-2,4,-3,0,0,0,82,84,10,0,28,130.87,401,25.00,6.00,-1080.00
2024-06-07 10:21:53.350046,-4,6,-3,1,1,-1,82,84,10,0,28,130.87,401,-42.00,28.00,-1262.00
2024-06-07 10:21:53.433962,-3,5,-3,2,3,-3,82,84,10,0,28,130.88,401,57.00,-8.00,-1223.00
2024-06-07 10:21:53.553785,0,0,-2,2,3,-5,82,84,16,0,28,131.28,401,18.00,16.00,-1066.00
2024-06-07 10:21:53.637170,6,-10,-2,1,3,-6,82,84,24,0,28,131.46,401,-29.00,-27.00,-1122.00
2024-06-07 10:21:53.739152,4,-11,-2,0,0,-6,82,84,31,0,28,131.58,402,-34.00,-124.00,-1026.00
2024-06-07 10:21:53.859912,1,-2,-1,0,0,-6,83,85,39,0,28,131.60,402,7.00,-62.00,-1169.00
2024-06-07 10:21:53.947626,0,0,-2,0,0,-6,83,85,48,0,28,131.59,402,-16.00,30.00,-1011.00
2024-06-07 10:21:54.045090,0,0,-2,0,0,-5,83,85,56,10,28,131.79,402,44.00,-17.00,-929.00
2024-06-07 10:21:54.168197,0,-1,-2,-1,0,-4,83,85,64,10,28,131.86,402,-65.00,46.00,-913.00
2024-06-07 10:21:54.249045,-1,-2,-2,-1,0,-3,83,85,71,20,28,131.96,402,-54.00,50.00,-887.00
2024-06-07 10:21:54.371986,0,-1,-2,0,0,-2,83,85,76,20,28,131.94,402,53.00,6.00,-942.00
2024-06-07 10:21:54.457173,-1,-1,-3,0,0,-2,83,85,81,20,28,132.01,402,55.00,3.00,-919.00
2024-06-07 10:21:54.555017,0,0,-3,0,0,-1,83,85,86,30,28,132.00,402,31.00,18.00,-928.00
2024-06-07 10:21:54.679452,0,-1,-3,0,0,-1,83,85,90,30,28,132.09,402,-2.00,46.00,-944.00
2024-06-07 10:21:54.759688,0,0,-3,0,0,0,83,85,93,30,28,132.13,403,4.00,7.00,-911.00
2024-06-07 10:21:54.870356,1,0,-3,0,0,0,83,85,95,30,28,132.17,403,-9.00,4.00,-972.00
2024-06-07 10:21:54.962995,0,0,-3,0,0,0,83,85,96,40,28,132.27,403,-13.00,-1.00,-964.00
2024-06-07 10:21:55.065164,-1,0,-3,0,0,0,83,85,98,40,28,132.21,403,56.00,-1.00,-969.00
2024-06-07 10:21:55.190797,-1,0,-3,0,0,0,83,85,99,40,28,132.24,403,0.00,41.00,-1008.00
2024-06-07 10:21:55.269052,0,0,-3,0,0,0,83,85,99,40,28,132.18,403,67.00,-3.00,-949.00
2024-06-07 10:21:55.320020,0,-1,-3,0,0,1,83,85,99,40,28,132.22,403,-17.00,29.00,-880.00
2024-06-07 10:21:55.498392,0,0,-3,0,0,1,83,85,99,40,28,132.26,403,-29.00,72.00,-1031.00
2024-06-07 10:21:55.524344,-1,-1,-3,0,0,1,83,85,100,40,28,132.26,403,15.00,38.00,-994.00
2024-06-07 10:21:55.702812,-1,-1,-3,0,0,1,83,85,98,40,28,132.22,403,-37.00,70.00,-950.00
2024-06-07 10:21:55.728707,0,-1,-3,0,0,1,83,85,96,40,28,132.20,404,59.00,9.00,-966.00
2024-06-07 10:21:55.830351,-1,-2,-3,0,0,1,82,85,94,40,28,132.23,404,23.00,17.00,-954.00
2024-06-07 10:21:56.010023,0,-1,-3,0,0,1,82,85,92,40,28,132.11,404,43.00,-3.00,-1014.00
2024-06-07 10:21:56.034415,0,0,-3,0,0,1,82,85,89,40,28,132.05,404,14.00,9.00,-964.00
2024-06-07 10:21:56.215838,0,0,-3,0,0,1,82,85,86,40,28,132.10,404,-67.00,59.00,-1058.00
2024-06-07 10:21:56.238093,0,0,-3,0,0,1,82,85,84,40,28,132.05,404,18.00,-26.00,-1048.00
2024-06-07 10:21:56.339998,0,-1,-3,0,0,1,82,85,81,40,28,132.06,404,-23.00,28.00,-1013.00
2024-06-07 10:21:56.441982,-1,-1,-3,0,0,1,82,85,79,30,28,131.99,404,9.00,15.00,-986.00
2024-06-07 10:21:56.544852,-2,-1,-3,0,0,1,82,85,76,30,28,132.03,404,-38.00,34.00,-993.00
2024-06-07 10:21:56.647002,-1,-1,-3,0,0,1,82,85,74,30,28,131.94,404,-23.00,37.00,-1083.00
2024-06-07 10:21:56.747981,-1,0,-3,0,0,1,82,85,73,30,28,131.92,405,-13.00,17.00,-993.00
2024-06-07 10:21:56.936513,-1,-1,-3,0,0,0,82,84,72,30,28,131.93,405,-91.00,46.00,-976.00
2024-06-07 10:21:56.952200,0,0,-3,0,0,0,82,84,71,30,28,131.92,405,0.00,33.00,-1016.00
2024-06-07 10:21:57.054222,-1,0,-3,0,0,0,82,84,70,20,28,131.96,405,-34.00,43.00,-1013.00
2024-06-07 10:21:57.239511,0,0,-3,0,0,0,82,84,70,20,28,131.96,405,-31.00,13.00,-1075.00
2024-06-07 10:21:57.260501,0,0,-3,0,0,0,82,84,70,20,28,131.98,405,-16.00,31.00,-1009.00
2024-06-07 10:21:57.362053,0,0,-3,0,0,0,82,84,70,20,28,132.00,405,-29.00,49.00,-1026.00
2024-06-07 10:21:57.466947,0,0,-3,0,0,0,82,84,71,20,28,131.92,405,-93.00,50.00,-981.00
2024-06-07 10:21:57.564559,0,0,-3,0,0,0,82,84,71,20,28,131.92,405,-59.00,42.00,-1026.00
2024-06-07 10:21:57.751093,0,-1,-3,0,0,0,82,84,72,20,28,131.91,405,42.00,14.00,-1025.00
2024-06-07 10:21:57.770597,0,0,-2,0,0,0,82,84,72,20,28,131.95,406,81.00,2.00,-981.00
2024-06-07 10:21:57.870100,0,0,-3,0,0,0,82,85,72,20,28,131.98,406,56.00,-8.00,-1090.00
2024-06-07 10:21:58.058066,0,0,-3,0,0,0,82,85,72,20,28,131.94,406,31.00,14.00,-1005.00
2024-06-07 10:21:58.074270,0,-1,-3,0,0,0,82,85,72,20,28,131.99,406,11.00,41.00,-1008.00
2024-06-07 10:21:58.175981,1,-1,-3,0,0,0,82,85,73,20,28,131.89,406,-68.00,70.00,-952.00
2024-06-07 10:21:58.467728,1,0,-3,0,0,0,82,85,73,20,28,131.98,406,-46.00,61.00,-954.00
2024-06-07 10:21:58.468566,0,-1,-3,0,0,0,82,85,73,20,28,131.91,406,-55.00,60.00,-939.00
2024-06-07 10:21:58.481914,0,-2,-3,0,0,0,82,85,74,20,28,132.02,406,-69.00,100.00,-983.00
2024-06-07 10:21:58.672469,0,-2,-3,0,1,0,82,85,74,20,28,131.93,406,13.00,37.00,-992.00
2024-06-07 10:21:58.687432,0,-3,-3,0,0,0,82,85,75,30,28,131.93,406,-9.00,38.00,-988.00
2024-06-07 10:21:58.788272,0,-2,-3,0,0,0,82,85,75,30,28,131.99,407,-3.00,68.00,-969.00
2024-06-07 10:21:58.979617,1,-1,-3,0,0,0,83,84,75,30,28,131.91,407,22.00,33.00,-1010.00
2024-06-07 10:21:58.991946,1,-1,-3,0,0,0,83,84,76,30,28,131.89,407,-2.00,37.00,-1011.00
2024-06-07 10:21:59.093913,1,-1,-3,0,0,0,83,84,76,30,28,131.91,407,-28.00,63.00,-1019.00
2024-06-07 10:21:59.146564,1,-1,-3,0,0,0,83,84,76,30,28,131.94,407,40.00,37.00,-1012.00
2024-06-07 10:21:59.247211,0,-1,-3,0,0,0,83,84,77,30,28,131.92,407,-3.00,35.00,-1034.00
2024-06-07 10:21:59.349023,0,-2,-3,0,0,0,83,84,78,30,28,131.99,407,17.00,5.00,-976.00
2024-06-07 10:21:59.450936,0,-2,-3,0,0,0,83,84,78,30,28,132.06,407,-7.00,34.00,-997.00
2024-06-07 10:21:59.594046,-1,-1,-3,-1,0,0,83,84,79,30,28,131.96,407,30.00,19.00,-950.00
2024-06-07 10:21:59.655133,-2,-2,-3,0,0,0,83,84,79,30,28,131.93,407,15.00,59.00,-957.00
2024-06-07 10:21:59.756825,-1,-2,-3,0,0,0,83,84,79,30,28,131.86,408,19.00,14.00,-982.00
2024-06-07 10:21:59.901155,-1,-2,-2,0,0,0,82,85,79,30,28,131.93,408,42.00,13.00,-1114.00
2024-06-07 10:21:59.960837,0,-2,-2,0,0,0,82,85,81,30,28,131.93,408,-11.00,70.00,-988.00
2024-06-07 10:22:00.105968,0,-2,-2,0,0,0,82,85,81,30,28,131.97,408,25.00,62.00,-967.00
2024-06-07 10:22:00.165205,0,-3,-2,0,0,0,82,85,81,30,28,132.00,408,15.00,37.00,-1024.00
2024-06-07 10:22:00.266874,0,-3,-3,0,0,0,82,85,83,30,28,131.92,408,34.00,32.00,-984.00
2024-06-07 10:22:00.368837,0,-3,-3,0,0,0,82,85,84,30,28,132.02,408,-27.00,69.00,-1137.00
2024-06-07 10:22:00.471010,0,-3,-3,0,0,0,82,85,86,30,28,131.99,408,7.00,42.00,-941.00
2024-06-07 10:22:00.617996,-1,-3,-3,0,0,0,82,85,87,30,28,132.00,408,22.00,49.00,-1100.00
2024-06-07 10:22:00.675111,-1,-3,-3,0,0,0,82,85,89,30,28,131.95,409,15.00,22.00,-986.00
2024-06-07 10:22:00.822737,0,-3,-3,0,0,0,82,85,90,40,28,132.00,409,13.00,45.00,-1026.00
2024-06-07 10:22:00.879439,0,-2,-3,0,0,0,82,84,92,40,28,131.98,409,51.00,29.00,-936.00
2024-06-07 10:22:01.028421,0,-2,-3,0,0,0,82,84,92,40,28,132.04,409,-57.00,64.00,-943.00
2024-06-07 10:22:01.082832,0,-2,-3,0,0,0,82,84,93,40,28,132.03,409,42.00,29.00,-1005.00
2024-06-07 10:22:01.232598,0,-2,-3,0,0,0,82,84,93,40,28,132.05,409,69.00,13.00,-990.00
2024-06-07 10:22:01.288737,0,-1,-3,0,0,0,82,84,94,40,28,131.98,409,2.00,52.00,-968.00
2024-06-07 10:22:01.389558,0,-2,-3,0,0,0,82,84,92,40,28,132.04,409,59.00,41.00,-919.00
2024-06-07 10:22:01.490924,0,-2,-3,0,0,0,82,84,92,40,28,132.10,409,-39.00,41.00,-977.00
2024-06-07 10:22:01.642095,0,-2,-3,0,0,0,82,84,91,40,28,132.09,409,0.00,2.00,-988.00
2024-06-07 10:22:01.695117,-1,-2,-3,0,0,0,82,84,90,40,28,132.10,410,54.00,28.00,-941.00
2024-06-07 10:22:01.846960,-1,-1,-3,0,0,0,82,84,90,40,28,132.11,410,-48.00,78.00,-997.00
2024-06-07 10:22:01.898895,-1,-1,-3,0,0,0,82,84,89,40,28,132.06,410,29.00,30.00,-1040.00
2024-06-07 10:22:02.054939,-1,-1,-3,0,0,0,82,84,87,40,28,132.03,410,-23.00,42.00,-1050.00
2024-06-07 10:22:02.103125,0,-1,-3,0,0,1,82,84,86,40,28,132.10,410,15.00,16.00,-993.00
2024-06-07 10:22:02.256730,0,-1,-3,0,0,0,82,84,85,40,28,132.06,410,20.00,48.00,-980.00
2024-06-07 10:22:02.311995,0,-2,-3,0,0,0,82,84,85,30,28,131.99,410,-13.00,39.00,-1034.00
2024-06-07 10:22:02.409025,0,-2,-3,0,0,0,82,84,83,30,28,132.05,410,30.00,69.00,-993.00
2024-06-07 10:22:02.563760,-1,-1,-3,0,0,0,82,84,83,30,28,132.06,410,-60.00,32.00,-995.00
2024-06-07 10:22:02.612762,-1,-1,-3,0,0,0,82,84,82,30,28,132.06,410,-23.00,29.00,-1019.00
2024-06-07 10:22:02.664127,-1,-1,-3,0,0,0,82,84,81,30,28,132.15,411,-1.00,82.00,-1008.00
2024-06-07 10:22:02.768526,0,-1,-3,0,0,0,82,84,80,30,28,131.90,411,-47.00,60.00,-960.00
2024-06-07 10:22:02.867941,0,-1,-2,0,0,0,81,84,81,30,28,131.99,411,22.00,31.00,-1030.00
2024-06-07 10:22:02.973349,0,-1,-3,0,0,0,81,84,80,30,28,131.99,411,-19.00,16.00,-960.00
2024-06-07 10:22:03.071811,0,-1,-3,0,0,0,81,84,81,30,28,131.94,411,38.00,-5.00,-1072.00
2024-06-07 10:22:03.178851,0,-1,-3,0,0,0,81,84,82,30,28,131.99,411,41.00,49.00,-956.00
2024-06-07 10:22:03.275752,0,-2,-3,0,0,0,81,84,83,30,28,132.00,411,85.00,-3.00,-1088.00
2024-06-07 10:22:03.383484,-1,-2,-3,0,0,-1,81,84,85,30,28,132.01,411,-67.00,40.00,-1009.00
2024-06-07 10:22:03.481535,-1,-3,-3,0,0,-2,81,84,89,40,28,132.10,411,-41.00,61.00,-1105.00
2024-06-07 10:22:03.581946,-2,-3,-3,0,0,-3,81,84,93,40,28,132.09,411,4.00,20.00,-1095.00
2024-06-07 10:22:03.684387,-1,-2,-3,0,0,-4,81,84,98,40,28,132.13,412,-76.00,50.00,-1072.00
2024-06-07 10:22:03.786004,0,-1,-3,0,0,-5,81,84,104,50,28,132.22,412,30.00,20.00,-1033.00
2024-06-07 10:22:03.895152,0,0,-3,0,0,-5,82,84,115,60,28,132.24,412,33.00,18.00,-1033.00
2024-06-07 10:22:03.992060,0,-1,-3,0,0,-5,82,84,121,60,28,132.30,412,29.00,37.00,-1006.00
2024-06-07 10:22:04.092785,0,-1,-3,0,0,-5,82,84,127,70,28,132.38,412,-16.00,46.00,-987.00
2024-06-07 10:22:04.203629,-1,-1,-3,0,0,-5,82,84,135,80,28,132.39,412,1.00,24.00,-1037.00
2024-06-07 10:22:04.295697,-2,-1,-3,0,0,-5,82,84,142,80,28,132.39,412,14.00,13.00,-948.00
2024-06-07 10:22:04.406798,-2,-1,-3,0,0,-5,82,84,150,90,28,132.50,412,3.00,18.00,-977.00
2024-06-07 10:22:04.505006,-2,-2,-3,0,0,-5,82,84,155,100,28,132.57,412,-12.00,25.00,-912.00
2024-06-07 10:22:04.601660,-1,-2,-3,0,0,-4,82,84,161,100,28,132.54,412,-20.00,31.00,-925.00
2024-06-07 10:22:04.703816,-1,-1,-3,0,0,-4,82,84,165,110,28,132.57,413,-56.00,27.00,-1024.00
2024-06-07 10:22:04.816437,-1,-1,-3,0,0,-4,82,84,169,110,28,132.66,413,-27.00,42.00,-925.00
2024-06-07 10:22:04.908735,-1,-1,-3,0,0,-3,82,84,174,120,28,132.74,413,-50.00,66.00,-982.00
2024-06-07 10:22:05.010918,-1,-1,-3,0,0,-3,82,84,177,120,28,132.81,413,31.00,57.00,-941.00
2024-06-07 10:22:05.113175,-1,-1,-3,0,0,-2,82,84,180,130,28,132.77,413,-86.00,52.00,-946.00
2024-06-07 10:22:05.226621,-2,-2,-3,0,0,-2,82,84,184,130,28,132.76,413,-41.00,42.00,-935.00
2024-06-07 10:22:05.317948,-2,-2,-3,0,0,-1,82,84,184,130,28,132.79,413,-47.00,38.00,-938.00
2024-06-07 10:22:05.417914,-2,-1,-3,0,0,0,82,84,187,130,28,132.79,413,-9.00,28.00,-913.00
2024-06-07 10:22:05.533698,-1,-1,-3,0,0,0,82,84,185,140,28,132.89,413,-25.00,12.00,-930.00
2024-06-07 10:22:05.621743,-1,-1,-3,0,0,0,82,84,189,140,28,132.84,413,-33.00,57.00,-1005.00
2024-06-07 10:22:05.723737,-1,-2,-3,0,0,0,82,84,186,140,28,132.84,414,-28.00,27.00,-1027.00
2024-06-07 10:22:05.830768,-1,-1,-3,0,0,0,82,84,187,140,28,132.90,414,-58.00,36.00,-1009.00
2024-06-07 10:22:05.928695,0,-1,-3,0,0,0,82,84,185,140,28,132.80,414,-39.00,21.00,-980.00
2024-06-07 10:22:06.148654,-1,-2,-3,0,0,0,82,84,185,140,28,132.81,414,-50.00,49.00,-985.00
2024-06-07 10:22:06.148820,-1,-1,-3,0,0,0,82,84,186,140,28,132.90,414,-16.00,42.00,-995.00
2024-06-07 10:22:06.245522,-1,-1,-3,0,0,0,82,84,184,140,28,132.89,414,-30.00,22.00,-968.00
2024-06-07 10:22:06.335804,-1,-1,-3,0,0,0,82,84,188,140,28,132.89,414,5.00,26.00,-1011.00
2024-06-07 10:22:06.438171,0,-1,-3,0,0,0,82,84,184,140,28,132.92,414,-34.00,11.00,-1004.00
2024-06-07 10:22:06.557293,0,-1,-3,0,0,0,82,84,183,140,28,132.85,414,-54.00,44.00,-950.00
2024-06-07 10:22:06.644615,-1,-1,-3,0,0,0,82,84,180,130,28,132.83,414,-35.00,54.00,-977.00
2024-06-07 10:22:06.744334,0,-1,-3,0,0,0,82,84,182,130,28,132.84,415,34.00,21.00,-1007.00
2024-06-07 10:22:06.794748,0,-1,-3,0,0,0,82,84,185,130,28,132.84,415,49.00,19.00,-1013.00
2024-06-07 10:22:06.968737,1,0,-3,1,0,0,82,84,184,130,28,132.91,415,39.00,-2.00,-1042.00
2024-06-07 10:22:06.999380,2,0,-3,1,0,0,82,84,185,130,28,132.84,415,17.00,39.00,-877.00
2024-06-07 10:22:07.100699,2,0,-3,0,0,0,82,84,183,130,28,132.87,415,7.00,1.00,-1043.00
2024-06-07 10:22:07.274388,0,-1,-3,0,0,0,82,84,186,130,28,132.81,415,36.00,28.00,-992.00
2024-06-07 10:22:07.304596,-1,-2,-3,0,0,0,82,84,187,130,28,132.83,415,46.00,-10.00,-951.00
2024-06-07 10:22:07.480987,-1,-2,-3,0,0,0,82,84,187,140,28,132.83,415,17.00,23.00,-911.00
2024-06-07 10:22:07.509262,0,-2,-3,0,0,1,82,84,189,140,28,132.86,415,15.00,23.00,-925.00
2024-06-07 10:22:07.684911,0,-2,-3,0,0,1,82,84,189,130,28,132.81,415,-19.00,-3.00,-913.00
2024-06-07 10:22:07.712533,0,-2,-3,0,0,1,82,84,185,130,28,132.81,416,-14.00,22.00,-928.00
2024-06-07 10:22:07.893806,0,-1,-3,0,0,2,82,84,183,130,28,132.76,416,2.00,31.00,-980.00
2024-06-07 10:22:07.917349,0,-1,-3,0,0,2,82,83,181,130,28,132.73,416,24.00,41.00,-1001.00
2024-06-07 10:22:08.093597,0,0,-3,0,0,2,82,83,180,130,28,132.79,416,-20.00,33.00,-1016.00
2024-06-07 10:22:08.120644,0,0,-3,0,0,2,82,83,177,130,28,132.70,416,-9.00,17.00,-1016.00
2024-06-07 10:22:08.298056,0,-1,-3,0,0,2,82,83,172,120,28,132.67,416,-26.00,3.00,-1005.00
2024-06-07 10:22:08.324433,0,0,-3,0,0,2,82,83,171,120,28,132.69,416,-19.00,-21.00,-972.00
2024-06-07 10:22:08.502789,0,0,-3,0,0,2,82,83,166,120,28,132.76,416,-10.00,-71.00,-962.00
2024-06-07 10:22:08.528568,0,0,-3,0,0,2,82,83,165,120,28,132.62,416,-7.00,12.00,-1014.00
2024-06-07 10:22:08.709686,0,0,-3,0,0,2,82,83,161,110,28,132.59,416,-36.00,35.00,-1045.00
2024-06-07 10:22:08.732558,0,0,-3,0,0,2,82,83,158,110,28,132.49,417,-21.00,1.00,-988.00
2024-06-07 10:22:08.913584,0,0,-3,0,0,2,82,83,155,110,28,132.44,417,1.00,-32.00,-997.00
2024-06-07 10:22:08.936513,0,0,-3,0,0,2,82,83,153,100,28,132.42,417,-12.00,17.00,-1012.00
2024-06-07 10:22:09.117407,0,0,-3,0,0,2,82,83,152,100,28,132.33,417,-13.00,-39.00,-1024.00
2024-06-07 10:22:09.141483,0,0,-3,0,0,2,82,83,149,100,28,132.40,417,-39.00,-20.00,-1097.00
2024-06-07 10:22:09.243483,0,0,-3,0,0,1,82,83,149,100,28,132.46,417,24.00,-18.00,-1001.00
2024-06-07 10:22:09.428378,0,0,-3,0,0,1,82,83,148,100,28,132.42,417,-22.00,34.00,-1029.00
2024-06-07 10:22:09.447439,0,0,-3,0,0,1,82,83,145,100,28,132.41,417,-25.00,-3.00,-1085.00
2024-06-07 10:22:09.629193,0,0,-3,0,0,1,82,83,143,90,28,132.37,417,-38.00,-23.00,-1017.00
2024-06-07 10:22:09.651528,0,0,-3,0,0,0,82,83,143,90,28,132.41,417,-4.00,9.00,-962.00
2024-06-07 10:22:09.753508,0,0,-3,0,0,1,82,83,142,90,28,132.47,418,-10.00,-5.00,-1044.00
2024-06-07 10:22:09.936778,0,0,-3,0,0,0,82,83,140,90,28,132.41,418,-6.00,17.00,-956.00
2024-06-07 10:22:09.957831,0,0,-3,0,0,0,81,84,139,90,28,132.32,418,9.00,-1.00,-984.00
2024-06-07 10:22:10.059798,0,0,-3,0,0,0,81,84,138,90,28,132.29,418,9.00,10.00,-966.00
2024-06-07 10:22:10.244781,0,0,-3,0,0,0,81,84,137,90,28,132.36,418,-5.00,-14.00,-1013.00
2024-06-07 10:22:10.265770,0,0,-3,0,0,0,81,84,137,90,28,132.40,418,-12.00,0.00,-1044.00
2024-06-07 10:22:10.367562,0,0,-3,0,0,0,81,84,136,90,28,132.36,418,-2.00,-4.00,-1022.00
2024-06-07 10:22:10.467610,0,0,-3,0,0,0,81,84,136,90,28,132.42,418,13.00,-11.00,-951.00
2024-06-07 10:22:10.653162,0,0,-3,0,0,0,81,84,136,90,28,132.33,418,11.00,-6.00,-988.00
2024-06-07 10:22:10.673972,0,0,-3,0,0,0,81,84,137,90,28,132.30,418,-21.00,-21.00,-1057.00
2024-06-07 10:22:10.724698,0,0,-3,0,0,0,81,84,136,90,28,132.39,419,3.00,-25.00,-960.00
2024-06-07 10:22:10.825461,0,1,-3,0,0,0,81,84,136,90,28,132.43,419,-24.00,-29.00,-1009.00
2024-06-07 10:22:10.977692,0,1,-3,0,0,0,81,84,134,90,28,132.35,419,16.00,-19.00,-1057.00
2024-06-07 10:22:11.079600,0,1,-3,0,0,0,81,84,135,90,28,132.39,419,19.00,-19.00,-970.00
2024-06-07 10:22:11.270851,0,1,-3,0,0,0,81,84,136,90,28,132.29,419,-24.00,-26.00,-1020.00
2024-06-07 10:22:11.271057,0,1,-3,0,0,0,81,84,136,90,28,132.35,419,-39.00,-8.00,-980.00
2024-06-07 10:22:11.334605,0,1,-3,0,0,0,81,84,134,90,28,132.40,419,-11.00,-21.00,-977.00
2024-06-07 10:22:11.437567,0,1,-3,0,0,0,81,84,137,90,28,132.38,419,-2.00,19.00,-942.00
2024-06-07 10:22:11.578908,0,0,-3,0,0,0,81,84,135,90,28,132.28,419,-11.00,-29.00,-1042.00
2024-06-07 10:22:11.640565,0,0,-3,0,0,0,81,84,136,90,28,132.36,419,15.00,-1.00,-1015.00
2024-06-07 10:22:11.742937,0,0,-2,0,0,0,81,84,135,90,28,132.33,420,-5.00,2.00,-946.00
2024-06-07 10:22:11.885566,0,0,-2,0,0,0,81,84,135,90,28,132.29,420,-40.00,-4.00,-980.00
2024-06-07 10:22:11.946454,0,0,-2,0,0,0,81,84,134,90,28,132.29,420,15.00,-39.00,-938.00
2024-06-07 10:22:12.048359,0,0,-2,0,0,0,81,84,135,90,28,132.36,420,-15.00,-14.00,-941.00
2024-06-07 10:22:12.189583,0,0,-2,0,0,0,81,84,135,80,28,132.44,420,21.00,-16.00,-1112.00
2024-06-07 10:22:12.252483,-5,0,-2,0,0,0,81,84,137,80,28,132.46,420,0.00,23.00,-961.00
2024-06-07 10:22:12.398443,-8,0,-2,0,0,0,81,84,138,80,28,132.43,420,-42.00,7.00,-1027.00
2024-06-07 10:22:12.456638,-8,0,-3,2,0,0,81,84,139,90,28,132.36,420,-31.00,4.00,-1058.00
2024-06-07 10:22:12.599099,-8,0,-3,3,0,0,81,84,139,90,28,132.30,420,-57.00,1.00,-996.00
2024-06-07 10:22:12.661815,-8,-1,-3,4,0,0,81,84,139,90,28,132.22,420,-49.00,-12.00,-1001.00
2024-06-07 10:22:12.763258,-8,0,-3,5,0,0,81,84,138,90,28,132.13,421,-61.00,-22.00,-952.00
2024-06-07 10:22:12.906281,-7,0,-3,6,-1,0,81,84,138,90,28,132.18,421,-75.00,-16.00,-975.00
2024-06-07 10:22:12.966350,-6,2,-3,7,-1,0,82,84,139,90,28,132.20,421,-78.00,-20.00,-1028.00
2024-06-07 10:22:13.068788,-4,2,-3,8,-1,0,82,84,138,90,28,132.23,421,-61.00,-11.00,-1064.00
2024-06-07 10:22:13.213784,-1,2,-3,7,0,0,82,84,138,90,28,132.21,421,-45.00,12.00,-974.00
2024-06-07 10:22:13.272392,1,1,-2,7,0,0,82,84,137,90,28,132.20,421,-39.00,-20.00,-1097.00
2024-06-07 10:22:13.418018,3,0,-2,6,0,0,82,84,139,90,28,132.25,421,-113.00,9.00,-1003.00
2024-06-07 10:22:13.476309,3,0,-2,4,0,0,82,84,138,90,28,132.26,421,-86.00,7.00,-1055.00
2024-06-07 10:22:13.578321,1,0,-2,3,0,0,82,84,137,90,28,132.32,421,18.00,-13.00,-992.00
2024-06-07 10:22:13.827742,0,0,-2,3,0,0,82,84,140,90,28,132.30,421,3.00,-19.00,-954.00
2024-06-07 10:22:13.828681,0,0,-2,2,0,0,82,84,141,90,28,132.29,422,-40.00,20.00,-999.00
2024-06-07 10:22:13.884408,-1,0,-2,2,0,0,82,84,138,90,28,132.23,422,-89.00,6.00,-945.00
2024-06-07 10:22:14.028832,-1,0,-2,2,0,0,83,84,139,90,28,132.28,422,0.00,-24.00,-1046.00
2024-06-07 10:22:14.088340,-1,0,-3,2,0,0,83,84,138,90,28,132.32,422,-31.00,-30.00,-998.00
2024-06-07 10:22:14.238008,-2,0,-3,2,0,0,83,84,137,90,28,132.25,422,-74.00,-13.00,-974.00
2024-06-07 10:22:14.292395,-2,0,-3,1,0,0,83,84,138,90,28,132.33,422,-45.00,-33.00,-972.00
2024-06-07 10:22:14.343314,-2,0,-3,1,0,0,83,84,136,90,28,132.31,422,-135.00,-18.00,-946.00
2024-06-07 10:22:14.445333,-2,0,-2,1,0,0,83,84,135,90,28,132.24,422,-84.00,-19.00,-1045.00
2024-06-07 10:22:14.646834,-3,1,-2,1,0,0,83,84,135,90,28,132.19,422,-65.00,-36.00,-988.00
2024-06-07 10:22:14.649341,1,0,-2,1,0,0,83,84,135,90,28,132.20,422,-90.00,1.00,-1044.00
2024-06-07 10:22:14.751719,1,0,-3,0,0,0,83,84,137,90,27,132.22,423,-64.00,-37.00,-1015.00
2024-06-07 10:22:14.853948,0,1,-2,0,0,0,83,84,134,90,27,132.32,423,-117.00,-19.00,-933.00
2024-06-07 10:22:14.956545,-3,1,-3,0,0,0,83,84,133,90,27,132.31,423,-26.00,-18.00,-1007.00
2024-06-07 10:22:15.058774,-2,1,-3,0,0,0,83,84,134,90,27,132.25,423,-11.00,-35.00,-1036.00
2024-06-07 10:22:15.159977,-2,1,-3,0,0,0,83,84,131,90,27,132.16,423,-54.00,-24.00,-1000.00
2024-06-07 10:22:15.261622,-2,1,-3,0,0,0,83,84,128,80,27,132.28,423,-56.00,-46.00,-1018.00
2024-06-07 10:22:15.363806,-2,1,-3,0,0,0,83,84,126,80,27,132.18,423,-24.00,-37.00,-940.00
2024-06-07 10:22:15.467749,-2,2,-3,0,0,0,83,84,125,80,27,132.19,423,-60.00,-13.00,-1013.00
2024-06-07 10:22:15.568821,-1,2,-3,0,0,0,83,84,123,80,27,132.24,423,-31.00,-29.00,-1022.00
2024-06-07 10:22:15.670558,-1,2,-3,0,0,0,83,84,119,80,27,132.33,424,-6.00,-14.00,-1025.00
2024-06-07 10:22:15.771273,-1,2,-3,0,0,0,83,84,119,80,27,132.23,424,-54.00,-56.00,-1001.00
2024-06-07 10:22:15.876148,-2,2,-3,0,0,0,83,84,116,70,27,132.22,424,19.00,-60.00,-1068.00
2024-06-07 10:22:15.975328,-2,2,-2,0,0,0,83,84,115,70,27,132.17,424,-116.00,-5.00,-961.00
2024-06-07 10:22:16.080594,-3,2,-3,0,0,0,83,84,114,70,27,132.18,424,-73.00,-21.00,-1048.00
2024-06-07 10:22:16.179342,-3,2,-3,0,0,0,83,84,114,70,27,132.20,424,0.00,-48.00,-1005.00
2024-06-07 10:22:16.285294,-1,2,-3,0,0,0,83,84,112,70,27,132.16,424,-173.00,5.00,-1050.00
2024-06-07 10:22:16.383286,-2,2,-3,0,0,-1,83,84,113,70,27,132.11,424,-18.00,-70.00,-1029.00
2024-06-07 10:22:16.490159,-2,1,-3,0,0,-1,83,84,112,70,27,132.16,424,-86.00,-18.00,-1064.00
2024-06-07 10:22:16.587377,-3,1,-3,0,0,-1,83,84,114,70,27,132.18,424,-14.00,-56.00,-976.00
2024-06-07 10:22:16.694930,-3,1,-3,0,0,-1,83,84,113,70,27,132.20,425,-42.00,-6.00,-987.00
2024-06-07 10:22:16.791163,-3,1,-3,0,0,-1,83,84,114,80,27,132.14,425,-61.00,-49.00,-997.00
2024-06-07 10:22:16.899593,-3,1,-3,0,0,-1,83,84,114,80,27,132.06,425,3.00,-81.00,-980.00
2024-06-07 10:22:16.996429,3,1,-3,0,0,-1,82,84,116,80,27,132.22,425,-41.00,-39.00,-1012.00
2024-06-07 10:22:17.098807,6,1,-3,-2,0,-1,82,84,118,80,27,132.23,425,-33.00,-24.00,-884.00
2024-06-07 10:22:17.201594,6,1,-3,-3,0,-1,82,84,117,80,27,132.25,425,4.00,-14.00,-1051.00
2024-06-07 10:22:17.308672,6,1,-2,-4,0,-1,82,84,117,80,27,132.26,425,-47.00,-36.00,-941.00
2024-06-07 10:22:17.403492,6,2,-2,-4,0,-1,82,84,118,80,27,132.15,425,91.00,-68.00,-1044.00
2024-06-07 10:22:17.505361,6,2,-3,-6,0,0,82,84,118,80,27,132.22,425,8.00,-24.00,-1015.00
2024-06-07 10:22:17.607113,3,0,-3,-7,0,0,82,84,118,80,27,132.30,425,-43.00,-27.00,-980.00
2024-06-07 10:22:17.719148,1,0,-3,-8,0,0,82,84,117,90,27,132.29,426,60.00,-46.00,-1049.00
2024-06-07 10:22:17.811170,-1,0,-3,-8,0,0,82,84,116,90,26,132.19,426,-19.00,-12.00,-989.00
2024-06-07 10:22:17.862159,-5,0,-3,-7,0,0,82,84,117,90,26,132.15,426,16.00,6.00,-971.00
2024-06-07 10:22:18.026316,-6,1,-3,-7,0,0,82,84,115,90,26,132.14,426,-62.00,-34.00,-998.00
2024-06-07 10:22:18.117262,-7,1,-3,-6,0,0,82,84,115,90,26,132.20,426,72.00,-77.00,-991.00
2024-06-07 10:22:18.230631,-7,1,-3,-5,0,0,82,84,114,90,26,132.12,426,56.00,-59.00,-1008.00
2024-06-07 10:22:18.322619,-7,1,-2,-4,0,0,82,84,111,80,26,132.12,426,-138.00,25.00,-1055.00
2024-06-07 10:22:18.423430,-7,2,-2,-4,0,0,82,84,110,80,26,132.04,426,-51.00,-23.00,-1052.00
2024-06-07 10:22:18.474139,-8,2,-3,-3,0,0,82,84,110,80,26,132.03,426,8.00,-49.00,-984.00
2024-06-07 10:22:18.640410,-7,2,-3,-2,0,0,82,84,109,80,26,131.98,426,7.00,-12.00,-990.00
2024-06-07 10:22:18.678473,-6,1,-3,-1,0,0,82,84,107,80,26,131.95,427,-51.00,-16.00,-1040.00
2024-06-07 10:22:18.780128,-4,1,-3,-1,0,0,82,84,107,80,26,131.95,427,-91.00,-10.00,-984.00
2024-06-07 10:22:18.947723,-5,0,-3,-1,0,0,82,84,107,80,26,131.97,427,-81.00,-7.00,-1020.00
2024-06-07 10:22:18.984235,-5,0,-3,-1,0,0,82,84,106,80,26,131.91,427,3.00,-91.00,-1071.00
2024-06-07 10:22:19.086141,-5,1,-3,-1,0,0,82,84,107,80,26,131.88,427,-63.00,-22.00,-979.00
2024-06-07 10:22:19.255000,-5,1,-3,0,0,0,82,84,107,80,26,131.97,427,-59.00,-8.00,-982.00
2024-06-07 10:22:19.292227,-3,2,-3,0,0,0,82,84,108,80,26,131.94,427,-116.00,-4.00,-963.00
2024-06-07 10:22:19.393106,-4,1,-3,0,0,0,82,84,108,80,26,131.91,427,-113.00,-6.00,-986.00
2024-06-07 10:22:19.495742,-5,0,-3,-1,0,0,82,84,109,80,26,131.95,427,-92.00,-13.00,-957.00
2024-06-07 10:22:19.596472,-6,0,-3,0,0,0,82,84,109,80,26,131.82,427,-49.00,-29.00,-987.00
2024-06-07 10:22:19.767738,-4,1,-3,0,0,0,82,84,110,80,26,131.92,428,-41.00,-59.00,-1003.00
2024-06-07 10:22:19.801533,-2,2,-3,0,0,0,82,84,108,80,25,131.89,428,-105.00,-30.00,-941.00
2024-06-07 10:22:19.902118,-2,2,-3,0,0,0,82,84,109,80,25,131.92,428,-56.00,-27.00,-1039.00
2024-06-07 10:22:20.074270,-3,1,-3,0,0,0,82,84,109,80,25,131.88,428,45.00,-80.00,-964.00
2024-06-07 10:22:20.106430,-3,1,-3,0,0,0,82,84,108,80,25,131.86,428,-62.00,1.00,-940.00
2024-06-07 10:22:20.279274,-3,0,-3,0,0,0,82,84,108,80,25,131.89,428,-59.00,-26.00,-908.00
2024-06-07 10:22:20.310366,-3,0,-3,0,0,0,82,84,107,80,25,131.86,428,-54.00,-25.00,-1035.00
2024-06-07 10:22:20.483686,-4,0,-3,0,0,0,82,84,107,80,25,131.97,428,-11.00,-61.00,-1004.00
2024-06-07 10:22:20.514054,-4,0,-3,0,0,0,82,84,108,80,25,131.93,428,-123.00,5.00,-978.00
2024-06-07 10:22:20.688591,-5,0,-3,0,0,0,82,84,107,80,25,131.96,428,-33.00,-41.00,-975.00
2024-06-07 10:22:20.718220,-5,0,-3,0,0,0,82,84,107,80,25,131.85,429,-67.00,7.00,-938.00
2024-06-07 10:22:20.819981,-5,0,-3,0,0,0,82,84,106,80,25,131.84,429,-82.00,7.00,-993.00
2024-06-07 10:22:20.995667,-5,0,-3,0,0,0,82,84,107,80,25,131.82,429,-76.00,-28.00,-1054.00
2024-06-07 10:22:21.024365,-4,-4,-3,0,0,0,82,85,107,80,25,131.80,429,-52.00,-37.00,-982.00
2024-06-07 10:22:21.126220,-4,-7,-3,0,-1,0,82,85,107,80,25,131.84,429,-110.00,10.00,-988.00
2024-06-07 10:22:21.304237,-4,-5,-3,0,-2,0,82,85,107,80,25,131.70,429,-58.00,5.00,-1043.00
2024-06-07 10:22:21.329989,-4,-3,-3,0,-3,0,82,85,105,80,25,131.85,429,-39.00,24.00,-952.00
2024-06-07 10:22:21.509189,-4,0,-3,0,-4,0,82,85,105,80,25,131.82,429,-84.00,24.00,-1029.00
2024-06-07 10:22:21.535916,-4,2,-3,0,-3,0,82,85,105,80,25,131.80,429,-32.00,43.00,-1049.00
2024-06-07 10:22:21.636915,-5,1,-3,0,-3,0,82,85,105,80,25,131.90,429,-75.00,21.00,-944.00
2024-06-07 10:22:21.740770,-5,1,-3,0,-2,0,82,85,105,80,24,131.74,430,0.00,12.00,-965.00
2024-06-07 10:22:21.841838,-5,0,-3,0,-2,0,82,85,104,80,24,131.69,430,-74.00,4.00,-980.00
2024-06-07 10:22:21.946670,-5,0,-3,0,-2,0,82,85,105,80,24,131.69,430,-118.00,-6.00,-1007.00
2024-06-07 10:22:22.047509,-4,0,-3,0,-2,0,82,84,106,80,24,131.75,430,-101.00,51.00,-964.00
2024-06-07 10:22:22.146745,-5,0,-3,0,-2,0,82,84,106,80,24,131.67,430,-50.00,-9.00,-1060.00
2024-06-07 10:22:22.326807,-5,0,-3,0,-2,0,82,84,105,80,24,131.80,430,-133.00,42.00,-974.00
2024-06-07 10:22:22.326954,-5,0,-3,0,-2,0,82,84,105,80,24,131.71,430,-81.00,15.00,-982.00
2024-06-07 10:22:22.402046,-5,0,-3,0,-2,0,82,84,106,80,24,131.68,430,-26.00,4.00,-924.00
2024-06-07 10:22:22.532879,-6,1,-3,1,-2,0,82,84,107,80,24,131.71,430,-71.00,-17.00,-986.00
2024-06-07 10:22:22.605148,-5,1,-3,1,-1,0,82,84,107,80,24,131.66,430,-66.00,-29.00,-1086.00
2024-06-07 10:22:22.736424,-6,2,-3,1,-1,0,82,84,106,80,24,131.67,431,-51.00,-7.00,-1029.00
2024-06-07 10:22:22.808959,-6,4,-3,1,-1,0,82,84,108,80,24,131.70,431,-46.00,-5.00,-1025.00
2024-06-07 10:22:22.941183,-3,2,-3,1,0,0,82,84,107,80,24,131.71,431,-14.00,-43.00,-958.00
2024-06-07 10:22:23.013159,0,1,-3,1,0,0,81,84,106,80,24,131.64,431,-90.00,25.00,-1024.00
2024-06-07 10:22:23.115000,0,1,-2,0,0,0,81,84,107,80,24,131.69,431,-61.00,-8.00,-1035.00
2024-06-07 10:22:23.248487,-1,2,-3,0,0,0,81,84,108,80,24,131.78,431,-111.00,-4.00,-912.00
2024-06-07 10:22:23.321215,-2,1,-3,0,0,0,81,84,108,80,24,131.81,431,-90.00,3.00,-957.00
2024-06-07 10:22:23.421874,-3,1,-3,0,0,0,81,84,109,90,24,131.79,431,-26.00,-24.00,-968.00
2024-06-07 10:22:23.523339,-4,1,-3,0,0,0,81,84,108,90,24,131.78,431,-55.00,-31.00,-971.00
2024-06-07 10:22:23.625103,-4,1,-3,0,0,0,81,84,109,90,24,131.83,431,-54.00,-20.00,-920.00
2024-06-07 10:22:23.728340,-5,1,-3,0,0,0,81,84,107,90,23,131.81,432,-115.00,-8.00,-1001.00
2024-06-07 10:22:23.829029,-6,0,-3,0,0,0,81,84,109,80,23,131.80,432,7.00,-45.00,-1007.00
2024-06-07 10:22:24.039704,-5,1,-3,0,0,0,81,84,110,80,23,131.88,432,-64.00,-9.00,-1053.00
2024-06-07 10:22:24.039831,-4,1,-3,0,0,0,82,84,110,80,23,131.81,432,-42.00,-39.00,-967.00
2024-06-07 10:22:24.134832,-4,2,-3,0,0,0,82,84,111,90,23,131.86,432,-36.00,-15.00,-1033.00
2024-06-07 10:22:24.273817,-5,1,-3,0,0,0,82,84,111,90,23,131.78,432,-100.00,-37.00,-982.00
2024-06-07 10:22:24.338952,-5,1,-3,0,0,0,82,84,112,90,23,131.77,432,-145.00,-32.00,-971.00
2024-06-07 10:22:24.478652,-6,0,-3,0,0,0,82,84,113,90,23,131.79,432,-94.00,-6.00,-949.00
2024-06-07 10:22:24.543707,-5,1,-3,0,0,0,82,84,112,90,23,131.82,432,-138.00,-18.00,-993.00
2024-06-07 10:22:24.682067,-5,1,-3,0,0,0,82,84,114,90,23,131.77,432,-99.00,-12.00,-993.00
2024-06-07 10:22:24.747170,-3,2,-3,0,0,0,82,84,116,90,23,131.82,433,-24.00,-26.00,-1038.00
2024-06-07 10:22:24.886820,-3,3,-3,1,0,0,82,84,116,90,23,131.84,433,-120.00,-42.00,-973.00
2024-06-07 10:22:24.951367,-1,3,-3,1,0,0,82,84,117,90,23,131.87,433,-2.00,-39.00,-1044.00
2024-06-07 10:22:25.052858,-1,3,-3,0,0,0,82,84,117,90,23,131.94,433,17.00,-59.00,-1016.00
2024-06-07 10:22:25.154702,-2,3,-3,0,0,0,82,84,117,90,23,132.02,433,-28.00,-34.00,-1007.00
2024-06-07 10:22:25.296385,-2,3,-3,0,0,0,82,84,117,90,23,131.97,433,-47.00,-16.00,-962.00
2024-06-07 10:22:25.374170,-3,7,-3,0,0,0,82,84,117,90,23,132.07,433,-17.00,-48.00,-1000.00
2024-06-07 10:22:25.474774,-3,8,-3,0,1,0,82,84,118,90,23,132.02,433,-43.00,-39.00,-992.00
2024-06-07 10:22:25.569529,-2,7,-3,0,2,0,82,84,117,90,23,132.10,433,-61.00,-68.00,-1018.00
2024-06-07 10:22:25.664820,-2,5,-3,0,3,0,82,84,117,90,23,132.05,433,-30.00,-76.00,-938.00
2024-06-07 10:22:25.766789,-3,3,-3,0,3,0,82,84,115,90,22,132.04,434,-26.00,-85.00,-1019.00
2024-06-07 10:22:25.910693,-2,2,-3,0,2,0,82,84,115,90,22,132.01,434,22.00,-122.00,-970.00
2024-06-07 10:22:25.970842,-2,2,-3,0,2,0,82,84,116,90,22,132.09,434,40.00,-99.00,-1006.00
2024-06-07 10:22:26.072830,-1,2,-3,1,2,0,82,85,117,90,22,132.04,434,15.00,-87.00,-968.00
2024-06-07 10:22:26.124074,-1,3,-3,1,1,0,82,85,119,90,22,132.08,434,-25.00,-78.00,-979.00
2024-06-07 10:22:26.320379,-1,3,-3,0,1,0,82,85,121,90,22,132.13,434,-35.00,-64.00,-974.00
2024-06-07 10:22:26.327780,-1,4,-3,0,1,0,82,85,121,90,22,132.06,434,-38.00,-67.00,-984.00
2024-06-07 10:22:26.627645,0,4,-3,0,2,0,82,85,122,90,22,132.13,434,-62.00,-74.00,-982.00
2024-06-07 10:22:26.627706,0,3,-3,0,2,0,82,85,122,90,22,132.10,434,19.00,-54.00,-976.00
2024-06-07 10:22:26.633768,-1,3,-3,0,2,0,82,85,124,90,22,132.16,434,46.00,-101.00,-1049.00
2024-06-07 10:22:26.832594,-1,3,-3,0,2,0,82,85,125,100,22,132.19,435,-56.00,-57.00,-932.00
2024-06-07 10:22:26.839072,-1,3,-3,0,2,0,82,85,126,100,22,132.15,435,-43.00,-63.00,-986.00
2024-06-07 10:22:27.036996,-2,3,-3,0,2,0,82,85,125,100,22,132.16,435,-49.00,-62.00,-937.00
2024-06-07 10:22:27.042949,-1,3,-3,0,2,0,82,84,127,100,22,132.23,435,56.00,-87.00,-970.00
2024-06-07 10:22:27.242001,0,3,-3,1,1,0,82,84,126,100,22,132.22,435,42.00,-78.00,-957.00
2024-06-07 10:22:27.246689,0,3,-3,1,1,0,82,84,125,100,22,132.25,435,-28.00,-67.00,-1003.00
2024-06-07 10:22:27.446745,0,-2,-3,1,1,1,82,84,126,100,22,132.29,435,-39.00,-62.00,-966.00
2024-06-07 10:22:27.450742,0,0,-3,1,0,0,82,84,126,100,22,132.20,435,-12.00,-42.00,-1055.00
2024-06-07 10:22:27.651668,0,1,-3,1,0,0,82,84,125,100,22,132.16,435,72.00,-59.00,-1016.00
2024-06-07 10:22:27.654734,0,2,-3,1,0,0,82,84,127,100,22,132.20,435,-28.00,-17.00,-993.00
2024-06-07 10:22:27.759402,0,2,-3,0,0,0,82,84,126,100,21,132.20,436,-7.00,-21.00,-1020.00
2024-06-07 10:22:27.858841,0,2,-3,0,0,0,82,84,126,100,21,132.24,436,-21.00,-9.00,-999.00
2024-06-07 10:22:27.960751,-1,1,-3,0,0,0,82,84,126,100,21,132.24,436,-36.00,-40.00,-944.00
2024-06-07 10:22:28.163651,-2,1,-3,0,0,0,82,84,125,100,21,132.25,436,25.00,-28.00,-982.00
2024-06-07 10:22:28.164652,-2,1,-3,0,0,0,82,84,126,100,21,132.20,436,11.00,-72.00,-1040.00
2024-06-07 10:22:28.368518,0,1,-3,1,0,0,82,84,125,100,21,132.21,436,-24.00,-80.00,-1005.00
2024-06-07 10:22:28.368709,1,3,-3,1,0,0,82,84,124,100,21,132.21,436,21.00,-75.00,-929.00
2024-06-07 10:22:28.470743,1,3,-3,1,0,0,82,84,122,100,21,132.14,436,-48.00,-78.00,-949.00
2024-06-07 10:22:28.573969,1,3,-3,0,0,0,82,84,122,100,21,132.20,436,56.00,-72.00,-999.00
2024-06-07 10:22:28.675451,0,4,-3,0,0,1,82,84,118,100,21,132.19,436,-91.00,-39.00,-993.00
2024-06-07 10:22:28.778337,0,4,-3,0,0,1,82,84,118,100,21,132.12,437,47.00,-72.00,-999.00
2024-06-07 10:22:28.880615,-1,3,-3,0,0,1,82,84,114,90,21,132.26,437,60.00,-102.00,-1024.00
2024-06-07 10:22:28.980685,-1,3,-3,0,0,0,82,84,112,90,21,132.24,437,60.00,-92.00,-1005.00
2024-06-07 10:22:29.083131,0,4,-3,0,0,0,82,84,111,90,21,132.22,437,98.00,-114.00,-1078.00
2024-06-07 10:22:29.188409,1,5,-3,1,0,0,82,84,109,90,21,132.18,437,78.00,-124.00,-1017.00
2024-06-07 10:22:29.291682,2,4,-2,1,0,0,82,84,107,90,21,132.24,437,65.00,-111.00,-956.00
2024-06-07 10:22:29.388666,2,4,-3,1,0,0,82,84,105,90,21,132.23,437,77.00,-73.00,-1015.00
2024-06-07 10:22:29.491638,2,4,-3,0,0,0,82,84,104,90,21,132.26,437,-1.00,-71.00,-1052.00
2024-06-07 10:22:29.592634,2,4,-3,0,0,0,82,84,102,80,21,132.25,437,2.00,-102.00,-1033.00
2024-06-07 10:22:29.644311,1,4,-1,0,0,0,82,84,102,80,21,132.15,437,65.00,-98.00,-954.00
2024-06-07 10:22:29.802576,0,5,4,0,0,0,82,84,101,80,21,132.08,438,-38.00,-32.00,-1047.00
2024-06-07 10:22:29.848638,0,5,10,0,0,0,82,84,102,80,21,131.98,438,-74.00,-61.00,-1022.00
2024-06-07 10:22:30.006795,-2,3,16,-1,0,0,82,84,103,80,21,132.14,438,-38.00,-85.00,-978.00
2024-06-07 10:22:30.051615,-3,2,27,0,0,0,82,85,103,80,21,131.99,438,-85.00,-76.00,-1059.00
2024-06-07 10:22:30.211938,-3,3,33,0,0,0,82,85,104,80,21,132.02,438,-46.00,-66.00,-1014.00
2024-06-07 10:22:30.255497,-2,3,39,0,0,0,82,85,105,80,21,131.95,438,0.00,-112.00,-1041.00
2024-06-07 10:22:30.416294,-1,3,45,0,0,0,82,85,107,80,21,131.89,438,-32.00,-45.00,-997.00
2024-06-07 10:22:30.459688,-1,3,51,0,0,0,82,85,108,80,21,131.90,438,-66.00,-49.00,-977.00
2024-06-07 10:22:30.621207,-2,2,57,0,0,0,82,85,109,80,21,131.90,438,-26.00,-66.00,-984.00
2024-06-07 10:22:30.663601,-3,1,63,0,0,0,82,85,111,80,21,131.91,439,-15.00,-58.00,-1084.00
2024-06-07 10:22:30.765770,-3,1,69,0,0,0,82,85,111,90,20,131.79,439,-92.00,-15.00,-964.00
2024-06-07 10:22:30.928294,-3,1,75,0,0,0,82,85,112,90,20,131.81,439,-39.00,-71.00,-1046.00
2024-06-07 10:22:30.969596,-4,1,81,0,0,0,82,85,113,90,20,131.87,439,-93.00,-38.00,-1013.00
2024-06-07 10:22:31.071809,-4,0,87,0,0,0,82,84,115,90,20,131.78,439,-93.00,1.00,-949.00
2024-06-07 10:22:31.173558,-5,0,93,0,0,0,82,84,116,90,20,131.73,439,-48.00,-30.00,-1008.00
2024-06-07 10:22:31.343263,-5,-1,99,0,0,0,82,84,116,90,20,131.66,439,-133.00,22.00,-998.00
2024-06-07 10:22:31.377547,-5,-1,105,0,0,0,82,84,116,90,20,131.78,439,-120.00,-6.00,-1019.00
2024-06-07 10:22:31.542750,-6,-1,111,0,0,0,82,84,117,90,20,131.70,439,-84.00,6.00,-998.00
2024-06-07 10:22:31.581554,-5,-1,117,0,0,0,82,84,118,90,20,131.79,439,-137.00,48.00,-975.00
2024-06-07 10:22:31.683514,-5,-1,123,0,0,0,82,84,117,90,20,131.86,440,-81.00,66.00,-962.00
2024-06-07 10:22:31.785546,-5,-1,128,0,0,0,82,84,118,90,20,131.99,440,-89.00,50.00,-1001.00
2024-06-07 10:22:31.952374,-4,-1,133,0,0,0,82,84,118,90,20,132.13,440,-111.00,78.00,-1022.00
2024-06-07 10:22:31.989428,-4,-2,139,0,0,0,82,84,116,90,20,132.04,440,-36.00,46.00,-969.00
2024-06-07 10:22:32.169499,-4,-3,144,0,0,0,82,84,119,90,20,132.04,440,-97.00,55.00,-942.00
2024-06-07 10:22:32.193505,-4,-2,150,0,0,0,82,84,117,90,20,132.03,440,-46.00,32.00,-969.00
2024-06-07 10:22:32.365546,-3,-2,155,0,0,0,82,84,117,90,20,132.05,440,-63.00,73.00,-991.00
2024-06-07 10:22:32.398623,-3,-3,161,0,0,0,82,84,117,90,20,132.08,440,-44.00,94.00,-973.00
2024-06-07 10:22:32.566846,-2,-4,167,0,0,0,82,84,117,90,20,132.11,440,-16.00,75.00,-1043.00
2024-06-07 10:22:32.601524,-1,-5,173,0,0,0,82,84,117,90,20,132.11,440,-79.00,92.00,-996.00
2024-06-07 10:22:32.771653,-1,-5,179,0,0,0,82,84,116,90,20,132.23,441,24.00,71.00,-966.00
2024-06-07 10:22:32.805494,0,-5,-174,0,0,0,82,84,115,90,20,132.23,441,18.00,106.00,-928.00
2024-06-07 10:22:32.981261,0,-5,-168,0,0,0,82,84,115,90,20,132.20,441,26.00,49.00,-1023.00
2024-06-07 10:22:32.981477,1,-4,-162,0,0,0,82,84,115,90,20,132.22,441,28.00,104.00,-922.00
2024-06-07 10:22:33.116404,1,-4,-156,0,0,0,82,84,115,90,20,132.25,441,48.00,64.00,-981.00
2024-06-07 10:22:33.213410,3,-4,-150,0,0,0,82,84,114,90,20,132.22,441,9.00,95.00,-925.00
2024-06-07 10:22:33.264359,2,-3,-144,0,0,0,82,84,116,90,20,132.28,441,38.00,81.00,-1041.00
2024-06-07 10:22:33.386251,2,-4,-138,0,0,0,82,84,117,90,20,132.28,441,-21.00,104.00,-981.00
2024-06-07 10:22:33.468530,4,-3,-132,0,0,0,82,84,117,90,20,132.21,441,84.00,107.00,-1012.00
2024-06-07 10:22:33.590715,4,-2,-127,0,0,0,82,84,118,90,20,132.13,441,84.00,68.00,-1065.00
2024-06-07 10:22:33.672459,4,-1,-121,0,0,0,82,84,120,90,20,132.16,442,54.00,54.00,-1026.00
2024-06-07 10:22:33.795769,3,-1,-116,0,0,0,82,84,122,90,20,132.17,442,50.00,62.00,-1034.00
2024-06-07 10:22:33.876607,3,-1,-110,0,0,0,82,84,124,90,20,132.22,442,104.00,34.00,-994.00
2024-06-07 10:22:34.000380,4,-1,-104,0,0,0,82,84,125,100,20,132.17,442,68.00,84.00,-1011.00
2024-06-07 10:22:34.080415,4,0,-98,0,0,0,83,84,126,100,20,132.07,442,30.00,62.00,-950.00
2024-06-07 10:22:34.205156,4,0,-92,0,0,0,83,84,126,100,20,132.07,442,117.00,49.00,-969.00
2024-06-07 10:22:34.284386,5,0,-86,0,0,0,83,84,127,100,20,131.99,442,40.00,19.00,-1007.00
2024-06-07 10:22:34.409949,5,0,-80,0,0,0,83,84,126,100,20,132.00,442,108.00,1.00,-983.00
2024-06-07 10:22:34.488462,4,0,-74,0,0,0,83,84,126,100,20,132.02,442,124.00,-23.00,-1001.00
2024-06-07 10:22:34.615017,4,1,-68,0,0,0,83,84,123,100,20,132.00,442,75.00,34.00,-972.00
2024-06-07 10:22:34.692413,4,2,-62,0,0,0,83,84,122,100,20,132.00,443,163.00,-2.00,-1007.00
2024-06-07 10:22:34.794431,6,2,-56,0,-1,0,83,84,123,100,19,132.02,443,174.00,-25.00,-1009.00
2024-06-07 10:22:34.897222,6,3,-50,0,-1,0,83,84,120,100,19,132.10,443,99.00,-21.00,-972.00
2024-06-07 10:22:35.024324,6,4,-43,0,0,1,83,84,119,100,19,132.15,443,57.00,-24.00,-929.00
2024-06-07 10:22:35.100539,5,5,-38,0,0,1,82,84,117,90,19,132.11,443,168.00,-69.00,-1095.00
2024-06-07 10:22:35.229128,4,4,-31,0,0,1,82,84,114,90,19,132.11,443,45.00,-46.00,-989.00
2024-06-07 10:22:35.304408,4,5,-25,0,0,1,82,84,112,90,19,132.06,443,86.00,-80.00,-1111.00
2024-06-07 10:22:35.433954,3,5,-20,0,0,1,82,84,109,90,19,132.12,443,113.00,-103.00,-1007.00
2024-06-07 10:22:35.509063,3,6,-16,0,0,0,82,84,108,90,19,132.17,443,53.00,-110.00,-1019.00
2024-06-07 10:22:35.639091,2,6,-12,0,0,1,82,84,106,90,19,132.18,443,84.00,-93.00,-976.00
2024-06-07 10:22:35.712685,1,6,-10,0,0,0,82,84,104,80,19,132.18,444,80.00,-138.00,-1050.00
2024-06-07 10:22:35.816497,1,6,-8,0,0,0,82,84,104,80,19,132.20,444,46.00,-104.00,-1024.00
2024-06-07 10:22:35.917165,2,7,-6,0,0,0,82,84,103,80,19,132.20,444,69.00,-117.00,-1032.00
2024-06-07 10:22:36.018369,1,7,-5,0,0,0,82,84,102,80,19,132.14,444,-57.00,-92.00,-1046.00
2024-06-07 10:22:36.120278,1,8,-4,0,0,0,82,84,102,80,19,132.08,444,4.00,-83.00,-964.00
2024-06-07 10:22:36.253408,0,7,-4,0,0,0,82,84,102,80,19,132.06,444,1.00,-117.00,-937.00
2024-06-07 10:22:36.324437,0,8,-4,0,0,0,82,84,101,80,19,132.10,444,50.00,-104.00,-1068.00
2024-06-07 10:22:36.458599,1,8,-3,0,0,0,82,84,101,80,19,132.03,444,152.00,-153.00,-1014.00
2024-06-07 10:22:36.529389,2,8,-3,1,0,0,82,84,101,80,19,132.11,444,94.00,-144.00,-1011.00
2024-06-07 10:22:36.663762,3,8,-4,0,0,0,82,84,99,80,19,132.02,444,-11.00,-93.00,-1002.00
2024-06-07 10:22:36.734849,2,6,-4,0,0,0,82,84,98,80,19,132.03,445,45.00,-130.00,-958.00
2024-06-07 10:22:36.784175,2,7,-4,0,0,0,82,84,97,80,19,132.12,445,-4.00,-125.00,-1109.00
2024-06-07 10:22:36.970084,0,7,-4,0,0,0,82,84,98,80,19,132.00,445,-15.00,-46.00,-1053.00
2024-06-07 10:22:36.987319,0,5,-4,0,1,0,82,84,97,80,19,132.19,445,-1.00,-132.00,-1060.00
2024-06-07 10:22:37.140423,0,5,-4,0,0,0,82,84,99,80,19,132.02,445,46.00,-139.00,-1039.00
2024-06-07 10:22:37.242431,0,7,-3,0,0,0,82,84,100,80,19,132.06,445,93.00,-119.00,-1074.00
2024-06-07 10:22:37.293875,1,7,-4,0,0,0,82,84,99,80,19,131.98,445,-14.00,-65.00,-886.00
2024-06-07 10:22:37.396214,3,7,-3,0,0,0,82,84,100,80,19,132.02,445,95.00,-136.00,-1033.00
2024-06-07 10:22:37.497971,3,6,-3,0,0,0,82,84,101,80,19,132.04,445,-15.00,-153.00,-984.00
2024-06-07 10:22:37.600911,1,6,-4,0,0,0,82,84,101,80,19,132.04,445,68.00,-110.00,-979.00
2024-06-07 10:22:37.701918,1,7,-4,0,0,0,82,84,102,80,19,132.15,446,83.00,-102.00,-1040.00
2024-06-07 10:22:37.805819,2,7,-4,0,0,0,82,84,103,80,19,132.13,446,59.00,-98.00,-990.00
2024-06-07 10:22:37.905411,3,7,-4,1,0,0,82,84,104,80,19,132.08,446,61.00,-123.00,-1021.00
2024-06-07 10:22:38.072844,4,7,-4,0,0,0,82,84,105,80,19,132.07,446,-34.00,-92.00,-1037.00
2024-06-07 10:22:38.109252,3,6,-4,0,0,-1,82,84,106,80,19,132.08,446,18.00,-51.00,-924.00
2024-06-07 10:22:38.301149,3,6,-5,0,0,-1,82,84,109,80,19,132.07,446,50.00,-56.00,-1059.00
2024-06-07 10:22:38.313488,5,6,-11,1,0,-1,82,84,110,80,19,132.06,446,51.00,-90.00,-1021.00
2024-06-07 10:22:38.506276,5,5,-16,0,0,-1,82,84,112,90,19,132.07,446,115.00,-116.00,-985.00
2024-06-07 10:22:38.517131,6,5,-22,0,0,0,82,84,113,90,19,132.11,446,111.00,-76.00,-1006.00
2024-06-07 10:22:38.710690,6,4,-29,0,0,0,82,84,113,90,19,132.11,446,94.00,-61.00,-928.00
2024-06-07 10:22:38.721311,6,3,-35,0,1,0,82,84,115,90,18,132.03,447,27.00,-106.00,-936.00
2024-06-07 10:22:38.823247,4,3,-41,0,1,0,82,84,114,90,18,132.02,447,-18.00,-42.00,-1063.00
2024-06-07 10:22:38.925260,3,3,-47,-1,1,0,82,84,115,90,18,131.98,447,44.00,-44.00,-897.00
2024-06-07 10:22:39.053581,3,3,-53,0,1,0,82,84,115,90,18,132.00,447,113.00,-53.00,-981.00
2024-06-07 10:22:39.129212,4,3,-59,0,0,0,81,84,114,90,18,132.03,447,69.00,-56.00,-994.00
2024-06-07 10:22:39.231230,5,2,-64,0,0,0,81,84,115,90,18,132.03,447,46.00,-20.00,-963.00
2024-06-07 10:22:39.427521,4,1,-70,0,0,0,81,84,115,90,18,131.93,447,107.00,-33.00,-1025.00
2024-06-07 10:22:39.435137,4,0,-76,0,0,0,81,84,116,90,18,131.87,447,0.00,24.00,-954.00
2024-06-07 10:22:39.632601,4,0,-82,0,0,0,81,84,113,90,18,131.81,447,54.00,28.00,-1013.00
2024-06-07 10:22:39.639265,4,0,-88,0,0,0,81,84,114,90,18,131.80,447,150.00,-9.00,-1063.00
2024-06-07 10:22:39.837381,5,0,-94,0,0,0,81,84,114,90,18,131.92,448,135.00,18.00,-1017.00
2024-06-07 10:22:39.842968,5,-1,-101,0,0,0,81,84,114,90,18,131.86,448,124.00,-2.00,-979.00
2024-06-07 10:22:40.042507,4,0,-107,0,0,0,81,84,114,90,18,131.85,448,117.00,9.00,-1086.00
2024-06-07 10:22:40.048348,4,0,-113,0,0,0,81,84,115,90,18,131.91,448,66.00,38.00,-1107.00
2024-06-07 10:22:40.246691,4,-1,-119,0,1,0,82,84,115,90,18,131.89,448,71.00,17.00,-1038.00
2024-06-07 10:22:40.251141,1,-2,-125,0,1,0,82,84,117,90,18,131.92,448,98.00,12.00,-1098.00
2024-06-07 10:22:40.451503,1,-2,-130,0,0,0,82,84,116,90,18,132.06,448,21.00,62.00,-957.00
2024-06-07 10:22:40.455211,2,-1,-136,0,0,0,82,84,115,90,18,131.99,448,27.00,84.00,-919.00
2024-06-07 10:22:40.656310,3,-2,-142,0,0,0,82,84,117,90,18,131.96,448,90.00,42.00,-1024.00
2024-06-07 10:22:40.659311,3,-3,-147,0,0,0,82,84,117,90,18,132.00,448,-2.00,83.00,-1001.00
2024-06-07 10:22:40.761222,3,-3,-153,0,0,0,82,84,118,90,17,132.01,449,88.00,47.00,-1067.00
2024-06-07 10:22:40.863163,3,-3,-159,0,0,0,82,84,116,90,17,132.15,449,113.00,46.00,-1007.00
2024-06-07 10:22:40.914525,3,-3,-165,0,0,0,82,84,118,90,17,132.23,449,-30.00,90.00,-986.00
2024-06-07 10:22:41.068262,2,-4,-172,0,0,0,82,84,117,90,17,132.22,449,-28.00,101.00,-931.00
2024-06-07 10:22:41.118144,0,-5,-178,0,0,0,82,85,117,90,17,132.25,449,2.00,94.00,-1032.00
2024-06-07 10:22:41.270666,-1,-6,175,0,0,0,82,85,118,90,17,132.18,449,-7.00,140.00,-978.00
2024-06-07 10:22:41.322116,-1,-6,169,0,0,0,82,85,118,90,17,132.26,449,-39.00,129.00,-988.00
2024-06-07 10:22:41.475508,-2,-6,163,0,0,0,82,85,119,90,17,132.31,449,-55.00,100.00,-975.00
2024-06-07 10:22:41.526150,-2,-7,157,0,-1,0,82,85,118,90,17,132.31,449,-82.00,110.00,-1031.00
2024-06-07 10:22:41.681014,-3,-7,151,0,0,0,82,85,117,90,17,132.19,449,-108.00,96.00,-950.00
2024-06-07 10:22:41.730165,-4,-7,144,0,0,0,82,85,119,90,17,132.25,450,-66.00,97.00,-975.00
2024-06-07 10:22:41.832298,-5,-6,138,0,0,0,82,85,118,90,17,132.15,450,-94.00,68.00,-982.00
2024-06-07 10:22:41.987519,-5,-5,131,0,0,0,82,85,116,90,17,132.10,450,-134.00,100.00,-952.00
2024-06-07 10:22:42.036320,-6,-6,125,0,0,0,82,85,116,90,17,132.03,450,-124.00,81.00,-993.00
2024-06-07 10:22:42.138513,-7,-4,118,0,0,0,82,84,116,90,17,132.12,450,-116.00,73.00,-1010.00
2024-06-07 10:22:42.240693,-7,-3,112,0,0,0,82,84,114,90,17,132.00,450,-129.00,104.00,-965.00
2024-06-07 10:22:42.397137,-8,-3,105,0,0,0,82,84,114,90,17,132.13,450,-95.00,36.00,-961.00
2024-06-07 10:22:42.443968,-8,-2,99,0,-1,0,82,84,113,90,17,131.95,450,-138.00,42.00,-978.00
2024-06-07 10:22:42.604780,-8,-2,93,0,-1,0,82,84,113,90,17,131.92,450,-203.00,70.00,-1039.00
2024-06-07 10:22:42.648053,-8,-2,87,0,-1,0,82,84,113,90,17,131.80,450,-161.00,22.00,-1047.00
2024-06-07 10:22:42.807687,-8,-1,80,0,-1,0,82,84,114,90,17,131.52,451,-129.00,-21.00,-1007.00
2024-06-07 10:22:42.852092,-8,0,74,0,-1,0,82,84,113,90,17,131.53,451,-134.00,-37.00,-1046.00
2024-06-07 10:22:43.012845,-8,0,69,0,-1,0,82,84,114,90,17,131.84,451,-90.00,-50.00,-953.00
2024-06-07 10:22:43.057465,-8,1,63,0,-1,0,82,84,115,90,17,131.87,451,-90.00,-84.00,-1032.00
2024-06-07 10:22:43.158088,-8,2,58,0,-1,0,81,85,116,90,17,131.84,451,-73.00,-78.00,-952.00
2024-06-07 10:22:43.320385,-7,4,53,0,-1,0,81,85,114,90,17,131.87,451,-202.00,2.00,-919.00
2024-06-07 10:22:43.362106,-7,5,47,0,0,0,81,85,116,90,17,131.94,451,-94.00,-66.00,-934.00
2024-06-07 10:22:43.523510,-6,5,42,0,0,0,81,85,116,90,17,131.92,451,-14.00,-100.00,-974.00
2024-06-07 10:22:43.566118,-6,6,37,0,0,0,81,85,118,90,17,131.93,451,7.00,-117.00,-960.00
2024-06-07 10:22:43.728326,-5,7,31,0,0,0,81,85,119,90,17,131.93,451,-29.00,-117.00,-984.00
2024-06-07 10:22:43.770384,-3,7,26,0,0,0,81,85,119,90,17,131.99,452,-83.00,-111.00,-1016.00
2024-06-07 10:22:43.872387,-3,7,20,0,0,0,81,85,120,90,17,132.07,452,-141.00,-84.00,-898.00
2024-06-07 10:22:44.035520,-3,7,15,0,0,0,81,85,121,90,17,132.16,452,-30.00,-137.00,-994.00
2024-06-07 10:22:44.076170,-3,8,10,0,0,0,81,85,123,90,17,132.15,452,7.00,-130.00,-959.00
2024-06-07 10:22:44.240304,-3,7,7,0,0,0,82,85,124,90,17,132.19,452,-119.00,-119.00,-877.00
2024-06-07 10:22:44.280362,-2,8,5,0,0,0,82,85,126,90,17,132.27,452,-42.00,-119.00,-874.00
2024-06-07 10:22:44.381938,-2,8,2,0,0,0,82,85,125,100,17,132.21,452,46.00,-122.00,-1013.00
2024-06-07 10:22:44.547538,-2,8,1,0,0,0,82,85,125,100,17,132.15,452,-54.00,-114.00,-914.00
2024-06-07 10:22:44.586007,-1,8,0,0,0,0,82,85,125,100,17,132.16,452,-22.00,-104.00,-994.00
2024-06-07 10:22:44.640098,0,9,0,0,1,0,82,85,123,100,17,132.12,452,38.00,-152.00,-917.00
2024-06-07 10:22:44.739083,0,8,-1,0,1,1,82,85,123,100,16,132.09,453,-49.00,-121.00,-989.00
2024-06-07 10:22:44.841296,0,8,-1,0,1,0,82,85,120,100,16,132.28,453,0.00,-152.00,-1037.00
2024-06-07 10:22:44.960709,-1,8,-2,0,1,1,82,85,122,90,16,132.36,453,-21.00,-112.00,-939.00
2024-06-07 10:22:45.045097,0,9,-2,0,1,0,82,85,120,90,16,132.31,453,12.00,-100.00,-965.00
2024-06-07 10:22:45.148667,0,8,-2,1,1,0,82,85,120,90,16,132.19,453,60.00,-135.00,-1021.00
2024-06-07 10:22:45.367019,2,8,-2,1,1,0,82,85,117,90,16,132.11,453,-1.00,-113.00,-1006.00
2024-06-07 10:22:45.367669,3,7,-2,0,2,0,82,85,117,90,16,132.23,453,39.00,-131.00,-1091.00
2024-06-07 10:22:45.454754,1,6,-2,0,2,0,82,85,115,90,16,132.15,453,17.00,-121.00,-1038.00
2024-06-07 10:22:45.555593,0,5,-2,0,2,0,82,85,114,90,16,131.95,453,8.00,-76.00,-1004.00
2024-06-07 10:22:45.674561,0,4,-2,0,2,0,82,85,112,90,16,132.02,453,-48.00,-66.00,-991.00
2024-06-07 10:22:45.758969,0,4,-2,0,2,0,82,85,112,90,16,132.15,454,118.00,-115.00,-1116.00
2024-06-07 10:22:45.861030,-1,4,-2,0,2,0,82,85,111,90,16,132.04,454,-46.00,-54.00,-977.00
2024-06-07 10:22:45.986128,1,3,-2,0,2,0,82,85,112,90,16,132.20,454,-62.00,-85.00,-991.00
2024-06-07 10:22:46.066474,1,2,-2,0,1,0,82,85,110,90,16,132.17,454,32.00,-126.00,-1014.00
2024-06-07 10:22:46.186506,-2,4,-2,-1,1,0,82,84,114,90,16,132.16,454,-51.00,-87.00,-998.00
2024-06-07 10:22:46.269671,-3,5,-2,-1,0,0,82,84,113,90,16,132.02,454,-45.00,-111.00,-984.00
2024-06-07 10:22:46.390772,-3,4,-2,0,0,0,82,84,113,90,16,132.16,454,72.00,-136.00,-1033.00
2024-06-07 10:22:46.472972,-2,5,-2,0,0,0,82,84,113,90,16,132.17,454,-30.00,-101.00,-943.00
2024-06-07 10:22:46.595646,-3,5,-2,0,0,0,82,84,112,90,16,132.19,454,10.00,-138.00,-950.00
2024-06-07 10:22:46.677349,-3,5,-2,0,0,0,82,84,110,90,16,132.20,455,10.00,-97.00,-997.00
2024-06-07 10:22:46.801858,-2,5,-2,0,0,0,82,84,110,90,16,132.21,455,-74.00,-94.00,-931.00
2024-06-07 10:22:46.881944,-2,5,-2,0,0,0,82,84,109,90,16,132.14,455,32.00,-125.00,-1033.00
2024-06-07 10:22:47.108402,-2,4,-2,0,0,0,82,84,108,90,16,132.06,455,17.00,-81.00,-1009.00
2024-06-07 10:22:47.110340,-1,4,-2,0,0,0,82,84,106,90,16,132.10,455,-94.00,-58.00,-996.00
2024-06-07 10:22:47.187503,-1,4,-2,0,0,0,82,84,106,80,16,132.09,455,2.00,-82.00,-1010.00
2024-06-07 10:22:47.312386,-1,4,-2,0,0,0,82,84,105,80,16,132.09,455,-32.00,-64.00,-993.00
2024-06-07 10:22:47.391767,-1,4,-2,0,0,0,82,84,104,80,16,132.12,455,-68.00,-39.00,-1082.00
2024-06-07 10:22:47.517341,-1,4,-2,0,0,0,82,84,104,80,16,132.07,455,21.00,-63.00,-949.00
2024-06-07 10:22:47.594875,0,3,-2,1,0,0,82,84,103,80,16,132.04,455,83.00,-89.00,-1085.00
2024-06-07 10:22:47.697369,0,3,-2,1,0,0,82,84,103,80,16,132.07,456,5.00,-72.00,-975.00
2024-06-07 10:22:47.930367,0,3,-2,0,0,0,82,84,103,80,16,132.17,456,-40.00,-93.00,-1042.00
2024-06-07 10:22:47.930611,0,5,-2,0,0,0,82,84,104,80,16,132.26,456,-62.00,-88.00,-1027.00
2024-06-07 10:22:48.002889,0,5,-2,0,0,0,82,84,103,80,16,132.27,456,-15.00,-63.00,-963.00
2024-06-07 10:22:48.054647,0,5,-2,1,0,0,82,84,103,80,16,132.23,456,10.00,-119.00,-973.00
2024-06-07 10:22:48.234763,1,5,-2,1,0,0,82,84,104,80,16,132.20,456,102.00,-133.00,-1089.00
2024-06-07 10:22:48.258749,1,5,-2,1,0,0,82,84,105,80,16,132.23,456,79.00,-109.00,-1001.00
2024-06-07 10:22:48.438967,2,5,-2,0,0,0,82,84,105,80,16,132.30,456,88.00,-111.00,-1065.00
2024-06-07 10:22:48.461934,2,5,-2,1,0,0,82,84,106,80,16,132.25,456,70.00,-102.00,-1017.00
2024-06-07 10:22:48.563943,2,5,-2,0,0,0,82,84,106,80,16,132.22,456,76.00,-132.00,-943.00
2024-06-07 10:22:48.668165,2,5,-2,0,0,0,82,84,107,80,16,132.28,457,42.00,-66.00,-1068.00
2024-06-07 10:22:48.768809,3,5,-2,0,0,0,82,84,108,80,16,132.29,457,65.00,-127.00,-973.00
2024-06-07 10:22:48.885688,2,4,-2,0,0,0,82,84,109,80,16,132.27,457,88.00,-105.00,-1057.00
2024-06-07 10:22:48.983574,2,5,-2,0,0,0,82,84,108,80,16,132.21,457,103.00,-114.00,-961.00
2024-06-07 10:22:49.073974,3,5,-2,0,0,0,82,84,109,80,16,132.30,457,-9.00,-92.00,-977.00
2024-06-07 10:22:49.258140,3,5,-2,0,0,0,82,85,108,90,16,132.35,457,77.00,-103.00,-1062.00
2024-06-07 10:22:49.284811,3,5,-2,0,0,0,82,85,108,90,16,132.31,457,56.00,-91.00,-983.00
2024-06-07 10:22:49.381034,2,5,-2,0,0,0,82,85,108,90,16,132.27,457,73.00,-106.00,-1076.00
2024-06-07 10:22:49.567253,3,6,-2,0,0,0,82,85,107,90,16,132.34,457,96.00,-109.00,-1027.00
2024-06-07 10:22:49.583909,3,6,-2,0,0,0,82,85,107,80,16,132.23,457,58.00,-91.00,-998.00
2024-06-07 10:22:49.769918,3,5,-2,0,0,0,82,85,107,80,16,132.24,458,137.00,-133.00,-1072.00
2024-06-07 10:22:49.787821,3,5,-2,0,0,0,82,85,107,80,16,132.27,458,31.00,-121.00,-984.00
2024-06-07 10:22:49.890158,3,5,-2,0,0,0,82,85,105,80,16,132.30,458,1.00,-100.00,-966.00
2024-06-07 10:22:50.078217,2,6,-2,0,0,0,82,85,104,80,16,132.31,458,42.00,-80.00,-973.00
2024-06-07 10:22:50.093865,1,5,-2,0,0,0,82,85,103,80,16,132.26,458,87.00,-139.00,-1067.00
2024-06-07 10:22:50.282418,2,5,-2,0,0,0,82,85,103,80,16,132.39,458,-26.00,-93.00,-965.00
2024-06-07 10:22:50.297850,1,5,-2,0,0,0,82,85,101,80,16,132.23,458,4.00,-92.00,-1015.00
2024-06-07 10:22:50.400173,1,6,-2,0,0,0,82,85,99,80,16,132.19,458,30.00,-99.00,-965.00
2024-06-07 10:22:50.589240,1,6,-2,0,0,0,82,85,98,80,16,132.17,458,-20.00,-112.00,-968.00
2024-06-07 10:22:50.603760,0,6,-2,0,0,0,82,85,98,80,16,132.20,458,25.00,-87.00,-1007.00
2024-06-07 10:22:50.794064,0,5,-2,0,0,0,82,85,98,80,16,132.15,459,33.00,-91.00,-1039.00
2024-06-07 10:22:50.807705,0,5,-2,0,0,0,82,85,98,80,16,132.20,459,105.00,-117.00,-1144.00
2024-06-07 10:22:50.910667,0,6,-2,0,0,0,82,85,101,80,16,132.12,459,41.00,-80.00,-1074.00
2024-06-07 10:22:51.011814,0,5,-2,0,0,-1,82,85,102,80,16,132.16,459,41.00,-119.00,-1046.00
2024-06-07 10:22:51.113925,0,6,-2,0,0,-1,82,85,103,80,16,132.21,459,97.00,-115.00,-986.00
2024-06-07 10:22:51.309029,0,6,-2,0,0,-1,83,85,103,80,16,132.23,459,45.00,-97.00,-955.00
2024-06-07 10:22:51.317784,1,6,-2,0,0,0,83,85,104,80,16,132.23,459,110.00,-168.00,-953.00
2024-06-07 10:22:51.510891,2,6,-2,0,0,0,83,85,107,80,16,132.31,459,22.00,-97.00,-997.00
2024-06-07 10:22:51.522028,3,7,-2,0,0,0,83,85,108,80,16,132.34,459,83.00,-95.00,-1016.00
2024-06-07 10:22:51.715732,2,7,-2,0,0,0,83,85,109,80,16,132.27,459,97.00,-116.00,-1056.00
2024-06-07 10:22:51.725793,3,7,-2,0,0,0,83,85,111,80,16,132.33,460,98.00,-146.00,-985.00
2024-06-07 10:22:51.921423,3,7,-2,0,0,0,83,85,111,80,15,132.30,460,73.00,-110.00,-1017.00
2024-06-07 10:22:51.930382,3,6,-2,0,0,0,83,85,113,90,15,132.33,460,-40.00,-58.00,-922.00
2024-06-07 10:22:52.227927,3,7,-2,0,0,0,83,85,114,90,15,132.27,460,111.00,-150.00,-962.00
2024-06-07 10:22:52.228142,3,7,-2,0,0,0,83,85,114,90,15,132.31,460,-13.00,-84.00,-1017.00
2024-06-07 10:22:52.236437,3,7,-2,0,0,0,82,85,115,90,15,132.26,460,25.00,-130.00,-1018.00
2024-06-07 10:22:52.432413,1,7,-2,0,0,0,82,85,116,90,15,132.35,460,40.00,-114.00,-915.00
2024-06-07 10:22:52.440442,2,7,-2,0,0,0,82,85,116,90,15,132.27,460,34.00,-98.00,-1019.00
2024-06-07 10:22:52.541669,2,6,-2,0,0,0,82,85,117,90,15,132.32,460,-37.00,-133.00,-1011.00
2024-06-07 10:22:52.597474,1,7,-2,0,0,0,82,85,118,90,15,132.30,460,63.00,-141.00,-937.00
2024-06-07 10:22:52.694942,1,7,-2,0,0,0,82,85,117,90,15,132.31,461,-12.00,-99.00,-1036.00
2024-06-07 10:22:52.796832,0,6,-2,0,0,0,82,85,119,90,15,132.32,461,25.00,-110.00,-986.00
2024-06-07 10:22:52.899178,0,5,-2,0,0,0,82,85,118,90,15,132.35,461,59.00,-124.00,-959.00
2024-06-07 10:22:53.046829,0,5,-2,0,0,0,82,85,118,90,15,132.28,461,52.00,-102.00,-1015.00
2024-06-07 10:22:53.103775,1,5,-2,0,0,0,82,85,117,90,15,132.31,461,20.00,-145.00,-986.00
2024-06-07 10:22:53.251588,2,5,-2,0,0,0,82,84,116,90,15,132.29,461,90.00,-121.00,-899.00
2024-06-07 10:22:53.307849,3,5,-2,0,0,0,82,84,116,90,15,132.21,461,13.00,-95.00,-976.00
2024-06-07 10:22:53.409642,2,5,-2,0,0,0,82,84,114,90,15,132.18,461,96.00,-110.00,-943.00
2024-06-07 10:22:53.558812,1,5,-2,0,0,0,82,84,114,90,15,132.19,461,-14.00,-47.00,-931.00
2024-06-07 10:22:53.613748,1,4,-2,0,0,0,82,84,111,90,15,132.15,461,55.00,-63.00,-1041.00
2024-06-07 10:22:53.764002,1,4,-2,0,0,0,82,84,110,90,15,132.21,462,90.00,-92.00,-1050.00
2024-06-07 10:22:53.818079,1,4,-2,0,0,0,82,84,109,90,15,132.19,462,45.00,-128.00,-1001.00
2024-06-07 10:22:53.920264,1,4,-2,0,0,0,82,84,109,90,15,132.19,462,28.00,-104.00,-1005.00
2024-06-07 10:22:54.024412,0,4,-2,0,0,0,82,84,108,90,15,132.14,462,117.00,-132.00,-955.00
2024-06-07 10:22:54.124090,1,5,-2,0,0,0,82,84,107,90,15,132.20,462,63.00,-132.00,-967.00
2024-06-07 10:22:54.275792,2,5,-2,0,0,0,83,85,107,90,15,132.17,462,110.00,-139.00,-1011.00
2024-06-07 10:22:54.328066,2,6,-2,0,0,0,83,85,106,80,15,132.27,462,94.00,-116.00,-1027.00
2024-06-07 10:22:54.429639,3,7,-2,0,0,0,83,85,106,80,15,132.23,462,-25.00,-117.00,-929.00
2024-06-07 10:22:54.583709,4,7,-2,0,0,0,83,85,105,80,15,132.28,462,21.00,-137.00,-986.00
2024-06-07 10:22:54.633872,3,6,-2,0,0,0,83,85,104,80,15,132.20,462,40.00,-121.00,-1010.00
2024-06-07 10:22:54.788283,3,6,-2,0,0,0,83,85,105,80,15,132.36,463,80.00,-196.00,-1091.00
2024-06-07 10:22:54.837766,2,7,-2,0,0,0,83,85,105,80,15,132.29,463,92.00,-183.00,-1071.00
2024-06-07 10:22:54.940688,1,8,-2,0,0,0,83,85,106,80,15,132.25,463,49.00,-142.00,-1035.00
2024-06-07 10:22:55.094851,1,9,-2,0,0,0,83,85,107,80,15,132.32,463,-70.00,-114.00,-915.00
2024-06-07 10:22:55.143600,1,8,-2,0,0,0,83,85,108,80,15,132.30,463,-34.00,-125.00,-1003.00
2024-06-07 10:22:55.245675,0,8,-2,0,0,0,83,84,108,80,15,132.21,463,7.00,-136.00,-926.00
2024-06-07 10:22:55.404661,1,8,-2,0,0,0,83,84,108,80,15,132.31,463,-65.00,-91.00,-988.00
2024-06-07 10:22:55.449668,0,7,-2,0,0,0,83,84,108,80,15,132.19,463,-15.00,-116.00,-1042.00
2024-06-07 10:22:55.606860,0,6,-2,0,0,0,83,84,110,80,15,132.23,463,37.00,-125.00,-1044.00
2024-06-07 10:22:55.654512,1,6,-2,0,0,0,83,84,112,80,15,132.19,463,-84.00,-61.00,-953.00
2024-06-07 10:22:55.755980,1,5,-2,0,0,-1,83,84,114,90,14,132.23,464,17.00,-114.00,-987.00
2024-06-07 10:22:55.905777,2,5,-2,0,0,-1,83,84,117,90,14,132.22,464,54.00,-120.00,-969.00
2024-06-07 10:22:55.960552,2,5,-2,0,1,-1,83,84,117,90,14,132.26,464,92.00,-90.00,-924.00
2024-06-07 10:22:56.118785,3,4,-2,0,1,0,83,84,119,90,14,132.33,464,35.00,-106.00,-889.00
2024-06-07 10:22:56.118967,3,3,-2,0,1,0,83,84,118,90,14,132.23,464,-35.00,-61.00,-964.00
2024-06-07 10:22:56.266002,2,3,-2,0,1,0,82,84,120,90,14,132.24,464,11.00,-74.00,-996.00
2024-06-07 10:22:56.317739,2,3,-2,0,1,0,82,84,119,90,14,132.26,464,14.00,-50.00,-862.00
2024-06-07 10:22:56.426223,3,3,-2,0,0,0,82,84,120,90,14,132.30,464,52.00,-88.00,-964.00
2024-06-07 10:22:56.523080,3,3,-2,0,0,0,82,84,121,90,14,132.19,464,71.00,-116.00,-1025.00
