TS,pitch,roll,yaw,vgx,vgy,vgz,templ,temph,tof,h,bat,baro,time,agx,agy,agz
2024-05-17 16:22:06.656183,0,0,14,0,0,0,79,81,10,0,67,190.71,157,3.00,0.00,-999.00
2024-05-17 16:22:06.758213,0,0,14,0,0,0,79,81,10,0,67,190.72,157,3.00,0.00,-1002.00
2024-05-17 16:22:06.809358,0,0,14,0,0,0,79,81,10,0,67,190.74,157,5.00,0.00,-1000.00
2024-05-17 16:22:06.962811,0,0,14,0,0,0,79,81,10,0,67,190.70,157,3.00,1.00,-1000.00
2024-05-17 16:22:07.064755,0,0,14,0,0,0,79,81,10,0,67,190.71,157,5.00,-2.00,-999.00
2024-05-17 16:22:07.167332,0,0,14,0,0,0,79,81,10,0,67,190.68,157,5.00,0.00,-998.00
2024-05-17 16:22:07.217939,0,0,14,0,0,0,79,81,10,0,67,190.69,157,3.00,0.00,-1001.00
2024-05-17 16:22:07.320128,0,0,14,0,0,0,79,81,10,0,67,190.70,157,3.00,0.00,-999.00
2024-05-17 16:22:07.421371,0,0,14,0,0,0,79,81,10,0,67,190.73,157,3.00,0.00,-1001.00
2024-05-17 16:22:07.524513,0,0,14,0,0,0,79,81,10,0,67,190.70,157,5.00,-1.00,-1000.00
2024-05-17 16:22:07.636468,0,0,14,0,0,0,79,81,10,0,67,190.62,157,3.00,0.00,-999.00
2024-05-17 16:22:07.727493,0,0,14,0,0,0,79,81,10,0,67,190.71,157,4.00,0.00,-999.00
2024-05-17 16:22:07.885007,0,0,14,0,0,0,79,81,10,0,67,190.70,157,4.00,0.00,-1000.00
2024-05-17 16:22:07.931407,0,0,14,0,0,0,80,82,10,0,67,190.73,157,5.00,0.00,-999.00
2024-05-17 16:22:08.038209,0,0,14,0,0,0,80,82,10,0,67,190.71,157,4.00,-1.00,-1001.00
2024-05-17 16:22:08.139150,0,0,14,0,0,0,80,82,10,0,67,190.68,157,4.00,0.00,-998.00
2024-05-17 16:22:08.237500,0,0,14,0,0,0,80,82,10,0,67,190.70,157,3.00,-1.00,-998.00
2024-05-17 16:22:08.394458,0,0,14,0,0,0,80,82,10,0,67,190.73,157,4.00,0.00,-999.00
2024-05-17 16:22:08.441285,0,0,14,0,0,0,80,82,10,0,67,190.71,157,5.00,-2.00,-1000.00
2024-05-17 16:22:08.603538,0,0,14,0,0,0,80,82,10,0,67,190.66,157,3.00,0.00,-999.00
2024-05-17 16:22:08.645590,0,0,14,0,0,0,80,82,10,0,67,190.69,157,4.00,0.00,-1001.00
2024-05-17 16:22:08.804716,0,0,14,0,0,0,80,82,10,0,67,190.72,157,4.00,0.00,-1001.00
2024-05-17 16:22:08.849291,0,0,14,0,0,0,80,82,10,0,67,190.68,157,4.00,0.00,-1000.00
2024-05-17 16:22:09.010441,0,0,14,0,0,0,79,82,10,0,67,190.69,157,5.00,-1.00,-1000.00
2024-05-17 16:22:09.058038,0,0,14,0,0,0,79,82,10,0,67,190.68,157,3.00,0.00,-998.00
2024-05-17 16:22:09.156726,0,0,14,0,0,0,79,82,10,0,67,190.70,157,4.00,-1.00,-999.00
2024-05-17 16:22:09.316344,0,0,14,0,0,0,79,82,10,0,67,190.71,157,3.00,0.00,-998.00
2024-05-17 16:22:09.359256,0,0,14,0,0,0,79,82,10,0,67,190.67,157,4.00,0.00,-999.00
2024-05-17 16:22:09.520933,0,0,14,0,0,0,79,82,10,0,67,190.75,157,4.00,0.00,-997.00
2024-05-17 16:22:09.566080,0,0,14,0,0,0,79,82,10,0,67,190.69,157,3.00,0.00,-1002.00
2024-05-17 16:22:09.665529,0,0,14,0,0,0,79,82,10,0,67,190.69,157,2.00,0.00,-998.00
2024-05-17 16:22:09.828418,0,0,14,0,0,0,79,82,10,0,67,190.71,157,4.00,0.00,-998.00
2024-05-17 16:22:09.869311,0,0,14,0,0,0,79,82,10,0,67,190.67,157,3.00,-1.00,-999.00
2024-05-17 16:22:09.972650,0,0,14,0,0,0,79,82,10,0,67,190.65,157,4.00,0.00,-1001.00
2024-05-17 16:22:10.073216,0,0,14,0,0,0,79,82,10,0,67,190.65,157,4.00,0.00,-999.00
2024-05-17 16:22:10.237771,0,0,14,0,0,0,79,82,10,0,67,190.73,157,4.00,0.00,-999.00
2024-05-17 16:22:10.237987,0,0,14,0,0,0,79,82,10,0,67,190.71,157,5.00,-1.00,-1000.00
2024-05-17 16:22:10.328454,0,0,14,0,0,0,79,82,10,0,67,190.73,157,4.00,1.00,-999.00
2024-05-17 16:22:10.442371,0,0,14,0,0,0,79,82,10,0,67,190.72,157,0.00,-1.00,-999.00
2024-05-17 16:22:10.531937,0,0,14,0,0,0,79,82,10,0,67,190.72,157,14.00,-5.00,-999.00
2024-05-17 16:22:10.648768,0,0,14,0,0,0,79,82,10,0,67,190.72,157,-1.00,-27.00,-1006.00
2024-05-17 16:22:10.736005,0,0,15,0,0,0,79,82,10,0,67,190.72,158,-34.00,4.00,-1005.00
2024-05-17 16:22:10.837966,0,0,15,0,0,0,79,82,10,0,67,190.72,158,8.00,-5.00,-1015.00
2024-05-17 16:22:10.954387,0,2,15,0,0,0,79,82,10,0,67,190.72,158,-23.00,-20.00,-1138.00
2024-05-17 16:22:11.041923,-2,5,15,0,1,-1,79,82,10,0,67,190.72,158,80.00,0.00,-1262.00
2024-05-17 16:22:11.159347,-1,2,15,1,2,-5,79,82,10,0,67,190.72,158,35.00,-1.00,-1180.00
2024-05-17 16:22:11.247333,2,0,15,1,2,-7,79,82,13,10,67,191.05,158,1.00,15.00,-1174.00
2024-05-17 16:22:11.363968,4,-4,15,0,1,-8,79,82,20,10,67,191.28,158,-33.00,5.00,-1170.00
2024-05-17 16:22:11.450009,2,-3,15,0,0,-8,79,82,28,20,67,191.35,158,32.00,-12.00,-943.00
2024-05-17 16:22:11.551948,1,-1,15,0,0,-7,79,82,35,30,67,191.34,158,-60.00,-4.00,-946.00
2024-05-17 16:22:11.671180,0,-1,15,0,0,-7,79,82,43,40,67,191.47,158,-10.00,-28.00,-928.00
2024-05-17 16:22:11.755956,0,-1,15,0,0,-6,79,82,50,40,67,191.55,159,-19.00,-24.00,-867.00
2024-05-17 16:22:11.876151,0,0,15,0,0,-5,79,82,54,50,67,191.60,159,-14.00,-9.00,-873.00
2024-05-17 16:22:11.959930,0,0,15,0,0,-3,80,82,56,50,67,191.69,159,15.00,-18.00,-953.00
2024-05-17 16:22:12.062035,-1,0,15,0,0,-2,80,82,59,50,67,191.70,159,-27.00,22.00,-939.00
2024-05-17 16:22:12.170510,0,0,15,0,0,-1,80,82,61,60,67,191.69,159,-10.00,2.00,-929.00
2024-05-17 16:22:12.268198,0,0,15,0,0,-1,80,82,63,60,67,191.73,159,-31.00,9.00,-861.00
2024-05-17 16:22:12.368209,-1,0,15,0,0,0,80,82,64,60,67,191.69,159,10.00,-24.00,-997.00
2024-05-17 16:22:12.471135,-1,0,15,0,0,-1,80,82,65,60,67,191.68,159,-72.00,-3.00,-1047.00
2024-05-17 16:22:12.573503,-1,0,15,0,0,-1,80,82,66,60,67,191.77,159,77.00,-12.00,-1054.00
2024-05-17 16:22:12.676272,-1,0,15,0,0,0,80,82,67,60,67,191.74,159,-24.00,13.00,-1024.00
2024-05-17 16:22:12.779684,-1,0,15,0,0,-1,80,82,69,60,67,191.72,160,43.00,-7.00,-1000.00
2024-05-17 16:22:12.883394,0,0,15,0,0,-1,80,82,69,60,67,191.78,160,-3.00,-25.00,-945.00
2024-05-17 16:22:12.980032,0,1,15,0,0,0,80,82,69,60,67,191.86,160,12.00,7.00,-1009.00
2024-05-17 16:22:13.082230,0,1,15,0,0,0,80,82,72,60,67,191.74,160,23.00,-14.00,-1157.00
2024-05-17 16:22:13.209382,0,0,15,0,0,-2,80,82,75,60,67,191.89,160,40.00,-3.00,-1018.00
2024-05-17 16:22:13.285862,0,0,15,0,0,-1,80,82,77,70,67,191.86,160,-64.00,12.00,-906.00
2024-05-17 16:22:13.411999,0,0,15,0,0,-1,80,82,78,70,67,191.89,160,34.00,-18.00,-974.00
2024-05-17 16:22:13.489960,0,0,15,0,0,0,80,82,81,70,67,191.91,160,27.00,-6.00,-1074.00
2024-05-17 16:22:13.616763,0,0,15,0,0,0,80,82,80,70,67,191.96,160,-20.00,43.00,-936.00
2024-05-17 16:22:13.645396,0,0,15,0,0,0,80,82,84,70,67,191.92,160,13.00,22.00,-941.00
2024-05-17 16:22:13.744968,0,0,15,0,0,0,80,82,86,70,67,191.90,161,-46.00,23.00,-978.00
2024-05-17 16:22:13.924006,0,0,15,0,0,0,80,82,88,70,67,191.94,161,74.00,-22.00,-1042.00
2024-05-17 16:22:13.948964,0,0,15,0,0,0,79,82,89,70,67,191.92,161,-41.00,17.00,-1053.00
2024-05-17 16:22:14.130722,0,0,15,0,0,0,79,82,91,80,67,192.00,161,45.00,1.00,-895.00
2024-05-17 16:22:14.152940,0,1,15,0,0,0,79,82,94,80,67,191.96,161,37.00,-17.00,-973.00
2024-05-17 16:22:14.333558,0,1,15,0,0,0,79,82,97,80,67,192.08,161,-9.00,-4.00,-1008.00
2024-05-17 16:22:14.356967,0,1,15,0,0,0,79,82,98,80,67,192.03,161,-13.00,15.00,-988.00
2024-05-17 16:22:14.540102,0,0,15,0,0,0,79,82,100,80,67,192.05,161,73.00,-25.00,-993.00
2024-05-17 16:22:14.561049,0,0,15,0,0,0,79,82,103,80,67,192.04,161,22.00,6.00,-1078.00
2024-05-17 16:22:14.743481,0,0,15,0,0,0,79,82,105,80,67,192.05,161,5.00,5.00,-890.00
2024-05-17 16:22:14.766008,0,0,15,0,0,0,79,82,104,90,67,192.08,162,-56.00,5.00,-942.00
2024-05-17 16:22:14.947997,0,0,15,0,0,0,79,82,103,90,67,192.07,162,-16.00,3.00,-928.00
2024-05-17 16:22:14.969903,0,0,15,0,0,0,80,82,103,90,67,192.02,162,-19.00,8.00,-944.00
2024-05-17 16:22:15.071726,0,0,15,0,0,1,80,82,103,90,67,192.13,162,87.00,-10.00,-987.00
2024-05-17 16:22:15.256622,0,0,15,0,0,1,80,82,101,90,67,192.08,162,-2.00,41.00,-1020.00
2024-05-17 16:22:15.275677,0,0,15,0,0,1,80,82,101,90,67,192.11,162,9.00,-6.00,-975.00
2024-05-17 16:22:15.460000,0,0,15,0,0,1,80,82,98,90,67,192.06,162,-31.00,10.00,-890.00
2024-05-17 16:22:15.479746,1,0,15,0,0,2,80,82,97,90,67,192.10,162,-19.00,28.00,-966.00
2024-05-17 16:22:15.664746,0,0,15,0,0,2,80,82,98,80,67,192.05,162,69.00,-1.00,-1112.00
2024-05-17 16:22:15.684749,0,0,15,0,0,1,80,82,97,80,67,192.04,162,1.00,0.00,-1061.00
2024-05-17 16:22:15.869594,0,0,15,0,0,1,80,82,96,80,67,192.11,163,20.00,0.00,-1076.00
2024-05-17 16:22:15.887647,0,0,15,0,0,0,80,82,97,80,67,192.05,163,-112.00,35.00,-850.00
2024-05-17 16:22:16.075686,0,0,15,0,0,1,79,82,100,80,67,192.00,163,5.00,-6.00,-1052.00
2024-05-17 16:22:16.091679,0,0,15,0,0,1,79,82,100,80,67,192.05,163,-3.00,12.00,-1006.00
2024-05-17 16:22:16.282807,0,0,15,0,0,1,79,82,102,80,67,192.02,163,12.00,-21.00,-980.00
2024-05-17 16:22:16.297414,0,0,15,0,0,1,79,82,97,80,67,192.09,163,83.00,-8.00,-1108.00
2024-05-17 16:22:16.397783,1,0,15,0,0,1,79,82,100,80,67,192.09,163,93.00,-36.00,-927.00
2024-05-17 16:22:16.586341,2,0,15,0,0,1,79,82,102,70,67,191.99,163,-13.00,4.00,-908.00
2024-05-17 16:22:16.601769,2,0,15,0,0,2,79,82,100,70,67,192.09,163,-41.00,33.00,-990.00
2024-05-17 16:22:16.791270,2,0,15,0,0,2,79,82,96,70,67,192.06,163,-39.00,11.00,-941.00
2024-05-17 16:22:16.805711,1,0,15,0,0,2,79,82,91,70,67,191.97,164,24.00,1.00,-923.00
2024-05-17 16:22:16.997735,0,0,15,0,0,2,79,82,91,70,67,191.92,164,39.00,-2.00,-1049.00
2024-05-17 16:22:17.009776,0,0,15,0,0,1,79,81,90,70,67,191.96,164,-5.00,35.00,-1036.00
2024-05-17 16:22:17.115680,0,0,16,0,0,1,79,81,87,60,67,191.88,164,18.00,23.00,-1063.00
2024-05-17 16:22:17.214605,0,0,16,0,0,1,79,81,84,60,67,191.94,164,107.00,-40.00,-1042.00
2024-05-17 16:22:17.315878,0,0,16,0,0,1,79,81,85,60,67,191.86,164,68.00,-20.00,-1072.00
2024-05-17 16:22:17.417660,0,0,16,0,0,1,79,81,84,60,67,191.92,164,-3.00,21.00,-1008.00
2024-05-17 16:22:17.468855,0,0,16,0,0,1,79,81,81,60,67,191.98,164,-27.00,25.00,-955.00
2024-05-17 16:22:17.612756,0,0,16,0,0,1,79,81,80,60,67,191.92,164,-45.00,13.00,-961.00
2024-05-17 16:22:17.672863,0,0,15,0,0,1,79,81,79,60,67,191.88,164,38.00,15.00,-1033.00
2024-05-17 16:22:17.815146,0,0,15,0,0,1,79,81,76,60,67,191.85,165,-12.00,16.00,-1030.00
2024-05-17 16:22:17.876876,0,0,15,0,0,0,79,81,72,50,67,191.89,165,31.00,-4.00,-954.00
2024-05-17 16:22:18.019884,0,0,15,0,0,0,79,82,71,50,67,191.85,165,70.00,-14.00,-1032.00
2024-05-17 16:22:18.080818,0,0,15,0,0,0,79,82,69,50,67,191.80,165,-26.00,10.00,-1038.00
2024-05-17 16:22:18.225655,0,0,15,0,0,0,79,82,69,50,67,191.79,165,42.00,-5.00,-1027.00
2024-05-17 16:22:18.286496,0,0,15,0,0,0,79,82,69,50,67,191.76,165,-31.00,15.00,-957.00
2024-05-17 16:22:18.386947,0,0,15,0,0,0,79,82,67,50,67,191.81,165,44.00,0.00,-968.00
2024-05-17 16:22:18.532185,0,0,15,0,0,0,79,82,67,50,67,191.79,165,23.00,36.00,-1028.00
2024-05-17 16:22:18.591048,0,0,15,0,0,0,79,82,67,40,67,191.75,165,23.00,37.00,-1085.00
2024-05-17 16:22:18.736764,0,0,15,0,0,0,79,82,68,40,67,191.78,166,26.00,-5.00,-947.00
2024-05-17 16:22:18.794891,0,0,15,0,0,0,79,82,69,40,67,191.81,166,3.00,26.00,-1090.00
2024-05-17 16:22:18.942807,0,0,15,0,0,0,79,82,69,40,67,191.83,166,1.00,6.00,-982.00
2024-05-17 16:22:18.999735,0,0,15,0,0,0,79,81,69,40,67,191.74,166,-84.00,51.00,-993.00
2024-05-17 16:22:19.101332,0,0,15,0,0,0,79,81,66,50,67,191.76,166,-12.00,29.00,-1073.00
2024-05-17 16:22:19.248909,0,0,15,0,0,0,79,81,65,40,67,191.73,166,-23.00,40.00,-960.00
2024-05-17 16:22:19.305651,0,0,15,0,0,0,79,81,67,40,67,191.76,166,-31.00,39.00,-1082.00
2024-05-17 16:22:19.453724,0,0,15,0,0,0,79,81,66,40,67,191.79,166,13.00,24.00,-1008.00
2024-05-17 16:22:19.508863,0,0,15,0,0,0,79,81,66,50,67,191.77,166,-56.00,31.00,-866.00
2024-05-17 16:22:19.658525,0,0,15,0,0,0,79,81,68,50,67,191.81,166,19.00,4.00,-1063.00
2024-05-17 16:22:19.713423,0,0,15,0,0,0,79,81,71,50,67,191.72,167,-72.00,57.00,-963.00
2024-05-17 16:22:19.816836,-1,0,15,0,0,0,79,81,71,50,67,191.76,167,-6.00,0.00,-1067.00
2024-05-17 16:22:19.916857,0,0,15,0,0,0,79,81,72,50,67,191.77,167,-30.00,37.00,-975.00
2024-05-17 16:22:20.068040,0,0,15,0,0,0,79,81,71,50,67,191.79,167,-83.00,46.00,-950.00
2024-05-17 16:22:20.121033,-1,0,15,0,0,0,79,81,74,50,67,191.84,167,27.00,9.00,-923.00
2024-05-17 16:22:20.272901,0,0,15,0,0,0,79,81,76,50,67,191.84,167,18.00,15.00,-966.00
2024-05-17 16:22:20.324846,0,0,15,0,0,0,79,81,77,50,67,191.83,167,-23.00,13.00,-1022.00
2024-05-17 16:22:20.479003,0,0,15,0,0,-1,79,81,78,50,67,191.89,167,-28.00,-7.00,-974.00
2024-05-17 16:22:20.528793,1,0,15,0,0,0,79,81,78,50,67,191.92,167,7.00,8.00,-973.00
2024-05-17 16:22:20.684770,1,0,15,0,0,0,79,81,79,50,67,191.89,167,-3.00,-5.00,-881.00
2024-05-17 16:22:20.733143,0,0,15,0,0,0,79,81,80,50,67,191.86,168,-50.00,24.00,-908.00
2024-05-17 16:22:20.887380,0,0,15,0,0,0,79,81,79,50,67,191.85,168,19.00,14.00,-1029.00
2024-05-17 16:22:20.937591,0,0,15,0,0,0,79,81,80,50,67,191.91,168,60.00,-25.00,-1071.00
2024-05-17 16:22:21.039521,1,0,15,0,0,0,78,81,80,50,67,191.87,168,-78.00,33.00,-957.00
2024-05-17 16:22:21.196080,0,0,15,0,0,0,78,81,82,50,67,191.89,168,-34.00,30.00,-935.00
2024-05-17 16:22:21.243814,0,0,15,0,0,0,78,81,82,50,67,191.88,168,61.00,-12.00,-1073.00
2024-05-17 16:22:21.399076,0,0,15,0,0,-1,78,81,83,60,67,191.90,168,0.00,6.00,-1014.00
2024-05-17 16:22:21.399155,0,0,15,0,0,-2,78,81,85,60,67,191.98,168,-60.00,29.00,-1101.00
2024-05-17 16:22:21.498828,0,0,15,0,0,-3,78,81,87,60,67,191.93,168,-41.00,31.00,-1142.00
2024-05-17 16:22:21.606460,0,0,15,0,0,-4,78,81,90,60,67,191.97,168,13.00,28.00,-1068.00
2024-05-17 16:22:21.702615,0,0,15,0,0,-4,78,81,94,70,67,191.97,169,0.00,25.00,-1096.00
2024-05-17 16:22:21.808679,0,0,15,0,0,-5,78,81,100,70,67,192.05,169,33.00,-1.00,-1125.00
2024-05-17 16:22:21.906693,0,0,15,0,0,-5,78,81,105,80,67,192.13,169,10.00,24.00,-1101.00
2024-05-17 16:22:22.013508,0,0,15,0,0,-5,79,81,112,80,67,192.17,169,-27.00,16.00,-1015.00
2024-05-17 16:22:22.110621,0,0,15,0,0,-5,79,81,117,90,67,192.24,169,-37.00,2.00,-943.00
2024-05-17 16:22:22.218313,0,0,15,0,0,-5,79,81,125,100,67,192.23,169,27.00,8.00,-983.00
2024-05-17 16:22:22.314577,1,0,15,0,0,-5,79,81,126,100,67,192.28,169,8.00,-3.00,-950.00
2024-05-17 16:22:22.423073,0,0,15,0,0,-5,79,81,132,110,67,192.37,169,43.00,20.00,-1031.00
2024-05-17 16:22:22.518672,0,0,15,0,0,-4,79,81,139,110,67,192.35,169,-44.00,46.00,-995.00
2024-05-17 16:22:22.629712,0,0,15,0,0,-4,79,81,140,120,67,192.51,169,0.00,19.00,-981.00
2024-05-17 16:22:22.722603,0,0,15,0,0,-4,79,81,144,120,67,192.47,170,17.00,-3.00,-943.00
2024-05-17 16:22:22.828087,0,0,15,0,0,-3,79,81,150,120,67,192.51,170,-2.00,0.00,-959.00
2024-05-17 16:22:22.926657,0,0,15,0,0,-3,79,81,155,130,67,192.53,170,-30.00,4.00,-915.00
2024-05-17 16:22:23.029978,0,0,15,0,0,-2,79,81,156,130,67,192.56,170,11.00,43.00,-975.00
2024-05-17 16:22:23.130705,0,0,15,0,0,-2,79,81,158,130,67,192.59,170,-21.00,14.00,-967.00
2024-05-17 16:22:23.242457,0,0,15,0,0,-2,79,81,160,130,67,192.60,170,44.00,-14.00,-1069.00
2024-05-17 16:22:23.334636,0,0,15,0,0,-2,79,81,163,140,67,192.59,170,-8.00,6.00,-1011.00
2024-05-17 16:22:23.448936,0,0,15,0,0,-1,79,81,164,140,67,192.67,170,-9.00,43.00,-1023.00
2024-05-17 16:22:23.538632,0,0,15,0,0,-1,79,81,166,140,67,192.63,170,22.00,2.00,-924.00
2024-05-17 16:22:23.654778,0,0,15,0,0,-1,79,81,167,140,67,192.64,170,8.00,18.00,-1037.00
2024-05-17 16:22:23.742552,0,0,15,0,0,-1,79,81,170,140,67,192.73,171,24.00,0.00,-983.00
2024-05-17 16:22:23.856855,0,0,15,0,0,-1,79,81,170,140,67,192.75,171,47.00,-2.00,-1028.00
2024-05-17 16:22:23.946590,0,0,15,0,0,0,79,81,169,150,67,192.68,171,-18.00,40.00,-1010.00
2024-05-17 16:22:24.061458,0,0,15,0,0,0,79,81,171,150,67,192.74,171,-40.00,22.00,-907.00
2024-05-17 16:22:24.152157,0,0,15,0,0,0,79,81,172,150,67,192.77,171,36.00,16.00,-990.00
2024-05-17 16:22:24.252487,0,0,15,0,0,0,79,81,170,150,67,192.72,171,40.00,0.00,-1068.00
2024-05-17 16:22:24.368669,0,0,15,0,0,0,79,81,167,150,67,192.75,171,34.00,2.00,-970.00
2024-05-17 16:22:24.456533,1,0,15,0,0,0,79,81,170,150,67,192.74,171,67.00,-17.00,-1163.00
2024-05-17 16:22:24.575224,1,0,15,0,0,0,79,81,168,150,67,192.69,171,6.00,-21.00,-968.00
2024-05-17 16:22:24.665580,1,0,15,0,0,0,79,81,170,150,67,192.73,171,-68.00,17.00,-906.00
2024-05-17 16:22:24.763342,0,0,15,0,0,0,79,81,169,150,67,192.73,172,22.00,-9.00,-1050.00
2024-05-17 16:22:24.882514,0,0,15,0,0,0,79,81,172,150,67,192.76,172,-28.00,25.00,-898.00
2024-05-17 16:22:24.966688,0,0,15,0,0,0,79,81,173,150,67,192.73,172,56.00,-2.00,-1128.00
2024-05-17 16:22:25.070413,0,0,15,0,0,0,78,82,174,150,67,192.79,172,47.00,-5.00,-1004.00
2024-05-17 16:22:25.175889,0,0,15,0,0,0,78,82,172,150,67,192.74,172,-8.00,25.00,-1052.00
2024-05-17 16:22:25.272657,0,0,15,0,0,0,78,82,171,150,67,192.67,172,76.00,-15.00,-1012.00
2024-05-17 16:22:25.323453,1,0,15,0,0,0,78,82,172,150,67,192.67,172,16.00,-17.00,-949.00
2024-05-17 16:22:25.496645,1,0,15,0,0,0,78,82,172,150,67,192.75,172,12.00,11.00,-956.00
2024-05-17 16:22:25.527340,2,0,15,0,0,0,78,82,172,150,67,192.68,172,114.00,-31.00,-999.00
2024-05-17 16:22:25.702140,2,0,15,0,0,0,78,82,170,150,67,192.73,172,-12.00,24.00,-1011.00
2024-05-17 16:22:25.731368,2,0,15,0,0,0,78,82,168,150,67,192.65,173,-28.00,41.00,-1035.00
2024-05-17 16:22:25.904825,0,0,15,0,0,0,78,82,167,150,67,192.50,173,-16.00,-6.00,-950.00
2024-05-17 16:22:25.935354,-1,0,15,0,0,1,78,82,163,150,67,192.63,173,85.00,-36.00,-1199.00
2024-05-17 16:22:26.109706,-1,0,15,0,0,0,79,80,162,150,67,192.59,173,-88.00,50.00,-1017.00
2024-05-17 16:22:26.139279,-1,0,15,0,0,0,79,80,162,140,67,192.60,173,8.00,-7.00,-996.00
2024-05-17 16:22:26.314341,0,0,15,0,0,0,79,80,161,140,67,192.65,173,-35.00,22.00,-979.00
2024-05-17 16:22:26.343597,0,0,15,0,0,0,79,80,160,140,67,192.55,173,100.00,-3.00,-1097.00
2024-05-17 16:22:26.521071,0,1,15,0,0,0,79,80,157,140,67,192.57,173,-26.00,9.00,-1036.00
2024-05-17 16:22:26.547152,0,1,15,0,0,0,79,80,157,140,67,192.64,173,-71.00,39.00,-1043.00
2024-05-17 16:22:26.725320,0,1,15,0,0,0,79,80,158,140,67,192.61,173,66.00,-15.00,-1087.00
2024-05-17 16:22:26.751531,0,0,15,0,0,0,79,80,159,140,67,192.58,174,41.00,2.00,-945.00
2024-05-17 16:22:26.928940,0,1,15,0,0,0,79,80,160,140,67,192.67,174,66.00,-14.00,-1174.00
2024-05-17 16:22:26.956442,0,0,15,0,0,0,79,80,161,140,67,192.61,174,79.00,-15.00,-1087.00
2024-05-17 16:22:27.060878,0,0,15,0,0,-1,79,82,163,140,67,192.72,174,-34.00,13.00,-849.00
2024-05-17 16:22:27.160500,0,0,15,0,0,-1,79,82,165,140,67,192.68,174,50.00,-20.00,-1002.00
2024-05-17 16:22:27.339989,1,1,15,0,0,0,79,82,167,150,67,192.63,174,-42.00,17.00,-926.00
2024-05-17 16:22:27.364501,0,0,15,0,0,0,79,82,166,150,67,192.67,174,-17.00,-7.00,-896.00
2024-05-17 16:22:27.543042,0,0,15,0,0,0,79,82,167,140,67,192.64,174,-72.00,17.00,-878.00
2024-05-17 16:22:27.569593,0,0,15,0,0,1,79,82,167,140,67,192.65,174,54.00,5.00,-986.00
2024-05-17 16:22:27.748027,0,0,15,0,0,1,79,82,166,140,67,192.66,174,33.00,-12.00,-949.00
2024-05-17 16:22:27.773502,1,0,15,0,0,1,79,82,164,140,67,192.64,175,-25.00,10.00,-869.00
2024-05-17 16:22:27.874441,1,0,15,0,0,2,79,82,163,140,67,192.67,175,11.00,10.00,-967.00
2024-05-17 16:22:28.056899,0,0,15,0,0,2,79,82,160,140,67,192.64,175,-36.00,35.00,-916.00
2024-05-17 16:22:28.078666,0,0,15,0,0,3,78,81,161,140,67,192.66,175,18.00,-16.00,-1123.00
2024-05-17 16:22:28.259883,0,0,15,0,0,2,78,81,160,130,67,192.60,175,13.00,16.00,-951.00
2024-05-17 16:22:28.282224,0,0,15,0,0,2,78,81,153,130,67,192.59,175,-17.00,28.00,-1031.00
2024-05-17 16:22:28.384375,1,0,15,0,0,2,78,81,151,130,67,192.56,175,-28.00,25.00,-908.00
2024-05-17 16:22:28.567033,0,0,15,0,0,2,78,81,152,130,67,192.60,175,14.00,9.00,-1092.00
2024-05-17 16:22:28.588379,0,0,15,0,0,2,78,81,148,120,67,192.50,175,-5.00,-10.00,-997.00
2024-05-17 16:22:28.690589,0,0,15,0,0,2,78,81,143,120,67,192.51,175,25.00,-2.00,-1042.00
2024-05-17 16:22:28.794172,0,0,15,0,0,2,78,81,141,120,67,192.49,176,-44.00,30.00,-966.00
2024-05-17 16:22:28.895408,1,0,15,0,0,2,78,81,139,120,67,192.50,176,-24.00,3.00,-915.00
2024-05-17 16:22:28.996956,1,0,15,0,0,2,78,81,137,120,67,192.49,176,70.00,-22.00,-1009.00
2024-05-17 16:22:29.098818,1,0,15,0,0,2,79,80,134,110,67,192.48,176,-26.00,28.00,-934.00
2024-05-17 16:22:29.285372,1,0,15,0,0,2,79,80,131,110,67,192.39,176,32.00,-1.00,-1003.00
2024-05-17 16:22:29.303433,0,0,15,0,0,1,79,80,130,110,67,192.37,176,47.00,-16.00,-1044.00
2024-05-17 16:22:29.490172,0,0,15,0,0,1,79,80,128,110,67,192.41,176,48.00,-13.00,-1021.00
2024-05-17 16:22:29.506357,0,0,15,0,0,1,79,80,126,110,67,192.37,176,-4.00,8.00,-985.00
2024-05-17 16:22:29.693449,0,0,15,0,0,1,79,80,125,100,67,192.32,176,0.00,-1.00,-984.00
2024-05-17 16:22:29.714795,0,0,15,0,0,1,79,80,124,100,67,192.34,176,-7.00,26.00,-971.00
2024-05-17 16:22:29.763690,0,0,15,0,0,1,79,80,124,100,67,192.32,177,104.00,-27.00,-1108.00
2024-05-17 16:22:29.863333,0,0,15,0,0,1,79,80,122,100,67,192.32,177,40.00,6.00,-1067.00
2024-05-17 16:22:29.969052,0,0,15,0,0,1,79,80,125,100,67,192.33,177,34.00,6.00,-991.00
2024-05-17 16:22:30.067606,0,0,15,0,0,1,78,81,123,100,67,192.27,177,-10.00,12.00,-1056.00
2024-05-17 16:22:30.205629,0,0,15,0,0,0,78,81,124,100,67,192.24,177,-41.00,18.00,-897.00
2024-05-17 16:22:30.271234,0,0,15,0,0,0,78,81,124,100,67,192.25,177,-9.00,27.00,-1047.00
2024-05-17 16:22:30.410584,0,0,15,0,0,0,78,81,123,100,67,192.25,177,12.00,-10.00,-984.00
2024-05-17 16:22:30.475618,0,0,15,0,0,0,78,81,123,100,67,192.23,177,-41.00,27.00,-952.00
2024-05-17 16:22:30.616763,0,0,15,0,0,0,78,81,124,100,67,192.30,177,-41.00,23.00,-1006.00
2024-05-17 16:22:30.679189,0,0,15,0,0,0,78,81,123,100,67,192.29,177,13.00,-17.00,-1033.00
2024-05-17 16:22:30.781954,0,0,15,0,0,0,78,81,126,100,67,192.26,178,32.00,6.00,-1066.00
2024-05-17 16:22:30.924008,0,0,15,0,0,0,78,81,126,100,67,192.26,178,34.00,-5.00,-966.00
2024-05-17 16:22:30.985212,0,0,15,0,0,0,78,81,126,100,67,192.24,178,18.00,-20.00,-1106.00
2024-05-17 16:22:31.129768,0,0,15,0,0,0,78,81,124,100,67,192.31,178,-83.00,15.00,-901.00
2024-05-17 16:22:31.189447,0,0,15,0,0,0,78,81,124,100,67,192.31,178,-3.00,-29.00,-936.00
2024-05-17 16:22:31.331961,0,0,15,0,0,0,78,81,124,100,67,192.32,178,9.00,-7.00,-959.00
2024-05-17 16:22:31.393657,0,0,15,0,0,0,78,81,124,100,67,192.32,178,19.00,-5.00,-1003.00
2024-05-17 16:22:31.536747,0,0,15,0,0,0,78,81,122,100,67,192.31,178,48.00,-7.00,-1013.00
2024-05-17 16:22:31.597141,0,0,15,0,0,0,78,81,122,100,67,192.29,178,17.00,43.00,-1067.00
2024-05-17 16:22:31.741693,1,0,15,0,0,0,78,81,121,100,67,192.33,179,58.00,-2.00,-1020.00
2024-05-17 16:22:31.802181,1,0,15,0,0,0,78,81,121,100,67,192.25,179,14.00,-26.00,-974.00
2024-05-17 16:22:31.918629,0,0,15,0,0,0,78,81,120,100,67,192.22,179,-63.00,23.00,-1001.00
2024-05-17 16:22:32.006152,-1,0,15,-1,0,0,78,81,122,100,67,192.22,179,-1.00,15.00,-965.00
2024-05-17 16:22:32.163428,-5,0,15,0,0,0,78,81,121,100,67,192.22,179,27.00,-14.00,-1061.00
2024-05-17 16:22:32.209130,-8,0,15,0,0,0,78,81,122,100,67,192.20,179,23.00,-14.00,-974.00
2024-05-17 16:22:32.355816,-8,0,15,1,0,0,78,81,122,100,67,192.19,179,-10.00,21.00,-989.00
2024-05-17 16:22:32.415226,-8,0,15,4,0,0,78,81,121,100,67,192.26,179,58.00,-25.00,-1041.00
2024-05-17 16:22:32.514973,-7,0,15,5,1,0,78,81,121,100,67,192.14,179,-38.00,-3.00,-1013.00
2024-05-17 16:22:32.671342,-6,0,15,5,1,0,78,81,120,100,67,192.16,179,-74.00,29.00,-1040.00
2024-05-17 16:22:32.719079,-6,0,15,6,1,0,78,81,120,100,67,192.15,180,-42.00,10.00,-996.00
2024-05-17 16:22:32.820891,-6,-1,15,7,2,0,78,81,121,100,67,192.12,180,-10.00,-2.00,-1058.00
2024-05-17 16:22:32.970230,-4,0,15,7,1,0,78,81,118,100,67,192.14,180,-54.00,-10.00,-920.00
2024-05-17 16:22:33.025053,-3,0,15,7,2,0,78,81,120,100,67,192.14,180,-26.00,10.00,-1041.00
2024-05-17 16:22:33.126875,0,0,15,8,1,0,78,81,120,100,67,192.15,180,24.00,-2.00,-1078.00
2024-05-17 16:22:33.279577,4,0,15,7,1,0,78,81,123,100,67,192.13,180,-31.00,5.00,-976.00
2024-05-17 16:22:33.330942,5,0,15,6,1,0,78,81,122,100,67,192.14,180,-74.00,18.00,-1011.00
2024-05-17 16:22:33.482233,4,0,15,4,1,0,78,81,122,100,67,192.37,180,11.00,4.00,-1006.00
2024-05-17 16:22:33.535532,3,0,15,3,1,0,78,81,123,100,67,192.31,180,-86.00,40.00,-902.00
2024-05-17 16:22:33.586132,1,0,15,2,0,0,78,81,120,100,67,192.25,180,-97.00,39.00,-1004.00
2024-05-17 16:22:33.688394,0,0,15,2,0,0,78,81,119,100,67,192.23,181,-52.00,37.00,-1035.00
2024-05-17 16:22:33.790603,0,-2,15,2,0,0,78,81,121,100,67,192.22,181,-22.00,8.00,-970.00
2024-05-17 16:22:33.994787,0,-2,15,2,0,0,78,81,121,100,67,192.25,181,-13.00,-9.00,-939.00
2024-05-17 16:22:33.998734,0,-1,15,2,0,0,78,81,122,100,67,192.24,181,-30.00,40.00,-1033.00
2024-05-17 16:22:34.096789,-1,-2,15,1,0,0,78,81,122,100,67,192.25,181,3.00,22.00,-1000.00
2024-05-17 16:22:34.199247,-1,-1,15,2,0,0,78,81,122,100,67,192.21,181,-32.00,9.00,-1035.00
2024-05-17 16:22:34.301342,0,-1,15,2,0,0,78,81,123,100,67,192.21,181,17.00,1.00,-1030.00
2024-05-17 16:22:34.404179,0,-1,15,2,0,0,78,81,124,100,67,192.27,181,-68.00,16.00,-913.00
2024-05-17 16:22:34.504203,0,0,15,2,0,0,78,81,124,100,67,192.28,181,56.00,1.00,-1113.00
2024-05-17 16:22:34.608607,2,0,15,2,0,0,78,81,123,100,67,192.30,181,-4.00,35.00,-985.00
2024-05-17 16:22:34.708121,4,0,15,1,0,0,78,81,127,100,67,192.32,182,-67.00,32.00,-1005.00
2024-05-17 16:22:34.810137,2,0,15,0,0,0,78,81,128,100,67,192.30,182,20.00,0.00,-929.00
2024-05-17 16:22:34.915830,1,0,15,0,0,0,78,81,125,100,67,192.26,182,24.00,0.00,-938.00
2024-05-17 16:22:35.014272,0,0,15,0,0,0,78,81,124,100,67,192.34,182,-57.00,8.00,-970.00
2024-05-17 16:22:35.120874,0,0,15,0,0,0,78,80,124,100,67,192.27,182,29.00,-5.00,-979.00
2024-05-17 16:22:35.218548,0,0,15,0,0,0,78,80,120,100,67,192.28,182,0.00,16.00,-1006.00
2024-05-17 16:22:35.325836,0,0,15,0,0,0,78,80,121,100,67,192.27,182,23.00,9.00,-1152.00
2024-05-17 16:22:35.422276,1,0,15,0,0,0,78,80,124,100,67,192.31,182,15.00,-5.00,-1044.00
2024-05-17 16:22:35.532296,1,0,15,0,0,0,78,80,126,100,67,192.27,182,-54.00,47.00,-928.00
2024-05-17 16:22:35.626305,1,-1,15,0,0,0,78,80,125,100,67,192.31,182,78.00,-4.00,-1008.00
2024-05-17 16:22:35.735163,1,-1,15,0,0,0,78,80,125,100,67,192.25,183,4.00,30.00,-970.00
2024-05-17 16:22:35.830249,0,-1,15,0,0,0,78,80,124,100,67,192.29,183,82.00,-1.00,-1127.00
2024-05-17 16:22:35.939967,0,-2,15,0,0,0,78,80,127,100,67,192.33,183,-37.00,32.00,-985.00
2024-05-17 16:22:36.034710,-1,-2,15,0,0,0,78,80,129,100,67,192.31,183,10.00,13.00,-1048.00
2024-05-17 16:22:36.136642,-1,-1,15,0,0,0,79,80,129,100,67,192.31,183,31.00,0.00,-1079.00
2024-05-17 16:22:36.254868,-1,-1,15,0,0,0,79,80,131,100,67,192.40,183,24.00,10.00,-1001.00
2024-05-17 16:22:36.344340,0,-1,15,0,0,0,79,80,129,100,67,192.41,183,-15.00,30.00,-899.00
2024-05-17 16:22:36.442536,0,-1,15,0,0,0,79,80,130,100,67,192.35,183,-11.00,0.00,-939.00
2024-05-17 16:22:36.554708,0,-1,15,0,0,0,79,80,133,100,67,192.40,183,41.00,-14.00,-1017.00
2024-05-17 16:22:36.647696,0,-1,15,0,0,0,79,80,134,100,67,192.31,183,35.00,-10.00,-936.00
2024-05-17 16:22:36.759587,1,0,15,0,0,0,79,80,138,110,67,192.33,184,-21.00,-15.00,-882.00
2024-05-17 16:22:36.850140,1,-1,15,0,0,0,79,80,136,110,67,192.32,184,30.00,-5.00,-946.00
2024-05-17 16:22:36.964403,0,-1,15,0,0,0,79,80,135,110,67,192.36,184,49.00,-15.00,-965.00
2024-05-17 16:22:37.054088,4,0,15,0,0,0,79,80,137,110,67,192.41,184,4.00,18.00,-1006.00
2024-05-17 16:22:37.156498,8,0,15,-1,0,0,78,80,137,110,67,192.36,184,17.00,11.00,-1009.00
2024-05-17 16:22:37.271053,8,-1,15,-2,0,0,78,80,137,110,67,192.32,184,11.00,24.00,-957.00
2024-05-17 16:22:37.360082,8,-1,15,-4,0,1,78,80,136,110,67,192.31,184,29.00,25.00,-1037.00
2024-05-17 16:22:37.479096,7,-2,15,-5,0,1,78,80,134,110,67,192.23,184,42.00,-15.00,-1010.00
2024-05-17 16:22:37.564048,7,-2,15,-5,-1,0,78,80,132,100,67,192.31,184,-10.00,-1.00,-960.00
2024-05-17 16:22:37.680624,6,-2,15,-6,-1,0,78,80,131,100,67,192.22,184,80.00,3.00,-1009.00
2024-05-17 16:22:37.718579,5,-2,15,-7,-2,0,78,80,130,100,67,192.29,185,14.00,44.00,-996.00
2024-05-17 16:22:37.818969,3,-3,15,-7,-2,0,78,80,131,100,67,192.19,185,90.00,-6.00,-942.00
2024-05-17 16:22:37.989902,0,-2,15,-7,-2,0,78,80,126,100,67,192.20,185,52.00,4.00,-1024.00
2024-05-17 16:22:38.023149,-2,-2,15,-6,-2,0,78,80,129,100,67,192.24,185,61.00,9.00,-946.00
2024-05-17 16:22:38.194838,-4,-1,15,-5,-2,0,78,81,126,100,67,192.19,185,152.00,-3.00,-1026.00
2024-05-17 16:22:38.226758,-4,-1,15,-4,-1,0,78,81,126,100,67,192.25,185,36.00,-9.00,-1006.00
2024-05-17 16:22:38.399788,-2,-2,15,-3,-1,0,78,81,126,100,67,192.25,185,-5.00,33.00,-958.00
2024-05-17 16:22:38.435559,-1,-2,15,-2,-1,0,78,81,125,100,67,192.21,185,83.00,-6.00,-1188.00
2024-05-17 16:22:38.535893,0,-2,15,-2,-1,0,78,81,122,100,67,192.21,185,19.00,44.00,-1002.00
2024-05-17 16:22:38.634863,0,-1,15,-1,-1,0,78,81,121,100,67,192.23,185,-17.00,6.00,-934.00
2024-05-17 16:22:38.807021,1,-1,15,-2,-1,0,78,81,121,100,67,192.24,186,-11.00,29.00,-1009.00
2024-05-17 16:22:38.838700,0,-2,15,-2,-1,0,78,81,119,100,67,192.22,186,39.00,4.00,-970.00
2024-05-17 16:22:39.011790,0,-3,15,-1,-1,0,78,81,120,100,67,192.20,186,-20.00,35.00,-923.00
2024-05-17 16:22:39.042737,-1,-3,15,-1,-1,0,78,81,119,100,67,192.24,186,-32.00,38.00,-981.00
2024-05-17 16:22:39.144668,-1,-3,15,-1,-1,0,78,81,118,100,67,192.24,186,90.00,-7.00,-1118.00
2024-05-17 16:22:39.318938,-1,-2,15,0,-1,0,78,81,115,100,67,192.14,186,-3.00,24.00,-1033.00
2024-05-17 16:22:39.348854,0,0,15,0,-1,0,78,81,113,90,67,192.18,186,46.00,-2.00,-948.00
2024-05-17 16:22:39.524151,0,3,15,0,-1,0,78,81,114,90,66,192.17,186,-3.00,8.00,-1037.00
2024-05-17 16:22:39.552700,0,0,15,0,0,0,78,81,110,90,66,192.13,186,4.00,43.00,-934.00
2024-05-17 16:22:39.734384,-2,-1,15,0,0,0,78,81,110,90,66,192.14,186,18.00,-2.00,-1013.00
2024-05-17 16:22:39.756653,-3,-2,15,0,0,0,78,81,109,90,66,192.06,187,36.00,26.00,-991.00
2024-05-17 16:22:39.933773,-2,-2,15,0,0,0,78,81,106,90,66,192.09,187,22.00,17.00,-1079.00
2024-05-17 16:22:39.960694,-1,-2,15,0,0,0,78,81,104,90,66,192.05,187,-61.00,57.00,-1041.00
2024-05-17 16:22:40.138208,0,-3,15,0,0,0,78,81,104,90,66,192.13,187,20.00,7.00,-1087.00
2024-05-17 16:22:40.164701,0,-5,15,1,0,0,78,81,101,90,66,191.99,187,-32.00,5.00,-899.00
2024-05-17 16:22:40.343109,0,-4,15,0,0,0,78,81,100,90,66,192.07,187,-66.00,57.00,-1019.00
2024-05-17 16:22:40.368875,0,-2,15,0,-1,0,78,81,99,80,66,192.01,187,-6.00,36.00,-967.00
2024-05-17 16:22:40.548233,0,-1,15,0,-1,0,78,81,101,80,66,191.96,187,-15.00,29.00,-1120.00
2024-05-17 16:22:40.572735,0,0,15,1,-1,0,78,81,99,80,66,192.02,187,-23.00,22.00,-1097.00
2024-05-17 16:22:40.754713,0,0,15,0,-1,-1,78,81,101,80,66,191.97,187,16.00,2.00,-977.00
2024-05-17 16:22:40.777224,0,0,15,1,-1,-1,78,81,104,80,66,192.00,188,-41.00,32.00,-888.00
2024-05-17 16:22:40.959450,1,2,15,0,0,0,78,81,106,90,66,192.02,188,-13.00,45.00,-1096.00
2024-05-17 16:22:40.980686,0,0,15,0,0,-1,78,81,106,90,66,192.06,188,-33.00,48.00,-939.00
2024-05-17 16:22:41.162777,0,0,15,0,0,-1,78,81,107,90,66,192.04,188,33.00,-13.00,-1048.00
2024-05-17 16:22:41.185281,0,0,15,0,0,-1,79,80,109,90,66,192.15,188,13.00,0.00,-1007.00
2024-05-17 16:22:41.367732,0,0,15,0,0,-1,79,80,111,90,66,192.12,188,-33.00,13.00,-895.00
2024-05-17 16:22:41.367913,0,0,15,0,0,-1,79,80,113,90,66,192.08,188,17.00,-14.00,-1073.00
2024-05-17 16:22:41.440046,0,-1,15,0,0,-1,79,80,115,90,66,192.09,188,-27.00,33.00,-972.00
2024-05-17 16:22:41.571843,0,-1,15,0,0,-1,79,80,115,90,66,192.18,188,83.00,12.00,-987.00
2024-05-17 16:22:41.643933,0,0,15,0,0,0,79,80,117,90,66,192.12,188,41.00,-8.00,-1010.00
2024-05-17 16:22:41.776781,0,-1,15,0,0,0,79,80,119,100,66,192.10,189,26.00,-9.00,-1084.00
2024-05-17 16:22:41.847812,0,-1,15,0,0,0,79,80,121,100,66,192.14,189,55.00,9.00,-1081.00
2024-05-17 16:22:41.983772,0,0,15,0,0,-1,79,80,121,100,66,192.14,189,1.00,2.00,-894.00
2024-05-17 16:22:42.052052,0,0,15,0,0,0,79,80,121,100,66,192.20,189,73.00,-17.00,-966.00
2024-05-17 16:22:42.153808,0,0,15,0,0,0,78,80,120,100,66,192.25,189,-31.00,-10.00,-965.00
2024-05-17 16:22:42.288630,0,0,15,0,0,0,78,80,120,100,66,192.25,189,-2.00,3.00,-976.00
2024-05-17 16:22:42.357827,0,-4,15,0,0,0,78,80,122,100,66,192.19,189,-24.00,16.00,-898.00
2024-05-17 16:22:42.493380,0,-8,15,0,0,0,78,80,122,100,65,192.14,189,58.00,6.00,-1038.00
2024-05-17 16:22:42.565265,0,-8,15,0,-1,0,78,80,122,100,65,192.12,189,18.00,25.00,-991.00
2024-05-17 16:22:42.663753,0,-7,15,1,-2,0,78,80,120,100,65,192.12,189,-12.00,30.00,-1034.00
2024-05-17 16:22:42.806318,0,-4,15,1,-3,0,78,80,121,100,65,192.17,190,13.00,51.00,-1106.00
2024-05-17 16:22:42.867875,0,-1,15,1,-3,0,78,80,120,100,65,192.16,190,-28.00,64.00,-945.00
2024-05-17 16:22:43.007752,0,0,15,0,-3,0,78,80,120,100,65,192.12,190,21.00,0.00,-941.00
2024-05-17 16:22:43.071710,0,0,15,0,-3,0,78,80,119,100,65,192.19,190,3.00,21.00,-970.00
2024-05-17 16:22:43.173875,0,0,15,0,-2,0,79,80,118,100,65,192.15,190,32.00,28.00,-1014.00
2024-05-17 16:22:43.312644,0,-1,15,0,-2,0,79,80,118,100,65,192.17,190,-71.00,51.00,-1014.00
2024-05-17 16:22:43.378213,0,-1,15,1,-2,0,79,80,118,100,65,192.20,190,14.00,46.00,-993.00
2024-05-17 16:22:43.517439,0,-1,15,0,-2,0,79,80,117,100,65,192.14,190,32.00,4.00,-1039.00
2024-05-17 16:22:43.581752,0,-1,15,0,-2,0,79,80,118,100,65,192.06,190,13.00,46.00,-1034.00
2024-05-17 16:22:43.722257,0,-1,15,0,-2,0,79,80,118,100,65,192.16,190,-35.00,31.00,-934.00
2024-05-17 16:22:43.785894,0,-1,15,0,-2,0,79,80,120,100,65,192.14,191,29.00,38.00,-982.00
2024-05-17 16:22:43.927044,2,-1,15,0,-2,0,79,80,121,100,65,192.13,191,49.00,24.00,-1065.00
2024-05-17 16:22:43.990836,2,-1,15,0,-2,0,79,80,120,100,65,192.14,191,-38.00,48.00,-920.00
2024-05-17 16:22:44.138393,1,-1,15,0,-2,0,79,80,119,100,65,192.13,191,19.00,26.00,-1020.00
2024-05-17 16:22:44.193902,0,-1,15,0,-2,0,78,80,119,100,65,192.11,191,18.00,15.00,-1018.00
2024-05-17 16:22:44.295661,0,0,15,0,-2,0,78,80,120,100,65,192.21,191,-42.00,56.00,-1005.00
2024-05-17 16:22:44.438985,0,3,15,0,-1,0,78,80,120,100,65,192.18,191,0.00,36.00,-905.00
2024-05-17 16:22:44.499964,0,1,15,0,0,0,78,80,120,100,65,192.16,191,-9.00,31.00,-1057.00
2024-05-17 16:22:44.643928,0,0,15,0,0,0,78,80,119,100,65,192.17,191,-30.00,10.00,-931.00
2024-05-17 16:22:44.703921,0,0,15,0,0,0,78,80,118,100,65,192.16,191,60.00,4.00,-1018.00
2024-05-17 16:22:44.805915,0,0,15,0,0,0,78,80,118,100,65,192.17,192,122.00,-46.00,-1024.00
2024-05-17 16:22:44.857910,0,0,15,0,0,0,78,80,117,100,65,192.15,192,64.00,-26.00,-975.00
2024-05-17 16:22:45.053435,0,0,15,0,0,0,78,80,117,100,65,192.13,192,-3.00,18.00,-1006.00
2024-05-17 16:22:45.061145,0,0,15,0,0,0,78,80,117,100,65,192.15,192,19.00,16.00,-949.00
2024-05-17 16:22:45.168319,0,0,15,0,0,0,77,81,117,100,65,192.20,192,13.00,-6.00,-986.00
2024-05-17 16:22:45.266000,0,-1,15,0,0,0,77,81,118,100,65,192.21,192,43.00,-7.00,-993.00
2024-05-17 16:22:45.463032,0,-1,15,0,0,0,77,81,119,100,65,192.12,192,60.00,-20.00,-1005.00
2024-05-17 16:22:45.469069,0,-1,15,0,0,0,77,81,120,100,65,192.09,192,-24.00,22.00,-965.00
2024-05-17 16:22:45.667972,0,-1,15,0,0,0,77,81,120,100,65,192.13,192,66.00,-15.00,-1015.00
2024-05-17 16:22:45.672577,0,-1,15,0,0,0,77,81,121,100,65,192.14,192,49.00,2.00,-1043.00
2024-05-17 16:22:45.874735,0,-1,15,0,0,0,77,81,119,100,65,192.17,193,26.00,-5.00,-983.00
2024-05-17 16:22:45.876641,0,-1,15,0,0,0,77,81,117,100,65,192.18,193,98.00,-30.00,-1061.00
2024-05-17 16:22:45.978506,0,-1,15,0,0,0,77,81,117,100,65,192.15,193,-40.00,40.00,-935.00
2024-05-17 16:22:46.080635,0,-1,15,0,0,0,77,81,117,100,65,192.19,193,34.00,0.00,-1027.00
2024-05-17 16:22:46.183141,0,-1,15,0,0,0,78,81,118,100,65,192.17,193,46.00,23.00,-1051.00
2024-05-17 16:22:46.285511,0,-1,15,0,0,0,78,81,118,100,65,192.16,193,-6.00,50.00,-1047.00
2024-05-17 16:22:46.387365,0,-1,15,0,0,0,78,81,118,100,65,192.19,193,-13.00,42.00,-1021.00
2024-05-17 16:22:46.488628,0,-1,15,0,0,0,78,81,118,100,65,192.14,193,-6.00,25.00,-994.00
2024-05-17 16:22:46.692231,0,-1,15,0,0,0,78,81,118,100,65,192.16,193,63.00,-3.00,-1086.00
2024-05-17 16:22:46.692312,0,0,15,0,0,0,78,81,120,100,65,192.18,193,88.00,-20.00,-1033.00
2024-05-17 16:22:46.795434,1,8,15,0,0,0,78,81,121,100,65,192.16,194,10.00,16.00,-997.00
2024-05-17 16:22:46.896447,1,7,15,0,2,0,78,81,118,100,65,192.13,194,57.00,-3.00,-1103.00
2024-05-17 16:22:46.999626,0,3,15,0,3,0,78,81,120,90,65,192.14,194,60.00,-34.00,-1063.00
2024-05-17 16:22:47.102128,0,0,15,-1,3,0,78,81,117,90,65,192.21,194,-8.00,-26.00,-1002.00
2024-05-17 16:22:47.203349,0,-2,15,-1,3,0,78,80,116,90,65,192.20,194,30.00,-16.00,-1032.00
2024-05-17 16:22:47.306145,0,-1,15,-1,2,0,78,80,116,90,65,192.16,194,-59.00,-4.00,-992.00
2024-05-17 16:22:47.406543,0,0,15,0,2,0,78,80,117,90,65,192.16,194,47.00,-37.00,-1025.00
2024-05-17 16:22:47.508492,0,0,15,0,2,0,78,80,119,90,64,192.11,194,55.00,-24.00,-1074.00
2024-05-17 16:22:47.613447,0,0,15,0,2,0,78,80,117,100,64,192.15,194,37.00,-8.00,-1028.00
2024-05-17 16:22:47.712339,0,0,15,0,2,0,78,80,118,100,64,192.15,195,23.00,-9.00,-971.00
2024-05-17 16:22:47.818161,-1,0,15,0,2,0,78,80,121,100,64,192.13,195,-57.00,22.00,-960.00
2024-05-17 16:22:47.916759,-1,0,15,0,2,0,78,80,121,100,64,192.13,195,-4.00,2.00,-1061.00
2024-05-17 16:22:48.022988,0,0,15,0,2,0,78,80,120,100,64,192.12,195,-31.00,-8.00,-1003.00
2024-05-17 16:22:48.120420,0,0,15,0,2,0,78,80,119,100,64,192.16,195,-51.00,7.00,-939.00
2024-05-17 16:22:48.227834,-1,0,15,0,2,0,77,80,121,100,64,192.20,195,-1.00,-21.00,-939.00
2024-05-17 16:22:48.325594,-1,0,15,0,2,0,77,80,121,100,64,192.14,195,-1.00,-26.00,-971.00
2024-05-17 16:22:48.432572,0,-2,15,0,2,0,77,80,123,100,64,192.17,195,-34.00,15.00,-889.00
2024-05-17 16:22:48.529561,0,-5,15,0,1,0,77,80,121,100,64,192.15,195,57.00,-34.00,-1114.00
2024-05-17 16:22:48.637266,0,-3,15,0,0,0,77,80,122,100,64,192.13,195,-6.00,15.00,-1006.00
2024-05-17 16:22:48.733770,0,-1,15,0,0,0,77,80,121,100,64,192.19,196,66.00,-31.00,-1037.00
2024-05-17 16:22:48.784573,0,0,15,0,0,0,77,80,121,100,64,192.10,196,-13.00,22.00,-994.00
2024-05-17 16:22:48.946742,0,0,15,0,0,0,77,80,126,100,64,192.17,196,101.00,-16.00,-1147.00
2024-05-17 16:22:48.988493,0,0,15,0,0,0,77,80,127,100,64,192.14,196,36.00,-2.00,-921.00
2024-05-17 16:22:49.149562,0,0,15,0,0,0,77,80,126,100,64,192.22,196,-41.00,8.00,-886.00
2024-05-17 16:22:49.192513,0,0,15,0,0,0,78,80,128,100,64,192.14,196,1.00,-6.00,-953.00
2024-05-17 16:22:49.356831,0,0,15,0,0,0,78,80,129,100,64,192.24,196,-40.00,36.00,-981.00
2024-05-17 16:22:49.396482,-1,-1,15,0,0,0,78,80,126,100,64,192.21,196,14.00,-15.00,-1013.00
2024-05-17 16:22:49.559481,0,0,15,0,0,0,78,80,125,100,64,192.18,196,-21.00,25.00,-982.00
2024-05-17 16:22:49.600520,0,0,15,0,0,0,78,80,126,100,64,192.19,196,-4.00,17.00,-873.00
2024-05-17 16:22:49.763875,0,0,15,0,0,0,78,80,125,100,64,192.19,197,-48.00,50.00,-1036.00
2024-05-17 16:22:49.804412,-1,-1,15,0,0,0,78,80,122,100,64,192.19,197,8.00,16.00,-1009.00
2024-05-17 16:22:49.968758,-1,-1,15,0,0,1,78,80,121,100,64,192.19,197,-21.00,19.00,-953.00
2024-05-17 16:22:50.009155,0,0,15,0,0,0,78,80,122,100,64,192.21,197,-8.00,33.00,-1060.00
2024-05-17 16:22:50.175461,0,0,15,0,0,0,78,80,120,100,64,192.22,197,2.00,10.00,-1132.00
2024-05-17 16:22:50.212354,0,0,15,1,0,0,77,80,118,100,64,192.16,197,36.00,-15.00,-980.00
2024-05-17 16:22:50.380207,1,1,15,0,0,0,77,80,122,100,64,192.14,197,-2.00,18.00,-906.00
2024-05-17 16:22:50.418078,1,0,15,0,0,0,77,80,120,100,64,192.15,197,104.00,-14.00,-1088.00
2024-05-17 16:22:50.519723,2,0,15,0,0,0,77,80,121,100,64,192.13,197,-57.00,22.00,-897.00
2024-05-17 16:22:50.620584,1,0,15,0,0,0,77,80,115,100,64,192.16,197,-12.00,7.00,-957.00
2024-05-17 16:22:50.722195,0,0,15,0,0,0,77,80,119,100,64,192.15,198,33.00,-28.00,-1040.00
2024-05-17 16:22:50.824231,-1,0,18,0,0,0,77,80,118,90,64,192.20,198,19.00,-43.00,-1058.00
2024-05-17 16:22:51.005215,0,0,24,0,0,0,77,80,118,90,64,192.15,198,39.00,1.00,-1028.00
2024-05-17 16:22:51.028472,0,0,29,0,0,0,77,80,116,90,64,192.17,198,18.00,35.00,-1046.00
2024-05-17 16:22:51.130181,0,0,35,0,0,0,77,80,115,90,64,192.19,198,34.00,26.00,-996.00
2024-05-17 16:22:51.299694,0,0,41,0,0,0,78,80,115,90,64,192.21,198,-3.00,18.00,-1003.00
2024-05-17 16:22:51.335430,0,0,47,0,0,0,78,80,118,90,64,192.15,198,-29.00,8.00,-1031.00
2024-05-17 16:22:51.506623,-1,0,53,0,0,0,78,80,119,100,64,192.15,198,-14.00,6.00,-1000.00
2024-05-17 16:22:51.538180,0,0,59,0,0,0,78,80,119,100,64,192.16,198,3.00,-15.00,-903.00
2024-05-17 16:22:51.711284,0,0,65,0,0,0,78,80,119,100,64,192.20,198,73.00,-12.00,-1000.00
2024-05-17 16:22:51.742213,0,0,71,0,0,0,78,80,114,100,64,192.15,199,-5.00,5.00,-1007.00
2024-05-17 16:22:51.918501,0,0,77,0,0,0,78,80,114,100,64,192.12,199,62.00,3.00,-1029.00
2024-05-17 16:22:51.946078,1,0,83,0,0,0,78,80,115,100,64,192.12,199,70.00,12.00,-1027.00
2024-05-17 16:22:52.119974,1,1,89,0,0,0,78,80,115,90,64,192.13,199,25.00,-8.00,-1114.00
2024-05-17 16:22:52.150099,0,0,95,0,0,0,78,80,111,90,64,192.12,199,-25.00,14.00,-931.00
2024-05-17 16:22:52.326558,0,0,101,0,0,0,78,80,110,90,64,192.13,199,66.00,7.00,-1020.00
2024-05-17 16:22:52.354229,0,0,107,0,0,0,78,80,109,90,64,192.01,199,72.00,-29.00,-1059.00
2024-05-17 16:22:52.530933,0,0,113,0,0,0,78,80,108,90,64,192.07,199,36.00,1.00,-965.00
2024-05-17 16:22:52.558108,0,0,119,0,0,0,78,80,106,90,64,192.08,199,-37.00,16.00,-1009.00
2024-05-17 16:22:52.733345,0,0,125,0,0,0,78,80,108,90,64,191.98,199,-56.00,12.00,-1012.00
2024-05-17 16:22:52.764409,-1,0,131,0,0,0,78,80,106,90,64,191.98,200,86.00,-5.00,-1037.00
2024-05-17 16:22:52.864445,0,0,137,0,0,0,78,80,105,90,64,192.04,200,-16.00,4.00,-978.00
2024-05-17 16:22:52.915408,0,0,143,0,0,0,78,80,106,90,64,192.00,200,113.00,-25.00,-1048.00
2024-05-17 16:22:53.040646,0,0,150,0,0,0,78,80,103,90,64,192.05,200,51.00,-19.00,-1078.00
2024-05-17 16:22:53.119271,0,0,156,0,0,0,78,80,105,90,64,191.94,200,16.00,-1.00,-1003.00
2024-05-17 16:22:53.221346,0,0,162,0,0,0,78,81,105,90,64,192.03,200,78.00,-13.00,-1118.00
2024-05-17 16:22:53.347745,0,0,168,0,0,-1,78,81,108,90,64,192.02,200,16.00,9.00,-1001.00
2024-05-17 16:22:53.425377,0,0,174,0,0,-1,78,81,110,90,63,192.06,200,45.00,-8.00,-947.00
2024-05-17 16:22:53.554183,0,0,-179,0,0,0,78,81,111,90,63,192.03,200,-53.00,2.00,-856.00
2024-05-17 16:22:53.629045,0,0,-173,0,0,0,78,81,109,90,63,192.10,200,21.00,-15.00,-957.00
2024-05-17 16:22:53.757561,0,0,-167,0,0,0,78,81,110,90,63,192.01,201,55.00,-2.00,-1098.00
2024-05-17 16:22:53.833841,0,0,-160,0,0,0,78,81,110,90,63,192.07,201,47.00,-5.00,-1040.00
2024-05-17 16:22:53.962853,0,0,-154,0,0,0,78,81,110,90,63,191.98,201,-29.00,33.00,-1020.00
2024-05-17 16:22:54.039433,-1,0,-148,0,0,0,78,81,110,90,63,192.10,201,-41.00,26.00,-973.00
2024-05-17 16:22:54.139490,-1,-1,-141,0,0,0,78,81,110,90,63,192.03,201,16.00,-9.00,-967.00
2024-05-17 16:22:54.269536,-1,-1,-135,0,0,0,77,81,111,90,63,192.09,201,-73.00,34.00,-952.00
2024-05-17 16:22:54.343926,-1,-1,-129,0,0,0,77,81,113,90,63,192.03,201,71.00,-21.00,-1036.00
2024-05-17 16:22:54.476942,0,-1,-123,0,0,0,77,81,113,90,63,192.05,201,45.00,-13.00,-987.00
2024-05-17 16:22:54.548439,0,0,-118,0,0,0,77,81,114,100,63,192.04,201,9.00,4.00,-976.00
2024-05-17 16:22:54.679287,0,0,-112,0,0,0,77,81,115,100,63,192.10,201,-21.00,37.00,-1018.00
2024-05-17 16:22:54.756338,0,0,-106,0,0,0,77,81,115,100,63,192.06,202,55.00,-25.00,-966.00
2024-05-17 16:22:54.854134,0,0,-100,0,0,0,77,81,115,100,63,192.08,202,-49.00,5.00,-1034.00
2024-05-17 16:22:54.986020,0,0,-95,0,0,0,77,81,115,100,63,192.14,202,-18.00,7.00,-1039.00
2024-05-17 16:22:55.058108,-1,0,-89,0,0,0,77,81,116,100,63,192.04,202,1.00,26.00,-1010.00
2024-05-17 16:22:55.191068,-1,0,-83,0,0,0,77,81,115,100,63,192.17,202,55.00,-3.00,-1023.00
2024-05-17 16:22:55.262137,-1,0,-77,0,0,0,78,80,114,100,63,192.09,202,-43.00,19.00,-994.00
2024-05-17 16:22:55.395811,-1,0,-71,0,0,1,78,80,113,100,63,192.10,202,-67.00,37.00,-1020.00
2024-05-17 16:22:55.466164,-2,-1,-65,0,0,1,78,80,113,90,63,192.13,202,44.00,-7.00,-1077.00
2024-05-17 16:22:55.604408,-2,-1,-59,0,0,0,78,80,113,90,63,192.12,202,-23.00,26.00,-1043.00
2024-05-17 16:22:55.671790,0,-1,-53,0,0,0,78,80,115,90,63,192.13,202,96.00,-21.00,-1029.00
2024-05-17 16:22:55.772122,0,0,-47,0,0,0,78,80,113,90,63,192.20,203,92.00,-42.00,-1050.00
2024-05-17 16:22:55.907722,0,0,-41,0,-1,0,78,80,115,90,63,192.12,203,-71.00,37.00,-1018.00
2024-05-17 16:22:55.925312,0,0,-34,0,0,-1,78,80,117,100,63,192.14,203,-23.00,45.00,-949.00
2024-05-17 16:22:56.115001,0,0,-28,0,0,-1,78,80,122,100,63,192.19,203,-21.00,6.00,-1069.00
2024-05-17 16:22:56.129002,-1,0,-22,0,0,-1,78,80,124,100,63,192.18,203,45.00,-10.00,-921.00
2024-05-17 16:22:56.282375,0,0,-17,0,0,0,78,81,125,100,63,192.26,203,23.00,-7.00,-925.00
2024-05-17 16:22:56.419843,0,0,-11,0,0,0,78,81,125,100,63,192.24,203,0.00,4.00,-856.00
2024-05-17 16:22:56.485985,0,0,-5,0,0,0,78,81,125,100,63,192.18,203,-20.00,-5.00,-984.00
2024-05-17 16:22:56.537297,0,0,0,0,0,0,78,81,125,100,63,192.20,203,0.00,23.00,-1016.00
2024-05-17 16:22:56.727595,0,0,3,0,0,0,78,81,126,100,63,192.21,203,26.00,19.00,-1058.00
2024-05-17 16:22:56.741401,0,0,6,0,0,0,78,81,123,100,63,192.18,204,-13.00,-13.00,-860.00
2024-05-17 16:22:56.931786,0,0,8,0,0,0,78,81,122,100,63,192.22,204,0.00,35.00,-969.00
2024-05-17 16:22:56.945205,0,0,10,0,0,0,78,81,124,100,63,192.23,204,22.00,2.00,-933.00
2024-05-17 16:22:57.136502,-1,-1,11,0,0,0,78,81,122,100,63,192.18,204,46.00,-8.00,-1113.00
2024-05-17 16:22:57.149230,0,0,12,0,0,0,78,81,121,100,63,192.14,204,-9.00,29.00,-1076.00
2024-05-17 16:22:57.341509,0,0,13,0,0,0,78,80,120,100,63,192.15,204,-15.00,23.00,-928.00
2024-05-17 16:22:57.353270,1,0,13,0,0,0,78,80,118,100,63,192.15,204,-19.00,23.00,-982.00
2024-05-17 16:22:57.546976,1,0,13,0,0,0,78,80,117,100,62,192.19,204,-10.00,27.00,-948.00
2024-05-17 16:22:57.557338,0,0,13,0,0,0,78,80,117,100,62,192.22,204,26.00,36.00,-1096.00
2024-05-17 16:22:57.751406,1,0,13,0,0,0,78,80,117,100,62,192.21,204,61.00,0.00,-1059.00
2024-05-17 16:22:57.761252,1,0,13,0,0,0,78,80,118,100,62,192.17,205,-8.00,27.00,-985.00
2024-05-17 16:22:57.955788,1,0,13,0,0,0,78,80,118,100,62,192.14,205,-45.00,46.00,-966.00
2024-05-17 16:22:57.965382,1,0,13,0,0,0,78,80,118,100,62,192.11,205,48.00,3.00,-1101.00
2024-05-17 16:22:58.160780,1,0,13,0,0,0,78,80,117,100,62,192.12,205,-7.00,20.00,-1007.00
2024-05-17 16:22:58.169396,1,0,13,0,0,0,78,80,118,100,62,192.09,205,-12.00,0.00,-914.00
2024-05-17 16:22:58.365602,1,0,13,0,0,0,78,80,118,100,62,192.14,205,-25.00,5.00,-920.00
2024-05-17 16:22:58.373205,1,0,13,0,0,0,78,80,118,100,62,192.17,205,46.00,0.00,-1039.00
2024-05-17 16:22:58.570567,1,0,13,0,0,0,78,80,118,100,62,192.11,205,-18.00,31.00,-978.00
2024-05-17 16:22:58.577393,1,0,13,0,0,0,78,80,118,100,62,192.14,205,-53.00,38.00,-948.00
2024-05-17 16:22:58.775534,0,0,13,0,0,0,78,80,117,100,62,192.17,205,68.00,-11.00,-1037.00
2024-05-17 16:22:58.782398,1,0,13,0,0,0,78,80,117,100,62,192.17,206,12.00,7.00,-1075.00
2024-05-17 16:22:58.979865,0,0,13,0,0,0,78,80,117,100,62,192.20,206,-3.00,14.00,-1050.00
2024-05-17 16:22:58.985449,0,0,13,0,0,0,78,80,117,100,62,192.16,206,61.00,-8.00,-1036.00
2024-05-17 16:22:59.184718,0,0,13,0,0,0,78,80,119,100,62,192.16,206,-7.00,22.00,-975.00
2024-05-17 16:22:59.189553,0,0,13,0,0,0,78,80,118,100,62,192.14,206,-14.00,15.00,-925.00
2024-05-17 16:22:59.344971,0,0,13,0,0,0,78,80,118,100,62,192.20,206,4.00,17.00,-967.00
2024-05-17 16:22:59.393899,0,0,13,0,0,0,78,80,119,100,62,192.18,206,-35.00,43.00,-968.00
2024-05-17 16:22:59.594085,0,0,14,0,0,0,78,80,120,100,62,192.09,206,-37.00,38.00,-968.00
2024-05-17 16:22:59.597937,0,0,10,0,0,0,78,80,122,100,62,192.17,206,25.00,1.00,-1023.00
2024-05-17 16:22:59.801082,0,-1,5,0,0,0,78,80,123,100,62,192.16,206,-35.00,52.00,-985.00
2024-05-17 16:22:59.801956,0,-1,0,0,0,0,78,80,124,100,62,192.17,207,22.00,14.00,-998.00
2024-05-17 16:23:00.003856,0,-1,-6,0,0,0,78,80,124,100,62,192.23,207,4.00,52.00,-1050.00
2024-05-17 16:23:00.005899,0,-1,-11,0,0,0,78,80,124,100,62,192.25,207,53.00,10.00,-1055.00
2024-05-17 16:23:00.057819,0,-1,-18,0,0,0,78,80,125,100,62,192.25,207,8.00,29.00,-1051.00
2024-05-17 16:23:00.208714,0,-1,-24,0,0,0,78,80,126,100,62,192.15,207,-2.00,24.00,-1039.00
2024-05-17 16:23:00.312754,0,-1,-30,0,0,0,78,81,126,100,62,192.21,207,-61.00,64.00,-975.00
2024-05-17 16:23:00.415852,0,-2,-37,0,0,0,78,81,127,100,62,192.21,207,64.00,-1.00,-1046.00
2024-05-17 16:23:00.465169,-1,-2,-43,0,0,0,78,81,127,100,62,192.25,207,-100.00,50.00,-940.00
2024-05-17 16:23:00.618186,0,-1,-49,0,0,0,78,81,127,100,62,192.26,207,-103.00,59.00,-969.00
2024-05-17 16:23:00.669125,0,-1,-55,0,0,0,78,81,128,100,62,192.24,207,32.00,0.00,-1014.00
2024-05-17 16:23:00.771360,-1,-1,-62,0,0,0,78,81,128,100,62,192.25,208,-42.00,13.00,-924.00
2024-05-17 16:23:00.873337,0,0,-68,0,0,0,78,81,127,100,62,192.30,208,58.00,-23.00,-1089.00
2024-05-17 16:23:01.027786,0,0,-74,0,0,0,78,81,130,100,62,192.21,208,20.00,32.00,-970.00
2024-05-17 16:23:01.077467,1,0,-81,0,0,0,78,81,131,100,62,192.25,208,58.00,3.00,-967.00
2024-05-17 16:23:01.234327,1,0,-87,0,0,0,78,81,131,110,62,192.26,208,-87.00,23.00,-969.00
2024-05-17 16:23:01.280967,0,0,-94,0,0,0,78,81,129,110,62,192.21,208,-30.00,16.00,-936.00
2024-05-17 16:23:01.385765,0,0,-100,0,0,0,78,81,127,110,62,192.23,208,15.00,34.00,-1077.00
2024-05-17 16:23:01.487507,0,0,-106,0,0,0,78,81,127,110,62,192.17,208,-61.00,63.00,-945.00
2024-05-17 16:23:01.588011,0,0,-113,0,0,0,78,81,128,110,62,192.17,208,-3.00,13.00,-1036.00
2024-05-17 16:23:01.744673,-1,0,-119,0,0,0,78,81,128,100,62,192.21,208,0.00,-17.00,-940.00
2024-05-17 16:23:01.792891,0,0,-125,0,0,0,78,81,122,100,62,192.09,209,-84.00,18.00,-848.00
2024-05-17 16:23:01.893340,0,0,-132,0,0,1,78,81,121,100,62,192.08,209,-34.00,10.00,-1034.00
2024-05-17 16:23:02.053780,-1,0,-138,0,0,1,78,81,122,100,62,192.03,209,72.00,-3.00,-1021.00
2024-05-17 16:23:02.097022,-2,0,-144,0,0,1,78,81,120,100,62,192.13,209,20.00,-30.00,-987.00
2024-05-17 16:23:02.256583,0,1,-150,0,0,1,78,81,120,100,62,192.10,209,-51.00,5.00,-990.00
2024-05-17 16:23:02.300943,0,1,-162,0,0,0,79,81,121,100,62,192.12,209,-19.00,-1.00,-1073.00
2024-05-17 16:23:02.461293,0,1,-168,0,0,0,79,81,121,100,62,192.13,209,-2.00,-24.00,-1004.00
2024-05-17 16:23:02.505014,0,2,-174,0,0,0,79,81,123,100,62,192.17,209,63.00,-16.00,-1018.00
2024-05-17 16:23:02.666094,0,1,179,0,0,0,79,81,123,100,62,192.13,209,17.00,-12.00,-1000.00
2024-05-17 16:23:02.708738,0,1,173,0,0,0,79,81,124,100,62,192.17,210,-17.00,-5.00,-1012.00
2024-05-17 16:23:02.810941,0,1,167,0,0,0,79,81,125,100,62,192.15,210,-24.00,-5.00,-937.00
2024-05-17 16:23:02.973494,0,1,161,0,0,0,79,81,124,100,62,192.21,210,89.00,-28.00,-986.00
2024-05-17 16:23:03.014982,0,0,155,0,0,0,79,81,124,100,62,192.13,210,62.00,-4.00,-995.00
2024-05-17 16:23:03.178187,0,1,149,0,0,0,79,81,124,100,62,192.10,210,-32.00,17.00,-905.00
2024-05-17 16:23:03.218678,0,0,143,0,0,0,79,81,124,100,62,192.11,210,83.00,-7.00,-1031.00
2024-05-17 16:23:03.383085,0,1,137,0,0,0,78,80,125,100,62,192.13,210,38.00,4.00,-1023.00
2024-05-17 16:23:03.423199,0,1,131,0,0,0,78,80,127,100,62,192.10,210,49.00,5.00,-950.00
2024-05-17 16:23:03.587756,0,1,125,0,0,0,78,80,127,100,62,192.21,210,7.00,13.00,-950.00
2024-05-17 16:23:03.628342,0,1,119,0,0,0,78,80,124,100,62,192.19,210,-8.00,7.00,-903.00
2024-05-17 16:23:03.728701,0,1,113,0,0,0,78,80,123,100,62,192.12,211,17.00,10.00,-936.00
2024-05-17 16:23:03.895016,0,1,107,0,0,0,78,80,121,100,62,192.09,211,28.00,2.00,-1038.00
2024-05-17 16:23:03.895235,0,0,101,0,0,0,78,80,121,100,62,192.13,211,-10.00,8.00,-965.00
2024-05-17 16:23:03.984700,0,1,94,0,0,1,78,80,119,100,62,192.10,211,-30.00,18.00,-1054.00
2024-05-17 16:23:04.099714,0,0,88,0,0,0,78,80,123,100,62,192.15,211,64.00,-22.00,-1107.00
2024-05-17 16:23:04.193498,1,0,82,0,0,0,78,80,121,100,62,192.12,211,23.00,18.00,-997.00
2024-05-17 16:23:04.289681,1,1,75,0,0,0,78,81,121,100,62,192.15,211,70.00,-33.00,-1072.00
2024-05-17 16:23:04.407067,1,1,69,0,0,0,78,81,119,100,62,192.15,211,6.00,44.00,-919.00
2024-05-17 16:23:04.493957,2,0,63,0,0,0,78,81,119,100,61,192.09,211,25.00,22.00,-1041.00
2024-05-17 16:23:04.611695,2,0,57,0,0,0,78,81,119,100,61,192.10,211,-36.00,31.00,-1026.00
2024-05-17 16:23:04.702602,1,0,51,0,0,0,78,81,116,100,61,192.12,212,106.00,-26.00,-1052.00
2024-05-17 16:23:04.800282,2,0,45,0,0,0,78,81,116,100,61,192.16,212,33.00,32.00,-1071.00
2024-05-17 16:23:04.920938,2,0,40,0,0,0,78,81,115,100,61,192.13,212,76.00,1.00,-975.00
2024-05-17 16:23:05.005024,3,0,34,0,0,0,78,81,116,100,61,192.10,212,76.00,-10.00,-992.00
2024-05-17 16:23:05.109828,3,0,29,0,0,0,78,81,116,100,61,192.13,212,34.00,7.00,-935.00
2024-05-17 16:23:05.208089,2,0,26,0,0,1,78,81,111,100,61,192.11,212,-27.00,34.00,-1002.00
2024-05-17 16:23:05.309587,2,0,24,0,0,1,77,80,108,100,61,192.04,212,-18.00,34.00,-919.00
2024-05-17 16:23:05.430870,1,0,22,0,0,1,77,80,107,90,61,192.09,212,48.00,1.00,-1030.00
2024-05-17 16:23:05.513941,0,0,21,0,0,0,77,80,106,90,61,192.03,212,61.00,-14.00,-1009.00
2024-05-17 16:23:05.616376,0,0,20,0,0,0,77,80,106,90,61,192.00,212,-54.00,52.00,-1049.00
2024-05-17 16:23:05.718786,1,0,19,0,0,0,77,80,106,90,61,191.97,213,-36.00,50.00,-1055.00
2024-05-17 16:23:05.819587,1,0,18,0,0,0,77,80,105,90,61,191.97,213,-27.00,29.00,-1012.00
2024-05-17 16:23:05.944947,1,0,18,0,0,0,77,80,105,90,61,191.97,213,-28.00,33.00,-988.00
2024-05-17 16:23:06.023709,1,0,17,0,0,0,77,80,103,90,61,192.04,213,22.00,14.00,-1034.00
2024-05-17 16:23:06.147695,2,0,17,0,0,0,77,80,101,90,61,192.08,213,61.00,12.00,-1025.00
2024-05-17 16:23:06.227709,2,0,16,0,0,0,77,80,102,90,61,192.00,213,83.00,3.00,-1085.00
2024-05-17 16:23:06.356892,2,0,15,0,0,0,78,80,103,90,61,191.92,213,38.00,26.00,-1100.00
2024-05-17 16:23:06.431860,2,0,15,0,0,-1,78,80,103,90,61,191.94,213,33.00,18.00,-998.00
2024-05-17 16:23:06.557645,2,0,15,0,0,0,78,80,104,90,61,191.92,213,45.00,11.00,-1065.00
2024-05-17 16:23:06.635665,3,0,14,0,0,-1,78,80,105,90,61,191.97,213,23.00,25.00,-998.00
2024-05-17 16:23:06.762713,3,0,14,0,0,0,78,80,108,90,61,191.99,214,37.00,9.00,-886.00
2024-05-17 16:23:06.840198,3,0,13,0,0,0,78,80,106,90,61,191.96,214,44.00,17.00,-968.00
2024-05-17 16:23:06.968952,2,0,13,0,0,0,78,80,104,90,61,191.98,214,8.00,51.00,-1079.00
2024-05-17 16:23:07.043758,1,0,12,-1,0,0,78,80,106,90,61,191.94,214,18.00,21.00,-1007.00
2024-05-17 16:23:07.172001,1,0,12,0,0,0,78,80,105,90,61,191.93,214,73.00,6.00,-1027.00
2024-05-17 16:23:07.247790,1,0,11,-1,0,0,78,80,105,90,61,191.99,214,-28.00,4.00,-995.00
2024-05-17 16:23:07.376914,1,0,11,0,0,0,77,81,108,90,61,192.00,214,7.00,17.00,-870.00
2024-05-17 16:23:07.453696,1,0,11,0,0,0,77,81,103,90,61,191.92,214,0.00,36.00,-965.00
2024-05-17 16:23:07.553782,2,0,11,0,0,0,77,81,103,90,61,191.95,214,-23.00,32.00,-1016.00
2024-05-17 16:23:07.684761,3,0,11,0,0,0,77,81,106,90,61,192.01,214,15.00,-2.00,-1009.00
2024-05-17 16:23:07.707054,3,0,11,0,0,0,77,81,107,90,61,191.98,215,40.00,14.00,-987.00
2024-05-17 16:23:07.890714,3,0,11,0,0,0,77,81,104,90,61,191.97,215,10.00,4.00,-912.00
2024-05-17 16:23:07.910842,2,0,11,-1,0,0,77,81,101,90,61,191.92,215,118.00,-38.00,-1105.00
2024-05-17 16:23:08.093718,1,0,11,-1,0,0,77,81,102,90,61,191.90,215,-18.00,35.00,-916.00
2024-05-17 16:23:08.114896,0,0,11,-1,0,0,77,81,102,90,61,191.94,215,44.00,-25.00,-929.00
2024-05-17 16:23:08.298641,0,0,11,-1,0,0,77,81,102,90,61,191.94,215,-57.00,39.00,-931.00
2024-05-17 16:23:08.319218,0,0,11,-1,0,0,77,81,102,90,61,192.00,215,-59.00,42.00,-950.00
2024-05-17 16:23:08.420830,0,0,11,-1,0,0,77,81,102,90,61,192.00,215,54.00,-14.00,-1006.00
2024-05-17 16:23:08.605534,0,0,11,0,0,-2,77,81,105,90,61,192.13,215,26.00,40.00,-1640.00
2024-05-17 16:23:08.624920,0,0,11,0,0,-8,77,81,114,90,61,192.14,215,49.00,-22.00,-1496.00
2024-05-17 16:23:08.812602,-2,-38,11,0,0,-13,77,81,183,100,61,192.17,216,-7.00,331.00,-1028.00
2024-05-17 16:23:08.833513,-2,-156,17,3,-8,-6,77,81,190,120,61,192.35,216,-74.00,717.00,-1098.00
2024-05-17 16:23:08.930804,6,69,9,2,-6,8,77,81,212,120,61,192.54,216,-37.00,237.00,-1461.00
2024-05-17 16:23:09.120159,0,3,4,1,0,9,77,81,123,110,61,192.09,216,2.00,-92.00,-1532.00
2024-05-17 16:23:09.134819,0,2,4,1,0,6,77,81,117,100,61,192.11,216,25.00,-70.00,-1474.00
2024-05-17 16:23:09.236712,1,0,8,1,0,2,77,81,116,90,61,191.97,216,3.00,9.00,-1272.00
2024-05-17 16:23:09.426625,2,0,11,1,0,0,78,80,113,90,61,192.04,216,24.00,1.00,-1133.00
2024-05-17 16:23:09.440771,1,0,11,1,0,0,78,80,115,90,60,192.06,216,-67.00,59.00,-968.00
2024-05-17 16:23:09.629387,1,-1,11,0,0,0,78,80,117,90,60,192.09,216,-2.00,0.00,-966.00
2024-05-17 16:23:09.646768,2,0,11,1,0,0,78,80,116,90,60,192.04,216,33.00,2.00,-1015.00
2024-05-17 16:23:09.747169,2,1,11,1,0,0,78,80,120,90,60,192.04,217,2.00,13.00,-936.00
2024-05-17 16:23:09.849204,3,2,11,0,0,0,78,80,122,90,60,192.09,217,-8.00,19.00,-991.00
2024-05-17 16:23:09.950427,2,1,11,0,0,0,78,80,117,100,60,192.04,217,76.00,-24.00,-1001.00
2024-05-17 16:23:10.141277,2,1,11,0,0,0,78,80,118,100,60,192.05,217,17.00,3.00,-933.00
2024-05-17 16:23:10.154388,2,1,11,0,0,0,78,80,119,100,60,192.09,217,-30.00,44.00,-989.00
2024-05-17 16:23:10.256385,1,0,11,0,0,0,78,80,118,100,60,192.08,217,45.00,-3.00,-1082.00
2024-05-17 16:23:10.448461,1,0,11,0,0,0,77,81,117,90,60,192.06,217,-7.00,40.00,-895.00
2024-05-17 16:23:10.460402,1,0,11,0,0,1,77,81,116,90,60,192.06,217,6.00,17.00,-1045.00
2024-05-17 16:23:10.562684,1,0,11,0,0,1,77,81,115,90,60,192.07,217,-37.00,52.00,-928.00
2024-05-17 16:23:10.755875,1,0,11,0,0,1,77,81,117,90,60,192.05,217,58.00,33.00,-1058.00
2024-05-17 16:23:10.766964,2,0,11,0,0,0,77,81,118,90,60,192.03,218,-18.00,51.00,-1010.00
2024-05-17 16:23:10.960644,2,0,11,0,0,0,77,81,118,90,60,192.05,218,-8.00,32.00,-993.00
2024-05-17 16:23:10.970639,2,0,11,0,0,0,77,81,117,90,60,192.06,218,73.00,13.00,-950.00
2024-05-17 16:23:11.165523,2,0,11,0,0,0,77,81,116,90,60,192.05,218,46.00,22.00,-1026.00
2024-05-17 16:23:11.174344,2,0,11,0,0,0,77,81,115,90,60,191.99,218,41.00,-3.00,-1035.00
2024-05-17 16:23:11.226398,2,0,11,0,0,0,77,81,115,90,60,192.04,218,14.00,-13.00,-950.00
2024-05-17 16:23:11.379383,1,1,11,0,0,0,78,80,112,90,60,192.04,218,-5.00,35.00,-1012.00
2024-05-17 16:23:11.576634,1,1,11,-1,0,0,78,80,112,90,59,192.10,218,96.00,16.00,-1001.00
2024-05-17 16:23:11.583312,1,0,11,0,0,0,78,80,113,90,59,191.94,218,-14.00,24.00,-1013.00
2024-05-17 16:23:11.779690,1,0,11,0,0,0,78,80,113,90,59,192.00,218,3.00,14.00,-1035.00
2024-05-17 16:23:11.787358,1,0,11,-1,0,0,78,80,115,90,59,192.02,219,78.00,-6.00,-952.00
2024-05-17 16:23:11.839851,1,0,11,0,0,0,78,80,114,90,59,191.98,219,-12.00,43.00,-1054.00
2024-05-17 16:23:11.940655,1,0,11,0,0,0,78,80,115,90,59,191.99,219,-23.00,32.00,-904.00
2024-05-17 16:23:12.087205,1,0,11,-1,0,0,78,80,113,90,59,192.04,219,43.00,6.00,-1160.00
2024-05-17 16:23:12.144543,1,0,11,0,0,0,78,80,113,90,59,191.91,219,-37.00,22.00,-932.00
2024-05-17 16:23:12.246755,1,0,11,0,0,0,78,80,112,90,59,192.06,219,-2.00,5.00,-903.00
2024-05-17 16:23:12.394132,1,0,11,0,0,0,78,80,112,90,59,191.97,219,57.00,0.00,-1013.00
2024-05-17 16:23:12.452382,1,0,11,0,0,0,78,80,111,90,59,192.04,219,11.00,21.00,-962.00
2024-05-17 16:23:12.552623,1,1,11,0,0,0,78,80,111,90,59,192.01,219,27.00,18.00,-1079.00
2024-05-17 16:23:12.701596,1,0,11,0,1,0,78,80,111,90,59,191.95,219,76.00,18.00,-1058.00
2024-05-17 16:23:12.758107,2,0,11,0,0,0,78,80,112,90,59,191.99,220,-4.00,-2.00,-954.00
2024-05-17 16:23:12.858592,2,0,11,0,0,0,78,80,115,90,59,192.07,220,-82.00,17.00,-955.00
2024-05-17 16:23:13.010416,1,0,11,-1,0,0,78,80,111,90,59,192.01,220,-7.00,33.00,-1035.00
2024-05-17 16:23:13.062856,0,0,11,-1,0,0,78,80,115,90,59,192.00,220,-25.00,17.00,-968.00
2024-05-17 16:23:13.215707,0,0,11,-1,0,0,78,80,116,90,59,192.00,220,70.00,9.00,-1086.00
2024-05-17 16:23:13.266685,0,0,11,0,0,0,78,80,113,90,59,191.94,220,48.00,-2.00,-1043.00
2024-05-17 16:23:13.418334,1,0,11,0,0,0,77,80,117,90,59,192.05,220,-11.00,23.00,-979.00
2024-05-17 16:23:13.470944,1,0,11,0,1,0,77,80,117,90,59,192.01,220,-5.00,26.00,-958.00
2024-05-17 16:23:13.622967,2,0,11,0,1,0,77,80,115,90,59,191.98,220,-29.00,44.00,-1023.00
2024-05-17 16:23:13.674458,1,0,11,0,1,0,77,80,114,90,59,192.00,220,32.00,31.00,-1048.00
2024-05-17 16:23:13.827798,2,0,11,0,0,0,77,80,117,90,59,192.04,221,58.00,7.00,-1055.00
