TS,pitch,roll,yaw,vgx,vgy,vgz,templ,temph,tof,h,bat,baro,time,agx,agy,agz
2024-05-17 16:25:51.830274,0,0,10,0,0,0,82,84,10,0,44,190.48,318,4.00,0.00,-1001.00
2024-05-17 16:25:51.882779,0,0,10,0,0,0,82,84,10,0,44,190.51,318,4.00,0.00,-1001.00
2024-05-17 16:25:52.035187,0,0,10,0,0,0,82,84,10,0,44,190.41,318,3.00,0.00,-999.00
2024-05-17 16:25:52.086764,0,0,10,0,0,0,82,84,10,0,44,190.47,318,3.00,0.00,-998.00
2024-05-17 16:25:52.240098,0,0,10,0,0,0,82,84,10,0,44,190.53,318,3.00,0.00,-999.00
2024-05-17 16:25:52.290647,0,0,10,0,0,0,81,84,10,0,44,190.43,318,4.00,0.00,-1001.00
2024-05-17 16:25:52.444675,0,0,10,0,0,0,81,84,10,0,44,190.44,318,4.00,0.00,-997.00
2024-05-17 16:25:52.494616,0,0,10,0,0,0,81,84,10,0,44,190.46,318,4.00,-1.00,-998.00
2024-05-17 16:25:52.649516,0,0,10,0,0,0,81,84,10,0,44,190.46,318,4.00,-1.00,-1002.00
2024-05-17 16:25:52.698955,0,0,10,0,0,0,81,84,10,0,44,190.50,318,3.00,-1.00,-1000.00
2024-05-17 16:25:52.800783,0,0,10,0,0,0,81,84,10,0,44,190.47,318,4.00,0.00,-999.00
2024-05-17 16:25:52.957749,0,0,10,0,0,0,81,84,10,0,44,190.47,318,3.00,0.00,-1001.00
2024-05-17 16:25:53.004541,0,0,10,0,0,0,81,84,10,0,44,190.42,318,4.00,0.00,-999.00
2024-05-17 16:25:53.161414,0,0,10,0,0,0,81,84,10,0,44,190.44,318,4.00,0.00,-1001.00
2024-05-17 16:25:53.211494,0,0,10,0,0,0,81,84,10,0,44,190.50,318,3.00,-1.00,-999.00
2024-05-17 16:25:53.310760,0,0,10,0,0,0,82,84,10,0,44,190.46,318,3.00,0.00,-1001.00
2024-05-17 16:25:53.469164,0,0,10,0,0,0,82,84,10,0,44,190.46,318,3.00,0.00,-999.00
2024-05-17 16:25:53.514602,0,0,10,0,0,0,82,84,10,0,44,190.47,318,4.00,0.00,-998.00
2024-05-17 16:25:53.677301,0,0,10,0,0,0,82,84,10,0,44,190.42,318,4.00,0.00,-998.00
2024-05-17 16:25:53.718653,0,0,10,0,0,0,82,84,10,0,44,190.45,318,4.00,-1.00,-1000.00
2024-05-17 16:25:53.820755,0,0,10,0,0,0,82,84,10,0,44,190.45,318,5.00,-1.00,-998.00
2024-05-17 16:25:53.980658,0,0,10,0,0,0,82,84,10,0,44,190.47,318,4.00,0.00,-999.00
2024-05-17 16:25:54.024707,0,0,10,0,0,0,82,84,10,0,44,190.48,318,4.00,0.00,-997.00
2024-05-17 16:25:54.185750,0,0,10,0,0,0,82,84,10,0,44,190.52,318,3.00,1.00,-1000.00
2024-05-17 16:25:54.228693,0,0,10,0,0,0,82,84,10,0,44,190.52,318,5.00,-1.00,-1000.00
2024-05-17 16:25:54.390889,0,0,10,0,0,0,82,84,10,0,44,190.48,318,4.00,0.00,-999.00
2024-05-17 16:25:54.432690,0,0,10,0,0,0,82,84,10,0,44,190.45,318,4.00,0.00,-999.00
2024-05-17 16:25:54.567305,0,0,10,0,0,0,82,84,10,0,44,190.49,318,4.00,0.00,-1001.00
2024-05-17 16:25:54.637449,0,0,10,0,0,0,82,84,10,0,44,190.47,318,4.00,-1.00,-1000.00
2024-05-17 16:25:54.738424,0,0,10,0,0,0,82,84,10,0,44,190.47,318,7.00,0.00,-1005.00
2024-05-17 16:25:54.902113,0,0,10,0,0,0,82,84,10,0,44,190.47,318,0.00,1.00,-997.00
2024-05-17 16:25:54.942451,0,0,10,0,0,0,82,84,10,0,44,190.47,318,-14.00,16.00,-994.00
2024-05-17 16:25:54.993714,0,0,10,0,0,0,82,84,10,0,44,190.47,318,21.00,45.00,-1017.00
2024-05-17 16:25:55.107854,0,0,10,0,0,0,82,84,10,0,44,190.47,318,12.00,-7.00,-1015.00
2024-05-17 16:25:55.197453,-1,3,10,0,0,0,82,84,10,0,44,190.47,318,15.00,-48.00,-1033.00
2024-05-17 16:25:55.311739,-3,4,9,0,0,-1,82,84,10,0,44,190.47,318,-35.00,8.00,-1127.00
2024-05-17 16:25:55.401418,-2,3,9,0,2,-4,82,84,10,0,44,190.47,319,18.00,38.00,-1315.00
2024-05-17 16:25:55.516524,0,0,9,1,2,-7,82,84,16,10,44,190.51,319,-7.00,-24.00,-1278.00
2024-05-17 16:25:55.605397,3,-5,9,0,1,-8,82,84,20,20,44,191.07,319,-58.00,-4.00,-1045.00
2024-05-17 16:25:55.707781,2,-3,9,0,0,-8,82,84,31,20,44,191.10,319,-43.00,-21.00,-1039.00
2024-05-17 16:25:55.825103,0,-1,9,0,0,-8,82,84,45,30,44,191.11,319,35.00,-7.00,-1065.00
2024-05-17 16:25:55.911375,-1,-1,10,0,0,-8,82,84,49,40,44,191.14,319,14.00,-19.00,-1008.00
2024-05-17 16:25:56.013960,-1,-1,10,0,0,-7,82,84,58,50,44,191.29,319,-2.00,13.00,-1004.00
2024-05-17 16:25:56.115386,-1,0,10,0,0,-6,82,84,66,60,44,191.37,319,15.00,-1.00,-874.00
2024-05-17 16:25:56.234001,0,0,9,0,0,-5,82,84,68,60,44,191.46,319,-73.00,22.00,-876.00
2024-05-17 16:25:56.320158,0,0,10,0,0,-3,83,84,75,70,44,191.53,319,-19.00,10.00,-848.00
2024-05-17 16:25:56.438659,0,0,10,0,0,-2,83,84,79,70,44,191.48,320,-9.00,14.00,-860.00
2024-05-17 16:25:56.523427,0,0,10,0,0,-1,83,84,81,70,44,191.62,320,-65.00,27.00,-930.00
2024-05-17 16:25:56.643986,0,0,10,0,0,0,83,84,82,80,44,191.65,320,-42.00,15.00,-887.00
2024-05-17 16:25:56.727569,0,0,10,0,0,0,83,84,83,80,44,191.66,320,-9.00,14.00,-956.00
2024-05-17 16:25:56.849067,0,0,10,0,0,0,83,84,83,80,44,191.65,320,-7.00,11.00,-985.00
2024-05-17 16:25:56.931364,0,0,10,0,0,0,83,84,83,80,44,191.62,320,39.00,-8.00,-1024.00
2024-05-17 16:25:57.033473,0,0,10,0,0,0,83,84,84,80,44,191.59,320,-47.00,-6.00,-1029.00
2024-05-17 16:25:57.154920,0,0,9,0,0,0,83,84,84,80,44,191.64,320,11.00,7.00,-1003.00
2024-05-17 16:25:57.238687,0,0,9,0,0,0,83,84,83,80,44,191.61,320,-78.00,13.00,-889.00
2024-05-17 16:25:57.340652,0,0,10,0,0,0,82,83,83,80,44,191.67,320,27.00,14.00,-943.00
2024-05-17 16:25:57.443256,0,0,10,0,0,0,82,83,82,80,44,191.66,321,37.00,-21.00,-1067.00
2024-05-17 16:25:57.545658,0,0,10,0,0,0,82,83,82,80,44,191.66,321,90.00,5.00,-1054.00
2024-05-17 16:25:57.645387,0,0,9,0,0,0,82,83,82,80,44,191.66,321,23.00,0.00,-1051.00
2024-05-17 16:25:57.752595,0,0,9,0,0,0,82,83,83,80,44,191.64,321,-20.00,15.00,-1049.00
2024-05-17 16:25:57.849859,0,0,10,0,0,0,82,83,82,80,44,191.61,321,33.00,4.00,-975.00
2024-05-17 16:25:57.955083,0,0,10,0,0,0,82,83,80,80,44,191.64,321,-41.00,19.00,-973.00
2024-05-17 16:25:58.053725,0,0,10,0,0,0,82,83,81,80,44,191.60,321,-44.00,0.00,-984.00
2024-05-17 16:25:58.156419,0,0,10,0,0,0,82,83,81,80,44,191.61,321,48.00,-3.00,-1032.00
2024-05-17 16:25:58.258239,0,0,10,0,0,0,82,83,83,80,44,191.57,321,-29.00,21.00,-997.00
2024-05-17 16:25:58.360602,0,-1,10,0,0,0,82,85,83,80,44,191.62,321,-18.00,6.00,-873.00
2024-05-17 16:25:58.462939,0,0,10,0,0,0,82,85,78,80,44,191.66,322,70.00,-33.00,-1079.00
2024-05-17 16:25:58.569627,0,0,10,0,0,0,82,85,78,80,44,191.64,322,76.00,0.00,-1035.00
2024-05-17 16:25:58.665504,0,0,10,0,0,0,82,85,78,80,44,191.63,322,44.00,12.00,-1005.00
2024-05-17 16:25:58.767375,0,0,10,0,0,0,82,85,78,80,44,191.64,322,9.00,28.00,-960.00
2024-05-17 16:25:58.818458,0,0,10,0,0,0,82,85,78,80,44,191.65,322,-18.00,20.00,-910.00
2024-05-17 16:25:58.999680,0,0,10,0,0,0,82,85,78,80,44,191.64,322,-30.00,31.00,-1054.00
2024-05-17 16:25:59.022462,0,0,10,0,0,0,82,85,80,80,44,191.57,322,43.00,-7.00,-952.00
2024-05-17 16:25:59.204451,0,0,10,0,0,0,82,85,75,70,44,191.63,322,20.00,17.00,-1121.00
2024-05-17 16:25:59.226257,0,0,10,0,0,0,82,85,77,70,44,191.55,322,20.00,-26.00,-981.00
2024-05-17 16:25:59.409179,0,0,10,0,0,0,81,84,73,70,44,191.61,322,-45.00,31.00,-926.00
2024-05-17 16:25:59.430269,0,0,10,0,0,0,81,84,74,70,44,191.53,323,-99.00,61.00,-1016.00
2024-05-17 16:25:59.614082,-1,0,10,0,0,0,81,84,77,70,44,191.61,323,-56.00,22.00,-988.00
2024-05-17 16:25:59.634409,-3,-1,10,-1,0,0,81,84,77,70,44,191.61,323,15.00,26.00,-1144.00
2024-05-17 16:25:59.736292,-2,-1,10,0,0,0,81,84,77,70,44,191.57,323,-18.00,-8.00,-1079.00
2024-05-17 16:25:59.920403,-1,-1,10,0,0,0,81,84,79,70,44,191.55,323,3.00,23.00,-1018.00
2024-05-17 16:25:59.940533,0,0,10,0,0,-1,81,84,83,70,44,191.56,323,-5.00,-11.00,-929.00
2024-05-17 16:26:00.118911,0,0,10,0,0,-1,81,84,80,80,44,191.54,323,-10.00,29.00,-1014.00
2024-05-17 16:26:00.144416,1,0,10,0,0,-1,81,84,82,80,44,191.67,323,6.00,2.00,-1014.00
2024-05-17 16:26:00.329900,1,0,10,0,0,0,81,84,84,80,44,191.72,323,76.00,-1.00,-1089.00
2024-05-17 16:26:00.348333,0,0,10,0,0,0,82,84,83,80,44,191.72,323,25.00,12.00,-1080.00
2024-05-17 16:26:00.535465,1,0,10,0,0,-2,82,84,87,80,44,191.74,324,-65.00,42.00,-955.00
2024-05-17 16:26:00.552982,0,0,10,0,0,-2,82,84,88,80,44,191.77,324,-22.00,6.00,-1002.00
2024-05-17 16:26:00.738898,0,0,10,0,0,-3,82,84,94,90,44,191.77,324,-2.00,10.00,-1161.00
2024-05-17 16:26:00.756612,0,0,10,0,0,-3,82,84,98,90,44,191.81,324,64.00,-2.00,-1159.00
2024-05-17 16:26:00.943760,-1,0,10,0,0,-4,82,84,102,90,44,191.80,324,-20.00,20.00,-1004.00
2024-05-17 16:26:00.960435,0,0,10,0,0,-4,82,84,105,100,44,191.87,324,8.00,51.00,-1115.00
2024-05-17 16:26:01.149945,-1,0,10,0,0,-5,82,84,112,100,44,191.91,324,20.00,12.00,-1109.00
2024-05-17 16:26:01.164247,0,0,10,0,0,-6,82,84,117,110,44,191.94,324,-65.00,24.00,-941.00
2024-05-17 16:26:01.353340,0,0,10,0,0,-5,82,84,119,110,44,192.02,324,-42.00,15.00,-897.00
2024-05-17 16:26:01.369489,0,0,10,0,0,-5,82,84,124,120,44,192.04,324,34.00,0.00,-976.00
2024-05-17 16:26:01.558445,0,0,10,0,0,-5,82,84,128,120,44,192.08,325,-39.00,22.00,-887.00
2024-05-17 16:26:01.572286,0,0,10,0,0,-4,82,84,136,130,44,192.12,325,21.00,6.00,-975.00
2024-05-17 16:26:01.765091,-1,0,10,0,0,-4,82,84,140,130,44,192.19,325,10.00,-24.00,-1014.00
2024-05-17 16:26:01.776202,0,0,10,0,0,-4,82,84,144,140,44,192.16,325,-14.00,29.00,-903.00
2024-05-17 16:26:01.971004,0,0,10,0,0,-3,82,84,146,140,44,192.17,325,-59.00,42.00,-828.00
2024-05-17 16:26:01.980378,0,0,10,0,0,-2,82,84,149,140,44,192.26,325,-17.00,22.00,-940.00
2024-05-17 16:26:02.178199,-1,0,10,0,0,-2,82,84,154,150,44,192.38,325,-96.00,45.00,-955.00
2024-05-17 16:26:02.189018,-2,0,10,0,0,-2,82,84,157,150,44,192.31,325,31.00,1.00,-1172.00
2024-05-17 16:26:02.235124,-2,0,10,0,0,-3,82,84,161,150,44,192.35,325,-47.00,34.00,-973.00
2024-05-17 16:26:02.388289,-1,0,10,0,0,-2,81,84,167,150,44,192.44,325,-31.00,8.00,-968.00
2024-05-17 16:26:02.439162,0,0,10,0,0,-2,81,84,166,160,44,192.42,326,16.00,-7.00,-977.00
2024-05-17 16:26:02.582286,0,0,9,0,0,-2,81,84,169,160,44,192.49,326,18.00,25.00,-990.00
2024-05-17 16:26:02.644630,0,0,9,0,0,-2,81,84,172,160,44,192.45,326,-29.00,37.00,-977.00
2024-05-17 16:26:02.750241,0,0,9,0,0,-2,81,84,174,170,44,192.47,326,-2.00,36.00,-879.00
2024-05-17 16:26:02.847191,0,0,9,0,0,-2,81,84,177,170,44,192.50,326,30.00,3.00,-978.00
2024-05-17 16:26:02.992964,1,0,10,0,0,-1,81,84,180,170,44,192.59,326,54.00,0.00,-1060.00
2024-05-17 16:26:03.051448,1,0,9,0,0,-1,81,84,182,170,44,192.60,326,-38.00,14.00,-961.00
2024-05-17 16:26:03.203069,1,0,10,0,0,-1,81,84,184,170,44,192.64,326,-35.00,39.00,-881.00
2024-05-17 16:26:03.255707,1,0,10,0,0,0,81,84,184,180,44,192.54,326,-47.00,24.00,-995.00
2024-05-17 16:26:03.406149,0,0,10,0,0,0,81,83,186,180,44,192.56,326,9.00,-2.00,-983.00
2024-05-17 16:26:03.459280,0,0,10,0,0,0,81,83,186,180,44,192.61,327,13.00,37.00,-881.00
2024-05-17 16:26:03.607750,0,0,10,0,0,0,81,83,186,180,44,192.58,327,34.00,17.00,-962.00
2024-05-17 16:26:03.663240,0,0,10,0,0,0,81,83,187,180,44,192.60,327,76.00,11.00,-1085.00
2024-05-17 16:26:03.769020,0,0,10,0,0,0,81,83,186,180,44,192.68,327,25.00,0.00,-942.00
2024-05-17 16:26:03.869509,1,0,10,0,0,0,81,83,190,180,44,192.64,327,-56.00,27.00,-1012.00
2024-05-17 16:26:03.970547,1,0,10,0,0,0,81,83,188,180,44,192.69,327,78.00,4.00,-1020.00
2024-05-17 16:26:04.071716,1,0,10,0,0,0,81,83,190,180,44,192.63,327,56.00,-1.00,-996.00
2024-05-17 16:26:04.221359,1,0,10,0,0,0,81,83,189,180,44,192.65,327,10.00,-8.00,-907.00
2024-05-17 16:26:04.275726,1,0,10,0,0,0,81,83,186,180,44,192.64,327,-52.00,45.00,-927.00
2024-05-17 16:26:04.427399,0,-1,10,0,0,0,81,83,188,180,44,192.64,327,-5.00,21.00,-981.00
2024-05-17 16:26:04.488956,-1,-1,10,-1,0,0,81,83,189,180,44,192.65,328,-89.00,58.00,-936.00
2024-05-17 16:26:04.581827,-1,-2,10,0,0,0,81,83,189,180,44,192.63,328,-24.00,36.00,-1075.00
2024-05-17 16:26:04.688518,-1,-1,10,0,0,0,81,83,188,180,44,192.64,328,-8.00,21.00,-1000.00
2024-05-17 16:26:04.785068,-1,-1,10,0,0,0,81,83,188,180,44,192.57,328,20.00,32.00,-1052.00
2024-05-17 16:26:04.937335,0,0,10,0,0,0,81,83,186,180,44,192.63,328,58.00,-8.00,-1058.00
2024-05-17 16:26:04.989213,0,0,10,0,0,0,81,83,189,180,44,192.72,328,-35.00,24.00,-1012.00
2024-05-17 16:26:05.091038,2,0,10,0,0,0,81,83,188,180,44,192.72,328,20.00,11.00,-1036.00
2024-05-17 16:26:05.244816,1,0,10,0,0,0,81,83,189,180,44,192.65,328,-26.00,31.00,-1040.00
2024-05-17 16:26:05.299437,2,0,10,0,0,0,81,83,190,180,44,192.65,328,-45.00,42.00,-907.00
2024-05-17 16:26:05.397109,1,0,10,0,0,0,81,83,186,180,44,192.66,328,30.00,10.00,-964.00
2024-05-17 16:26:05.552161,0,0,10,0,0,0,81,83,185,180,44,192.67,329,77.00,-24.00,-923.00
2024-05-17 16:26:05.600959,1,0,9,0,0,1,81,83,185,180,44,192.72,329,39.00,-8.00,-957.00
2024-05-17 16:26:05.654547,1,0,10,0,0,1,81,83,182,180,44,192.60,329,80.00,16.00,-1059.00
2024-05-17 16:26:05.754182,1,0,10,0,0,1,81,83,181,180,44,192.63,329,-26.00,0.00,-962.00
2024-05-17 16:26:05.858934,1,0,10,0,0,2,81,83,177,170,44,192.53,329,20.00,-6.00,-1004.00
2024-05-17 16:26:05.958728,0,0,10,0,0,2,81,83,175,170,44,192.54,329,26.00,-20.00,-920.00
2024-05-17 16:26:06.063648,1,0,10,0,0,2,81,83,170,170,44,192.51,329,40.00,-3.00,-994.00
2024-05-17 16:26:06.162158,0,0,10,0,0,3,81,83,170,170,44,192.47,329,-16.00,28.00,-986.00
2024-05-17 16:26:06.269712,0,0,10,0,0,2,81,83,167,160,44,192.47,329,25.00,19.00,-993.00
2024-05-17 16:26:06.368219,0,0,10,0,0,3,81,83,161,160,44,192.37,329,-34.00,37.00,-969.00
2024-05-17 16:26:06.468542,0,0,10,0,0,2,81,83,160,160,44,192.34,330,34.00,4.00,-1038.00
2024-05-17 16:26:06.575650,0,0,9,0,0,2,81,83,158,150,44,192.31,330,-4.00,12.00,-1008.00
2024-05-17 16:26:06.671889,0,0,9,0,0,2,81,83,155,150,44,192.26,330,-34.00,24.00,-966.00
2024-05-17 16:26:06.775008,0,0,9,0,0,3,81,83,151,150,44,192.28,330,18.00,-21.00,-1024.00
2024-05-17 16:26:06.882909,0,0,9,0,0,2,81,83,144,150,44,192.25,330,-15.00,33.00,-973.00
2024-05-17 16:26:06.978933,0,0,9,0,0,2,81,83,145,140,44,192.22,330,-10.00,16.00,-1021.00
2024-05-17 16:26:07.087706,0,0,9,0,0,2,81,83,145,140,44,192.17,330,10.00,38.00,-930.00
2024-05-17 16:26:07.183687,0,0,9,0,0,2,81,83,143,140,44,192.23,330,-22.00,43.00,-1072.00
2024-05-17 16:26:07.292819,0,-1,9,0,0,1,81,83,141,140,44,192.24,330,-4.00,27.00,-997.00
2024-05-17 16:26:07.388153,0,0,9,0,0,0,81,83,140,130,44,192.21,331,13.00,31.00,-1033.00
2024-05-17 16:26:07.497423,0,0,9,0,0,0,81,83,140,130,44,192.18,331,-26.00,39.00,-1052.00
2024-05-17 16:26:07.592107,0,-1,9,0,0,0,81,83,140,130,44,192.15,331,80.00,-27.00,-1102.00
2024-05-17 16:26:07.705797,0,0,9,0,0,0,81,83,139,130,44,192.26,331,49.00,0.00,-1087.00
2024-05-17 16:26:07.796035,0,0,9,0,0,0,81,83,140,140,44,192.18,331,21.00,11.00,-966.00
2024-05-17 16:26:07.907896,0,0,9,0,0,0,81,83,136,130,44,192.14,331,-29.00,39.00,-997.00
2024-05-17 16:26:08.000155,1,0,9,0,0,0,81,83,134,130,44,192.12,331,30.00,-6.00,-1008.00
2024-05-17 16:26:08.114268,0,0,9,0,0,0,81,83,134,130,44,192.08,331,10.00,54.00,-1023.00
2024-05-17 16:26:08.204049,0,0,9,0,0,0,81,83,133,130,44,192.09,331,14.00,-11.00,-961.00
2024-05-17 16:26:08.316599,0,0,10,0,0,0,81,83,133,130,44,192.15,331,-3.00,10.00,-1015.00
2024-05-17 16:26:08.408285,0,0,10,0,0,0,80,83,132,130,44,192.17,332,48.00,-27.00,-1031.00
2024-05-17 16:26:08.521427,0,0,10,0,0,0,80,83,131,130,44,192.06,332,5.00,14.00,-1068.00
2024-05-17 16:26:08.612007,0,0,10,0,0,0,80,83,128,130,44,192.08,332,-9.00,15.00,-1009.00
2024-05-17 16:26:08.726299,0,0,10,0,0,0,80,83,131,130,44,192.07,332,-5.00,8.00,-941.00
2024-05-17 16:26:08.816358,-1,0,10,0,0,0,80,83,129,130,44,192.03,332,27.00,-5.00,-1033.00
2024-05-17 16:26:08.931097,-1,-1,10,0,0,0,80,83,128,130,44,192.06,332,0.00,23.00,-1043.00
2024-05-17 16:26:09.020058,-1,-1,10,0,0,0,80,83,128,130,44,192.04,332,61.00,-33.00,-1118.00
2024-05-17 16:26:09.139132,0,0,10,0,0,0,80,83,128,130,44,192.07,332,0.00,8.00,-987.00
2024-05-17 16:26:09.173708,0,0,10,0,0,0,80,83,129,130,44,192.14,332,-3.00,25.00,-1050.00
2024-05-17 16:26:09.295982,0,0,10,0,0,0,80,83,128,130,44,192.10,332,8.00,20.00,-1088.00
2024-05-17 16:26:09.448436,0,0,10,0,0,0,80,82,128,130,44,192.12,333,31.00,-9.00,-990.00
2024-05-17 16:26:09.479604,-4,-1,10,0,0,-1,80,82,132,130,44,192.07,333,60.00,-8.00,-1048.00
2024-05-17 16:26:09.649009,-8,0,10,1,0,0,80,82,134,130,44,192.11,333,-53.00,28.00,-873.00
2024-05-17 16:26:09.683303,-8,0,10,2,0,0,80,82,137,130,44,192.13,333,40.00,0.00,-953.00
2024-05-17 16:26:09.788629,-8,0,10,3,0,0,80,82,137,130,44,192.12,333,34.00,1.00,-1031.00
2024-05-17 16:26:09.886834,-8,0,10,5,0,0,80,82,138,130,44,192.13,333,-20.00,11.00,-889.00
2024-05-17 16:26:10.061928,-7,0,10,5,1,0,80,82,137,130,44,192.17,333,-148.00,57.00,-968.00
2024-05-17 16:26:10.090900,-8,0,10,6,1,0,80,82,138,130,44,192.17,333,-54.00,24.00,-979.00
2024-05-17 16:26:10.262455,-6,0,10,7,1,0,80,82,138,130,44,192.07,333,-50.00,8.00,-979.00
2024-05-17 16:26:10.294804,-5,0,10,7,1,0,80,82,138,130,44,192.06,333,-55.00,31.00,-1065.00
2024-05-17 16:26:10.467008,-2,0,9,8,1,0,80,83,137,130,44,192.05,334,-45.00,18.00,-943.00
2024-05-17 16:26:10.502488,0,0,9,7,1,0,80,83,134,130,44,192.15,334,-4.00,19.00,-1069.00
2024-05-17 16:26:10.600893,3,-1,10,6,1,0,80,83,138,130,44,192.15,334,-88.00,39.00,-985.00
2024-05-17 16:26:10.774739,4,0,9,5,0,0,80,83,138,130,44,192.12,334,-71.00,38.00,-1006.00
2024-05-17 16:26:10.805949,2,0,9,4,0,0,80,83,138,130,44,192.15,334,-32.00,58.00,-973.00
2024-05-17 16:26:10.979034,1,0,9,3,0,0,80,83,134,130,44,192.09,334,4.00,-7.00,-1083.00
2024-05-17 16:26:11.008749,1,0,9,3,0,0,80,83,134,130,44,192.13,334,-65.00,30.00,-971.00
2024-05-17 16:26:11.183558,0,0,9,3,0,0,80,83,135,130,44,192.18,334,-29.00,3.00,-932.00
2024-05-17 16:26:11.212729,0,1,9,3,0,0,80,83,137,130,44,192.10,334,52.00,10.00,-1064.00
2024-05-17 16:26:11.388438,2,2,9,3,1,0,80,83,142,130,44,192.12,334,5.00,24.00,-1081.00
2024-05-17 16:26:11.417291,3,2,10,2,1,0,81,83,141,140,44,192.16,335,-69.00,38.00,-967.00
2024-05-17 16:26:11.593296,4,-3,9,1,1,0,81,83,142,140,44,192.14,335,-24.00,19.00,-981.00
2024-05-17 16:26:11.620756,2,-2,9,0,0,0,81,83,141,140,44,192.19,335,-56.00,4.00,-1040.00
2024-05-17 16:26:11.799480,1,-1,9,0,0,0,81,83,137,130,44,192.17,335,-5.00,13.00,-920.00
2024-05-17 16:26:11.824840,0,0,9,0,0,0,81,83,137,130,44,192.20,335,8.00,13.00,-1050.00
2024-05-17 16:26:12.003685,0,0,9,0,0,0,81,83,138,130,44,192.19,335,14.00,25.00,-894.00
2024-05-17 16:26:12.028855,0,0,9,0,0,0,81,83,139,130,44,192.12,335,-54.00,31.00,-968.00
2024-05-17 16:26:12.208044,0,0,9,0,0,0,81,83,143,130,44,192.19,335,-16.00,0.00,-1000.00
2024-05-17 16:26:12.232901,0,0,9,0,0,0,81,83,141,130,44,192.19,335,77.00,18.00,-1017.00
2024-05-17 16:26:12.413116,0,0,9,0,0,0,81,83,142,130,44,192.19,335,11.00,44.00,-1040.00
2024-05-17 16:26:12.436887,0,-1,9,0,0,0,80,82,144,140,44,192.23,336,10.00,1.00,-981.00
2024-05-17 16:26:12.538872,0,0,9,0,0,-1,80,82,146,140,44,192.27,336,7.00,20.00,-1069.00
2024-05-17 16:26:12.719790,0,0,9,0,0,-1,80,82,146,140,44,192.29,336,-25.00,20.00,-823.00
2024-05-17 16:26:12.743245,1,0,9,0,0,0,80,82,148,140,44,192.32,336,64.00,-15.00,-976.00
2024-05-17 16:26:12.846546,1,0,9,0,0,0,80,82,149,140,44,192.24,336,17.00,16.00,-996.00
2024-05-17 16:26:13.027313,1,0,10,0,0,0,80,82,149,140,44,192.23,336,0.00,13.00,-870.00
2024-05-17 16:26:13.027539,1,0,10,0,0,0,80,82,148,140,44,192.27,336,40.00,1.00,-1055.00
2024-05-17 16:26:13.100818,1,0,9,0,0,1,80,82,146,140,44,192.25,336,-24.00,16.00,-888.00
2024-05-17 16:26:13.231796,0,0,10,0,0,1,80,82,142,140,44,192.22,336,11.00,8.00,-1009.00
2024-05-17 16:26:13.304786,0,0,9,0,0,1,80,82,140,140,44,192.24,336,-3.00,55.00,-940.00
2024-05-17 16:26:13.458341,0,0,10,0,0,1,81,82,139,130,44,192.28,337,-32.00,17.00,-976.00
2024-05-17 16:26:13.509257,0,0,10,0,0,1,81,82,143,130,44,192.21,337,-6.00,37.00,-1048.00
2024-05-17 16:26:13.624343,-1,-1,10,-1,0,1,81,82,143,130,44,192.22,337,-28.00,40.00,-1001.00
2024-05-17 16:26:13.715939,-2,-1,10,0,0,0,81,82,145,130,44,192.20,337,2.00,45.00,-1131.00
2024-05-17 16:26:13.815186,1,-1,10,0,0,0,81,82,149,130,44,192.17,337,23.00,6.00,-1039.00
2024-05-17 16:26:13.949738,8,-1,9,0,0,-1,81,82,152,140,44,192.25,337,29.00,14.00,-1023.00
2024-05-17 16:26:14.018692,9,0,10,-1,0,-1,81,82,155,140,44,192.30,337,-72.00,33.00,-956.00
2024-05-17 16:26:14.120747,8,0,10,-2,0,-1,81,82,157,140,44,192.30,337,3.00,11.00,-1007.00
2024-05-17 16:26:14.255545,8,0,10,-3,0,0,81,82,157,140,44,192.28,337,80.00,17.00,-934.00
2024-05-17 16:26:14.327513,8,0,10,-4,0,0,81,82,158,140,44,192.25,337,32.00,21.00,-894.00
2024-05-17 16:26:14.426582,8,0,10,-6,0,0,80,82,158,140,44,192.31,338,73.00,-9.00,-925.00
2024-05-17 16:26:14.529058,7,-1,9,-7,0,0,80,82,155,140,44,192.27,338,30.00,60.00,-1010.00
2024-05-17 16:26:14.631372,4,-2,9,-8,-1,0,80,82,158,140,44,192.21,338,-18.00,65.00,-951.00
2024-05-17 16:26:14.733710,4,-1,10,-8,-1,0,80,82,158,140,44,192.18,338,47.00,-14.00,-980.00
2024-05-17 16:26:14.836125,2,-1,10,-7,-1,0,80,82,158,140,44,192.23,338,24.00,13.00,-936.00
2024-05-17 16:26:14.938241,0,0,10,-7,-1,0,80,82,155,140,44,192.22,338,82.00,-7.00,-998.00
2024-05-17 16:26:15.040677,-3,0,10,-6,-1,0,80,82,156,140,44,192.29,338,51.00,-6.00,-850.00
2024-05-17 16:26:15.143018,-4,0,10,-5,-1,0,80,82,156,140,44,192.23,338,86.00,4.00,-957.00
2024-05-17 16:26:15.242567,-3,0,10,-4,0,0,80,82,154,140,44,192.25,338,19.00,-7.00,-922.00
2024-05-17 16:26:15.382022,-2,0,10,-3,0,0,80,82,154,140,44,192.27,338,-30.00,37.00,-967.00
2024-05-17 16:26:15.446559,-1,0,10,-3,0,0,80,82,151,140,44,192.21,339,69.00,-4.00,-983.00
2024-05-17 16:26:15.590213,0,0,10,-2,0,0,80,82,152,140,44,192.22,339,-32.00,5.00,-910.00
2024-05-17 16:26:15.656213,1,0,10,-2,0,0,80,82,152,140,44,192.28,339,27.00,32.00,-1014.00
2024-05-17 16:26:15.753025,0,0,10,-2,0,0,80,82,148,140,44,192.24,339,42.00,-6.00,-1002.00
2024-05-17 16:26:15.895603,0,0,10,-2,0,1,80,82,149,140,44,192.23,339,29.00,9.00,-992.00
2024-05-17 16:26:15.956622,-4,-1,10,-2,0,1,80,82,147,140,44,192.19,339,140.00,-21.00,-1070.00
2024-05-17 16:26:16.098862,-2,-1,10,-1,0,1,80,82,147,140,44,192.18,339,-20.00,27.00,-981.00
2024-05-17 16:26:16.166654,-1,-1,10,0,0,0,80,82,147,140,44,192.27,339,64.00,-8.00,-1073.00
2024-05-17 16:26:16.263732,0,0,10,0,0,0,80,82,146,140,44,192.17,339,-2.00,15.00,-1003.00
2024-05-17 16:26:16.407202,0,0,10,0,0,0,80,82,145,140,44,192.13,339,34.00,-12.00,-1048.00
2024-05-17 16:26:16.467725,0,0,10,0,0,0,81,82,144,140,44,192.15,340,39.00,-16.00,-977.00
2024-05-17 16:26:16.610995,0,0,10,0,0,0,81,82,144,140,44,192.20,340,-6.00,6.00,-966.00
2024-05-17 16:26:16.672142,0,0,10,0,0,0,81,82,144,140,44,192.21,340,6.00,-2.00,-1026.00
2024-05-17 16:26:16.774636,-1,0,10,0,0,0,81,82,145,140,44,192.18,340,24.00,-7.00,-958.00
2024-05-17 16:26:16.922956,0,0,10,0,0,0,81,82,143,140,44,192.18,340,0.00,22.00,-1076.00
2024-05-17 16:26:16.978832,0,0,10,0,0,0,81,82,145,140,44,192.20,340,35.00,-19.00,-1005.00
2024-05-17 16:26:17.028658,-1,0,10,0,0,0,81,82,145,140,44,192.15,340,57.00,-38.00,-1001.00
2024-05-17 16:26:17.228757,0,0,10,0,0,0,81,82,144,140,44,192.19,340,-54.00,27.00,-983.00
2024-05-17 16:26:17.238739,0,0,10,0,0,0,81,82,143,140,44,192.16,340,1.00,17.00,-1035.00
2024-05-17 16:26:17.335141,0,0,10,0,0,0,81,82,141,140,44,192.14,340,-18.00,15.00,-948.00
2024-05-17 16:26:17.436622,0,0,10,0,0,0,80,83,140,140,44,192.19,341,62.00,-9.00,-1047.00
2024-05-17 16:26:17.635043,0,0,10,0,0,0,80,83,139,140,44,192.12,341,-16.00,14.00,-1046.00
2024-05-17 16:26:17.640699,0,0,10,0,0,0,80,83,139,140,44,192.15,341,28.00,-6.00,-1047.00
2024-05-17 16:26:17.839972,0,0,10,0,0,0,80,83,139,140,44,192.17,341,24.00,-7.00,-1052.00
2024-05-17 16:26:17.844589,0,0,10,0,0,0,80,83,138,130,44,192.06,341,-8.00,-18.00,-955.00
2024-05-17 16:26:18.044576,0,0,9,0,0,0,80,83,138,130,44,192.13,341,-78.00,18.00,-902.00
2024-05-17 16:26:18.049014,0,0,9,0,0,0,80,83,139,130,44,192.08,341,-20.00,19.00,-1032.00
2024-05-17 16:26:18.153001,0,0,9,0,0,0,80,83,138,130,44,192.11,341,-1.00,23.00,-951.00
2024-05-17 16:26:18.253434,-1,0,9,0,0,0,80,83,140,130,44,192.12,341,-18.00,43.00,-964.00
2024-05-17 16:26:18.355849,0,-5,9,0,0,0,80,83,140,130,44,192.13,341,31.00,-30.00,-1191.00
2024-05-17 16:26:18.456473,0,-9,9,0,-1,0,80,83,144,130,44,192.17,342,3.00,34.00,-983.00
2024-05-17 16:26:18.561066,1,-7,9,1,-2,0,80,83,141,130,44,192.19,342,-39.00,67.00,-879.00
2024-05-17 16:26:18.660445,1,-4,9,1,-3,0,80,83,140,130,44,192.20,342,-11.00,23.00,-1013.00
2024-05-17 16:26:18.864024,1,-1,9,0,-4,0,80,83,141,140,44,192.13,342,-38.00,34.00,-843.00
2024-05-17 16:26:18.865275,1,1,9,0,-4,0,80,83,142,140,44,192.07,342,-68.00,65.00,-993.00
2024-05-17 16:26:19.068593,1,1,9,0,-3,0,80,83,141,140,44,192.11,342,-38.00,24.00,-928.00
2024-05-17 16:26:19.068674,0,0,9,0,-3,0,80,83,137,140,44,192.14,342,31.00,6.00,-981.00
2024-05-17 16:26:19.171919,0,0,9,0,-2,0,80,83,136,140,44,192.16,342,30.00,12.00,-938.00
2024-05-17 16:26:19.273432,0,0,9,0,-2,0,80,83,138,140,44,192.16,342,15.00,12.00,-1056.00
2024-05-17 16:26:19.376362,0,-1,9,0,-2,0,80,83,134,130,44,192.07,342,15.00,13.00,-955.00
2024-05-17 16:26:19.479755,0,-1,9,0,-2,0,80,82,132,130,43,192.07,343,55.00,16.00,-1046.00
2024-05-17 16:26:19.578450,0,-1,9,0,-2,0,80,82,132,130,43,192.12,343,-67.00,35.00,-1029.00
2024-05-17 16:26:19.683156,0,-1,9,0,-2,0,80,82,128,130,43,191.97,343,-15.00,-2.00,-1003.00
2024-05-17 16:26:19.788478,1,0,9,0,-2,0,80,82,130,130,43,191.97,343,8.00,-7.00,-1028.00
2024-05-17 16:26:19.888060,1,0,9,0,-2,0,80,82,127,130,43,192.04,343,74.00,-9.00,-989.00
2024-05-17 16:26:19.986407,0,0,9,0,-2,0,80,82,128,130,43,192.02,343,3.00,10.00,-1020.00
2024-05-17 16:26:20.092761,0,2,9,0,-2,0,80,82,127,130,43,192.08,343,16.00,0.00,-1088.00
2024-05-17 16:26:20.190411,0,4,10,0,-1,0,80,82,126,130,43,192.01,343,25.00,22.00,-1013.00
2024-05-17 16:26:20.300583,-1,1,9,0,0,0,80,82,125,130,43,192.06,343,-105.00,38.00,-899.00
2024-05-17 16:26:20.394409,-3,0,10,0,0,0,80,82,124,130,43,192.01,343,-16.00,16.00,-968.00
2024-05-17 16:26:20.502747,-3,0,10,0,0,0,79,82,125,130,43,192.01,344,42.00,2.00,-1024.00
2024-05-17 16:26:20.598616,-1,-1,10,1,0,0,79,82,125,120,43,191.96,344,34.00,-5.00,-1012.00
2024-05-17 16:26:20.706789,1,0,9,1,0,0,79,82,126,120,43,191.97,344,-59.00,35.00,-1024.00
2024-05-17 16:26:20.752091,4,0,9,1,0,0,79,82,129,120,43,192.03,344,-41.00,19.00,-1047.00
2024-05-17 16:26:20.913693,1,0,9,0,0,-1,79,82,124,130,43,192.04,344,30.00,15.00,-967.00
2024-05-17 16:26:20.956672,0,0,10,0,0,-1,79,82,125,130,43,192.01,344,18.00,7.00,-1023.00
2024-05-17 16:26:21.058316,0,-1,10,0,0,-1,79,82,126,130,43,192.07,344,20.00,-11.00,-877.00
2024-05-17 16:26:21.219561,0,0,10,0,0,0,79,82,126,130,43,192.13,344,64.00,-8.00,-972.00
2024-05-17 16:26:21.261624,0,0,10,0,0,0,79,82,126,130,43,192.08,344,8.00,29.00,-964.00
2024-05-17 16:26:21.423800,1,0,10,0,0,0,79,82,127,130,43,192.08,344,43.00,8.00,-1002.00
2024-05-17 16:26:21.465529,0,0,10,0,0,0,80,82,127,130,43,192.00,345,79.00,-31.00,-1064.00
2024-05-17 16:26:21.629472,0,0,10,0,0,0,80,82,126,130,43,192.11,345,-88.00,69.00,-973.00
2024-05-17 16:26:21.669668,0,0,10,0,0,0,80,82,127,130,43,192.03,345,63.00,-16.00,-1060.00
2024-05-17 16:26:21.835042,0,0,10,0,0,0,80,82,130,130,43,192.02,345,43.00,1.00,-1006.00
2024-05-17 16:26:21.874650,0,0,10,0,0,0,80,82,130,130,43,192.02,345,-47.00,49.00,-1023.00
2024-05-17 16:26:22.039806,0,0,10,0,0,0,80,82,132,130,43,192.09,345,24.00,-2.00,-954.00
2024-05-17 16:26:22.077364,0,0,10,0,0,0,80,82,132,130,43,192.10,345,38.00,8.00,-1097.00
2024-05-17 16:26:22.179554,0,0,10,0,0,0,80,82,131,130,43,192.08,345,-19.00,20.00,-979.00
2024-05-17 16:26:22.345542,0,0,10,0,0,0,80,82,131,130,43,192.05,345,-37.00,22.00,-903.00
2024-05-17 16:26:22.383728,0,0,10,0,0,0,80,82,131,130,43,192.13,345,41.00,-11.00,-1070.00
2024-05-17 16:26:22.553583,0,0,10,0,0,0,80,82,132,130,42,192.13,346,42.00,-16.00,-1000.00
2024-05-17 16:26:22.587748,0,0,10,0,0,0,80,82,132,130,42,192.13,346,-21.00,18.00,-973.00
2024-05-17 16:26:22.709077,0,0,10,0,0,0,80,82,134,130,42,192.09,346,-13.00,16.00,-971.00
2024-05-17 16:26:22.792443,1,0,10,0,0,0,80,82,134,130,42,192.17,346,-55.00,38.00,-981.00
2024-05-17 16:26:22.959691,1,4,10,0,0,0,80,82,139,130,42,192.08,346,6.00,-13.00,-1021.00
2024-05-17 16:26:22.996364,2,8,10,0,1,0,80,82,141,130,42,192.14,346,13.00,20.00,-1066.00
2024-05-17 16:26:23.164438,1,6,10,0,2,0,80,82,140,130,42,192.13,346,-24.00,34.00,-989.00
2024-05-17 16:26:23.200297,1,4,10,0,3,0,80,82,138,130,42,192.14,346,16.00,-20.00,-987.00
2024-05-17 16:26:23.369265,1,1,10,0,3,0,80,82,142,130,42,192.20,346,-39.00,-3.00,-941.00
2024-05-17 16:26:23.404272,1,-1,10,0,3,0,80,82,140,130,42,192.20,347,-75.00,23.00,-960.00
2024-05-17 16:26:23.574864,0,-1,10,0,3,0,80,82,138,130,42,192.17,347,-14.00,-14.00,-1047.00
2024-05-17 16:26:23.608292,0,0,10,0,2,0,80,82,138,130,42,192.16,347,61.00,-25.00,-1086.00
2024-05-17 16:26:23.780368,0,0,10,0,2,0,80,82,139,140,42,192.14,347,-28.00,2.00,-979.00
2024-05-17 16:26:23.812303,0,0,9,0,2,0,80,82,140,140,42,192.09,347,23.00,-31.00,-1015.00
2024-05-17 16:26:23.916708,0,0,9,0,2,0,80,82,140,140,42,192.20,347,-39.00,3.00,-1021.00
2024-05-17 16:26:24.016288,0,0,9,0,2,0,80,82,142,140,42,192.22,347,-7.00,-14.00,-1072.00
2024-05-17 16:26:24.189298,0,0,9,0,2,0,80,82,141,140,42,192.16,347,40.00,-30.00,-1049.00
2024-05-17 16:26:24.220278,-1,0,10,0,2,0,80,82,145,140,42,192.16,347,35.00,-38.00,-936.00
2024-05-17 16:26:24.398572,0,0,10,0,2,0,80,82,144,140,42,192.17,347,-31.00,9.00,-961.00
2024-05-17 16:26:24.398619,0,0,10,0,2,0,80,82,144,140,42,192.15,348,-3.00,2.00,-1050.00
2024-05-17 16:26:24.598047,0,1,10,0,2,0,80,82,143,140,42,192.21,348,31.00,-15.00,-1046.00
2024-05-17 16:26:24.598090,0,0,10,0,2,0,80,82,143,140,42,192.17,348,91.00,-40.00,-1033.00
2024-05-17 16:26:24.679533,0,0,10,0,2,0,80,82,144,140,42,192.14,348,41.00,-28.00,-965.00
2024-05-17 16:26:24.794308,0,0,10,0,2,0,80,82,143,140,42,192.11,348,68.00,-9.00,-1012.00
2024-05-17 16:26:24.886299,0,-5,10,0,1,0,80,82,144,140,42,192.06,348,42.00,-44.00,-1031.00
2024-05-17 16:26:24.988581,0,-2,10,0,0,0,80,82,144,140,42,192.12,348,-57.00,19.00,-911.00
2024-05-17 16:26:25.091118,0,-1,10,0,0,0,80,82,142,140,42,192.13,348,64.00,-22.00,-1052.00
2024-05-17 16:26:25.193426,0,0,10,0,0,0,80,82,142,140,42,192.19,348,13.00,12.00,-1079.00
2024-05-17 16:26:25.291745,0,0,10,0,0,0,80,82,143,140,42,192.19,348,18.00,4.00,-945.00
2024-05-17 16:26:25.417367,0,0,10,0,0,0,80,82,143,140,42,192.22,349,-37.00,27.00,-992.00
2024-05-17 16:26:25.495893,0,0,10,0,0,0,80,82,144,140,41,192.20,349,45.00,-11.00,-1034.00
2024-05-17 16:26:25.623179,0,0,10,0,0,0,80,82,146,140,41,192.17,349,-15.00,4.00,-1037.00
2024-05-17 16:26:25.699733,0,0,10,0,0,0,80,82,146,140,41,192.17,349,-25.00,3.00,-954.00
2024-05-17 16:26:25.829219,0,0,10,0,0,0,80,82,146,140,41,192.13,349,31.00,-5.00,-963.00
2024-05-17 16:26:25.903439,-1,0,10,0,0,0,80,82,143,140,41,192.19,349,-1.00,20.00,-1016.00
2024-05-17 16:26:26.035312,0,0,10,0,0,0,80,82,144,140,41,192.26,349,-22.00,19.00,-1014.00
2024-05-17 16:26:26.108147,-1,0,10,0,0,0,80,82,143,140,41,192.22,349,31.00,-4.00,-1017.00
2024-05-17 16:26:26.239264,0,0,10,0,0,0,80,82,143,140,41,192.18,349,52.00,-12.00,-998.00
2024-05-17 16:26:26.315140,0,0,10,0,0,0,80,82,142,140,41,192.20,349,-19.00,4.00,-1008.00
2024-05-17 16:26:26.413790,0,0,10,0,0,0,80,82,141,140,41,192.15,350,-53.00,27.00,-976.00
2024-05-17 16:26:26.545241,0,0,10,0,0,0,80,82,141,140,41,192.19,350,31.00,3.00,-1021.00
2024-05-17 16:26:26.617422,0,0,10,0,0,0,80,82,141,140,41,192.16,350,13.00,2.00,-1012.00
2024-05-17 16:26:26.748906,0,0,10,0,0,0,80,82,141,140,41,192.19,350,29.00,-6.00,-1035.00
2024-05-17 16:26:26.821411,0,0,10,0,0,0,80,82,141,140,41,192.19,350,-2.00,8.00,-1004.00
2024-05-17 16:26:26.955003,0,0,10,0,0,0,80,82,141,140,41,192.16,350,22.00,-15.00,-1037.00
2024-05-17 16:26:27.025296,0,0,10,0,0,0,80,82,140,140,41,192.15,350,40.00,0.00,-1009.00
2024-05-17 16:26:27.158783,0,0,10,0,0,0,80,82,141,140,41,192.14,350,30.00,-10.00,-994.00
2024-05-17 16:26:27.229250,0,0,15,0,0,0,80,82,142,130,41,192.20,350,-29.00,2.00,-977.00
2024-05-17 16:26:27.363624,0,0,21,0,0,0,80,82,141,130,41,192.27,350,20.00,6.00,-1001.00
2024-05-17 16:26:27.433490,0,0,27,0,0,0,80,82,141,130,41,192.22,351,-50.00,24.00,-929.00
2024-05-17 16:26:27.567658,0,-1,33,0,0,0,80,83,140,130,40,192.17,351,9.00,-3.00,-947.00
2024-05-17 16:26:27.638343,-1,-1,39,0,0,0,80,83,139,130,40,192.22,351,0.00,11.00,-1063.00
2024-05-17 16:26:27.772476,-1,-1,45,0,0,0,80,83,140,130,40,192.19,351,-23.00,30.00,-956.00
2024-05-17 16:26:27.841212,0,-1,51,0,0,0,80,83,139,130,40,192.14,351,-49.00,36.00,-977.00
2024-05-17 16:26:27.983181,0,-1,57,0,0,0,80,83,139,130,40,192.14,351,-2.00,22.00,-1029.00
2024-05-17 16:26:28.045107,0,-1,64,0,0,0,80,83,138,130,40,192.19,351,54.00,7.00,-1030.00
2024-05-17 16:26:28.182697,0,0,70,0,0,0,80,83,137,130,40,192.19,351,-25.00,34.00,-981.00
2024-05-17 16:26:28.198102,0,-1,76,0,0,0,80,83,138,140,40,192.20,351,62.00,-6.00,-1027.00
2024-05-17 16:26:28.386841,0,-1,82,0,0,0,80,83,138,140,40,192.19,351,10.00,28.00,-967.00
2024-05-17 16:26:28.403337,0,0,88,0,0,0,80,83,138,140,40,192.15,352,-39.00,47.00,-993.00
2024-05-17 16:26:28.591625,0,0,94,0,0,0,80,82,140,140,40,192.14,352,-54.00,33.00,-1011.00
2024-05-17 16:26:28.659066,0,-1,101,0,0,0,80,82,140,140,40,192.19,352,8.00,4.00,-1001.00
2024-05-17 16:26:28.708061,0,0,107,0,0,0,80,82,137,130,40,192.13,352,48.00,1.00,-1062.00
2024-05-17 16:26:28.811064,0,0,113,0,0,0,80,82,135,130,40,192.13,352,17.00,17.00,-1001.00
2024-05-17 16:26:29.001183,0,0,119,0,0,0,80,82,135,130,40,192.11,352,-14.00,31.00,-1006.00
2024-05-17 16:26:29.023437,0,0,126,0,0,0,80,82,134,130,40,192.12,352,6.00,19.00,-1001.00
2024-05-17 16:26:29.120555,0,0,132,0,0,0,80,82,134,130,40,192.13,352,42.00,16.00,-1019.00
2024-05-17 16:26:29.219555,0,0,138,0,0,0,80,82,134,130,40,192.10,352,7.00,-13.00,-987.00
2024-05-17 16:26:29.414208,0,0,144,0,0,0,80,82,133,130,40,192.04,352,56.00,-23.00,-1055.00
2024-05-17 16:26:29.425056,0,0,151,0,0,0,80,82,133,130,39,192.08,353,50.00,-14.00,-1077.00
2024-05-17 16:26:29.525561,0,0,157,0,0,0,80,82,133,130,39,192.07,353,52.00,-42.00,-978.00
2024-05-17 16:26:29.718023,0,0,163,0,0,0,80,82,133,130,39,192.08,353,-20.00,26.00,-1056.00
2024-05-17 16:26:29.729572,0,0,169,0,0,0,80,82,133,130,39,192.09,353,-55.00,34.00,-995.00
2024-05-17 16:26:29.835705,0,0,175,0,0,0,80,82,134,130,39,192.12,353,-15.00,7.00,-969.00
2024-05-17 16:26:29.933126,0,0,-177,0,0,0,80,82,134,130,39,192.11,353,-13.00,40.00,-934.00
2024-05-17 16:26:30.127593,0,0,-172,0,0,0,80,82,133,130,39,192.10,353,-7.00,18.00,-1026.00
2024-05-17 16:26:30.136983,0,0,-166,0,0,0,80,82,133,130,39,192.06,353,-19.00,10.00,-1025.00
2024-05-17 16:26:30.332353,0,0,-161,0,0,0,80,82,134,130,39,192.08,353,-39.00,31.00,-1016.00
2024-05-17 16:26:30.341116,0,0,-155,0,0,0,80,82,135,130,39,192.14,353,23.00,10.00,-1029.00
2024-05-17 16:26:30.446596,0,0,-150,0,0,0,80,82,139,130,39,192.05,354,-25.00,17.00,-923.00
2024-05-17 16:26:30.545062,0,0,-145,0,0,0,79,82,139,130,39,192.09,354,6.00,4.00,-999.00
2024-05-17 16:26:30.742292,0,0,-139,0,0,0,79,82,138,130,39,192.09,354,4.00,10.00,-975.00
2024-05-17 16:26:30.750499,0,0,-134,0,0,0,79,82,141,130,39,192.07,354,-29.00,42.00,-1001.00
2024-05-17 16:26:30.851251,0,0,-128,0,0,0,79,82,141,130,39,192.11,354,-74.00,69.00,-966.00
2024-05-17 16:26:30.953808,0,0,-123,0,0,0,79,82,140,130,39,192.07,354,-47.00,43.00,-1027.00
2024-05-17 16:26:31.153286,0,0,-117,0,0,0,79,82,140,130,39,192.08,354,-25.00,46.00,-1058.00
2024-05-17 16:26:31.157768,0,0,-112,0,0,0,79,82,140,130,39,192.13,354,-4.00,-1.00,-1008.00
2024-05-17 16:26:31.357777,0,0,-106,0,0,0,79,82,140,130,39,192.09,354,-7.00,18.00,-994.00
2024-05-17 16:26:31.365113,0,0,-101,0,0,0,79,82,139,130,39,192.15,354,65.00,-4.00,-1092.00
2024-05-17 16:26:31.466804,0,0,-95,0,0,0,79,82,137,130,38,192.15,355,69.00,-1.00,-1005.00
2024-05-17 16:26:31.568666,1,0,-90,0,0,0,80,82,140,130,38,192.13,355,-12.00,13.00,-1023.00
2024-05-17 16:26:31.667110,1,1,-84,0,0,0,80,82,139,130,38,192.15,355,46.00,-6.00,-1037.00
2024-05-17 16:26:31.769242,0,1,-78,0,0,0,80,82,138,140,38,192.14,355,-15.00,15.00,-898.00
2024-05-17 16:26:31.870940,0,0,-72,0,0,0,80,82,137,140,38,192.14,355,-14.00,24.00,-971.00
2024-05-17 16:26:31.973941,0,0,-66,0,0,0,80,82,138,130,38,192.09,355,-8.00,0.00,-942.00
2024-05-17 16:26:32.076442,0,0,-60,0,0,0,80,82,139,130,38,192.14,355,35.00,-1.00,-975.00
2024-05-17 16:26:32.181749,0,0,-54,0,0,0,80,82,139,130,38,192.12,355,113.00,-55.00,-1032.00
2024-05-17 16:26:32.279148,0,0,-48,0,0,0,80,82,139,130,38,192.12,355,-60.00,29.00,-990.00
2024-05-17 16:26:32.482803,0,0,-42,0,0,0,80,82,139,130,38,192.16,355,22.00,-7.00,-1004.00
2024-05-17 16:26:32.483522,0,0,-35,0,0,0,80,82,138,130,38,192.23,356,-93.00,67.00,-984.00
2024-05-17 16:26:32.585955,0,0,-29,0,0,0,80,82,139,130,38,192.17,356,60.00,-5.00,-1078.00
2024-05-17 16:26:32.688368,0,0,-23,0,0,0,80,82,139,130,38,192.16,356,49.00,0.00,-1084.00
2024-05-17 16:26:32.741734,0,0,-17,0,0,0,80,82,140,130,38,192.18,356,4.00,18.00,-947.00
2024-05-17 16:26:32.847763,0,0,-11,0,0,0,80,82,141,130,38,192.17,356,-10.00,2.00,-923.00
2024-05-17 16:26:32.946383,0,0,-5,0,0,0,80,82,140,130,38,192.11,356,22.00,9.00,-932.00
2024-05-17 16:26:33.044115,0,0,-1,0,0,0,80,82,140,130,38,192.03,356,40.00,5.00,-1046.00
2024-05-17 16:26:33.154435,0,0,1,0,0,0,80,82,142,130,38,192.10,356,25.00,15.00,-1061.00
2024-05-17 16:26:33.247806,0,0,3,0,0,0,80,82,141,130,38,192.15,356,45.00,1.00,-1050.00
2024-05-17 16:26:33.404401,0,0,5,0,0,0,80,82,141,130,38,192.16,356,53.00,-18.00,-1000.00
2024-05-17 16:26:33.453206,0,0,6,0,0,0,80,82,141,130,38,192.17,357,-39.00,31.00,-990.00
2024-05-17 16:26:33.609508,0,0,7,0,0,0,80,82,139,130,38,192.15,357,-9.00,39.00,-1023.00
2024-05-17 16:26:33.656071,0,0,8,0,0,0,80,82,141,140,38,192.15,357,59.00,-13.00,-1069.00
2024-05-17 16:26:33.823739,1,0,8,0,0,0,80,82,142,140,38,192.11,357,63.00,3.00,-1010.00
2024-05-17 16:26:33.860242,1,0,9,0,0,0,80,82,142,140,38,192.07,357,73.00,-6.00,-1038.00
2024-05-17 16:26:33.962021,1,0,9,0,0,0,80,82,143,140,38,192.21,357,43.00,30.00,-981.00
2024-05-17 16:26:34.121262,1,0,9,0,0,0,80,82,143,140,38,192.28,357,2.00,32.00,-1021.00
2024-05-17 16:26:34.165947,1,0,10,0,0,0,80,82,142,140,38,192.21,357,76.00,-27.00,-946.00
2024-05-17 16:26:34.326206,1,0,10,0,0,0,80,82,143,140,38,192.15,357,-15.00,10.00,-959.00
2024-05-17 16:26:34.369910,0,0,11,0,0,0,80,82,143,140,38,192.19,357,37.00,-6.00,-1056.00
2024-05-17 16:26:34.542169,0,0,11,0,0,0,80,82,142,140,37,192.12,358,51.00,-11.00,-988.00
2024-05-17 16:26:34.573908,0,0,11,0,0,0,79,81,142,140,37,192.10,358,14.00,13.00,-1065.00
2024-05-17 16:26:34.735942,0,0,11,0,0,0,79,81,141,140,37,192.15,358,27.00,17.00,-1056.00
2024-05-17 16:26:34.777860,0,0,11,0,0,0,79,81,141,140,37,192.16,358,56.00,-1.00,-988.00
2024-05-17 16:26:34.880023,0,0,11,0,0,0,79,81,142,140,37,192.21,358,-13.00,12.00,-940.00
2024-05-17 16:26:35.044622,0,0,11,0,0,0,79,81,142,140,37,192.19,358,41.00,3.00,-1036.00
2024-05-17 16:26:35.083982,0,0,11,0,0,0,79,81,141,140,37,192.22,358,-88.00,47.00,-917.00
2024-05-17 16:26:35.248147,0,0,11,0,0,0,79,81,141,140,37,192.16,358,13.00,8.00,-984.00
2024-05-17 16:26:35.292098,0,0,11,0,0,0,79,81,141,140,37,192.21,358,57.00,-4.00,-978.00
2024-05-17 16:26:35.390517,0,0,11,0,0,0,79,81,141,140,37,192.14,358,58.00,-2.00,-1014.00
2024-05-17 16:26:35.558321,1,0,11,0,0,0,79,81,141,140,37,192.18,359,44.00,6.00,-1015.00
2024-05-17 16:26:35.597957,0,0,11,0,0,0,79,81,141,140,37,192.15,359,5.00,2.00,-1065.00
2024-05-17 16:26:35.698062,0,0,11,0,0,0,79,81,142,140,37,192.15,359,-17.00,10.00,-980.00
2024-05-17 16:26:35.797876,0,0,11,0,0,0,79,81,142,140,37,192.11,359,-43.00,28.00,-926.00
2024-05-17 16:26:35.902485,0,0,6,0,0,0,79,81,142,140,37,192.18,359,37.00,-13.00,-1039.00
2024-05-17 16:26:35.950884,0,0,0,0,0,0,79,81,143,140,37,192.12,359,61.00,-15.00,-963.00
2024-05-17 16:26:36.066730,0,0,-5,0,0,0,79,81,143,140,37,192.15,359,-33.00,31.00,-883.00
2024-05-17 16:26:36.155483,0,0,-12,0,0,0,79,81,143,140,37,192.14,359,49.00,13.00,-1051.00
2024-05-17 16:26:36.274462,0,0,-18,0,0,0,79,81,143,140,37,192.14,359,43.00,6.00,-1025.00
2024-05-17 16:26:36.358967,1,0,-24,0,0,0,79,81,144,140,37,192.15,359,29.00,1.00,-1056.00
2024-05-17 16:26:36.476379,1,0,-31,0,0,0,79,81,142,140,37,192.19,360,-60.00,29.00,-888.00
2024-05-17 16:26:36.564017,0,0,-37,0,0,0,80,82,141,140,37,192.13,360,2.00,23.00,-999.00
2024-05-17 16:26:36.681170,0,0,-44,0,0,0,80,82,141,140,37,192.15,360,1.00,25.00,-1061.00
2024-05-17 16:26:36.770492,0,0,-50,0,0,0,80,82,139,140,37,192.12,360,36.00,12.00,-966.00
2024-05-17 16:26:36.868764,0,0,-56,0,0,0,80,82,139,130,37,192.18,360,-33.00,25.00,-1014.00
2024-05-17 16:26:36.992849,0,0,-63,0,0,0,80,82,139,130,37,192.11,360,48.00,2.00,-1030.00
2024-05-17 16:26:37.093593,0,0,-69,0,0,0,80,82,139,130,37,192.17,360,-40.00,56.00,-913.00
2024-05-17 16:26:37.195942,0,0,-76,0,0,0,80,82,139,130,37,192.12,360,3.00,27.00,-1026.00
2024-05-17 16:26:37.276773,0,0,-82,0,0,0,80,82,141,130,37,192.11,360,-21.00,37.00,-1002.00
2024-05-17 16:26:37.378960,0,0,-89,0,0,0,80,82,142,130,37,192.11,360,8.00,-2.00,-1076.00
2024-05-17 16:26:37.480930,0,0,-96,0,0,0,80,82,141,130,36,192.10,361,27.00,-13.00,-928.00
2024-05-17 16:26:37.604778,0,0,-110,0,0,0,80,82,141,130,36,192.17,361,-67.00,18.00,-969.00
2024-05-17 16:26:37.684848,-1,0,-117,0,0,0,80,82,145,130,36,192.16,361,41.00,5.00,-1031.00
2024-05-17 16:26:37.809448,0,0,-123,0,0,0,80,82,145,130,36,192.11,361,37.00,-4.00,-1099.00
2024-05-17 16:26:37.891125,0,0,-130,0,0,0,80,82,147,140,36,192.12,361,-1.00,19.00,-1041.00
2024-05-17 16:26:37.991620,0,0,-137,0,0,0,80,82,147,140,36,192.17,361,-23.00,28.00,-921.00
2024-05-17 16:26:38.092783,0,0,-143,0,0,0,80,82,147,140,36,192.18,361,-30.00,-2.00,-983.00
2024-05-17 16:26:38.218765,0,0,-150,0,0,0,80,82,146,140,36,192.25,361,1.00,24.00,-997.00
2024-05-17 16:26:38.296853,0,0,-156,0,0,0,80,82,146,140,36,192.17,361,3.00,-13.00,-988.00
2024-05-17 16:26:38.422811,0,0,-162,0,0,0,80,82,144,140,36,192.11,362,9.00,0.00,-1089.00
2024-05-17 16:26:38.500729,0,0,-168,0,0,0,80,82,142,140,36,192.05,362,6.00,-20.00,-962.00
2024-05-17 16:26:38.627661,0,1,-175,0,0,0,80,83,143,140,36,192.10,362,15.00,-1.00,-961.00
2024-05-17 16:26:38.705637,0,1,178,0,0,0,80,83,144,140,36,192.03,362,42.00,-16.00,-1020.00
2024-05-17 16:26:38.808391,0,1,172,0,0,0,80,83,142,140,36,192.10,362,25.00,-46.00,-939.00
2024-05-17 16:26:38.910631,0,1,166,0,0,0,80,83,139,140,36,192.09,362,-11.00,-20.00,-932.00
2024-05-17 16:26:39.012133,0,1,160,0,0,0,80,83,138,140,36,192.05,362,117.00,-39.00,-1079.00
2024-05-17 16:26:39.112935,0,1,154,0,0,0,80,83,138,130,36,192.02,362,19.00,-41.00,-932.00
2024-05-17 16:26:39.243415,1,1,149,0,0,0,80,83,139,130,36,192.09,362,30.00,-25.00,-1028.00
2024-05-17 16:26:39.323655,1,2,143,0,0,0,80,83,138,130,36,192.09,362,-38.00,2.00,-1018.00
2024-05-17 16:26:39.422929,1,1,137,0,0,0,80,83,136,130,36,191.99,363,16.00,-15.00,-924.00
2024-05-17 16:26:39.520786,1,1,131,0,0,0,80,83,135,130,36,192.06,363,35.00,-19.00,-1132.00
2024-05-17 16:26:39.651551,1,1,126,0,0,0,79,83,134,130,36,192.08,363,67.00,-36.00,-1042.00
2024-05-17 16:26:39.725000,1,1,120,0,0,0,79,83,133,130,36,192.05,363,-22.00,4.00,-1055.00
2024-05-17 16:26:39.860407,0,1,114,0,0,0,79,83,131,130,36,191.97,363,63.00,-27.00,-1073.00
2024-05-17 16:26:39.928689,0,0,108,0,0,0,79,83,131,130,36,191.99,363,-1.00,0.00,-965.00
2024-05-17 16:26:40.069559,0,0,103,0,0,0,79,83,132,130,36,191.98,363,82.00,-43.00,-974.00
2024-05-17 16:26:40.132648,1,0,97,0,0,0,79,83,134,130,36,192.04,363,46.00,-40.00,-939.00
2024-05-17 16:26:40.267068,1,0,91,0,0,0,79,83,136,130,36,192.11,363,-63.00,51.00,-991.00
2024-05-17 16:26:40.339003,1,0,85,0,0,0,79,83,137,130,36,192.04,363,46.00,-13.00,-1041.00
2024-05-17 16:26:40.438749,2,0,79,0,0,0,79,83,137,130,36,191.99,364,6.00,26.00,-975.00
2024-05-17 16:26:40.494678,2,0,73,0,0,0,79,83,138,130,35,192.03,364,100.00,-26.00,-995.00
2024-05-17 16:26:40.678304,2,0,66,0,0,0,80,82,140,130,35,192.06,364,-29.00,56.00,-953.00
2024-05-17 16:26:40.744650,1,-1,60,0,0,0,80,82,139,130,35,191.98,364,46.00,10.00,-1044.00
2024-05-17 16:26:40.795637,1,-1,54,0,0,0,80,82,138,130,35,192.09,364,-14.00,37.00,-1000.00
2024-05-17 16:26:40.897530,0,-1,47,0,0,0,80,82,134,130,35,192.10,364,-28.00,60.00,-969.00
2024-05-17 16:26:41.091640,0,-1,41,0,0,0,80,82,137,130,35,192.10,364,-4.00,56.00,-1103.00
2024-05-17 16:26:41.101450,-1,-1,34,0,0,0,80,82,139,130,35,192.14,364,75.00,27.00,-1046.00
2024-05-17 16:26:41.293530,-1,0,28,0,0,0,80,82,142,130,35,192.09,364,85.00,21.00,-1135.00
2024-05-17 16:26:41.307499,1,0,23,0,0,0,80,82,144,130,35,192.08,364,22.00,27.00,-960.00
2024-05-17 16:26:41.407531,2,0,19,0,0,0,80,82,146,130,35,192.10,365,59.00,-26.00,-967.00
2024-05-17 16:26:41.599782,2,-1,17,0,0,-1,80,82,147,140,35,192.21,365,0.00,22.00,-961.00
2024-05-17 16:26:41.612105,1,-1,15,0,0,-1,80,81,149,140,35,192.19,365,14.00,52.00,-1040.00
2024-05-17 16:26:41.802016,1,-1,13,0,0,-1,80,81,149,140,35,192.17,365,2.00,18.00,-1001.00
2024-05-17 16:26:41.815578,1,-1,13,0,0,0,80,81,149,140,35,192.26,365,-12.00,27.00,-976.00
2024-05-17 16:26:41.918735,0,0,12,0,0,0,80,81,147,140,35,192.19,365,28.00,-5.00,-931.00
2024-05-17 16:26:42.109570,0,0,12,0,0,0,80,81,147,140,35,192.13,365,25.00,44.00,-1035.00
2024-05-17 16:26:42.124606,0,-1,12,0,0,0,80,81,145,140,35,192.12,365,-37.00,63.00,-874.00
2024-05-17 16:26:42.225078,0,-1,13,0,0,1,80,81,145,140,35,192.18,365,33.00,3.00,-1022.00
2024-05-17 16:26:42.416131,0,-1,12,0,0,0,80,81,144,140,35,192.18,365,72.00,5.00,-1092.00
2024-05-17 16:26:42.430279,0,-1,12,0,0,0,80,81,143,140,35,192.12,366,50.00,19.00,-1057.00
2024-05-17 16:26:42.530775,0,-1,13,0,0,0,80,81,143,140,35,192.17,366,111.00,-27.00,-1074.00
2024-05-17 16:26:42.723603,0,0,13,0,0,0,80,82,142,140,35,192.05,366,-11.00,18.00,-925.00
2024-05-17 16:26:42.734679,0,-1,12,0,0,0,80,82,144,140,35,192.15,366,33.00,14.00,-1075.00
2024-05-17 16:26:42.927848,0,-1,12,0,0,0,80,82,141,140,35,192.15,366,-13.00,30.00,-1066.00
2024-05-17 16:26:42.940928,0,-1,12,0,0,0,80,82,140,140,35,192.13,366,58.00,16.00,-995.00
2024-05-17 16:26:43.040769,0,0,12,0,0,0,80,82,141,140,35,192.17,366,-27.00,33.00,-951.00
2024-05-17 16:26:43.234995,0,-1,12,0,0,0,80,82,142,140,35,192.22,366,-4.00,35.00,-942.00
2024-05-17 16:26:43.244580,0,-1,12,0,0,0,80,82,141,130,35,192.20,366,32.00,0.00,-1080.00
2024-05-17 16:26:43.440149,0,-1,12,0,0,0,80,82,141,140,35,192.20,366,27.00,22.00,-921.00
2024-05-17 16:26:43.448813,0,-1,12,0,0,0,80,82,141,140,35,192.28,367,2.00,-1.00,-960.00
2024-05-17 16:26:43.646097,0,0,12,0,0,0,80,82,142,140,35,192.19,367,1.00,17.00,-1009.00
2024-05-17 16:26:43.652619,0,-1,12,0,0,0,80,82,146,140,35,192.15,367,-31.00,50.00,-968.00
2024-05-17 16:26:43.820051,0,-1,12,0,0,0,80,82,143,140,35,192.14,367,4.00,51.00,-996.00
2024-05-17 16:26:43.857031,0,-1,12,0,0,0,80,82,149,140,35,192.19,367,-20.00,17.00,-1011.00
2024-05-17 16:26:43.959608,0,-1,12,0,0,0,80,82,145,140,35,192.21,367,-18.00,31.00,-956.00
2024-05-17 16:26:44.063008,0,-1,12,0,0,0,80,82,147,140,35,192.15,367,10.00,-9.00,-1007.00
2024-05-17 16:26:44.163626,0,-1,12,0,0,0,80,82,148,140,35,192.20,367,3.00,-6.00,-1027.00
2024-05-17 16:26:44.222671,0,-1,12,0,0,0,80,82,146,140,35,192.16,367,-18.00,6.00,-925.00
2024-05-17 16:26:44.317723,0,-1,12,0,0,0,80,82,146,140,35,192.19,367,20.00,14.00,-980.00
2024-05-17 16:26:44.467295,0,-1,12,0,0,0,80,82,145,140,34,192.12,368,-17.00,33.00,-935.00
2024-05-17 16:26:44.520719,0,-1,12,0,0,0,80,82,145,140,34,192.16,368,6.00,40.00,-1012.00
2024-05-17 16:26:44.673784,0,-1,12,0,0,0,79,82,145,140,34,192.13,368,-33.00,20.00,-1019.00
2024-05-17 16:26:44.776103,0,0,12,0,0,0,79,82,148,140,34,192.12,368,37.00,21.00,-1001.00
2024-05-17 16:26:44.975806,0,0,12,0,0,0,79,82,148,140,34,192.16,368,35.00,-3.00,-1025.00
2024-05-17 16:26:44.977305,0,0,12,0,0,0,79,82,148,140,34,192.18,368,51.00,23.00,-1006.00
2024-05-17 16:26:45.030628,0,0,12,0,0,0,79,82,147,140,34,192.13,368,-20.00,31.00,-1058.00
2024-05-17 16:26:45.181828,0,0,12,0,0,0,79,82,144,140,34,192.10,368,-12.00,34.00,-922.00
2024-05-17 16:26:45.234743,0,-1,12,0,0,0,79,82,142,140,34,192.10,368,-1.00,5.00,-1018.00
2024-05-17 16:26:45.385893,0,0,12,0,0,0,79,82,141,140,34,192.14,368,12.00,10.00,-970.00
2024-05-17 16:26:45.438732,0,0,12,0,0,0,79,82,140,140,34,192.03,369,-6.00,-21.00,-1065.00
2024-05-17 16:26:45.590004,0,0,12,0,0,0,79,82,139,140,34,192.02,369,-1.00,26.00,-1001.00
2024-05-17 16:26:45.642741,0,0,12,0,0,0,79,82,139,130,34,192.12,369,48.00,14.00,-1013.00
2024-05-17 16:26:45.796680,0,0,12,0,0,0,79,82,138,130,34,192.10,369,-22.00,0.00,-1007.00
2024-05-17 16:26:45.849008,0,0,12,0,0,0,79,82,140,130,34,192.09,369,23.00,-14.00,-1026.00
2024-05-17 16:26:45.951648,0,0,12,0,0,0,79,82,141,130,34,192.12,369,6.00,10.00,-1013.00
2024-05-17 16:26:46.051941,0,0,12,0,0,0,79,82,141,130,34,192.10,369,20.00,0.00,-1100.00
2024-05-17 16:26:46.153112,0,-1,12,0,0,0,79,82,141,130,34,192.09,369,4.00,14.00,-979.00
2024-05-17 16:26:46.254671,0,-1,12,0,0,0,79,82,141,130,34,192.07,369,-6.00,15.00,-1006.00
2024-05-17 16:26:46.410426,0,-1,12,0,0,0,79,82,140,130,34,192.08,369,5.00,21.00,-1011.00
2024-05-17 16:26:46.458654,0,0,12,0,0,0,79,82,142,130,34,192.09,370,-35.00,15.00,-923.00
2024-05-17 16:26:46.614534,0,0,12,0,0,0,79,82,141,140,34,192.06,370,10.00,6.00,-986.00
2024-05-17 16:26:46.662538,0,0,12,0,0,0,80,82,142,140,34,192.08,370,12.00,24.00,-924.00
2024-05-17 16:26:46.823637,0,-1,12,0,0,0,80,82,141,140,34,192.15,370,-10.00,14.00,-973.00
2024-05-17 16:26:46.866470,0,-1,12,0,0,0,80,82,141,140,34,192.08,370,-17.00,31.00,-989.00
2024-05-17 16:26:47.023747,0,0,12,0,0,0,80,82,141,140,34,192.10,370,-41.00,3.00,-935.00
2024-05-17 16:26:47.071393,0,-1,12,0,0,0,80,82,141,140,34,192.10,370,-8.00,12.00,-996.00
2024-05-17 16:26:47.228951,0,-1,13,0,0,0,80,82,141,140,34,192.12,370,7.00,38.00,-937.00
2024-05-17 16:26:47.275376,0,0,13,0,0,0,80,82,141,140,34,192.11,370,-14.00,-14.00,-973.00
2024-05-17 16:26:47.433513,0,-1,13,0,0,0,80,82,140,140,34,192.11,370,39.00,11.00,-1010.00
2024-05-17 16:26:47.480020,0,-1,12,0,0,0,80,82,141,140,34,192.12,371,-61.00,47.00,-981.00
2024-05-17 16:26:47.582366,0,-1,12,0,0,0,80,82,140,140,34,192.13,371,88.00,-2.00,-1040.00
2024-05-17 16:26:47.684816,0,-1,12,0,0,0,80,81,140,130,34,192.09,371,68.00,-9.00,-1074.00
2024-05-17 16:26:47.787148,1,0,12,1,0,0,80,81,141,130,34,192.10,371,-9.00,42.00,-957.00
2024-05-17 16:26:47.889900,1,0,12,0,0,0,80,81,140,130,34,192.08,371,49.00,16.00,-1077.00
2024-05-17 16:26:47.989460,1,0,12,0,0,0,80,81,139,130,34,192.05,371,4.00,-2.00,-1039.00
2024-05-17 16:26:48.153546,1,-1,12,0,0,0,80,81,139,140,34,192.05,371,-13.00,40.00,-1009.00
2024-05-17 16:26:48.193628,0,-1,12,0,0,0,80,81,138,130,34,192.08,371,-5.00,19.00,-971.00
2024-05-17 16:26:48.355382,0,0,12,0,0,0,80,81,139,130,34,192.07,371,68.00,16.00,-1022.00
2024-05-17 16:26:48.355767,-1,0,12,0,0,0,80,81,138,130,34,192.09,371,37.00,-4.00,-991.00
2024-05-17 16:26:48.448707,-1,0,12,0,0,0,80,81,137,130,34,192.02,372,31.00,-24.00,-1043.00
2024-05-17 16:26:48.563119,0,-1,12,0,0,0,80,81,135,130,34,192.04,372,65.00,27.00,-1060.00
2024-05-17 16:26:48.652443,0,0,12,0,0,0,80,82,135,130,34,192.01,372,-2.00,21.00,-1010.00
2024-05-17 16:26:48.768185,0,0,12,0,0,0,80,82,133,130,34,192.01,372,-1.00,3.00,-1068.00
2024-05-17 16:26:48.856772,0,0,12,0,0,0,80,82,133,130,34,192.03,372,-6.00,8.00,-965.00
2024-05-17 16:26:48.972927,0,0,12,0,0,0,80,82,133,130,34,192.00,372,6.00,28.00,-1077.00
2024-05-17 16:26:49.060490,0,0,12,0,0,0,80,82,133,130,34,192.02,372,8.00,0.00,-994.00
2024-05-17 16:26:49.178689,0,0,12,0,0,0,80,82,133,130,34,192.06,372,38.00,0.00,-1044.00
2024-05-17 16:26:49.264463,0,0,12,0,0,0,80,82,133,130,34,192.02,372,20.00,22.00,-1008.00
2024-05-17 16:26:49.379003,0,0,12,0,0,0,80,82,133,130,34,192.02,372,2.00,-9.00,-992.00
2024-05-17 16:26:49.468396,0,0,12,0,0,0,80,82,135,130,33,192.05,373,11.00,18.00,-1040.00
2024-05-17 16:26:49.584211,0,0,12,0,0,0,80,82,136,130,33,192.01,373,45.00,-12.00,-1000.00
2024-05-17 16:26:49.674177,0,0,12,0,0,0,80,81,136,130,33,192.00,373,11.00,-3.00,-970.00
2024-05-17 16:26:49.774639,0,0,12,0,0,0,80,81,137,130,33,192.05,373,37.00,15.00,-1126.00
2024-05-17 16:26:49.876581,0,0,12,0,0,0,80,81,137,130,33,192.11,373,5.00,-20.00,-1024.00
2024-05-17 16:26:49.994922,0,0,12,0,0,0,80,81,138,130,33,192.06,373,24.00,19.00,-983.00
2024-05-17 16:26:50.080472,0,0,12,0,0,0,80,81,140,130,33,192.07,373,-27.00,45.00,-1028.00
2024-05-17 16:26:50.199572,0,0,12,0,0,0,80,81,142,130,33,192.11,373,44.00,5.00,-1080.00
2024-05-17 16:26:50.284381,0,-1,12,0,0,0,80,81,141,130,33,192.11,373,62.00,-40.00,-1009.00
2024-05-17 16:26:50.403055,0,0,12,0,0,0,80,81,141,140,33,192.13,373,-33.00,-6.00,-864.00
2024-05-17 16:26:50.490001,0,0,12,0,0,0,80,81,141,140,33,192.08,374,15.00,2.00,-987.00
2024-05-17 16:26:50.590687,0,0,12,0,0,0,80,81,140,140,33,192.13,374,-22.00,27.00,-970.00
2024-05-17 16:26:50.710241,0,0,13,0,0,0,80,81,140,140,33,192.11,374,8.00,9.00,-976.00
2024-05-17 16:26:50.794445,0,0,13,0,0,0,80,81,141,140,33,192.13,374,22.00,0.00,-1119.00
2024-05-17 16:26:50.919395,0,0,13,0,0,0,80,81,140,140,33,192.09,374,0.00,8.00,-982.00
2024-05-17 16:26:50.998456,1,0,13,0,0,0,80,81,140,140,33,192.08,374,7.00,33.00,-1083.00
2024-05-17 16:26:51.101514,0,-1,13,0,0,0,80,81,139,140,33,192.05,374,-27.00,16.00,-978.00
2024-05-17 16:26:51.203163,0,-1,13,0,0,0,80,81,138,140,33,192.05,374,22.00,17.00,-1044.00
2024-05-17 16:26:51.305549,1,-1,13,0,0,0,80,81,137,130,33,192.07,374,78.00,-32.00,-997.00
2024-05-17 16:26:51.407145,1,0,13,0,0,0,80,81,135,130,33,192.04,375,-27.00,28.00,-968.00
2024-05-17 16:26:51.509749,0,0,13,0,0,0,80,81,134,130,33,192.10,375,83.00,-19.00,-1178.00
2024-05-17 16:26:51.611886,0,0,13,0,0,0,80,81,135,130,33,192.04,375,-14.00,19.00,-1005.00
2024-05-17 16:26:51.712264,0,0,12,0,0,0,79,82,134,130,33,192.02,375,-6.00,23.00,-1094.00
2024-05-17 16:26:51.814558,0,0,12,0,0,0,79,82,133,130,33,192.07,375,28.00,-5.00,-986.00
2024-05-17 16:26:51.916574,0,-1,12,0,0,0,79,82,134,130,33,192.07,375,70.00,-1.00,-1101.00
2024-05-17 16:26:52.041202,1,0,12,0,0,0,79,82,134,130,33,191.98,375,39.00,25.00,-1113.00
2024-05-17 16:26:52.120449,1,0,12,0,0,0,79,82,133,130,33,192.03,375,-39.00,22.00,-955.00
2024-05-17 16:26:52.171178,0,0,12,0,0,0,79,82,133,130,33,191.97,375,8.00,6.00,-1028.00
2024-05-17 16:26:52.348466,0,-1,12,0,0,0,79,82,134,130,33,191.99,375,62.00,-17.00,-983.00
2024-05-17 16:26:52.374996,0,0,12,0,0,0,79,82,133,130,33,192.00,376,-4.00,28.00,-962.00
2024-05-17 16:26:52.554838,0,0,12,0,0,0,79,82,133,130,33,191.98,376,-52.00,45.00,-994.00
2024-05-17 16:26:52.579243,-1,-1,12,0,0,0,79,82,134,130,33,192.01,376,6.00,20.00,-1030.00
2024-05-17 16:26:52.758286,0,0,12,0,0,0,80,82,134,130,33,192.03,376,56.00,-5.00,-1034.00
2024-05-17 16:26:52.783322,0,0,12,0,0,0,80,82,138,130,33,192.10,376,32.00,7.00,-1037.00
2024-05-17 16:26:52.885423,1,0,12,0,0,-1,80,82,135,130,33,191.98,376,47.00,15.00,-958.00
2024-05-17 16:26:53.065112,1,0,12,0,0,0,80,82,135,130,33,191.98,376,-25.00,22.00,-948.00
2024-05-17 16:26:53.089143,0,0,12,0,0,0,80,82,136,130,33,192.03,376,-56.00,68.00,-913.00
2024-05-17 16:26:53.273704,0,0,12,0,0,0,80,82,139,130,33,192.11,376,72.00,1.00,-1060.00
2024-05-17 16:26:53.295152,0,-1,12,0,0,0,80,82,138,130,33,192.06,376,66.00,-12.00,-1055.00
2024-05-17 16:26:53.395587,0,0,12,0,0,0,80,82,139,130,33,192.08,377,-79.00,48.00,-958.00
2024-05-17 16:26:53.580608,0,0,12,0,0,0,80,82,142,130,33,192.12,377,-38.00,40.00,-1029.00
2024-05-17 16:26:53.608244,0,0,12,0,0,0,80,82,142,130,33,192.12,377,-7.00,45.00,-1011.00
2024-05-17 16:26:53.701253,0,-1,12,0,0,0,80,83,142,140,33,192.11,377,35.00,-16.00,-945.00
2024-05-17 16:26:53.884524,0,0,12,0,0,0,80,83,142,140,33,192.13,377,-2.00,15.00,-987.00
2024-05-17 16:26:53.905519,1,0,12,0,0,0,80,83,140,140,33,192.09,377,29.00,-9.00,-963.00
2024-05-17 16:26:54.089262,1,0,12,0,0,0,80,83,140,140,33,192.07,377,17.00,30.00,-988.00
2024-05-17 16:26:54.109080,1,0,12,0,0,0,80,83,141,140,33,192.11,377,-1.00,4.00,-972.00
2024-05-17 16:26:54.298122,1,0,12,0,0,0,80,83,141,140,33,192.10,377,-8.00,39.00,-1074.00
2024-05-17 16:26:54.313029,0,0,12,0,0,0,80,83,140,140,33,192.10,377,-3.00,4.00,-1026.00
2024-05-17 16:26:54.498812,0,0,12,0,0,0,80,83,139,140,33,192.16,378,-52.00,9.00,-950.00
2024-05-17 16:26:54.517013,0,0,12,0,0,0,80,83,140,140,32,192.13,378,-18.00,3.00,-1068.00
2024-05-17 16:26:54.705744,0,0,12,0,0,0,80,83,141,140,32,192.12,378,5.00,31.00,-943.00
2024-05-17 16:26:54.721064,1,0,12,0,0,0,80,82,141,140,32,192.08,378,36.00,16.00,-1109.00
2024-05-17 16:26:54.915982,1,0,12,0,0,0,80,82,144,140,32,192.09,378,-59.00,64.00,-975.00
2024-05-17 16:26:54.924994,1,0,12,0,0,0,80,82,144,140,32,192.16,378,-55.00,22.00,-971.00
2024-05-17 16:26:55.117267,1,0,12,0,0,0,80,82,142,140,32,192.14,378,-1.00,29.00,-882.00
2024-05-17 16:26:55.128972,0,-1,12,0,0,0,80,82,143,140,32,192.10,378,63.00,-43.00,-965.00
2024-05-17 16:26:55.320631,0,-1,12,-1,0,0,80,82,144,140,32,192.14,378,-24.00,34.00,-953.00
2024-05-17 16:26:55.333309,0,-1,12,-1,0,0,80,82,142,140,32,192.10,378,-61.00,21.00,-1033.00
2024-05-17 16:26:55.526828,-1,-1,12,-1,0,0,80,82,142,140,32,192.15,379,0.00,33.00,-1029.00
2024-05-17 16:26:55.537393,0,-2,12,0,0,0,80,82,141,140,32,192.05,379,47.00,-5.00,-1062.00
2024-05-17 16:26:55.727643,0,-1,12,0,0,0,80,82,140,140,32,192.11,379,55.00,15.00,-1018.00
2024-05-17 16:26:55.741030,0,-1,12,0,0,0,80,82,138,140,32,192.07,379,18.00,15.00,-1024.00
2024-05-17 16:26:55.889812,0,0,12,0,0,0,80,82,135,140,32,192.05,379,87.00,1.00,-1049.00
2024-05-17 16:26:55.944897,1,0,12,0,0,0,80,82,136,140,32,192.00,379,-42.00,13.00,-977.00
2024-05-17 16:26:56.137671,1,0,12,0,0,0,80,82,132,130,32,192.01,379,33.00,14.00,-1020.00
2024-05-17 16:26:56.148902,0,0,12,0,0,0,80,82,130,130,32,192.02,379,24.00,-15.00,-961.00
2024-05-17 16:26:56.342060,1,0,12,0,0,1,80,82,129,130,32,191.99,379,-99.00,20.00,-915.00
2024-05-17 16:26:56.353259,0,0,12,-1,0,1,80,82,130,130,32,191.95,379,-18.00,29.00,-1049.00
2024-05-17 16:26:56.546628,-1,0,12,0,0,0,80,82,127,130,32,191.92,380,28.00,-5.00,-1085.00
2024-05-17 16:26:56.547617,0,0,12,0,0,1,80,82,128,130,32,191.87,380,-10.00,16.00,-941.00
2024-05-17 16:26:56.607948,0,0,12,0,0,1,80,82,124,120,32,191.87,380,20.00,9.00,-908.00
2024-05-17 16:26:56.751452,0,0,12,0,0,2,79,82,121,120,32,191.91,380,-8.00,38.00,-929.00
2024-05-17 16:26:56.811980,0,0,12,0,0,3,79,82,117,120,32,191.85,380,-51.00,5.00,-902.00
2024-05-17 16:26:56.914543,0,0,12,0,0,4,79,82,113,110,32,191.86,380,-11.00,0.00,-808.00
2024-05-17 16:26:57.016067,0,0,13,0,0,5,79,82,108,110,32,191.80,380,3.00,-2.00,-920.00
2024-05-17 16:26:57.161029,0,0,13,0,0,6,79,82,101,100,32,191.76,380,-35.00,31.00,-910.00
2024-05-17 16:26:57.220012,-1,0,13,0,0,7,79,82,98,100,32,191.73,380,44.00,1.00,-1063.00
2024-05-17 16:26:57.367660,0,-1,13,0,0,7,79,82,88,90,32,191.73,380,23.00,20.00,-1047.00
2024-05-17 16:26:57.423971,0,-1,13,0,0,7,79,82,81,80,31,191.63,381,33.00,2.00,-1052.00
2024-05-17 16:26:57.570642,0,0,13,0,0,6,79,82,78,70,31,191.67,381,44.00,2.00,-1018.00
2024-05-17 16:26:57.627876,0,0,13,0,0,6,79,82,68,70,31,191.58,381,-19.00,60.00,-991.00
2024-05-17 16:26:57.775621,1,0,13,0,0,6,79,82,62,60,31,191.60,381,6.00,8.00,-1010.00
2024-05-17 16:26:57.831878,0,0,13,0,0,5,79,82,59,60,31,191.47,381,53.00,-7.00,-1018.00
2024-05-17 16:26:57.933853,0,0,13,0,0,4,79,82,57,50,31,191.42,381,-14.00,56.00,-981.00
2024-05-17 16:26:58.082625,0,-1,13,0,0,4,79,82,55,50,31,191.37,381,5.00,41.00,-1093.00
2024-05-17 16:26:58.139075,0,-1,13,0,0,4,79,82,49,40,31,191.31,381,-14.00,27.00,-982.00
2024-05-17 16:26:58.287628,0,-1,13,0,0,4,79,82,45,40,31,191.25,381,58.00,-23.00,-997.00
2024-05-17 16:26:58.341861,0,-1,13,0,0,4,79,82,42,40,31,191.17,381,13.00,46.00,-1091.00
2024-05-17 16:26:58.492810,0,-1,13,0,0,4,79,82,39,30,31,191.14,382,28.00,2.00,-1028.00
2024-05-17 16:26:58.546245,0,0,13,0,0,3,79,82,33,30,31,191.17,382,7.00,16.00,-999.00
2024-05-17 16:26:58.697024,0,0,13,0,0,4,79,82,28,30,31,191.14,382,10.00,8.00,-965.00
2024-05-17 16:26:58.750176,0,0,13,0,0,4,80,81,24,20,31,191.02,382,-20.00,25.00,-981.00
2024-05-17 16:26:58.901832,0,0,13,0,0,4,80,81,20,20,31,190.93,382,-1.00,43.00,-1067.00
2024-05-17 16:26:58.954269,0,0,13,0,0,4,80,81,16,10,31,190.42,382,68.00,-37.00,-1013.00
