TS,pitch,roll,yaw,vgx,vgy,vgz,templ,temph,tof,h,bat,baro,time,agx,agy,agz
2024-05-19 09:00:46.816432,0,0,0,0,0,0,55,59,10,0,100,131.14,0,9.00,4.00,-998.00
2024-05-19 09:00:46.933987,0,0,0,0,0,0,55,59,10,0,100,131.13,0,8.00,5.00,-1001.00
2024-05-19 09:00:47.020068,0,0,0,0,0,0,55,59,10,0,100,131.11,0,9.00,4.00,-1000.00
2024-05-19 09:00:47.138950,0,0,0,0,0,0,55,59,10,0,100,131.16,0,9.00,5.00,-1000.00
2024-05-19 09:00:47.223852,0,0,0,0,0,0,55,59,10,0,100,131.17,0,9.00,4.00,-996.00
2024-05-19 09:00:47.343393,0,0,0,0,0,0,55,59,10,0,100,131.18,0,7.00,3.00,-999.00
2024-05-19 09:00:47.427981,0,0,0,0,0,0,55,59,10,0,100,131.19,0,8.00,6.00,-997.00
2024-05-19 09:00:47.548127,0,0,0,0,0,0,55,59,10,0,100,131.15,0,7.00,3.00,-998.00
2024-05-19 09:00:47.632073,0,0,0,0,0,0,56,58,10,0,100,131.13,0,8.00,4.00,-999.00
2024-05-19 09:00:47.753107,0,0,0,0,0,0,56,58,10,0,100,131.11,0,8.00,5.00,-997.00
2024-05-19 09:00:47.836475,0,0,0,0,0,0,56,58,10,0,100,131.10,0,9.00,4.00,-996.00
2024-05-19 09:00:47.957833,0,0,0,0,0,0,56,58,10,0,100,131.15,0,9.00,4.00,-1000.00
2024-05-19 09:00:48.040183,0,0,0,0,0,0,56,58,10,0,100,131.11,0,9.00,7.00,-998.00
2024-05-19 09:00:48.162763,0,0,0,0,0,0,56,58,10,0,100,131.15,0,8.00,3.00,-998.00
2024-05-19 09:00:48.244103,0,0,0,0,0,0,56,58,10,0,100,131.14,0,8.00,3.00,-999.00
2024-05-19 09:00:48.367475,0,0,0,0,0,0,56,58,10,0,100,131.12,0,7.00,3.00,-1000.00
2024-05-19 09:00:48.448021,0,0,0,0,0,0,56,58,10,0,100,131.11,0,9.00,4.00,-998.00
2024-05-19 09:00:48.572450,0,0,0,0,0,0,56,58,10,0,100,131.12,0,10.00,5.00,-998.00
2024-05-19 09:00:48.651989,0,0,0,0,0,0,55,59,10,0,100,131.12,0,9.00,3.00,-998.00
2024-05-19 09:00:48.777155,0,0,0,0,0,0,55,59,10,0,100,131.13,0,10.00,5.00,-997.00
2024-05-19 09:00:48.856016,0,0,0,0,0,0,55,59,10,0,100,131.14,0,8.00,4.00,-995.00
2024-05-19 09:00:48.982024,0,0,0,0,0,0,55,59,10,0,100,131.13,0,9.00,5.00,-1000.00
2024-05-19 09:00:49.009197,0,0,0,0,0,0,55,59,10,0,100,131.12,0,8.00,4.00,-995.00
2024-05-19 09:00:49.111671,0,0,0,0,0,0,55,59,10,0,100,131.13,0,8.00,4.00,-1000.00
2024-05-19 09:00:49.289168,0,0,0,0,0,0,55,59,10,0,100,131.08,0,8.00,3.00,-999.00
2024-05-19 09:00:49.315959,0,0,0,0,0,0,55,59,10,0,100,131.08,0,8.00,6.00,-1000.00
2024-05-19 09:00:49.418009,0,0,0,0,0,0,55,59,10,0,100,131.07,0,9.00,5.00,-1001.00
2024-05-19 09:00:49.596972,0,0,0,0,0,0,55,59,10,0,100,131.11,0,8.00,4.00,-999.00
2024-05-19 09:00:49.622085,0,0,0,0,0,0,57,59,10,0,100,131.12,0,8.00,4.00,-999.00
2024-05-19 09:00:49.801091,0,0,0,0,0,0,57,59,10,0,100,131.14,0,9.00,5.00,-998.00
2024-05-19 09:00:49.825895,0,0,0,0,0,0,57,59,10,0,100,131.14,0,10.00,3.00,-1000.00
2024-05-19 09:00:50.006281,0,0,0,0,0,0,57,59,10,0,100,131.15,0,9.00,4.00,-999.00
2024-05-19 09:00:50.029877,0,0,0,0,0,0,57,59,10,0,100,131.15,0,8.00,4.00,-1001.00
2024-05-19 09:00:50.210744,0,0,0,0,0,0,57,59,10,0,100,131.15,0,9.00,4.00,-1001.00
2024-05-19 09:00:50.233877,0,0,0,0,0,0,57,59,10,0,100,131.07,0,9.00,3.00,-1001.00
2024-05-19 09:00:50.415567,0,0,0,0,0,0,57,59,10,0,100,131.13,0,9.00,4.00,-999.00
2024-05-19 09:00:50.437893,0,0,0,0,0,0,57,59,10,0,100,131.10,0,8.00,3.00,-999.00
2024-05-19 09:00:50.620930,0,0,0,0,0,0,57,59,10,0,100,131.18,0,9.00,4.00,-1000.00
2024-05-19 09:00:50.641926,0,0,0,0,0,0,56,58,10,0,100,131.15,0,8.00,4.00,-999.00
2024-05-19 09:00:50.825280,0,0,0,0,0,0,56,58,10,0,100,131.11,0,10.00,4.00,-999.00
2024-05-19 09:00:50.846041,0,0,0,0,0,0,56,58,10,0,100,131.11,0,9.00,4.00,-1000.00
2024-05-19 09:00:51.030633,0,0,0,0,0,0,56,58,10,0,100,131.12,0,8.00,4.00,-997.00
2024-05-19 09:00:51.049796,0,0,0,0,0,0,56,58,10,0,100,131.14,0,7.00,3.00,-999.00
2024-05-19 09:00:51.151884,0,0,0,0,0,0,56,58,10,0,100,131.15,0,8.00,4.00,-999.00
2024-05-19 09:00:51.337083,0,0,0,0,0,0,56,58,10,0,100,131.13,0,8.00,5.00,-1001.00
2024-05-19 09:00:51.355784,0,0,0,0,0,0,56,58,10,0,100,131.14,0,9.00,5.00,-1000.00
2024-05-19 09:00:51.457753,0,0,0,0,0,0,56,58,10,0,100,131.11,0,9.00,5.00,-997.00
2024-05-19 09:00:51.644591,0,0,0,0,0,0,56,58,10,0,100,131.13,0,9.00,4.00,-1000.00
2024-05-19 09:00:51.661758,0,0,0,0,0,0,57,59,10,0,100,131.14,0,9.00,4.00,-1000.00
2024-05-19 09:00:51.849140,0,0,0,0,0,0,57,59,10,0,100,131.14,0,8.00,6.00,-1000.00
2024-05-19 09:00:51.865715,0,0,0,0,0,0,57,59,10,0,100,131.14,0,8.00,3.00,-999.00
2024-05-19 09:00:52.053790,0,0,0,0,0,0,57,59,10,0,100,131.21,0,9.00,3.00,-1000.00
2024-05-19 09:00:52.069612,0,0,0,0,0,0,57,59,10,0,100,131.16,0,7.00,4.00,-999.00
2024-05-19 09:00:52.171686,0,0,0,0,0,0,57,59,10,0,100,131.15,0,10.00,3.00,-1000.00
2024-05-19 09:00:52.360980,0,0,0,0,0,0,57,59,10,0,100,131.18,0,9.00,3.00,-1000.00
2024-05-19 09:00:52.361177,0,0,0,0,0,0,57,59,10,0,100,131.14,0,8.00,5.00,-998.00
2024-05-19 09:00:52.427164,0,0,0,0,0,0,57,59,10,0,100,131.17,0,8.00,3.00,-998.00
2024-05-19 09:00:52.566293,0,0,0,0,0,0,57,59,10,0,100,131.16,0,8.00,4.00,-999.00
2024-05-19 09:00:52.630785,0,0,0,0,0,0,57,59,10,0,100,131.20,0,7.00,4.00,-1002.00
2024-05-19 09:00:52.770676,0,0,0,0,0,0,57,59,10,0,100,131.14,0,10.00,5.00,-999.00
2024-05-19 09:00:52.834988,0,0,0,0,0,0,57,59,10,0,100,131.16,0,8.00,4.00,-1000.00
2024-05-19 09:00:52.936741,0,0,0,0,0,0,57,59,10,0,100,131.17,0,8.00,5.00,-999.00
2024-05-19 09:00:53.077693,0,0,0,0,0,0,57,59,10,0,100,131.17,0,9.00,4.00,-1001.00
2024-05-19 09:00:53.140795,0,0,0,0,0,0,57,59,10,0,100,131.20,0,9.00,5.00,-999.00
2024-05-19 09:00:53.282554,0,0,0,0,0,0,57,59,10,0,100,131.17,0,8.00,4.00,-999.00
2024-05-19 09:00:53.344954,0,0,0,0,0,0,57,59,10,0,100,131.15,0,8.00,2.00,-1001.00
2024-05-19 09:00:53.487698,0,0,0,0,0,0,57,59,10,0,100,131.21,0,8.00,4.00,-998.00
2024-05-19 09:00:53.549227,0,0,0,0,0,0,57,59,10,0,100,131.13,0,8.00,4.00,-1001.00
2024-05-19 09:00:53.692555,0,0,0,0,0,0,57,60,10,0,100,131.11,0,8.00,3.00,-998.00
2024-05-19 09:00:53.753087,0,0,0,0,0,0,57,60,10,0,100,131.14,0,8.00,5.00,-999.00
2024-05-19 09:00:53.897135,0,0,0,0,0,0,57,60,10,0,100,131.19,0,8.00,5.00,-998.00
2024-05-19 09:00:53.956952,0,0,0,0,0,0,57,60,10,0,100,131.14,0,8.00,4.00,-1000.00
2024-05-19 09:00:54.101823,0,0,0,0,0,0,57,60,10,0,100,131.12,0,8.00,4.00,-1002.00
2024-05-19 09:00:54.162045,0,0,0,0,0,0,57,60,10,0,100,131.17,0,8.00,3.00,-1000.00
2024-05-19 09:00:54.306736,0,0,0,0,0,0,57,60,10,0,100,131.13,0,9.00,4.00,-998.00
2024-05-19 09:00:54.364883,0,0,0,0,0,0,57,60,10,0,100,131.19,0,8.00,4.00,-1002.00
2024-05-19 09:00:54.511271,0,0,0,0,0,0,57,60,10,0,100,131.23,0,10.00,5.00,-998.00
2024-05-19 09:00:54.569470,0,0,0,0,0,0,57,60,10,0,100,131.13,0,9.00,5.00,-1000.00
2024-05-19 09:00:54.716495,0,0,0,0,0,0,57,60,10,0,100,131.13,0,14.00,13.00,-1003.00
2024-05-19 09:00:54.772743,0,0,0,0,0,0,57,60,10,0,100,131.13,0,20.00,1.00,-1004.00
2024-05-19 09:00:54.920953,0,0,0,0,0,0,57,60,10,0,100,131.13,0,25.00,30.00,-1004.00
2024-05-19 09:00:54.976817,0,0,0,0,0,0,57,60,10,0,100,131.13,0,-9.00,37.00,-1026.00
2024-05-19 09:00:55.111543,0,1,0,0,0,0,57,60,10,0,100,131.13,0,-24.00,-3.00,-1104.00
2024-05-19 09:00:55.181672,-1,4,0,0,0,-1,57,60,10,0,100,131.13,0,-16.00,6.00,-1186.00
2024-05-19 09:00:55.330649,-2,1,0,0,1,-3,57,60,11,0,100,131.13,0,-12.00,7.00,-1246.00
2024-05-19 09:00:55.385943,0,-2,0,0,1,-6,57,60,11,0,100,131.13,0,-22.00,-33.00,-1238.00
2024-05-19 09:00:55.535303,0,-3,0,0,0,-7,57,60,17,0,100,131.50,0,-63.00,-1.00,-1101.00
2024-05-19 09:00:55.539382,0,-2,0,0,0,-7,57,60,26,10,100,131.54,0,14.00,-17.00,-1089.00
2024-05-19 09:00:55.740036,-1,-1,0,0,0,-7,57,60,40,10,100,131.69,1,-57.00,6.00,-988.00
2024-05-19 09:00:55.793583,-1,-1,0,0,0,-6,57,60,48,20,100,131.79,1,-9.00,2.00,-944.00
2024-05-19 09:00:55.945148,-2,0,0,0,0,-5,57,60,56,20,100,131.85,1,17.00,-8.00,-983.00
2024-05-19 09:00:55.997425,-1,0,0,0,0,-5,57,60,63,30,100,132.01,1,8.00,-5.00,-970.00
2024-05-19 09:00:56.149916,0,0,0,0,0,-3,57,60,68,30,100,132.01,1,-16.00,-14.00,-884.00
2024-05-19 09:00:56.150804,-1,0,0,0,0,-2,57,60,74,30,100,131.98,1,-56.00,3.00,-878.00
2024-05-19 09:00:56.354485,-1,0,0,0,0,-1,57,60,77,40,100,132.06,1,19.00,-4.00,-905.00
2024-05-19 09:00:56.355009,0,0,0,0,0,-1,57,60,80,40,100,132.16,1,31.00,-18.00,-953.00
2024-05-19 09:00:56.456968,0,0,0,0,0,0,57,60,82,40,100,132.18,1,-20.00,1.00,-893.00
2024-05-19 09:00:56.561120,0,0,0,0,0,0,57,60,83,40,100,132.16,1,-3.00,-1.00,-971.00
2024-05-19 09:00:56.661407,0,0,0,0,0,0,59,60,84,40,100,132.21,2,13.00,-10.00,-944.00
2024-05-19 09:00:56.764459,0,0,0,0,0,0,59,60,85,40,100,132.25,2,15.00,-26.00,-978.00
2024-05-19 09:00:56.864832,0,0,0,0,0,0,59,60,85,40,100,132.25,2,19.00,-15.00,-1004.00
2024-05-19 09:00:56.966672,0,0,0,0,0,0,59,60,87,40,100,132.19,2,-33.00,-10.00,-986.00
2024-05-19 09:00:57.071352,0,0,0,0,0,0,59,60,87,40,100,132.26,2,51.00,-9.00,-978.00
2024-05-19 09:00:57.170653,0,0,0,0,0,0,59,60,88,50,100,132.24,2,5.00,-5.00,-1058.00
2024-05-19 09:00:57.278948,0,0,0,0,0,0,59,60,89,50,100,132.26,2,7.00,-19.00,-945.00
2024-05-19 09:00:57.374753,0,0,0,0,0,0,59,60,90,50,100,132.29,2,8.00,-21.00,-1018.00
2024-05-19 09:00:57.480970,0,0,0,0,0,0,59,60,90,50,100,132.24,2,-18.00,10.00,-944.00
2024-05-19 09:00:57.579104,0,0,0,0,0,0,59,60,90,50,100,132.33,2,25.00,-35.00,-992.00
2024-05-19 09:00:57.685826,0,0,0,0,0,0,59,61,91,50,100,132.34,3,-7.00,-5.00,-1004.00
2024-05-19 09:00:57.782769,0,0,0,0,0,0,59,61,92,50,100,132.37,3,-5.00,0.00,-1020.00
2024-05-19 09:00:57.890615,0,0,0,0,0,0,59,61,92,50,100,132.38,3,10.00,-18.00,-924.00
2024-05-19 09:00:57.987083,1,0,0,0,0,0,59,61,91,50,100,132.33,3,-42.00,-14.00,-958.00
2024-05-19 09:00:58.095562,0,1,0,0,0,0,59,61,91,50,100,132.30,3,-20.00,-1.00,-1091.00
2024-05-19 09:00:58.190705,0,0,0,0,0,0,59,61,91,50,100,132.36,3,14.00,-13.00,-1008.00
2024-05-19 09:00:58.300416,0,0,0,0,0,0,59,61,91,50,100,132.33,3,44.00,-4.00,-985.00
2024-05-19 09:00:58.394619,1,0,0,0,0,0,59,61,91,50,100,132.31,3,25.00,-11.00,-1031.00
2024-05-19 09:00:58.505044,0,0,0,0,0,0,59,61,90,50,100,132.27,3,23.00,-1.00,-901.00
2024-05-19 09:00:58.598678,0,0,0,0,0,1,59,61,89,50,100,132.30,3,47.00,-17.00,-951.00
2024-05-19 09:00:58.709811,0,0,0,0,0,1,59,60,88,50,100,132.29,4,21.00,-22.00,-1053.00
2024-05-19 09:00:58.802630,0,0,0,0,0,0,59,60,88,50,100,132.30,4,-7.00,2.00,-1020.00
2024-05-19 09:00:58.914621,0,0,0,0,0,0,59,60,86,50,100,132.35,4,22.00,-13.00,-1031.00
2024-05-19 09:00:59.006648,0,0,0,0,0,0,59,60,86,50,100,132.27,4,-31.00,4.00,-946.00
2024-05-19 09:00:59.119754,0,0,0,0,0,0,59,60,84,50,100,132.30,4,-40.00,27.00,-1044.00
2024-05-19 09:00:59.210765,0,0,0,0,0,0,59,60,83,50,100,132.31,4,48.00,-30.00,-980.00
2024-05-19 09:00:59.324431,0,0,0,0,0,0,59,60,82,50,100,132.28,4,20.00,8.00,-1038.00
2024-05-19 09:00:59.414705,0,0,0,0,0,0,59,60,81,40,100,132.28,4,19.00,-5.00,-1026.00
2024-05-19 09:00:59.528997,0,0,0,0,0,0,59,60,81,40,100,132.27,4,54.00,-32.00,-966.00
2024-05-19 09:00:59.567620,0,0,0,0,0,0,59,60,80,40,100,132.27,4,-39.00,0.00,-996.00
2024-05-19 09:00:59.733813,0,0,0,0,0,0,60,62,79,40,100,132.18,5,-18.00,7.00,-1053.00
2024-05-19 09:00:59.822654,0,0,0,0,0,0,60,62,78,40,100,132.22,5,-9.00,7.00,-990.00
2024-05-19 09:00:59.873338,0,0,0,0,0,0,60,62,77,40,100,132.16,5,-24.00,27.00,-1014.00
2024-05-19 09:01:00.044754,0,0,0,0,0,0,60,62,77,40,100,132.20,5,19.00,7.00,-1036.00
2024-05-19 09:01:00.077434,0,0,0,0,0,0,60,62,76,40,100,132.21,5,0.00,-4.00,-1002.00
2024-05-19 09:01:00.245823,0,0,0,0,0,0,60,62,76,40,100,132.18,5,-14.00,11.00,-1034.00
2024-05-19 09:01:00.281435,0,0,0,0,0,0,60,62,76,40,100,132.18,5,-24.00,8.00,-995.00
2024-05-19 09:01:00.450545,0,0,0,0,0,0,60,62,75,40,100,132.19,5,52.00,-15.00,-1019.00
2024-05-19 09:01:00.485374,0,0,0,0,0,0,60,62,75,40,100,132.16,5,47.00,-32.00,-982.00
2024-05-19 09:01:00.655856,0,0,0,0,0,0,60,62,75,40,100,132.20,5,-1.00,-3.00,-1031.00
2024-05-19 09:01:00.689419,0,0,0,0,0,0,59,61,75,40,100,132.25,6,0.00,-2.00,-1027.00
2024-05-19 09:01:00.860533,0,0,0,0,0,0,59,61,75,40,100,132.22,6,28.00,4.00,-1051.00
2024-05-19 09:01:00.894274,0,0,0,0,0,0,59,61,75,40,100,132.26,6,40.00,-25.00,-1016.00
2024-05-19 09:01:01.064988,1,0,0,0,0,0,59,61,75,40,100,132.21,6,26.00,-19.00,-979.00
2024-05-19 09:01:01.098462,0,0,0,0,0,0,59,61,75,40,100,132.26,6,48.00,-8.00,-1015.00
2024-05-19 09:01:01.200284,0,0,0,0,0,0,59,61,75,40,100,132.23,6,-42.00,11.00,-955.00
2024-05-19 09:01:01.372653,0,0,0,0,0,0,59,61,75,40,100,132.29,6,-6.00,6.00,-1053.00
2024-05-19 09:01:01.404678,0,0,0,0,0,0,59,61,76,40,100,132.18,6,42.00,-25.00,-1015.00
2024-05-19 09:01:01.576963,0,0,0,0,0,0,59,61,76,40,100,132.22,6,0.00,0.00,-968.00
2024-05-19 09:01:01.607629,0,0,0,0,0,0,59,61,76,40,100,132.24,6,9.00,-1.00,-948.00
2024-05-19 09:01:01.782112,0,0,0,0,0,0,60,62,76,40,100,132.17,7,29.00,-16.00,-1005.00
2024-05-19 09:01:01.811899,0,0,0,0,0,0,60,62,76,40,100,132.20,7,-16.00,9.00,-1036.00
2024-05-19 09:01:01.986675,0,0,0,0,0,0,60,62,76,40,100,132.30,7,-23.00,12.00,-1033.00
2024-05-19 09:01:02.015380,0,0,0,0,0,0,60,62,77,40,100,132.19,7,-43.00,9.00,-1023.00
2024-05-19 09:01:02.191396,-1,0,0,0,0,0,60,62,77,40,100,132.22,7,-29.00,8.00,-1004.00
2024-05-19 09:01:02.219613,-1,0,0,0,0,0,60,62,77,40,100,132.26,7,0.00,14.00,-1033.00
2024-05-19 09:01:02.396563,0,0,0,0,0,0,60,62,78,40,100,132.18,7,-20.00,-3.00,-956.00
2024-05-19 09:01:02.423232,0,0,0,0,0,0,60,62,78,40,100,132.23,7,17.00,-3.00,-1008.00
2024-05-19 09:01:02.600976,0,0,0,0,0,0,60,62,78,40,100,132.21,7,-1.00,17.00,-1023.00
2024-05-19 09:01:02.627217,0,0,0,0,0,0,60,62,78,40,100,132.19,7,-8.00,9.00,-1009.00
2024-05-19 09:01:02.729675,0,0,0,0,0,0,61,63,78,40,100,132.27,8,67.00,-26.00,-1014.00
2024-05-19 09:01:02.908666,0,0,0,0,0,0,61,63,78,40,100,132.20,8,19.00,5.00,-1013.00
2024-05-19 09:01:02.935147,0,0,0,0,0,0,61,63,78,40,100,132.22,8,22.00,-8.00,-1002.00
2024-05-19 09:01:03.035471,0,0,0,0,0,0,61,63,78,40,100,132.23,8,-14.00,11.00,-1016.00
2024-05-19 09:01:03.137353,0,0,0,0,0,0,61,63,78,40,100,132.19,8,-46.00,13.00,-998.00
2024-05-19 09:01:03.317687,0,0,0,0,0,0,61,63,78,40,100,132.22,8,-7.00,3.00,-1051.00
2024-05-19 09:01:03.341191,0,0,0,0,0,0,61,63,78,40,100,132.23,8,16.00,2.00,-1075.00
2024-05-19 09:01:03.522858,0,0,0,0,0,-1,61,63,80,40,100,132.26,8,14.00,-27.00,-1073.00
2024-05-19 09:01:03.523222,0,0,0,0,0,-2,61,63,82,40,100,132.25,8,33.00,-22.00,-1072.00
2024-05-19 09:01:03.596572,0,0,0,0,0,-3,61,63,86,50,100,132.31,8,-25.00,4.00,-1103.00
2024-05-19 09:01:03.749152,0,0,0,0,0,-4,62,64,90,50,100,132.35,9,-81.00,46.00,-1091.00
2024-05-19 09:01:03.932213,0,0,0,0,0,-4,62,64,96,50,100,132.45,9,26.00,-2.00,-1033.00
2024-05-19 09:01:03.953245,0,0,0,0,0,-5,62,64,100,60,100,132.39,9,42.00,-2.00,-1047.00
2024-05-19 09:01:04.004429,0,0,0,0,0,-5,62,64,106,60,100,132.46,9,48.00,-35.00,-1030.00
2024-05-19 09:01:04.118524,0,0,0,0,0,-5,62,64,112,70,100,132.53,9,-22.00,10.00,-990.00
2024-05-19 09:01:04.208500,0,0,0,0,0,-5,62,64,117,80,100,132.51,9,-40.00,21.00,-970.00
2024-05-19 09:01:04.341813,0,0,0,0,0,-5,62,64,123,80,100,132.69,9,37.00,-33.00,-969.00
2024-05-19 09:01:04.412535,0,0,0,0,0,-5,62,64,128,90,100,132.66,9,-49.00,5.00,-961.00
2024-05-19 09:01:04.546540,0,0,0,0,0,-5,62,64,131,90,100,132.66,9,-52.00,9.00,-977.00
2024-05-19 09:01:04.616495,0,0,0,0,0,-4,62,64,135,100,100,132.74,9,19.00,6.00,-994.00
2024-05-19 09:01:04.751506,0,0,0,0,0,-4,61,64,140,100,100,132.74,10,-6.00,-14.00,-1003.00
2024-05-19 09:01:04.820827,0,0,0,0,0,-3,61,64,143,100,100,132.82,10,19.00,-9.00,-1010.00
2024-05-19 09:01:04.956013,0,0,0,0,0,-3,61,64,147,110,100,132.83,10,-3.00,-2.00,-960.00
2024-05-19 09:01:05.024415,0,0,0,0,0,-3,61,64,150,110,100,132.86,10,56.00,-19.00,-993.00
2024-05-19 09:01:05.126383,0,0,0,0,0,-2,61,64,153,110,100,132.93,10,-29.00,14.00,-1020.00
2024-05-19 09:01:05.263381,0,0,0,0,0,-2,61,64,156,120,100,132.95,10,25.00,-9.00,-989.00
2024-05-19 09:01:05.330369,0,0,0,0,0,-2,61,64,160,120,100,133.01,10,19.00,-19.00,-967.00
2024-05-19 09:01:05.468111,0,0,0,0,0,-2,61,64,162,120,100,133.04,10,6.00,-11.00,-894.00
2024-05-19 09:01:05.534333,0,0,0,0,0,-2,61,64,164,120,100,133.09,10,41.00,-7.00,-986.00
2024-05-19 09:01:05.636336,0,0,0,0,0,-1,61,64,167,130,100,133.04,10,54.00,-11.00,-989.00
2024-05-19 09:01:05.775376,0,0,0,0,0,-1,61,63,169,130,100,133.08,11,51.00,-17.00,-966.00
2024-05-19 09:01:05.840320,0,0,0,0,0,-1,61,63,171,130,100,133.06,11,-5.00,-20.00,-998.00
2024-05-19 09:01:05.980474,0,0,0,0,0,-1,61,63,174,130,100,133.14,11,-26.00,-3.00,-968.00
2024-05-19 09:01:06.044476,0,0,0,0,0,-1,61,63,175,130,100,133.14,11,42.00,-43.00,-977.00
2024-05-19 09:01:06.185046,0,0,0,0,0,-1,61,63,177,140,100,133.13,11,36.00,-30.00,-946.00
2024-05-19 09:01:06.249102,0,0,0,0,0,-1,61,63,179,140,100,133.12,11,-2.00,-7.00,-945.00
2024-05-19 09:01:06.389888,0,0,0,0,0,0,61,63,180,140,100,133.17,11,39.00,-23.00,-979.00
2024-05-19 09:01:06.452528,0,0,0,0,0,0,61,63,181,140,100,133.23,11,1.00,-20.00,-990.00
2024-05-19 09:01:06.595396,0,0,0,0,0,0,61,63,181,140,100,133.17,11,48.00,-20.00,-978.00
2024-05-19 09:01:06.656613,0,0,0,0,0,0,61,63,182,140,100,133.18,11,40.00,-23.00,-949.00
2024-05-19 09:01:06.799500,0,0,0,0,0,0,62,65,182,140,100,133.16,12,0.00,-8.00,-1002.00
2024-05-19 09:01:06.860575,0,0,0,0,0,0,62,65,183,140,100,133.17,12,64.00,-46.00,-979.00
2024-05-19 09:01:07.004188,0,0,0,0,0,0,62,65,183,140,100,133.24,12,50.00,-37.00,-1034.00
2024-05-19 09:01:07.064470,0,0,0,0,0,0,62,65,183,140,100,133.19,12,-35.00,9.00,-1026.00
2024-05-19 09:01:07.166295,0,0,0,0,0,0,62,65,183,140,100,133.15,12,23.00,-7.00,-1003.00
2024-05-19 09:01:07.311420,0,0,0,0,0,0,62,65,183,140,100,133.26,12,43.00,-38.00,-964.00
2024-05-19 09:01:07.370657,0,0,0,0,0,0,62,65,183,140,100,133.27,12,3.00,1.00,-1014.00
2024-05-19 09:01:07.492773,0,0,0,0,0,0,62,65,183,140,100,133.21,12,26.00,-21.00,-947.00
2024-05-19 09:01:07.574497,0,0,0,0,0,0,62,65,183,140,100,133.23,12,-10.00,-16.00,-1016.00
2024-05-19 09:01:07.625218,0,0,0,0,0,0,62,65,183,140,100,133.21,13,18.00,-9.00,-1028.00
2024-05-19 09:01:07.823633,0,0,0,0,0,0,63,65,182,140,100,133.19,13,41.00,-25.00,-1023.00
2024-05-19 09:01:07.880319,0,0,0,0,0,0,63,65,182,140,100,133.23,13,15.00,-13.00,-967.00
2024-05-19 09:01:07.931111,0,0,0,0,0,0,63,65,181,140,100,133.24,13,14.00,-18.00,-967.00
2024-05-19 09:01:08.048125,0,0,0,0,0,0,63,65,181,140,100,133.15,13,-10.00,0.00,-1033.00
2024-05-19 09:01:08.134932,0,0,0,0,0,0,63,65,181,140,100,133.17,13,45.00,-22.00,-1005.00
2024-05-19 09:01:08.335288,0,0,0,0,0,0,63,65,180,140,100,133.18,13,-31.00,2.00,-1001.00
2024-05-19 09:01:08.339293,0,0,0,0,0,0,63,65,180,140,100,133.20,13,-50.00,16.00,-1013.00
2024-05-19 09:01:08.540188,0,0,0,0,0,1,63,65,178,140,100,133.12,13,11.00,-8.00,-976.00
2024-05-19 09:01:08.543013,0,0,0,0,0,2,63,65,177,140,100,133.12,13,-8.00,-5.00,-939.00
2024-05-19 09:01:08.644995,0,0,0,0,0,2,63,65,175,140,100,133.08,14,-16.00,3.00,-960.00
2024-05-19 09:01:08.746979,0,0,1,0,0,2,63,65,173,130,100,133.07,14,22.00,2.00,-988.00
2024-05-19 09:01:08.849114,0,0,1,0,0,2,63,65,171,130,100,133.04,14,8.00,15.00,-1014.00
2024-05-19 09:01:09.052043,0,0,1,0,0,2,63,65,169,130,100,133.08,14,-28.00,-3.00,-968.00
2024-05-19 09:01:09.053029,0,0,1,0,0,2,63,65,165,120,100,133.06,14,-30.00,22.00,-999.00
2024-05-19 09:01:09.155014,0,0,1,0,0,2,63,65,163,120,100,132.99,14,-3.00,-5.00,-993.00
2024-05-19 09:01:09.257202,0,0,1,0,0,2,63,65,160,120,100,132.98,14,-62.00,30.00,-1051.00
2024-05-19 09:01:09.359289,0,0,1,0,0,2,63,65,158,120,100,133.01,14,-21.00,8.00,-999.00
2024-05-19 09:01:09.461735,0,0,1,0,0,2,63,65,156,120,100,132.91,14,-81.00,45.00,-1006.00
2024-05-19 09:01:09.563994,0,0,0,0,0,2,63,65,153,110,100,132.92,14,-47.00,7.00,-1005.00
2024-05-19 09:01:09.666504,0,0,0,0,0,2,63,65,152,110,100,132.90,15,19.00,6.00,-1033.00
2024-05-19 09:01:09.768645,-1,0,0,0,0,1,63,66,148,110,100,132.91,15,-37.00,14.00,-1020.00
2024-05-19 09:01:09.868965,-1,0,0,0,0,1,63,66,146,110,100,132.88,15,-23.00,6.00,-994.00
2024-05-19 09:01:09.973767,-1,0,0,0,0,1,63,66,144,110,100,132.83,15,76.00,-36.00,-998.00
2024-05-19 09:01:10.073284,-1,0,0,0,0,1,63,66,142,100,100,132.81,15,-95.00,54.00,-1035.00
2024-05-19 09:01:10.175097,-1,0,0,0,0,1,63,66,141,100,100,132.78,15,-104.00,66.00,-1029.00
2024-05-19 09:01:10.280881,-1,0,0,0,0,1,63,66,139,100,100,132.81,15,-67.00,56.00,-1026.00
2024-05-19 09:01:10.379183,-1,0,0,0,0,1,63,66,137,100,100,132.78,15,-51.00,47.00,-1038.00
2024-05-19 09:01:10.485774,-1,0,0,0,0,1,63,66,135,100,100,132.74,15,-29.00,10.00,-987.00
2024-05-19 09:01:10.583021,-1,0,0,0,0,1,63,66,133,100,100,132.72,15,-78.00,44.00,-993.00
2024-05-19 09:01:10.690924,-1,0,0,0,0,1,63,66,132,100,100,132.74,16,3.00,15.00,-1018.00
2024-05-19 09:01:10.787506,-1,0,0,0,0,0,63,66,131,100,100,132.80,16,-6.00,18.00,-1060.00
2024-05-19 09:01:10.895390,0,0,0,0,0,0,63,66,130,90,100,132.72,16,-17.00,12.00,-1074.00
2024-05-19 09:01:10.992943,0,0,0,0,0,0,63,66,130,90,100,132.70,16,32.00,-20.00,-1027.00
2024-05-19 09:01:11.093410,0,0,0,0,0,0,63,66,129,90,100,132.68,16,-46.00,26.00,-1036.00
2024-05-19 09:01:11.202718,-1,0,0,0,0,0,63,66,128,90,100,132.72,16,-16.00,6.00,-996.00
2024-05-19 09:01:11.297201,-1,0,0,0,0,0,63,66,127,90,100,132.68,16,29.00,-8.00,-989.00
2024-05-19 09:01:11.348280,-1,-1,0,0,0,0,63,66,127,90,100,132.67,16,-13.00,11.00,-992.00
2024-05-19 09:01:11.509872,-1,-1,0,0,0,0,63,66,127,90,100,132.63,16,-35.00,6.00,-981.00
2024-05-19 09:01:11.552271,-1,0,0,0,0,0,63,66,126,90,100,132.71,16,12.00,-4.00,-991.00
2024-05-19 09:01:11.654284,0,0,0,0,0,0,63,66,126,90,100,132.76,17,28.00,-3.00,-1004.00
2024-05-19 09:01:11.817636,0,0,0,1,0,0,64,66,125,90,100,132.69,17,54.00,-17.00,-1001.00
2024-05-19 09:01:11.858274,1,0,0,1,0,0,64,66,125,90,100,132.68,17,48.00,1.00,-1009.00
2024-05-19 09:01:12.022461,2,0,0,1,0,0,64,66,125,90,100,132.69,17,61.00,-8.00,-1005.00
2024-05-19 09:01:12.062152,1,0,0,0,0,0,64,66,124,90,100,132.69,17,29.00,-14.00,-980.00
2024-05-19 09:01:12.226614,1,0,0,0,0,0,64,66,124,90,100,132.60,17,-15.00,22.00,-997.00
2024-05-19 09:01:12.266311,1,0,0,0,0,0,64,66,124,90,100,132.63,17,-53.00,24.00,-1013.00
2024-05-19 09:01:12.431510,-1,-1,0,-1,0,0,64,66,124,90,100,132.66,17,-38.00,-1.00,-987.00
2024-05-19 09:01:12.470193,-3,-1,0,-1,0,0,64,66,125,90,100,132.66,17,14.00,-4.00,-1037.00
2024-05-19 09:01:12.636427,-3,0,0,0,0,0,64,66,124,90,100,132.62,17,-70.00,46.00,-1036.00
2024-05-19 09:01:12.674272,-2,0,0,0,0,0,64,66,125,90,100,132.62,18,4.00,-10.00,-994.00
2024-05-19 09:01:12.776217,-2,0,0,0,0,0,64,66,125,90,100,132.63,18,47.00,-21.00,-1030.00
2024-05-19 09:01:12.943361,-2,0,0,0,0,0,64,66,125,90,100,132.61,18,-29.00,11.00,-1030.00
2024-05-19 09:01:12.980025,-6,0,0,1,0,0,64,66,125,90,100,132.61,18,45.00,-25.00,-962.00
2024-05-19 09:01:13.127564,-8,0,0,2,0,0,64,66,126,90,100,132.62,18,-45.00,4.00,-996.00
2024-05-19 09:01:13.183986,-8,0,0,4,0,0,64,66,126,90,100,132.58,18,-37.00,-6.00,-1009.00
2024-05-19 09:01:13.352833,-7,0,0,4,0,0,64,66,127,90,100,132.54,18,-23.00,11.00,-1025.00
2024-05-19 09:01:13.388038,-7,0,0,5,0,0,64,66,127,90,100,132.55,18,-73.00,20.00,-1014.00
2024-05-19 09:01:13.557746,-7,0,0,6,0,0,64,66,127,90,100,132.59,18,-41.00,4.00,-998.00
2024-05-19 09:01:13.593652,-6,0,0,7,0,0,64,66,127,90,100,132.57,18,-31.00,1.00,-1011.00
2024-05-19 09:01:13.695042,-4,0,0,7,0,0,64,66,127,90,100,132.60,19,-49.00,23.00,-959.00
2024-05-19 09:01:13.796182,-1,0,0,8,0,0,64,67,127,90,100,132.52,19,-103.00,44.00,-957.00
2024-05-19 09:01:13.967572,1,0,0,7,0,0,64,67,127,90,100,132.61,19,-75.00,34.00,-986.00
2024-05-19 09:01:14.000421,3,0,0,6,0,0,64,67,128,90,100,132.70,19,-73.00,34.00,-1002.00
2024-05-19 09:01:14.172182,4,-1,0,5,0,0,64,67,129,90,100,132.78,19,-32.00,21.00,-1002.00
2024-05-19 09:01:14.203894,2,-1,0,4,0,0,64,67,129,90,100,132.78,19,-21.00,27.00,-1017.00
2024-05-19 09:01:14.376975,1,-1,0,3,0,0,64,67,129,90,100,132.78,19,-6.00,18.00,-1016.00
2024-05-19 09:01:14.407991,0,-1,0,3,0,0,64,67,129,90,100,132.77,19,-53.00,44.00,-968.00
2024-05-19 09:01:14.581658,0,-1,0,3,0,0,64,67,130,90,100,132.80,19,3.00,10.00,-990.00
2024-05-19 09:01:14.612328,0,-1,0,2,0,0,64,67,130,90,100,132.75,19,-3.00,16.00,-1002.00
2024-05-19 09:01:14.786536,0,-1,0,2,0,0,64,67,131,90,100,132.76,20,-25.00,30.00,-983.00
2024-05-19 09:01:14.816021,0,-2,0,2,0,0,65,66,131,90,99,132.82,20,-41.00,41.00,-987.00
2024-05-19 09:01:14.991322,0,-3,0,2,0,0,65,66,131,90,99,132.75,20,-16.00,29.00,-989.00
2024-05-19 09:01:15.019862,0,-5,0,1,0,0,65,66,133,90,99,132.77,20,0.00,10.00,-1006.00
2024-05-19 09:01:15.196159,0,-5,0,1,0,0,65,66,133,90,99,132.79,20,0.00,16.00,-993.00
2024-05-19 09:01:15.223861,1,-4,0,1,-1,0,65,66,133,90,99,132.81,20,3.00,38.00,-995.00
2024-05-19 09:01:15.275046,2,-3,0,1,-1,0,65,66,133,100,99,132.79,20,11.00,21.00,-1003.00
2024-05-19 09:01:15.401486,1,1,0,0,-1,0,65,66,134,100,99,132.81,20,6.00,33.00,-983.00
2024-05-19 09:01:15.478959,1,2,0,0,0,0,65,66,134,100,99,132.78,20,5.00,36.00,-990.00
2024-05-19 09:01:15.581514,0,0,0,0,0,0,65,66,134,100,99,132.77,20,5.00,2.00,-986.00
2024-05-19 09:01:15.682835,0,0,0,0,0,0,65,66,134,100,99,132.86,21,-5.00,23.00,-1009.00
2024-05-19 09:01:15.836616,0,0,0,0,0,0,65,67,134,100,99,132.76,21,9.00,29.00,-978.00
2024-05-19 09:01:16.015706,0,-1,0,0,0,0,65,67,134,100,99,132.82,21,-12.00,36.00,-1001.00
2024-05-19 09:01:16.015911,0,-1,0,0,0,0,65,67,134,100,99,132.74,21,9.00,26.00,-994.00
2024-05-19 09:01:16.090921,0,-1,0,0,0,0,65,67,134,100,99,132.80,21,-50.00,38.00,-980.00
2024-05-19 09:01:16.220184,0,-1,0,0,0,0,65,67,134,100,99,132.77,21,9.00,31.00,-996.00
2024-05-19 09:01:16.295466,0,-1,0,0,0,0,65,67,134,100,99,132.77,21,-20.00,26.00,-1033.00
2024-05-19 09:01:16.425176,0,-2,0,0,0,0,65,67,135,100,99,132.76,21,-10.00,34.00,-1003.00
2024-05-19 09:01:16.498785,0,-2,0,0,0,0,65,67,134,100,99,132.76,21,-11.00,22.00,-975.00
2024-05-19 09:01:16.629797,0,-2,0,0,0,0,65,67,134,100,99,132.85,21,19.00,32.00,-983.00
2024-05-19 09:01:16.703067,0,-1,0,0,0,0,65,67,134,100,99,132.85,22,11.00,28.00,-995.00
2024-05-19 09:01:16.834710,0,-1,0,0,0,0,66,67,133,100,98,132.85,22,6.00,42.00,-1012.00
2024-05-19 09:01:16.906729,0,-1,0,0,0,0,66,67,134,100,98,132.84,22,-8.00,29.00,-1018.00
2024-05-19 09:01:17.039499,0,-2,0,0,0,0,66,67,133,100,98,132.78,22,31.00,4.00,-973.00
2024-05-19 09:01:17.110986,0,-2,0,0,0,0,66,67,133,100,98,132.85,22,-30.00,38.00,-990.00
2024-05-19 09:01:17.244159,0,-2,0,0,0,0,66,67,133,100,98,132.84,22,14.00,20.00,-986.00
2024-05-19 09:01:17.314728,0,-1,0,0,0,0,66,67,133,100,98,132.82,22,11.00,20.00,-1054.00
2024-05-19 09:01:17.449022,0,-1,0,0,0,0,66,67,132,100,98,132.83,22,38.00,13.00,-1021.00
2024-05-19 09:01:17.518872,0,-1,0,0,0,0,66,67,132,90,98,132.83,22,24.00,20.00,-1004.00
2024-05-19 09:01:17.621114,0,-1,0,0,0,0,66,67,132,90,98,132.80,22,12.00,24.00,-1009.00
2024-05-19 09:01:17.755976,1,-1,0,0,0,0,66,67,134,90,98,132.82,23,38.00,3.00,-977.00
2024-05-19 09:01:17.824693,7,0,0,0,0,0,66,68,134,100,98,132.82,23,7.00,26.00,-1007.00
2024-05-19 09:01:17.961095,8,0,0,-1,0,0,66,68,134,100,98,132.89,23,-15.00,48.00,-1012.00
2024-05-19 09:01:18.028739,8,0,0,-2,0,0,66,68,134,100,98,132.89,23,56.00,0.00,-996.00
2024-05-19 09:01:18.165874,8,-1,0,-3,0,0,66,68,134,100,98,132.80,23,68.00,-9.00,-982.00
2024-05-19 09:01:18.232571,8,-1,0,-5,0,0,66,68,133,100,98,132.77,23,-23.00,39.00,-1001.00
2024-05-19 09:01:18.370770,7,-1,0,-6,0,0,66,68,133,100,98,132.69,23,-3.00,31.00,-997.00
2024-05-19 09:01:18.436753,6,0,0,-7,0,0,66,68,133,100,98,132.74,23,29.00,16.00,-1034.00
2024-05-19 09:01:18.575285,5,0,0,-7,0,0,66,68,133,90,98,132.73,23,59.00,10.00,-1027.00
2024-05-19 09:01:18.640921,4,0,0,-8,0,0,66,68,133,90,98,132.72,23,83.00,-2.00,-1005.00
2024-05-19 09:01:18.779920,1,0,0,-7,0,0,66,68,132,90,98,132.74,24,30.00,10.00,-985.00
2024-05-19 09:01:18.844490,-1,0,0,-7,0,0,66,68,132,90,97,132.71,24,63.00,-3.00,-989.00
2024-05-19 09:01:18.984868,-3,0,0,-6,0,0,66,68,133,90,97,132.75,24,47.00,-6.00,-986.00
2024-05-19 09:01:19.048425,-3,0,0,-5,0,0,66,68,134,90,97,132.80,24,3.00,14.00,-973.00
2024-05-19 09:01:19.150499,-2,0,0,-4,0,0,66,68,133,90,97,132.74,24,28.00,-12.00,-993.00
2024-05-19 09:01:19.291993,-1,0,0,-3,0,0,66,68,134,100,97,132.87,24,13.00,-2.00,-992.00
2024-05-19 09:01:19.354495,0,0,0,-3,0,0,66,68,135,100,97,132.74,24,9.00,0.00,-944.00
2024-05-19 09:01:19.496942,0,0,0,-3,0,0,66,68,134,100,97,132.91,24,121.00,-26.00,-1000.00
2024-05-19 09:01:19.507727,0,0,0,-2,0,0,66,68,135,100,97,132.77,24,61.00,-13.00,-1008.00
2024-05-19 09:01:19.702384,0,0,0,-2,0,0,66,68,134,100,97,132.80,24,8.00,5.00,-1021.00
2024-05-19 09:01:19.712364,0,0,0,-2,0,0,66,68,134,100,97,132.83,25,32.00,-9.00,-1007.00
2024-05-19 09:01:19.907230,-1,0,0,-1,0,0,66,68,134,100,97,132.78,25,13.00,-6.00,-974.00
2024-05-19 09:01:19.916498,-3,0,0,-1,0,0,66,68,133,100,97,132.85,25,22.00,-12.00,-980.00
2024-05-19 09:01:20.018801,-2,0,0,0,0,0,66,68,132,100,97,132.77,25,-31.00,12.00,-1028.00
2024-05-19 09:01:20.213948,0,0,0,0,0,0,66,68,133,100,97,132.81,25,9.00,-4.00,-1016.00
2024-05-19 09:01:20.222481,0,0,0,0,0,0,66,68,132,100,97,132.72,25,12.00,-6.00,-1009.00
2024-05-19 09:01:20.418556,0,0,0,0,0,0,66,68,132,100,97,132.82,25,-8.00,9.00,-1010.00
2024-05-19 09:01:20.426581,0,0,0,0,0,0,66,68,132,90,97,132.79,25,-18.00,25.00,-1034.00
2024-05-19 09:01:20.623396,0,0,0,0,0,0,66,68,131,90,97,132.75,25,25.00,-14.00,-1010.00
2024-05-19 09:01:20.630803,0,0,0,0,0,0,66,68,131,90,97,132.83,25,6.00,-1.00,-1001.00
2024-05-19 09:01:20.828066,0,0,0,0,0,0,66,68,132,90,97,132.81,26,-51.00,31.00,-1016.00
2024-05-19 09:01:20.834491,0,0,0,0,0,0,66,69,131,90,96,132.86,26,-25.00,21.00,-962.00
2024-05-19 09:01:21.032944,0,0,0,0,0,0,66,69,131,90,96,132.86,26,18.00,2.00,-1026.00
2024-05-19 09:01:21.038775,0,0,0,0,0,0,66,69,130,90,96,132.77,26,-15.00,11.00,-965.00
2024-05-19 09:01:21.140454,0,0,0,0,0,0,66,69,130,90,96,132.76,26,14.00,-2.00,-1006.00
2024-05-19 09:01:21.340106,0,0,0,0,0,0,66,69,129,90,96,132.77,26,-34.00,18.00,-990.00
2024-05-19 09:01:21.344478,0,0,0,0,0,0,66,69,129,90,96,132.81,26,-43.00,23.00,-1026.00
2024-05-19 09:01:21.545255,0,0,0,0,0,0,66,69,129,90,96,132.75,26,54.00,-21.00,-1016.00
2024-05-19 09:01:21.548550,0,0,0,0,0,0,66,69,128,90,96,132.77,26,49.00,-30.00,-1028.00
2024-05-19 09:01:21.651929,0,0,0,0,0,0,66,69,128,90,96,132.82,26,53.00,-19.00,-1049.00
2024-05-19 09:01:21.752668,0,0,0,0,0,0,66,69,128,90,96,132.80,27,43.00,-15.00,-1003.00
2024-05-19 09:01:21.855304,0,0,0,0,0,0,67,69,128,90,96,132.71,27,0.00,-2.00,-1000.00
2024-05-19 09:01:21.956528,0,0,0,0,0,0,67,69,127,90,96,132.82,27,28.00,-10.00,-1015.00
2024-05-19 09:01:22.058584,0,0,0,0,0,0,67,69,128,90,96,132.77,27,-21.00,6.00,-1009.00
2024-05-19 09:01:22.261902,0,-5,0,0,0,0,67,69,128,90,96,132.70,27,0.00,1.00,-1009.00
2024-05-19 09:01:22.262199,0,-8,0,0,-1,0,67,69,129,90,96,132.81,27,11.00,4.00,-994.00
2024-05-19 09:01:22.364420,0,-6,0,0,-2,0,67,69,129,90,96,132.74,27,29.00,-18.00,-1020.00
2024-05-19 09:01:22.467005,0,-4,0,0,-3,0,67,69,129,90,96,132.81,27,-74.00,44.00,-1061.00
2024-05-19 09:01:22.568842,0,-1,0,0,-3,0,67,69,129,90,96,132.79,27,9.00,15.00,-1000.00
2024-05-19 09:01:22.670958,0,0,0,0,-3,0,67,69,129,90,96,132.85,28,15.00,9.00,-1016.00
2024-05-19 09:01:22.773826,0,0,0,0,-3,0,67,69,129,90,96,132.79,28,6.00,23.00,-1000.00
2024-05-19 09:01:22.876034,0,0,0,0,-2,0,67,70,130,90,95,132.77,28,8.00,12.00,-960.00
2024-05-19 09:01:22.976457,0,0,0,0,-2,0,67,70,130,90,95,132.80,28,21.00,2.00,-1061.00
2024-05-19 09:01:23.078585,0,0,0,0,-2,0,67,70,129,90,95,132.78,28,44.00,-2.00,-988.00
2024-05-19 09:01:23.183330,0,0,0,0,-2,0,67,70,130,90,95,132.79,28,-14.00,14.00,-1013.00
2024-05-19 09:01:23.283695,0,0,0,0,-2,0,67,70,129,90,95,132.81,28,-8.00,25.00,-1023.00
2024-05-19 09:01:23.334312,0,-1,0,0,-2,0,67,70,129,90,95,132.76,28,10.00,11.00,-1015.00
2024-05-19 09:01:23.490443,0,-1,0,0,-2,0,67,70,129,90,95,132.85,28,0.00,15.00,-994.00
2024-05-19 09:01:23.538641,0,-1,0,0,-2,0,67,70,129,90,95,132.76,28,11.00,5.00,-1006.00
2024-05-19 09:01:23.695447,0,-1,0,0,-2,0,67,70,129,90,95,132.79,29,19.00,4.00,-1000.00
2024-05-19 09:01:23.742628,0,0,0,0,-2,0,67,70,129,90,95,132.88,29,35.00,-1.00,-1005.00
2024-05-19 09:01:23.900029,0,0,0,0,-2,0,67,70,128,90,95,132.82,29,21.00,7.00,-1011.00
2024-05-19 09:01:23.946666,0,0,0,0,-2,0,67,70,128,90,95,132.83,29,48.00,10.00,-1028.00
2024-05-19 09:01:24.104917,1,2,0,0,-2,0,67,70,129,90,95,132.79,29,-30.00,19.00,-1000.00
2024-05-19 09:01:24.150390,1,4,0,0,-1,0,67,70,128,90,95,132.68,29,6.00,28.00,-1021.00
2024-05-19 09:01:24.310222,0,2,0,0,0,0,67,70,128,90,95,132.78,29,17.00,-14.00,-983.00
2024-05-19 09:01:24.354375,0,0,0,0,0,0,67,70,127,90,95,132.74,29,20.00,-6.00,-996.00
2024-05-19 09:01:24.514617,0,0,0,0,0,0,67,70,127,90,95,132.75,29,17.00,-10.00,-1013.00
2024-05-19 09:01:24.558524,0,0,0,0,0,0,67,70,126,90,95,132.75,29,27.00,-16.00,-996.00
2024-05-19 09:01:24.719673,0,0,0,0,0,0,67,70,126,90,95,132.73,30,49.00,-15.00,-1020.00
2024-05-19 09:01:24.762397,0,0,0,0,0,0,67,70,126,90,95,132.72,30,44.00,-15.00,-1000.00
2024-05-19 09:01:24.924101,1,0,0,0,0,0,67,70,126,90,94,132.81,30,3.00,5.00,-998.00
2024-05-19 09:01:24.966349,1,0,0,0,0,0,67,70,125,90,94,132.81,30,15.00,-16.00,-1016.00
2024-05-19 09:01:25.129058,1,0,0,0,0,0,67,70,125,90,94,132.79,30,21.00,-15.00,-1017.00
2024-05-19 09:01:25.170345,0,0,0,0,0,0,67,70,125,90,94,132.80,30,18.00,-9.00,-1024.00
2024-05-19 09:01:25.333621,0,0,0,0,0,0,67,70,125,90,94,132.76,30,18.00,-7.00,-1033.00
2024-05-19 09:01:25.374516,0,0,0,0,0,0,67,70,125,90,94,132.79,30,19.00,-1.00,-985.00
2024-05-19 09:01:25.538611,0,0,0,0,0,0,67,70,125,90,94,132.80,30,12.00,-12.00,-988.00
2024-05-19 09:01:25.578456,0,0,0,0,0,0,67,70,125,90,94,132.78,30,48.00,-18.00,-981.00
2024-05-19 09:01:25.680383,0,0,0,0,0,0,67,70,126,90,94,132.70,31,19.00,-10.00,-1016.00
2024-05-19 09:01:25.845954,1,0,0,0,0,0,67,70,127,90,94,132.77,31,41.00,-14.00,-1041.00
2024-05-19 09:01:25.884356,1,0,0,0,0,0,68,70,128,90,94,132.79,31,17.00,-12.00,-997.00
2024-05-19 09:01:26.050797,1,0,0,0,0,0,68,70,129,90,94,132.78,31,43.00,-8.00,-1011.00
2024-05-19 09:01:26.088299,1,0,0,0,0,0,68,70,130,90,94,132.89,31,58.00,-24.00,-986.00
2024-05-19 09:01:26.255289,1,0,0,0,0,0,68,70,132,90,94,132.78,31,41.00,-7.00,-963.00
2024-05-19 09:01:26.292114,1,0,0,0,0,0,68,70,133,90,94,132.85,31,16.00,-5.00,-936.00
2024-05-19 09:01:26.394299,1,0,0,0,0,0,68,70,134,90,94,132.84,31,31.00,-2.00,-992.00
2024-05-19 09:01:26.562496,1,1,0,0,0,0,68,70,136,90,94,132.85,31,-36.00,11.00,-1033.00
2024-05-19 09:01:26.598361,0,8,0,0,0,0,68,70,139,90,94,132.79,31,80.00,-11.00,-989.00
2024-05-19 09:01:26.700207,0,7,0,0,2,0,68,70,139,90,94,132.82,32,29.00,-15.00,-989.00
2024-05-19 09:01:26.869793,1,5,0,0,3,0,68,70,140,100,94,132.88,32,25.00,-41.00,-983.00
2024-05-19 09:01:26.906613,1,2,0,0,3,0,68,71,140,100,93,132.83,32,11.00,-43.00,-1071.00
2024-05-19 09:01:27.006135,1,0,0,0,3,0,68,71,140,100,93,132.82,32,21.00,-51.00,-1023.00
2024-05-19 09:01:27.176898,1,0,0,0,3,0,68,71,140,100,93,132.92,32,38.00,-34.00,-968.00
2024-05-19 09:01:27.211392,0,0,0,0,2,0,68,71,141,100,93,132.87,32,22.00,-17.00,-1029.00
2024-05-19 09:01:27.313553,1,0,0,0,2,0,68,71,141,100,93,132.93,32,-9.00,0.00,-1010.00
2024-05-19 09:01:27.483955,1,1,0,0,2,0,68,71,142,100,93,132.87,32,57.00,-25.00,-984.00
2024-05-19 09:01:27.484011,1,0,0,0,3,0,68,71,142,100,93,132.86,32,17.00,-46.00,-1048.00
2024-05-19 09:01:27.567936,1,0,0,0,3,0,68,71,141,100,93,132.89,32,12.00,-9.00,-947.00
2024-05-19 09:01:27.689951,1,-1,0,0,3,0,68,71,140,100,93,132.91,33,29.00,-20.00,-984.00
2024-05-19 09:01:27.771408,1,-4,0,0,2,0,68,71,140,100,93,132.87,33,-1.00,-4.00,-990.00
2024-05-19 09:01:27.893624,1,-5,0,0,2,0,69,71,140,100,93,132.96,33,42.00,-46.00,-967.00
2024-05-19 09:01:27.977132,0,-3,1,0,1,0,69,71,139,100,93,132.95,33,-11.00,-2.00,-971.00
2024-05-19 09:01:28.079638,0,-2,1,0,0,0,69,71,138,100,93,132.99,33,-51.00,38.00,-1018.00
2024-05-19 09:01:28.179549,0,-1,1,0,0,0,69,71,138,100,93,132.98,33,22.00,11.00,-1017.00
2024-05-19 09:01:28.281707,0,-1,1,0,0,0,69,71,137,100,93,132.95,33,65.00,-12.00,-960.00
2024-05-19 09:01:28.405834,0,-1,1,0,0,0,69,71,136,100,93,132.93,33,-3.00,22.00,-1029.00
2024-05-19 09:01:28.486318,0,-1,1,0,0,0,69,71,135,100,93,132.84,33,56.00,-39.00,-968.00
2024-05-19 09:01:28.610601,0,-1,1,0,0,0,69,71,134,100,93,132.88,33,10.00,0.00,-1041.00
2024-05-19 09:01:28.691255,0,-1,1,0,0,0,69,71,133,100,93,132.86,34,-18.00,20.00,-1017.00
2024-05-19 09:01:28.791690,0,-1,1,0,0,0,69,71,132,100,92,132.82,34,53.00,-34.00,-950.00
2024-05-19 09:01:28.893637,0,0,1,0,0,0,69,71,132,90,92,132.82,34,28.00,-39.00,-967.00
2024-05-19 09:01:29.020037,0,0,1,0,0,0,69,71,132,90,92,132.79,34,-9.00,-16.00,-1011.00
2024-05-19 09:01:29.097179,0,0,1,0,0,0,69,71,130,90,92,132.81,34,22.00,-36.00,-1003.00
2024-05-19 09:01:29.199770,0,0,0,0,0,0,69,71,130,90,92,132.77,34,-27.00,5.00,-1047.00
2024-05-19 09:01:29.316813,0,0,0,0,0,0,69,71,130,90,92,132.72,34,-54.00,28.00,-979.00
2024-05-19 09:01:29.403118,0,0,0,0,0,0,69,71,130,90,92,132.79,34,-25.00,10.00,-1008.00
2024-05-19 09:01:29.532218,0,0,0,0,0,0,69,71,130,90,92,132.80,34,32.00,-31.00,-1004.00
2024-05-19 09:01:29.607238,0,0,0,0,0,0,69,71,129,90,92,132.92,34,-18.00,22.00,-1049.00
2024-05-19 09:01:29.709663,0,0,0,0,0,0,69,71,129,90,92,132.89,35,27.00,-39.00,-993.00
2024-05-19 09:01:29.839414,0,0,0,0,0,0,69,71,129,90,92,132.86,35,34.00,-25.00,-994.00
2024-05-19 09:01:29.913669,0,0,0,0,0,0,68,71,129,90,92,132.84,35,-30.00,2.00,-1055.00
2024-05-19 09:01:30.028817,0,0,0,0,0,0,68,71,129,90,92,132.84,35,21.00,-15.00,-1029.00
2024-05-19 09:01:30.117503,0,0,0,0,0,0,68,71,129,90,92,132.89,35,-21.00,1.00,-968.00
2024-05-19 09:01:30.248917,0,0,2,0,0,0,68,71,129,90,92,132.86,35,31.00,-44.00,-1005.00
2024-05-19 09:01:30.321336,-1,0,7,0,0,0,68,71,129,90,92,132.87,35,-24.00,-15.00,-1007.00
2024-05-19 09:01:30.453670,0,0,12,0,0,0,68,71,129,90,92,132.88,35,27.00,-21.00,-1032.00
2024-05-19 09:01:30.525239,0,0,18,0,0,0,68,71,130,90,92,132.85,35,43.00,-19.00,-1008.00
2024-05-19 09:01:30.581449,0,0,24,0,0,0,68,71,130,90,92,132.86,35,24.00,-30.00,-1101.00
2024-05-19 09:01:30.679014,0,0,30,0,0,0,68,71,130,90,92,132.89,36,-30.00,-8.00,-988.00
2024-05-19 09:01:30.863273,0,0,35,0,0,0,68,71,130,90,92,132.85,36,-42.00,3.00,-992.00
2024-05-19 09:01:30.934012,0,0,41,0,0,0,69,71,130,90,92,132.87,36,-59.00,28.00,-1060.00
2024-05-19 09:01:31.068051,0,0,47,0,0,0,69,71,131,90,92,132.83,36,62.00,-43.00,-1009.00
2024-05-19 09:01:31.138304,0,0,53,0,0,0,69,71,130,90,92,132.81,36,-42.00,13.00,-971.00
2024-05-19 09:01:31.189284,0,0,59,0,0,0,69,71,131,90,92,132.75,36,-18.00,10.00,-1058.00
2024-05-19 09:01:31.375305,0,0,65,0,0,0,69,71,131,90,92,132.82,36,-65.00,29.00,-1032.00
2024-05-19 09:01:31.393224,0,0,71,0,0,0,69,71,131,90,92,132.92,36,-29.00,14.00,-1018.00
2024-05-19 09:01:31.580007,0,0,77,0,0,0,69,71,131,90,92,132.80,36,-16.00,-3.00,-1040.00
2024-05-19 09:01:31.596967,0,0,83,0,0,0,69,71,131,90,92,132.87,36,-43.00,3.00,-975.00
2024-05-19 09:01:31.698970,0,0,89,0,0,0,69,71,131,90,92,132.80,37,7.00,-20.00,-978.00
2024-05-19 09:01:31.887245,0,1,94,0,0,0,69,71,131,90,91,132.83,37,-17.00,1.00,-1044.00
2024-05-19 09:01:31.902909,0,1,100,0,0,0,70,72,131,90,91,132.90,37,-18.00,1.00,-959.00
2024-05-19 09:01:32.091937,0,1,106,0,0,0,70,72,131,90,91,132.88,37,-2.00,13.00,-936.00
2024-05-19 09:01:32.107124,0,1,112,0,0,0,70,72,131,90,91,132.92,37,-58.00,30.00,-1070.00
2024-05-19 09:01:32.296860,0,0,118,0,0,0,70,72,131,90,91,132.86,37,-41.00,14.00,-1035.00
2024-05-19 09:01:32.311132,0,0,123,0,0,0,70,72,131,90,91,132.88,37,-25.00,18.00,-981.00
2024-05-19 09:01:32.503601,0,0,129,0,0,0,70,72,131,90,91,132.92,37,-16.00,17.00,-1027.00
2024-05-19 09:01:32.515233,0,0,134,0,0,0,70,72,131,90,91,132.87,37,-1.00,4.00,-1050.00
2024-05-19 09:01:32.706494,0,0,140,0,0,0,70,72,132,90,91,132.93,37,-42.00,21.00,-1015.00
2024-05-19 09:01:32.719142,0,0,145,0,0,0,70,72,133,90,91,132.92,38,27.00,-3.00,-1043.00
2024-05-19 09:01:32.911616,0,0,151,0,0,0,70,72,134,90,91,132.96,38,52.00,-20.00,-1023.00
2024-05-19 09:01:32.923263,0,0,156,0,0,0,70,72,135,90,91,132.89,38,-14.00,10.00,-981.00
2024-05-19 09:01:33.115999,0,0,162,0,0,0,70,72,136,90,91,132.98,38,18.00,13.00,-967.00
2024-05-19 09:01:33.126830,0,0,167,0,0,0,70,72,136,100,91,132.92,38,2.00,18.00,-950.00
2024-05-19 09:01:33.278311,0,0,173,0,0,0,70,72,136,100,91,132.84,38,16.00,6.00,-985.00
2024-05-19 09:01:33.332600,0,0,179,0,0,0,70,72,136,100,91,132.91,38,-40.00,32.00,-908.00
2024-05-19 09:01:33.432942,0,0,-175,0,0,0,70,72,136,100,91,132.85,38,16.00,12.00,-1002.00
2024-05-19 09:01:33.628495,0,0,-169,0,0,0,70,72,136,100,91,132.93,38,5.00,-7.00,-980.00
2024-05-19 09:01:33.637621,0,0,-163,0,0,0,70,72,135,100,91,132.88,38,-3.00,25.00,-927.00
2024-05-19 09:01:33.832855,0,0,-158,0,0,0,70,72,135,100,91,132.88,39,-53.00,37.00,-1038.00
2024-05-19 09:01:33.848506,0,0,-152,0,0,0,70,72,134,100,91,132.89,39,-17.00,36.00,-1002.00
2024-05-19 09:01:33.945595,0,0,-146,0,0,0,70,72,134,100,91,132.88,39,5.00,8.00,-1033.00
2024-05-19 09:01:34.045220,0,0,-140,0,0,0,70,72,134,100,91,132.90,39,5.00,39.00,-1022.00
2024-05-19 09:01:34.242457,0,0,-134,0,0,0,70,72,133,90,91,132.88,39,-20.00,12.00,-1062.00
2024-05-19 09:01:34.249707,0,0,-129,0,0,0,70,72,133,90,91,132.85,39,0.00,16.00,-1041.00
2024-05-19 09:01:34.447214,0,0,-123,0,0,0,70,72,133,90,91,132.87,39,16.00,4.00,-982.00
2024-05-19 09:01:34.453105,0,0,-117,0,0,0,70,72,132,90,91,132.99,39,12.00,16.00,-1006.00
2024-05-19 09:01:34.651938,0,0,-111,0,0,0,70,72,133,90,91,132.88,39,50.00,2.00,-896.00
2024-05-19 09:01:34.657186,0,0,-105,0,0,0,70,72,133,90,91,132.91,39,33.00,7.00,-1029.00
2024-05-19 09:01:34.707870,0,0,-99,0,0,0,70,72,133,90,91,132.88,40,18.00,30.00,-1035.00
2024-05-19 09:01:34.856816,0,0,-93,0,0,0,70,72,133,90,91,132.93,40,36.00,-11.00,-988.00
2024-05-19 09:01:34.962824,0,0,-87,0,0,0,70,73,133,90,91,132.83,40,18.00,0.00,-1007.00
2024-05-19 09:01:35.014054,0,0,-81,0,0,0,70,73,133,90,91,132.75,40,43.00,-9.00,-962.00
2024-05-19 09:01:35.164721,0,0,-75,0,0,0,70,73,133,90,91,132.86,40,9.00,2.00,-1099.00
2024-05-19 09:01:35.218964,0,0,-69,0,0,0,70,73,133,100,91,132.89,40,-4.00,16.00,-936.00
2024-05-19 09:01:35.368902,0,0,-62,0,0,0,70,73,133,100,91,132.88,40,28.00,6.00,-1112.00
2024-05-19 09:01:35.423392,0,0,-56,0,0,0,70,73,133,100,91,132.83,40,9.00,1.00,-972.00
2024-05-19 09:01:35.523775,0,0,-50,0,0,0,70,73,133,100,91,132.88,40,27.00,-7.00,-1043.00
2024-05-19 09:01:35.675920,0,0,-44,0,0,0,70,73,132,100,91,132.91,40,53.00,-32.00,-1010.00
2024-05-19 09:01:35.727800,0,0,-38,0,0,0,70,73,132,100,91,132.97,41,22.00,-4.00,-959.00
2024-05-19 09:01:35.880884,0,0,-32,0,0,0,70,73,132,100,91,132.90,41,22.00,12.00,-981.00
2024-05-19 09:01:35.931768,0,0,-20,0,0,0,70,73,132,90,91,132.84,41,-11.00,2.00,-1101.00
2024-05-19 09:01:36.085671,0,0,-15,0,0,0,70,73,132,90,91,132.78,41,-41.00,18.00,-1049.00
2024-05-19 09:01:36.135743,0,0,-11,0,0,0,70,73,132,90,91,132.89,41,70.00,-21.00,-1041.00
2024-05-19 09:01:36.281024,0,0,-8,0,0,0,70,73,131,100,91,132.86,41,-47.00,31.00,-1009.00
2024-05-19 09:01:36.339752,0,0,-5,0,0,0,70,73,131,90,91,132.87,41,52.00,-24.00,-991.00
2024-05-19 09:01:36.495262,0,0,-4,0,0,0,70,73,130,90,91,132.87,41,-42.00,19.00,-969.00
2024-05-19 09:01:36.543723,0,0,-2,0,0,0,70,73,130,90,91,132.84,41,-53.00,24.00,-965.00
2024-05-19 09:01:36.699985,0,0,-2,0,0,0,70,73,130,90,91,132.83,42,26.00,-5.00,-1079.00
2024-05-19 09:01:36.747979,0,0,-1,0,0,0,70,73,129,90,91,132.82,42,-47.00,26.00,-1049.00
2024-05-19 09:01:36.849891,0,0,-1,0,0,0,70,73,129,90,91,132.80,42,-38.00,6.00,-1009.00
2024-05-19 09:01:37.007725,0,0,-1,0,0,0,71,74,129,90,91,132.81,42,9.00,-10.00,-1012.00
2024-05-19 09:01:37.053830,0,0,-1,0,0,0,71,74,129,90,91,132.81,42,-44.00,23.00,-939.00
2024-05-19 09:01:37.155901,0,0,-1,0,0,0,71,74,129,90,91,132.82,42,-7.00,3.00,-984.00
2024-05-19 09:01:37.314632,0,0,-1,0,0,0,71,74,130,90,91,132.93,42,71.00,-11.00,-1053.00
2024-05-19 09:01:37.359880,0,0,-1,0,0,0,71,74,130,90,91,132.82,42,37.00,-5.00,-1013.00
2024-05-19 09:01:37.519433,0,0,-1,0,0,0,71,74,130,90,91,132.82,42,47.00,-31.00,-1014.00
2024-05-19 09:01:37.563823,0,0,-1,0,0,0,71,74,131,90,91,132.90,42,-66.00,-6.00,-1016.00
2024-05-19 09:01:37.724158,0,0,-1,0,0,0,71,74,132,90,91,132.91,43,-43.00,-9.00,-956.00
2024-05-19 09:01:37.767761,0,0,-1,0,0,0,71,74,133,90,91,132.86,43,4.00,-9.00,-1002.00
2024-05-19 09:01:37.929149,0,0,-1,0,0,0,71,74,133,90,90,132.88,43,44.00,-50.00,-1013.00
2024-05-19 09:01:37.971764,0,0,-1,0,0,0,71,73,133,90,90,132.87,43,-21.00,-19.00,-1014.00
2024-05-19 09:01:38.133795,0,0,-1,0,0,0,71,73,134,100,90,132.84,43,-47.00,6.00,-917.00
2024-05-19 09:01:38.175797,0,0,-1,0,0,0,71,73,134,100,90,132.85,43,-8.00,14.00,-934.00
2024-05-19 09:01:38.338561,0,0,-1,0,0,0,71,73,134,100,90,132.91,43,30.00,-12.00,-1029.00
2024-05-19 09:01:38.379984,0,0,-1,0,0,0,71,73,135,100,90,132.92,43,34.00,-20.00,-996.00
2024-05-19 09:01:38.543302,0,0,-1,0,0,0,71,73,135,100,90,132.88,43,9.00,-37.00,-921.00
2024-05-19 09:01:38.583868,0,0,-1,0,0,0,71,73,135,100,90,132.95,43,58.00,-21.00,-962.00
2024-05-19 09:01:38.748163,0,0,-1,0,0,0,71,73,135,100,90,132.87,44,-21.00,1.00,-973.00
2024-05-19 09:01:38.787750,0,0,-1,0,0,0,71,73,135,100,90,132.89,44,-13.00,14.00,-1025.00
2024-05-19 09:01:38.889708,0,0,-1,0,0,0,71,73,135,100,90,132.91,44,56.00,-43.00,-1033.00
2024-05-19 09:01:39.056026,0,0,-4,0,0,0,71,73,136,100,90,132.86,44,11.00,15.00,-1039.00
2024-05-19 09:01:39.094131,0,0,-10,0,0,0,71,73,136,100,90,132.87,44,-2.00,9.00,-984.00
2024-05-19 09:01:39.260935,0,0,-16,0,0,0,71,73,136,100,90,132.90,44,-11.00,-3.00,-925.00
2024-05-19 09:01:39.297825,0,0,-22,0,0,0,71,73,137,100,90,132.87,44,3.00,16.00,-1020.00
2024-05-19 09:01:39.348632,0,0,-28,0,0,0,71,73,137,100,90,132.89,44,2.00,-4.00,-986.00
2024-05-19 09:01:39.464880,0,0,-34,0,0,0,71,73,137,100,90,132.90,44,85.00,-14.00,-1048.00
2024-05-19 09:01:39.552990,0,0,-40,0,0,0,71,73,137,100,90,132.91,44,14.00,3.00,-969.00
2024-05-19 09:01:39.672026,0,0,-46,0,0,0,71,73,137,100,90,132.90,45,-55.00,9.00,-1048.00
2024-05-19 09:01:39.758939,0,0,-52,0,0,0,71,73,137,100,90,132.95,45,45.00,-20.00,-979.00
2024-05-19 09:01:39.859479,0,0,-58,0,0,0,71,73,137,100,90,132.97,45,33.00,8.00,-1020.00
2024-05-19 09:01:40.012104,0,0,-64,0,0,0,72,74,136,100,90,132.93,45,17.00,9.00,-936.00
2024-05-19 09:01:40.066168,0,0,-69,0,0,0,72,74,136,100,90,132.91,45,-44.00,16.00,-960.00
2024-05-19 09:01:40.164649,0,0,-75,0,0,0,72,74,136,100,90,132.95,45,29.00,-11.00,-1041.00
2024-05-19 09:01:40.283870,0,0,-81,0,0,0,72,74,136,100,90,132.86,45,-44.00,12.00,-978.00
2024-05-19 09:01:40.368589,0,0,-87,0,0,0,72,74,136,100,90,132.92,45,39.00,2.00,-981.00
2024-05-19 09:01:40.488784,0,0,-93,0,0,0,72,74,135,100,90,132.89,45,32.00,-22.00,-956.00
2024-05-19 09:01:40.573002,0,0,-99,0,0,0,72,74,134,100,90,132.85,45,56.00,-17.00,-976.00
2024-05-19 09:01:40.694460,0,0,-105,0,0,0,72,74,135,100,90,132.91,46,10.00,3.00,-996.00
2024-05-19 09:01:40.776874,0,0,-110,0,0,0,72,74,135,100,90,132.90,46,45.00,8.00,-1081.00
2024-05-19 09:01:40.898454,0,0,-116,0,0,0,72,74,134,100,90,132.86,46,23.00,0.00,-992.00
2024-05-19 09:01:40.981431,0,0,-122,0,0,0,72,74,134,100,90,132.91,46,63.00,-9.00,-1030.00
2024-05-19 09:01:41.103206,1,0,-128,0,0,0,72,74,135,100,90,132.90,46,39.00,-12.00,-1018.00
2024-05-19 09:01:41.186670,1,0,-134,0,0,0,72,74,135,100,90,132.93,46,12.00,-9.00,-1018.00
2024-05-19 09:01:41.286611,0,0,-140,0,0,0,72,74,135,100,90,132.90,46,-35.00,55.00,-868.00
2024-05-19 09:01:41.393034,0,0,-146,0,0,0,72,74,135,100,90,132.93,46,-23.00,49.00,-988.00
2024-05-19 09:01:41.491040,0,0,-152,0,0,0,72,74,135,100,90,132.89,46,-30.00,48.00,-953.00
2024-05-19 09:01:41.593072,0,0,-157,0,0,0,72,74,135,100,90,132.95,46,55.00,6.00,-1016.00
2024-05-19 09:01:41.717647,0,0,-163,0,0,0,72,74,136,100,90,132.95,47,34.00,15.00,-984.00
2024-05-19 09:01:41.797444,1,0,-169,0,0,0,72,74,137,100,90,132.95,47,52.00,23.00,-998.00
2024-05-19 09:01:41.922437,2,0,-174,0,0,0,72,74,137,100,90,132.90,47,78.00,2.00,-1004.00
2024-05-19 09:01:42.000615,2,0,179,0,0,0,72,73,138,100,90,132.89,47,35.00,25.00,-1018.00
2024-05-19 09:01:42.127390,2,0,173,0,0,0,72,73,138,100,90,132.89,47,16.00,8.00,-1024.00
2024-05-19 09:01:42.204535,1,0,167,0,0,0,72,73,138,100,90,132.90,47,28.00,13.00,-1007.00
2024-05-19 09:01:42.306532,0,0,161,0,0,0,72,73,137,100,90,132.89,47,-21.00,15.00,-962.00
2024-05-19 09:01:42.434519,0,0,154,0,0,0,72,73,137,100,90,132.93,47,25.00,7.00,-943.00
2024-05-19 09:01:42.510540,0,0,148,0,0,0,72,73,137,100,90,132.98,47,-37.00,58.00,-979.00
2024-05-19 09:01:42.639230,0,0,142,0,0,0,72,73,136,100,90,132.89,47,5.00,36.00,-897.00
2024-05-19 09:01:42.715472,0,0,136,0,0,0,72,73,135,100,90,132.89,48,-45.00,44.00,-978.00
2024-05-19 09:01:42.844085,0,0,130,0,0,0,72,73,135,100,90,132.98,48,-59.00,53.00,-955.00
2024-05-19 09:01:42.918521,0,0,124,0,0,0,72,73,134,100,90,132.93,48,48.00,-2.00,-980.00
2024-05-19 09:01:43.048845,0,0,117,0,0,0,72,74,133,100,90,132.87,48,-3.00,31.00,-912.00
2024-05-19 09:01:43.122974,0,0,111,0,0,0,72,74,133,100,90,132.93,48,-33.00,36.00,-1033.00
2024-05-19 09:01:43.253613,0,0,105,0,0,0,72,74,133,100,90,132.94,48,21.00,-26.00,-1014.00
2024-05-19 09:01:43.275385,0,0,99,0,0,0,72,74,133,100,90,132.83,48,-6.00,34.00,-1048.00
2024-05-19 09:01:43.458443,0,0,93,0,0,0,72,74,133,90,90,132.91,48,27.00,-11.00,-945.00
2024-05-19 09:01:43.479490,0,0,87,0,0,0,72,74,133,90,90,132.87,48,15.00,-6.00,-972.00
2024-05-19 09:01:43.663229,0,0,81,0,0,0,72,74,133,90,90,132.96,48,-52.00,52.00,-1005.00
2024-05-19 09:01:43.683766,0,0,75,0,0,0,72,74,133,90,90,132.93,49,3.00,9.00,-960.00
2024-05-19 09:01:43.867972,0,0,69,0,0,0,72,74,134,90,90,132.90,49,-63.00,17.00,-1065.00
2024-05-19 09:01:43.887475,-1,0,63,0,0,0,72,74,133,100,90,132.98,49,-78.00,29.00,-911.00
2024-05-19 09:01:44.072809,-1,0,57,0,0,0,73,75,133,100,90,132.89,49,29.00,-23.00,-1090.00
2024-05-19 09:01:44.091469,0,1,51,0,0,0,73,75,133,100,90,132.92,49,49.00,-21.00,-954.00
2024-05-19 09:01:44.277646,0,1,46,0,0,0,73,75,133,100,90,132.95,49,-61.00,30.00,-935.00
2024-05-19 09:01:44.295434,0,1,40,0,0,0,73,75,133,100,90,132.96,49,-37.00,22.00,-1033.00
2024-05-19 09:01:44.482475,0,1,34,0,0,0,73,75,134,100,90,132.90,49,17.00,-25.00,-968.00
2024-05-19 09:01:44.499535,0,1,28,0,0,0,73,75,134,100,90,132.92,49,117.00,-84.00,-1011.00
2024-05-19 09:01:44.687261,0,1,22,0,0,0,73,75,134,100,90,133.01,49,35.00,-31.00,-1004.00
2024-05-19 09:01:44.703675,0,1,17,0,0,0,73,75,134,100,90,132.86,50,-5.00,-1.00,-998.00
2024-05-19 09:01:44.892151,0,1,13,0,0,0,73,75,134,100,90,132.90,50,2.00,-42.00,-908.00
2024-05-19 09:01:44.907435,0,1,9,0,0,0,73,75,134,100,90,132.82,50,-32.00,-9.00,-1047.00
2024-05-19 09:01:45.096811,0,1,7,0,0,0,73,75,133,100,90,132.90,50,73.00,-41.00,-1009.00
2024-05-19 09:01:45.111702,0,1,5,0,0,0,73,75,134,100,90,132.90,50,-27.00,4.00,-953.00
2024-05-19 09:01:45.287992,0,1,3,0,0,0,73,75,133,100,90,132.88,50,45.00,-39.00,-997.00
2024-05-19 09:01:45.315547,0,1,2,0,0,0,73,75,133,100,90,132.90,50,-33.00,-10.00,-1045.00
2024-05-19 09:01:45.506426,0,1,1,0,0,0,73,75,133,100,90,132.92,50,6.00,-38.00,-1019.00
2024-05-19 09:01:45.519374,0,1,0,0,0,0,73,75,132,100,90,132.93,50,64.00,-45.00,-989.00
2024-05-19 09:01:45.711298,0,1,0,0,0,0,73,75,132,100,90,132.96,50,21.00,-30.00,-1050.00
2024-05-19 09:01:45.723615,0,1,0,0,0,0,73,75,131,100,90,132.93,51,8.00,-45.00,-1015.00
2024-05-19 09:01:45.916059,0,1,0,0,0,0,73,75,131,90,90,132.88,51,41.00,-32.00,-1016.00
2024-05-19 09:01:45.927460,0,1,0,0,0,0,73,75,131,90,90,132.89,51,16.00,-44.00,-1039.00
2024-05-19 09:01:46.120893,0,1,0,0,0,0,73,75,130,90,90,132.88,51,24.00,-17.00,-973.00
2024-05-19 09:01:46.131659,0,1,0,0,0,0,73,75,131,90,90,132.87,51,4.00,-45.00,-987.00
2024-05-19 09:01:46.325869,0,1,0,0,0,0,73,75,130,90,90,132.96,51,47.00,-58.00,-1055.00
2024-05-19 09:01:46.335656,0,1,0,0,0,0,73,75,130,90,90,132.93,51,-23.00,-27.00,-1036.00
2024-05-19 09:01:46.531559,0,1,0,0,0,0,73,75,130,90,90,132.94,51,-25.00,-34.00,-992.00
2024-05-19 09:01:46.539700,0,1,0,0,0,0,73,75,130,90,90,132.90,51,-11.00,-5.00,-960.00
2024-05-19 09:01:46.735358,0,1,0,0,0,0,73,75,129,90,90,132.90,51,18.00,-18.00,-970.00
2024-05-19 09:01:46.743421,-1,1,0,0,0,0,73,75,130,90,90,132.95,52,81.00,-31.00,-1034.00
2024-05-19 09:01:46.940000,0,1,0,0,0,0,73,75,130,90,89,132.90,52,-18.00,-28.00,-1072.00
2024-05-19 09:01:46.947685,0,1,0,0,0,0,73,75,131,90,89,132.83,52,-49.00,-2.00,-941.00
2024-05-19 09:01:47.144860,0,1,0,0,0,0,73,75,132,90,89,132.89,52,-15.00,0.00,-983.00
2024-05-19 09:01:47.151493,0,2,0,0,0,0,73,75,131,90,89,132.94,52,66.00,-62.00,-980.00
2024-05-19 09:01:47.350130,1,2,0,0,0,0,73,75,132,90,89,132.94,52,-17.00,-9.00,-1022.00
2024-05-19 09:01:47.355675,1,1,0,0,0,0,73,75,132,90,89,132.90,52,33.00,-48.00,-959.00
2024-05-19 09:01:47.510041,0,1,0,0,0,0,73,75,132,90,89,132.88,52,-51.00,-3.00,-925.00
2024-05-19 09:01:47.510282,0,1,0,0,0,0,73,75,132,90,89,132.97,52,101.00,-75.00,-988.00
2024-05-19 09:01:47.610331,0,1,0,0,0,0,73,75,132,90,89,133.10,52,68.00,-57.00,-1148.00
2024-05-19 09:01:47.760795,0,1,0,0,0,-1,73,75,137,90,89,133.25,53,37.00,-48.00,-1748.00
2024-05-19 09:01:47.814401,0,0,0,0,0,-8,73,75,157,100,89,133.32,53,19.00,120.00,-1434.00
2024-05-19 09:01:47.963965,-2,-53,0,0,-2,-13,73,75,598,110,89,133.50,53,0.00,600.00,-1206.00
2024-05-19 09:01:48.018212,0,-177,4,1,-11,-3,73,75,663,120,89,133.47,53,-36.00,527.00,-941.00
2024-05-19 09:01:48.168666,3,60,-1,1,-8,11,73,75,159,120,89,133.65,53,53.00,-38.00,-1580.00
2024-05-19 09:01:48.222967,0,4,-4,1,-2,10,73,75,143,100,89,133.21,53,-32.00,-3.00,-1456.00
2024-05-19 09:01:48.325845,0,1,-4,1,-2,6,73,75,139,100,89,133.02,53,58.00,-62.00,-1331.00
2024-05-19 09:01:48.426389,1,0,-1,1,-2,3,73,75,138,90,89,133.02,53,-39.00,-19.00,-1171.00
2024-05-19 09:01:48.528165,1,0,0,1,-2,1,73,75,138,90,89,133.05,53,7.00,1.00,-1125.00
2024-05-19 09:01:48.680754,1,1,0,0,-2,0,73,75,139,90,89,133.05,53,62.00,-29.00,-1077.00
2024-05-19 09:01:48.733524,0,1,0,0,-2,0,73,75,141,90,89,133.01,54,-75.00,21.00,-1009.00
2024-05-19 09:01:48.885527,0,1,0,0,-1,0,73,75,142,90,89,132.96,54,-8.00,-14.00,-965.00
2024-05-19 09:01:48.936068,0,1,0,0,0,0,73,75,144,90,89,133.11,54,-17.00,18.00,-983.00
2024-05-19 09:01:49.090334,0,1,0,0,0,0,75,75,145,90,89,133.11,54,25.00,-23.00,-1039.00
2024-05-19 09:01:49.140201,-1,0,0,0,0,0,75,75,145,90,89,133.06,54,-28.00,-10.00,-968.00
2024-05-19 09:01:49.299426,-1,0,0,0,0,0,75,75,145,90,89,133.04,54,4.00,-60.00,-921.00
2024-05-19 09:01:49.344505,-1,0,0,0,0,0,75,75,145,90,89,132.98,54,-15.00,-4.00,-918.00
2024-05-19 09:01:49.499951,-1,0,0,0,0,0,75,75,145,90,89,133.05,54,0.00,-23.00,-1010.00
2024-05-19 09:01:49.548296,0,0,0,0,0,0,75,75,145,90,89,133.01,54,-24.00,-19.00,-1048.00
2024-05-19 09:01:49.704732,0,1,0,0,0,0,75,75,144,90,89,133.07,55,115.00,-56.00,-846.00
2024-05-19 09:01:49.752255,0,1,0,0,0,0,75,75,144,90,89,133.03,55,-38.00,-8.00,-1027.00
2024-05-19 09:01:49.909608,0,1,0,0,0,0,75,75,143,90,88,133.02,55,37.00,-32.00,-897.00
2024-05-19 09:01:49.956084,0,1,0,0,0,1,75,75,141,90,88,133.06,55,-5.00,0.00,-1019.00
2024-05-19 09:01:50.114413,0,0,0,0,0,0,74,76,140,90,88,133.09,55,-58.00,1.00,-939.00
2024-05-19 09:01:50.160192,0,0,0,0,0,0,74,76,138,90,88,133.01,55,-32.00,-19.00,-1077.00
2024-05-19 09:01:50.319229,0,0,0,0,0,0,74,76,137,90,88,132.99,55,-18.00,-22.00,-1058.00
2024-05-19 09:01:50.364134,-1,1,0,0,0,0,74,76,135,90,88,133.02,55,-40.00,-25.00,-996.00
2024-05-19 09:01:50.523987,-1,1,0,0,0,0,74,76,134,90,88,133.00,55,71.00,-60.00,-1001.00
2024-05-19 09:01:50.568037,-1,1,0,0,0,0,74,76,134,90,88,133.00,55,-32.00,-6.00,-990.00
2024-05-19 09:01:50.728697,-1,1,0,0,0,0,74,76,133,90,88,132.93,56,-31.00,-24.00,-1019.00
2024-05-19 09:01:50.772568,0,1,0,0,0,0,74,76,133,90,88,132.98,56,28.00,-46.00,-1174.00
2024-05-19 09:01:50.933545,0,1,0,0,0,0,74,76,131,90,88,132.96,56,59.00,-73.00,-992.00
2024-05-19 09:01:50.976215,0,1,0,0,0,0,74,76,131,90,88,132.98,56,1.00,-31.00,-1003.00
2024-05-19 09:01:51.078354,0,1,0,0,0,0,74,77,131,90,88,132.98,56,24.00,-41.00,-1090.00
2024-05-19 09:01:51.240906,0,0,0,1,0,0,74,77,130,90,88,132.94,56,35.00,-58.00,-956.00
2024-05-19 09:01:51.282266,0,1,0,0,0,0,74,77,130,90,88,132.96,56,2.00,-33.00,-990.00
2024-05-19 09:01:51.384166,0,1,0,0,0,0,74,77,130,90,88,132.97,56,14.00,-71.00,-1035.00
2024-05-19 09:01:51.435266,0,0,0,0,0,0,74,77,129,80,88,132.93,56,38.00,-39.00,-924.00
2024-05-19 09:01:51.548016,0,1,0,0,0,0,74,77,129,80,88,132.94,56,13.00,-37.00,-1013.00
2024-05-19 09:01:51.639252,0,0,0,0,0,0,74,77,128,80,88,132.94,57,-34.00,-19.00,-1075.00
2024-05-19 09:01:51.753850,0,0,0,0,0,0,74,77,129,80,88,132.98,57,27.00,-42.00,-964.00
2024-05-19 09:01:51.843224,0,1,0,0,0,0,74,77,129,80,87,133.03,57,-22.00,-20.00,-1030.00
2024-05-19 09:01:51.958693,0,1,0,0,0,0,74,77,129,80,87,133.01,57,-62.00,-14.00,-987.00
2024-05-19 09:01:52.047296,0,1,0,0,0,0,74,76,130,80,87,132.96,57,-73.00,7.00,-1005.00
2024-05-19 09:01:52.163546,0,1,0,0,0,0,74,76,131,90,87,132.99,57,-31.00,-16.00,-1022.00
2024-05-19 09:01:52.252007,0,0,0,0,0,0,74,76,131,90,87,132.99,57,-33.00,-19.00,-975.00
2024-05-19 09:01:52.367553,0,0,0,0,0,0,74,76,132,90,87,132.96,57,13.00,-28.00,-988.00
2024-05-19 09:01:52.455865,0,0,0,0,0,0,74,76,133,90,87,133.01,57,7.00,-16.00,-1000.00
2024-05-19 09:01:52.572131,0,0,0,0,0,0,74,76,133,90,87,132.97,57,12.00,-44.00,-964.00
2024-05-19 09:01:52.659346,0,0,0,0,0,0,74,76,133,90,87,133.00,58,-10.00,-24.00,-986.00
2024-05-19 09:01:52.761569,-1,0,0,0,0,0,74,76,134,90,87,132.93,58,-1.00,-20.00,-972.00
2024-05-19 09:01:52.879338,-1,0,0,0,0,0,74,76,134,90,87,132.98,58,-108.00,29.00,-1027.00
2024-05-19 09:01:52.965291,-2,0,0,0,0,0,74,76,134,90,87,132.92,58,-109.00,23.00,-1014.00
2024-05-19 09:01:53.084051,-2,0,0,0,0,0,75,77,135,90,87,132.91,58,-70.00,0.00,-996.00
2024-05-19 09:01:53.169927,-2,0,0,0,0,0,75,77,135,90,87,132.95,58,38.00,-52.00,-973.00
2024-05-19 09:01:53.288872,-2,0,0,0,0,0,75,77,135,90,87,132.91,58,-59.00,-2.00,-999.00
2024-05-19 09:01:53.374459,-2,0,0,0,0,0,75,77,135,90,87,132.89,58,-19.00,-4.00,-1007.00
2024-05-19 09:01:53.493726,-2,0,0,0,0,0,75,77,134,90,87,132.88,58,25.00,-29.00,-994.00
2024-05-19 09:01:53.577329,-2,0,0,0,0,0,75,77,135,90,87,132.97,58,-55.00,20.00,-1021.00
2024-05-19 09:01:53.698576,-2,0,0,0,0,0,75,77,135,90,87,132.99,59,3.00,-28.00,-1000.00
2024-05-19 09:01:53.781898,-1,0,0,0,0,0,75,77,134,90,87,132.94,59,4.00,-2.00,-1033.00
2024-05-19 09:01:53.903792,-1,0,0,0,0,0,75,77,134,90,87,133.05,59,15.00,-4.00,-1038.00
2024-05-19 09:01:53.986795,-1,0,0,0,0,0,75,77,134,90,87,132.99,59,113.00,-56.00,-987.00
2024-05-19 09:01:54.089622,0,0,0,0,0,0,75,78,134,90,87,133.01,59,-19.00,-7.00,-1034.00
2024-05-19 09:01:54.190022,0,0,0,0,0,0,75,78,134,90,87,133.15,59,93.00,-23.00,-1341.00
2024-05-19 09:01:54.291098,-1,2,1,1,0,-6,75,78,140,90,87,133.18,59,-24.00,35.00,-1800.00
2024-05-19 09:01:54.393031,-3,43,2,1,1,-13,75,78,251,100,87,133.17,59,55.00,-4.00,-1881.00
2024-05-19 09:01:54.517706,-2,156,-6,1,9,-5,75,78,459,110,87,133.22,59,132.00,773.00,-1040.00
2024-05-19 09:01:54.597929,8,-82,1,1,6,9,75,78,335,110,87,133.33,59,112.00,833.00,-919.00
2024-05-19 09:01:54.722387,-3,10,9,1,1,11,75,78,148,100,87,133.05,60,89.00,452.00,-1220.00
2024-05-19 09:01:54.803177,-2,12,8,1,6,8,75,78,136,90,87,133.18,60,98.00,-60.00,-1305.00
2024-05-19 09:01:54.905328,0,-5,6,1,7,4,75,78,126,80,87,133.05,60,-35.00,-94.00,-1309.00
2024-05-19 09:01:55.006180,1,-8,1,1,4,1,75,78,125,80,87,133.00,60,55.00,-104.00,-1150.00
2024-05-19 09:01:55.107974,1,-6,0,1,2,0,74,77,123,80,87,132.98,60,-51.00,-48.00,-1152.00
2024-05-19 09:01:55.208978,1,-2,0,1,0,0,74,77,123,80,87,132.96,60,-42.00,-29.00,-1133.00
2024-05-19 09:01:55.336929,1,0,0,1,0,-1,74,77,125,80,87,133.02,60,-24.00,-17.00,-975.00
2024-05-19 09:01:55.412981,0,0,0,0,1,-1,74,77,127,80,87,132.98,60,21.00,-30.00,-970.00
2024-05-19 09:01:55.541565,0,0,0,0,1,-1,74,77,128,80,87,132.91,60,-38.00,-9.00,-895.00
2024-05-19 09:01:55.565990,0,-1,0,0,1,0,74,77,130,80,87,132.95,60,71.00,-64.00,-944.00
