TS,pitch,roll,yaw,vgx,vgy,vgz,templ,temph,tof,h,bat,baro,time,agx,agy,agz
2024-05-19 09:02:38.651814,0,0,-4,0,0,0,80,82,10,0,85,131.16,82,8.00,6.00,-999.00
2024-05-19 09:02:38.713207,0,0,-4,0,0,0,80,82,10,0,85,131.12,82,6.00,5.00,-1000.00
2024-05-19 09:02:38.856736,0,0,-4,0,0,0,80,82,10,0,85,131.15,82,6.00,6.00,-1000.00
2024-05-19 09:02:38.917211,0,0,-4,0,0,0,80,82,10,0,85,131.13,82,6.00,5.00,-1000.00
2024-05-19 09:02:39.061266,0,0,-4,0,0,0,80,82,10,0,85,131.17,82,6.00,4.00,-999.00
2024-05-19 09:02:39.120970,0,0,-4,0,0,0,80,82,10,0,85,131.10,82,6.00,4.00,-999.00
2024-05-19 09:02:39.266345,0,0,-4,0,0,0,80,82,10,0,85,131.08,82,5.00,5.00,-1001.00
2024-05-19 09:02:39.325027,0,0,-4,0,0,0,79,82,10,0,85,131.13,82,7.00,4.00,-1001.00
2024-05-19 09:02:39.471058,0,0,-4,0,0,0,79,82,10,0,85,131.11,82,8.00,6.00,-998.00
2024-05-19 09:02:39.529099,0,0,-4,0,0,0,79,82,10,0,85,131.17,82,7.00,5.00,-998.00
2024-05-19 09:02:39.675905,0,0,-4,0,0,0,79,82,10,0,85,131.09,82,6.00,5.00,-1001.00
2024-05-19 09:02:39.732977,0,0,-4,0,0,0,79,82,10,0,85,131.12,82,7.00,6.00,-1001.00
2024-05-19 09:02:39.880665,0,0,-4,0,0,0,79,82,10,0,85,131.14,82,7.00,7.00,-1001.00
2024-05-19 09:02:39.937045,0,0,-4,0,0,0,79,82,10,0,85,131.09,82,6.00,5.00,-999.00
2024-05-19 09:02:40.085537,0,0,-4,0,0,0,79,82,10,0,85,131.17,82,6.00,4.00,-1001.00
2024-05-19 09:02:40.141135,0,0,-4,0,0,0,79,82,10,0,85,131.09,82,7.00,6.00,-997.00
2024-05-19 09:02:40.290179,0,0,-4,0,0,0,79,82,10,0,85,131.15,82,6.00,6.00,-1004.00
2024-05-19 09:02:40.345102,0,0,-4,0,0,0,80,82,10,0,85,131.11,82,4.00,4.00,-1001.00
2024-05-19 09:02:40.495102,0,0,-4,0,0,0,80,82,10,0,85,131.10,82,6.00,5.00,-1001.00
2024-05-19 09:02:40.549206,0,0,-4,0,0,0,80,82,10,0,85,131.10,82,6.00,5.00,-1002.00
2024-05-19 09:02:40.699794,0,0,-4,0,0,0,80,82,10,0,85,131.13,82,7.00,5.00,-1000.00
2024-05-19 09:02:40.753087,0,0,-4,0,0,0,80,82,10,0,85,131.11,82,7.00,4.00,-1002.00
2024-05-19 09:02:40.904667,0,0,-4,0,0,0,80,82,10,0,85,131.14,82,7.00,4.00,-1001.00
2024-05-19 09:02:40.957108,0,0,-4,0,0,0,80,82,10,0,85,131.13,82,6.00,7.00,-1001.00
2024-05-19 09:02:41.109416,0,0,-4,0,0,0,80,82,10,0,85,131.07,82,7.00,5.00,-1002.00
2024-05-19 09:02:41.161078,0,0,-4,0,0,0,80,82,10,0,85,131.11,82,8.00,4.00,-1001.00
2024-05-19 09:02:41.314189,0,0,-4,0,0,0,80,82,10,0,85,131.14,82,7.00,5.00,-999.00
2024-05-19 09:02:41.364988,0,0,-4,0,0,0,80,82,10,0,85,131.15,82,8.00,4.00,-1001.00
2024-05-19 09:02:41.518947,0,0,-4,0,0,0,80,82,10,0,85,131.15,82,7.00,5.00,-1000.00
2024-05-19 09:02:41.569041,0,0,-4,0,0,0,80,82,10,0,85,131.10,82,7.00,4.00,-1000.00
2024-05-19 09:02:41.671294,0,0,-4,0,0,0,80,82,10,0,85,131.13,82,7.00,7.00,-999.00
2024-05-19 09:02:41.722271,0,0,-4,0,0,0,80,82,10,0,85,131.15,82,7.00,4.00,-1000.00
2024-05-19 09:02:41.826322,0,0,-4,0,0,0,80,82,10,0,85,131.20,82,7.00,5.00,-1001.00
2024-05-19 09:02:41.926054,0,0,-4,0,0,0,80,82,10,0,85,131.12,82,8.00,6.00,-1000.00
2024-05-19 09:02:42.031014,0,0,-4,0,0,0,80,82,10,0,85,131.18,82,7.00,5.00,-999.00
2024-05-19 09:02:42.130209,0,0,-4,0,0,0,80,82,10,0,85,131.16,82,5.00,5.00,-1000.00
2024-05-19 09:02:42.235806,0,0,-4,0,0,0,80,82,10,0,85,131.19,82,7.00,5.00,-1000.00
2024-05-19 09:02:42.334060,0,0,-4,0,0,0,80,82,10,0,85,131.16,82,7.00,6.00,-998.00
2024-05-19 09:02:42.440691,0,0,-4,0,0,0,80,82,10,0,85,131.21,82,7.00,6.00,-999.00
2024-05-19 09:02:42.538033,0,0,-4,0,0,0,80,82,10,0,85,131.18,82,8.00,6.00,-999.00
2024-05-19 09:02:42.645559,0,0,-4,0,0,0,80,82,10,0,85,131.17,82,8.00,4.00,-1000.00
2024-05-19 09:02:42.742115,0,0,-4,0,0,0,80,82,10,0,85,131.20,82,6.00,6.00,-1000.00
2024-05-19 09:02:42.850345,0,0,-4,0,0,0,80,82,10,0,85,131.17,82,6.00,7.00,-1000.00
2024-05-19 09:02:42.946122,0,0,-4,0,0,0,80,82,10,0,85,131.16,82,7.00,5.00,-999.00
2024-05-19 09:02:43.055184,0,0,-4,0,0,0,80,82,10,0,85,131.13,82,7.00,4.00,-1000.00
2024-05-19 09:02:43.149968,0,0,-4,0,0,0,80,82,10,0,85,131.20,82,7.00,5.00,-1002.00
2024-05-19 09:02:43.259851,0,0,-4,0,0,0,80,82,10,0,85,131.27,82,6.00,4.00,-1000.00
2024-05-19 09:02:43.354042,0,0,-4,0,0,0,80,82,10,0,85,131.25,82,7.00,5.00,-1000.00
2024-05-19 09:02:43.464739,0,0,-4,0,0,0,80,82,10,0,85,131.21,82,6.00,7.00,-999.00
2024-05-19 09:02:43.557999,0,0,-4,0,0,0,80,82,10,0,85,131.22,82,7.00,6.00,-1000.00
2024-05-19 09:02:43.669589,0,0,-4,0,0,0,80,82,10,0,85,131.20,82,8.00,6.00,-1002.00
2024-05-19 09:02:43.761866,0,0,-4,0,0,0,80,82,10,0,85,131.19,82,7.00,5.00,-997.00
2024-05-19 09:02:43.874218,0,0,-4,0,0,0,80,82,10,0,85,131.23,82,6.00,6.00,-999.00
2024-05-19 09:02:43.966882,0,0,-4,0,0,0,80,82,10,0,85,131.23,82,8.00,4.00,-1000.00
2024-05-19 09:02:44.078936,0,0,-3,0,0,0,80,82,10,0,85,131.23,82,11.00,1.00,-999.00
2024-05-19 09:02:44.170887,0,0,-2,0,0,0,80,82,10,0,85,131.23,82,13.00,-11.00,-1007.00
2024-05-19 09:02:44.283695,0,0,-3,0,0,0,80,82,10,0,85,131.23,82,-14.00,31.00,-954.00
2024-05-19 09:02:44.374924,-1,4,-3,0,1,-1,80,82,10,0,85,131.23,82,56.00,8.00,-1180.00
2024-05-19 09:02:44.488599,-1,5,-3,0,2,-3,80,82,10,0,85,131.23,83,12.00,48.00,-1323.00
2024-05-19 09:02:44.578847,-1,2,-3,0,4,-6,80,82,12,0,85,131.23,83,-77.00,84.00,-1216.00
2024-05-19 09:02:44.680872,0,-5,-3,0,4,-7,80,82,19,10,85,131.65,83,-111.00,119.00,-1033.00
2024-05-19 09:02:44.795706,1,-13,-3,0,3,-8,80,82,28,20,85,131.76,83,21.00,-14.00,-1062.00
2024-05-19 09:02:44.884871,0,-11,-3,0,1,-7,80,82,32,30,85,131.88,83,-100.00,98.00,-1000.00
2024-05-19 09:02:45.000689,0,-8,-3,0,0,-7,80,82,40,30,85,131.82,83,-46.00,48.00,-973.00
2024-05-19 09:02:45.089097,0,-6,-3,0,0,-6,80,82,47,40,85,131.96,83,-6.00,45.00,-906.00
2024-05-19 09:02:45.207892,0,-4,-3,0,0,-5,80,82,54,40,85,131.99,83,-19.00,26.00,-906.00
2024-05-19 09:02:45.241831,0,-3,-3,0,0,-5,80,82,59,50,85,132.11,83,8.00,46.00,-871.00
2024-05-19 09:02:45.410104,-1,-4,-2,0,0,-3,80,83,64,50,85,132.25,83,19.00,28.00,-823.00
2024-05-19 09:02:45.446155,-1,-3,-2,0,-1,-2,80,83,67,60,85,132.15,84,36.00,60.00,-916.00
2024-05-19 09:02:45.615014,0,-2,-2,0,-1,-1,80,83,70,60,85,132.11,84,58.00,28.00,-901.00
2024-05-19 09:02:45.649846,1,-1,-3,1,-1,-1,80,83,71,60,85,132.12,84,114.00,6.00,-976.00
2024-05-19 09:02:45.819828,3,-1,-3,1,-1,0,80,83,73,60,85,132.15,84,68.00,37.00,-890.00
2024-05-19 09:02:45.854295,3,-1,-3,1,-1,0,80,83,75,60,85,132.22,84,35.00,42.00,-988.00
2024-05-19 09:02:45.955733,4,-1,-4,1,0,-1,80,83,76,60,85,132.17,84,-12.00,60.00,-936.00
2024-05-19 09:02:46.127197,3,-1,-3,0,0,-1,80,83,78,70,85,132.24,84,69.00,55.00,-980.00
2024-05-19 09:02:46.159733,3,-1,-3,0,0,-1,80,83,79,70,85,132.24,84,-7.00,40.00,-907.00
2024-05-19 09:02:46.332246,2,-1,-3,0,0,0,80,83,81,70,85,132.24,84,69.00,16.00,-950.00
2024-05-19 09:02:46.363709,2,0,-3,0,0,0,80,83,82,70,85,132.31,84,67.00,39.00,-937.00
2024-05-19 09:02:46.536573,2,0,-3,0,0,0,80,83,83,70,85,132.32,85,89.00,27.00,-963.00
2024-05-19 09:02:46.567726,2,-1,-3,0,0,0,80,83,84,70,85,132.19,85,70.00,42.00,-941.00
2024-05-19 09:02:46.741447,2,-1,-3,0,0,0,80,83,86,70,85,132.28,85,56.00,64.00,-1045.00
2024-05-19 09:02:46.771749,2,-2,-3,0,0,0,80,83,88,70,85,132.30,85,40.00,72.00,-1013.00
2024-05-19 09:02:46.946219,2,-3,-3,0,0,0,80,83,89,80,85,132.26,85,6.00,57.00,-1001.00
2024-05-19 09:02:46.975720,2,-3,-3,0,0,0,80,83,91,80,85,132.28,85,-47.00,86.00,-963.00
2024-05-19 09:02:47.150846,1,-3,-3,0,0,0,80,83,92,80,85,132.34,85,37.00,28.00,-966.00
2024-05-19 09:02:47.182963,2,-2,-3,0,0,0,80,83,93,80,85,132.37,85,40.00,43.00,-1017.00
2024-05-19 09:02:47.283191,2,-1,-3,0,0,0,80,83,93,80,85,132.33,85,67.00,73.00,-947.00
2024-05-19 09:02:47.458191,3,-2,-3,0,0,0,80,83,92,80,85,132.35,85,98.00,37.00,-938.00
2024-05-19 09:02:47.486725,3,-2,-3,0,0,1,80,83,92,80,85,132.37,86,88.00,37.00,-988.00
2024-05-19 09:02:47.663001,4,-2,-3,1,0,0,80,83,92,80,85,132.34,86,76.00,24.00,-1052.00
2024-05-19 09:02:47.690612,5,-3,-3,0,0,0,80,83,92,80,85,132.36,86,-46.00,98.00,-932.00
2024-05-19 09:02:47.867756,4,-3,-3,0,0,0,80,83,90,80,85,132.31,86,66.00,60.00,-1029.00
2024-05-19 09:02:47.895096,3,-3,-3,0,0,0,80,83,90,80,85,132.36,86,99.00,55.00,-1044.00
2024-05-19 09:02:48.072571,3,-3,-3,0,0,0,80,83,90,80,85,132.33,86,3.00,69.00,-994.00
2024-05-19 09:02:48.098669,2,-3,-3,0,0,0,80,83,89,80,85,132.38,86,98.00,14.00,-1026.00
2024-05-19 09:02:48.277383,1,-3,-3,0,0,0,80,83,88,80,85,132.16,86,-34.00,86.00,-979.00
2024-05-19 09:02:48.302679,2,-3,-3,0,0,0,80,83,87,80,85,132.26,86,8.00,66.00,-971.00
2024-05-19 09:02:48.482189,2,-3,-3,0,0,0,80,82,87,80,85,132.34,86,75.00,36.00,-957.00
2024-05-19 09:02:48.506713,2,-2,-3,0,0,0,80,82,85,80,85,132.24,87,36.00,51.00,-877.00
2024-05-19 09:02:48.686973,2,-2,-3,0,0,0,80,82,84,80,85,132.31,87,60.00,52.00,-994.00
2024-05-19 09:02:48.710742,2,-3,-3,0,0,0,80,82,82,70,85,132.24,87,72.00,18.00,-1105.00
2024-05-19 09:02:48.891849,2,-2,-3,0,0,0,80,82,81,70,85,132.27,87,21.00,47.00,-967.00
2024-05-19 09:02:48.915025,3,-2,-3,0,0,0,80,82,80,70,85,132.26,87,20.00,52.00,-927.00
2024-05-19 09:02:48.965522,4,-2,-3,0,0,0,80,82,78,70,85,132.23,87,-18.00,80.00,-1020.00
2024-05-19 09:02:49.096591,3,-2,-3,0,0,0,80,82,77,70,85,132.15,87,29.00,78.00,-1087.00
2024-05-19 09:02:49.170026,3,-2,-3,0,0,0,80,82,76,70,85,132.18,87,94.00,34.00,-974.00
2024-05-19 09:02:49.301395,3,-1,-3,0,0,0,80,82,76,70,85,132.18,87,119.00,36.00,-1030.00
2024-05-19 09:02:49.374608,3,-2,-3,0,0,0,80,82,75,70,85,132.20,87,12.00,62.00,-994.00
2024-05-19 09:02:49.506303,4,-2,-3,0,0,0,80,82,74,70,85,132.14,88,95.00,42.00,-1012.00
2024-05-19 09:02:49.578068,4,-2,-3,0,0,0,80,82,74,70,85,132.12,88,65.00,46.00,-1090.00
2024-05-19 09:02:49.711020,3,-2,-3,0,0,0,80,82,73,70,85,132.06,88,16.00,61.00,-1054.00
2024-05-19 09:02:49.781711,2,-2,-3,0,0,0,80,82,72,70,85,132.09,88,75.00,36.00,-1091.00
2024-05-19 09:02:49.915921,2,-2,-3,0,0,0,80,82,71,70,85,132.11,88,54.00,31.00,-948.00
2024-05-19 09:02:49.985653,3,-2,-3,0,0,0,80,82,70,70,85,132.03,88,64.00,23.00,-985.00
2024-05-19 09:02:50.120572,3,-2,-3,0,0,0,80,82,69,70,85,132.05,88,56.00,66.00,-1010.00
2024-05-19 09:02:50.189573,2,-3,-3,0,0,0,80,82,67,60,85,132.06,88,44.00,61.00,-932.00
2024-05-19 09:02:50.325407,2,-2,-3,0,0,0,80,82,65,60,85,132.08,88,103.00,31.00,-1038.00
2024-05-19 09:02:50.394277,3,-2,-3,0,0,0,80,82,64,60,85,132.00,88,104.00,50.00,-1059.00
2024-05-19 09:02:50.531949,3,-3,-3,0,0,0,80,82,64,60,85,132.13,89,63.00,42.00,-1048.00
2024-05-19 09:02:50.598529,3,-3,-3,0,0,0,80,82,64,60,85,132.11,89,16.00,61.00,-1039.00
2024-05-19 09:02:50.699900,2,-2,-4,0,0,0,80,82,65,60,85,132.11,89,38.00,10.00,-1015.00
2024-05-19 09:02:50.837410,1,-1,-4,0,0,0,80,82,65,60,85,132.05,89,63.00,-3.00,-980.00
2024-05-19 09:02:50.904278,1,0,-4,0,0,0,80,82,66,60,85,132.02,89,33.00,62.00,-997.00
2024-05-19 09:02:51.042199,2,-1,-4,0,0,-1,80,82,67,60,85,132.03,89,35.00,23.00,-1021.00
2024-05-19 09:02:51.107891,1,-1,-3,0,0,-1,80,82,68,60,85,132.14,89,18.00,47.00,-1060.00
2024-05-19 09:02:51.209602,1,-2,-3,0,0,-1,80,82,69,60,85,131.99,89,26.00,72.00,-1010.00
2024-05-19 09:02:51.350064,1,-2,-3,0,0,-1,80,82,71,60,85,132.08,89,36.00,38.00,-1019.00
2024-05-19 09:02:51.413547,1,-2,-3,0,0,-1,81,82,72,60,85,132.06,89,15.00,48.00,-967.00
2024-05-19 09:02:51.555104,1,-1,-3,0,0,-1,81,82,73,60,85,132.06,90,-16.00,32.00,-875.00
2024-05-19 09:02:51.617715,1,-1,-3,0,0,0,81,82,74,60,85,132.04,90,19.00,19.00,-1108.00
2024-05-19 09:02:51.758983,0,-1,-3,0,0,0,81,82,75,70,85,132.09,90,66.00,4.00,-1035.00
2024-05-19 09:02:51.821527,0,-1,-3,0,0,0,81,82,75,70,85,132.16,90,19.00,19.00,-1108.00
2024-05-19 09:02:51.963777,0,0,-3,0,0,0,81,82,75,70,85,132.11,90,66.00,4.00,-1035.00
2024-05-19 09:02:52.025505,0,0,-3,0,0,0,81,82,75,70,85,132.11,90,23.00,16.00,-949.00
2024-05-19 09:02:52.168576,0,0,-3,0,0,0,81,82,74,70,85,132.10,90,44.00,-29.00,-970.00
2024-05-19 09:02:52.229514,0,0,-3,0,0,0,81,82,74,70,85,132.12,90,-66.00,40.00,-1017.00
2024-05-19 09:02:52.373384,0,0,-3,0,0,0,81,82,74,70,85,132.13,90,-27.00,42.00,-1045.00
2024-05-19 09:02:52.433643,0,0,-3,0,0,0,80,82,73,70,85,132.12,90,23.00,7.00,-1019.00
2024-05-19 09:02:52.578321,-1,0,-3,0,0,0,80,82,74,60,85,132.09,91,-57.00,23.00,-984.00
2024-05-19 09:02:52.637722,0,0,-3,0,0,0,80,82,75,60,85,132.14,91,24.00,-21.00,-1085.00
2024-05-19 09:02:52.783509,0,0,-3,0,0,0,80,82,76,70,85,132.17,91,-13.00,13.00,-1038.00
2024-05-19 09:02:52.841668,0,0,-3,0,0,0,80,82,77,70,85,132.17,91,28.00,-2.00,-1087.00
2024-05-19 09:02:52.892757,0,0,-3,0,0,-1,80,82,78,70,85,132.16,91,-19.00,19.00,-926.00
2024-05-19 09:02:53.090884,0,0,-3,0,0,0,80,82,79,70,85,132.23,91,69.00,-26.00,-915.00
2024-05-19 09:02:53.096871,0,0,-3,0,0,0,80,82,80,70,85,132.29,91,37.00,15.00,-1005.00
2024-05-19 09:02:53.295620,0,0,-3,0,0,0,80,82,81,70,85,132.24,91,11.00,-18.00,-1033.00
2024-05-19 09:02:53.300519,0,0,-3,0,0,0,80,82,81,70,85,132.27,91,27.00,-12.00,-1026.00
2024-05-19 09:02:53.499887,0,0,-3,0,0,0,80,82,82,70,85,132.23,91,42.00,-9.00,-958.00
2024-05-19 09:02:53.504604,1,0,-4,0,0,0,80,82,82,70,85,132.24,92,17.00,36.00,-926.00
2024-05-19 09:02:53.682087,1,0,-4,0,0,0,80,82,82,70,85,132.19,92,28.00,-13.00,-982.00
2024-05-19 09:02:53.708559,1,0,-3,0,0,0,80,82,83,70,85,132.23,92,47.00,1.00,-988.00
2024-05-19 09:02:53.910053,0,0,-3,0,0,0,80,82,83,70,85,132.30,92,14.00,13.00,-1005.00
2024-05-19 09:02:53.912776,0,0,-3,0,0,0,80,82,84,70,85,132.26,92,34.00,-6.00,-974.00
2024-05-19 09:02:54.014683,0,0,-3,0,0,0,80,82,85,70,85,132.30,92,12.00,18.00,-998.00
2024-05-19 09:02:54.116717,0,0,-3,0,0,0,80,82,85,70,85,132.26,92,-8.00,3.00,-1057.00
2024-05-19 09:02:54.218538,0,0,-3,0,0,0,80,82,85,70,85,132.33,92,-25.00,18.00,-1007.00
2024-05-19 09:02:54.376825,0,0,-3,0,0,0,80,82,85,70,85,132.33,92,34.00,5.00,-995.00
2024-05-19 09:02:54.422434,0,-1,-3,0,0,0,80,82,84,70,85,132.20,92,12.00,12.00,-1021.00
2024-05-19 09:02:54.626027,0,0,-3,0,0,0,80,82,84,70,85,132.28,93,89.00,-24.00,-1064.00
2024-05-19 09:02:54.626577,0,0,-3,0,0,0,80,82,84,70,85,132.25,93,54.00,-32.00,-1137.00
2024-05-19 09:02:54.728934,0,0,-3,0,0,0,80,82,86,70,85,132.27,93,20.00,-3.00,-1110.00
2024-05-19 09:02:54.831708,0,0,-3,0,0,-2,80,82,87,70,85,132.33,93,88.00,-44.00,-1020.00
2024-05-19 09:02:54.933047,0,0,-3,0,0,-2,80,82,90,80,85,132.33,93,-39.00,24.00,-1174.00
2024-05-19 09:02:55.035432,0,0,-3,0,0,-3,80,82,93,80,85,132.36,93,-24.00,10.00,-1057.00
2024-05-19 09:02:55.138201,0,0,-3,0,0,-4,80,82,98,80,85,132.41,93,-18.00,25.00,-1080.00
2024-05-19 09:02:55.238426,0,0,-3,0,0,-4,80,82,103,90,85,132.43,93,7.00,-5.00,-1035.00
2024-05-19 09:02:55.340420,1,0,-3,0,0,-5,80,82,109,90,85,132.53,93,-70.00,0.00,-1007.00
2024-05-19 09:02:55.445368,0,0,-3,0,0,-5,80,82,113,100,85,132.57,93,22.00,7.00,-958.00
2024-05-19 09:02:55.545758,0,0,-3,0,0,-5,80,82,118,100,85,132.54,94,25.00,36.00,-901.00
2024-05-19 09:02:55.646325,0,0,-3,0,0,-5,80,82,125,110,85,132.63,94,-8.00,6.00,-1107.00
2024-05-19 09:02:55.752714,1,0,-3,0,0,-5,80,82,131,110,85,132.73,94,7.00,0.00,-1030.00
2024-05-19 09:02:55.850403,1,0,-3,1,0,-5,80,82,136,120,85,132.72,94,55.00,-19.00,-992.00
2024-05-19 09:02:55.952370,2,1,-3,1,0,-5,80,82,143,130,85,132.70,94,18.00,-5.00,-857.00
2024-05-19 09:02:56.059884,3,1,-3,1,0,-4,80,82,148,130,85,132.88,94,29.00,4.00,-1014.00
2024-05-19 09:02:56.156700,4,1,-3,1,0,-4,80,82,153,140,85,132.80,94,5.00,4.00,-1011.00
2024-05-19 09:02:56.265994,4,1,-3,0,0,-4,80,82,158,140,85,132.86,94,94.00,-52.00,-985.00
2024-05-19 09:02:56.360342,3,1,-3,0,0,-4,80,82,163,150,85,132.92,94,33.00,18.00,-891.00
2024-05-19 09:02:56.469659,3,1,-3,0,0,-3,80,82,168,150,85,133.01,95,129.00,-22.00,-970.00
2024-05-19 09:02:56.564350,3,0,-3,0,0,-3,80,82,171,160,85,133.06,95,57.00,3.00,-927.00
2024-05-19 09:02:56.674233,2,0,-3,0,0,-2,80,82,175,160,85,133.06,95,36.00,-11.00,-933.00
2024-05-19 09:02:56.768296,1,0,-3,0,0,-2,80,82,178,160,85,133.10,95,54.00,-23.00,-1038.00
2024-05-19 09:02:56.879001,2,0,-3,0,0,-2,80,82,179,170,85,133.12,95,72.00,-25.00,-1053.00
2024-05-19 09:02:56.922442,2,0,-3,0,0,-1,80,82,182,170,85,133.15,95,46.00,-5.00,-988.00
2024-05-19 09:02:57.083930,2,0,-3,0,0,-1,80,82,183,170,85,133.25,95,36.00,-23.00,-1003.00
2024-05-19 09:02:57.126406,2,0,-3,0,0,-1,80,82,185,170,85,133.16,95,176.00,-66.00,-976.00
2024-05-19 09:02:57.288635,3,1,-3,0,0,0,80,82,186,170,85,133.21,95,78.00,-32.00,-946.00
2024-05-19 09:02:57.330635,3,1,-3,0,0,0,80,82,188,170,85,133.22,95,33.00,-12.00,-1081.00
2024-05-19 09:02:57.493588,3,1,-3,0,0,0,80,82,189,180,85,133.27,96,45.00,-9.00,-894.00
2024-05-19 09:02:57.534817,3,2,-3,0,0,0,80,82,189,180,85,133.26,96,99.00,-67.00,-933.00
2024-05-19 09:02:57.698659,2,1,-3,0,0,0,80,82,189,180,85,133.23,96,107.00,-43.00,-1054.00
2024-05-19 09:02:57.738486,3,0,-3,0,0,0,80,82,189,180,85,133.22,96,148.00,-71.00,-922.00
2024-05-19 09:02:57.903415,4,1,-3,0,0,0,80,82,188,180,85,133.27,96,93.00,-31.00,-959.00
2024-05-19 09:02:57.942502,4,0,-3,0,0,0,80,82,189,180,85,133.23,96,117.00,-46.00,-956.00
2024-05-19 09:02:58.108051,4,0,-3,0,0,0,80,82,189,180,85,133.23,96,43.00,-27.00,-1012.00
2024-05-19 09:02:58.146355,3,0,-3,0,0,0,80,82,189,180,85,133.21,96,146.00,-46.00,-1058.00
2024-05-19 09:02:58.250249,2,0,-3,0,0,0,80,82,187,180,85,133.19,96,77.00,-21.00,-1015.00
2024-05-19 09:02:58.350379,1,0,-3,0,0,0,80,82,188,180,85,133.25,96,150.00,-28.00,-1052.00
2024-05-19 09:02:58.518183,1,-1,-3,0,0,0,80,82,189,180,85,133.23,97,31.00,18.00,-1065.00
2024-05-19 09:02:58.554439,2,0,-3,0,0,0,80,82,189,180,85,133.17,97,106.00,-34.00,-1030.00
2024-05-19 09:02:58.722456,3,0,-3,0,0,0,80,82,189,180,85,133.21,97,148.00,-65.00,-973.00
2024-05-19 09:02:58.758280,3,0,-3,0,0,0,80,82,190,180,85,133.21,97,121.00,-36.00,-910.00
2024-05-19 09:02:58.924886,1,0,-3,0,0,0,80,82,188,180,85,133.17,97,123.00,-45.00,-981.00
2024-05-19 09:02:58.962178,2,0,-3,0,0,0,80,82,186,180,85,133.19,97,6.00,-13.00,-968.00
2024-05-19 09:02:59.131709,1,0,-3,0,0,0,80,82,185,180,85,133.14,97,126.00,-43.00,-1004.00
2024-05-19 09:02:59.166180,2,0,-3,0,0,1,80,82,184,180,85,133.17,97,123.00,-6.00,-1000.00
2024-05-19 09:02:59.336498,2,0,-3,0,0,1,80,82,182,170,85,133.07,97,73.00,7.00,-907.00
2024-05-19 09:02:59.370199,2,0,-3,0,0,1,80,82,178,170,85,133.16,97,49.00,-23.00,-891.00
2024-05-19 09:02:59.541429,3,0,-3,1,0,2,80,83,177,170,85,133.12,98,81.00,-10.00,-1039.00
2024-05-19 09:02:59.574475,3,1,-3,0,0,2,80,83,173,170,85,133.12,98,65.00,-20.00,-954.00
2024-05-19 09:02:59.747070,2,1,-3,0,0,3,80,83,169,160,85,133.11,98,56.00,-15.00,-917.00
2024-05-19 09:02:59.778169,2,1,-3,0,0,3,80,83,166,160,85,133.03,98,131.00,-53.00,-966.00
2024-05-19 09:02:59.950873,2,1,-3,0,0,3,80,83,162,160,85,132.99,98,40.00,-46.00,-1027.00
2024-05-19 09:02:59.982152,2,2,-3,0,0,3,80,83,159,150,85,133.04,98,63.00,-19.00,-909.00
2024-05-19 09:03:00.155682,2,2,-3,0,0,3,80,83,156,150,85,132.85,98,-12.00,0.00,-1064.00
2024-05-19 09:03:00.186177,2,2,-3,0,0,2,80,83,154,150,85,132.90,98,157.00,-44.00,-982.00
2024-05-19 09:03:00.360492,2,2,-3,0,0,2,80,83,152,140,85,132.85,98,53.00,-6.00,-1013.00
2024-05-19 09:03:00.390027,2,1,-3,0,0,1,80,83,150,140,85,132.80,98,-1.00,-28.00,-976.00
2024-05-19 09:03:00.565267,1,1,-3,0,0,1,81,83,149,140,85,132.85,99,20.00,0.00,-1050.00
2024-05-19 09:03:00.594588,2,1,-3,0,0,1,81,83,148,140,85,132.82,99,46.00,-25.00,-1083.00
2024-05-19 09:03:00.646495,2,1,-3,1,0,1,81,83,147,140,85,132.81,99,22.00,-25.00,-1063.00
2024-05-19 09:03:00.770994,3,1,-3,0,0,0,81,83,147,140,85,132.84,99,92.00,-52.00,-981.00
2024-05-19 09:03:00.850743,3,1,-3,0,0,0,81,83,145,140,85,132.83,99,-9.00,-9.00,-992.00
2024-05-19 09:03:00.951506,2,1,-3,0,0,0,81,83,146,140,85,132.86,99,-13.00,11.00,-1025.00
2024-05-19 09:03:01.077286,2,0,-3,0,0,0,81,83,144,140,85,132.85,99,-9.00,-13.00,-951.00
2024-05-19 09:03:01.155286,3,1,-3,0,0,0,81,83,144,130,85,132.81,99,63.00,-51.00,-1050.00
2024-05-19 09:03:01.282293,2,1,-3,0,0,0,81,83,144,130,85,132.79,99,32.00,-19.00,-984.00
2024-05-19 09:03:01.359045,2,1,-3,0,0,0,81,83,143,130,85,132.80,99,-30.00,-14.00,-1022.00
2024-05-19 09:03:01.486879,1,2,-3,0,0,0,81,83,143,130,85,132.76,100,119.00,-64.00,-1059.00
2024-05-19 09:03:01.563130,1,2,-3,0,0,0,81,83,142,130,85,132.75,100,78.00,-37.00,-937.00
2024-05-19 09:03:01.691878,1,2,-3,0,0,0,81,83,142,130,85,132.72,100,67.00,-55.00,-970.00
2024-05-19 09:03:01.767181,1,3,-3,0,0,0,81,83,141,130,85,132.82,100,-49.00,-14.00,-1021.00
2024-05-19 09:03:01.896524,2,3,-3,0,0,0,81,83,141,130,85,132.75,100,28.00,0.00,-1035.00
2024-05-19 09:03:01.971970,2,2,-3,0,0,0,81,83,140,130,85,132.75,100,95.00,-44.00,-1109.00
2024-05-19 09:03:02.101526,3,1,-3,0,0,0,81,83,139,130,85,132.71,100,42.00,-13.00,-1035.00
2024-05-19 09:03:02.175256,2,1,-3,0,0,0,81,83,140,130,85,132.73,100,82.00,-68.00,-988.00
2024-05-19 09:03:02.306103,1,1,-3,0,0,0,81,83,139,130,85,132.72,100,28.00,-26.00,-990.00
2024-05-19 09:03:02.379119,1,2,-3,0,0,0,81,83,139,130,85,132.75,100,87.00,-45.00,-982.00
2024-05-19 09:03:02.511048,1,2,-3,0,0,0,81,83,138,130,85,132.78,101,21.00,-37.00,-1001.00
2024-05-19 09:03:02.583215,1,1,-3,0,0,0,81,83,137,130,85,132.79,101,-18.00,-7.00,-995.00
2024-05-19 09:03:02.715799,0,0,-3,0,0,0,81,83,137,130,85,132.78,101,25.00,-47.00,-1057.00
2024-05-19 09:03:02.787520,0,1,-3,0,0,0,81,83,136,130,85,132.79,101,-18.00,-32.00,-1050.00
2024-05-19 09:03:02.920603,0,1,-3,0,0,0,81,83,137,130,85,132.79,101,-15.00,7.00,-1064.00
2024-05-19 09:03:02.991027,0,1,-3,0,0,0,81,83,138,130,85,132.78,101,52.00,-62.00,-949.00
2024-05-19 09:03:03.125444,0,1,-3,0,0,0,81,83,138,130,85,132.75,101,0.00,-57.00,-976.00
2024-05-19 09:03:03.195058,1,2,-3,0,0,0,81,83,138,130,85,132.83,101,-15.00,-15.00,-1039.00
2024-05-19 09:03:03.331386,0,1,-3,0,0,0,81,83,139,130,85,132.74,101,61.00,-11.00,-1007.00
2024-05-19 09:03:03.399105,1,1,-3,0,0,0,81,83,138,130,85,132.72,101,91.00,-53.00,-985.00
2024-05-19 09:03:03.501280,3,1,-3,0,0,0,80,83,139,130,85,132.79,102,49.00,-41.00,-1032.00
2024-05-19 09:03:03.637422,3,1,-3,0,0,0,80,83,140,130,85,132.81,102,-18.00,-17.00,-1000.00
2024-05-19 09:03:03.705005,0,1,-3,0,0,0,80,83,140,130,85,132.77,102,109.00,-39.00,-1008.00
2024-05-19 09:03:03.842144,0,0,-3,0,0,0,80,83,141,130,85,132.80,102,54.00,-13.00,-1024.00
2024-05-19 09:03:03.909065,0,0,-3,0,0,0,80,83,142,130,85,132.79,102,-1.00,-18.00,-1081.00
2024-05-19 09:03:04.011179,-6,0,-3,0,0,0,80,83,143,130,85,132.86,102,34.00,-17.00,-1030.00
2024-05-19 09:03:04.149336,-8,0,-3,1,0,0,80,83,145,130,85,132.79,102,63.00,-40.00,-829.00
2024-05-19 09:03:04.215021,-8,0,-3,2,0,0,80,83,144,130,85,132.87,102,-69.00,8.00,-1054.00
2024-05-19 09:03:04.265976,-8,0,-3,4,0,0,80,83,144,130,85,132.85,102,40.00,-27.00,-981.00
2024-05-19 09:03:04.456555,-7,0,-3,5,0,0,80,83,143,130,85,132.87,102,-61.00,-2.00,-998.00
2024-05-19 09:03:04.470043,-6,0,-3,6,0,0,81,82,141,130,85,132.88,103,84.00,-48.00,-1026.00
2024-05-19 09:03:04.664122,-4,1,-3,7,-1,0,81,82,140,130,85,132.74,103,-48.00,-10.00,-984.00
2024-05-19 09:03:04.674229,-2,2,-3,7,0,0,81,82,140,130,85,132.79,103,-40.00,-35.00,-983.00
2024-05-19 09:03:04.866790,-2,3,-3,7,0,0,81,82,139,130,85,132.90,103,5.00,-20.00,-1073.00
2024-05-19 09:03:04.878166,0,2,-3,7,0,0,81,82,139,130,85,132.71,103,-81.00,-6.00,-988.00
2024-05-19 09:03:04.979830,1,0,-3,7,0,0,81,82,139,130,85,132.89,103,-21.00,-50.00,-1002.00
2024-05-19 09:03:05.173540,4,0,-3,6,0,0,81,82,139,130,85,132.85,103,-33.00,-32.00,-1019.00
2024-05-19 09:03:05.183918,5,0,-3,5,0,0,81,82,139,130,85,132.84,103,-54.00,-6.00,-969.00
2024-05-19 09:03:05.378115,4,1,-3,3,0,0,81,82,138,130,85,132.81,103,-57.00,-14.00,-965.00
2024-05-19 09:03:05.388391,2,0,-2,2,0,0,81,82,137,130,85,132.87,103,-83.00,36.00,-1032.00
2024-05-19 09:03:05.582913,0,0,-2,2,0,0,81,83,135,130,85,132.88,104,46.00,-35.00,-969.00
2024-05-19 09:03:05.591862,0,0,-2,1,0,0,81,83,133,120,85,132.75,104,-87.00,24.00,-1052.00
2024-05-19 09:03:05.787708,-1,0,-2,1,0,0,81,83,133,120,85,132.79,104,-49.00,12.00,-1019.00
2024-05-19 09:03:05.795901,-1,-1,-3,1,0,0,81,83,132,120,85,132.77,104,-35.00,13.00,-1029.00
2024-05-19 09:03:05.992522,-1,-2,-3,1,0,0,81,83,132,120,85,132.69,104,-36.00,14.00,-1010.00
2024-05-19 09:03:05.999799,-1,-3,-3,1,0,0,81,83,132,120,85,132.73,104,-22.00,14.00,-1045.00
2024-05-19 09:03:06.197434,0,-2,-3,1,0,0,81,83,133,120,85,132.73,104,-75.00,45.00,-1074.00
2024-05-19 09:03:06.203774,-1,-1,-3,1,0,0,81,83,134,120,85,132.80,104,0.00,-20.00,-984.00
2024-05-19 09:03:06.402127,-2,-1,-3,0,0,0,81,83,134,120,85,132.80,104,-32.00,13.00,-1001.00
2024-05-19 09:03:06.407843,-2,-1,-3,0,0,-1,81,83,135,120,85,132.76,104,-82.00,55.00,-1007.00
2024-05-19 09:03:06.606884,-3,1,-3,1,0,-1,82,83,137,130,85,132.77,105,-15.00,13.00,-927.00
2024-05-19 09:03:06.611784,-2,2,-3,1,0,0,82,83,137,130,85,132.82,105,15.00,-21.00,-1035.00
2024-05-19 09:03:06.817391,-1,1,-3,2,0,0,82,83,138,130,85,132.75,105,-28.00,20.00,-931.00
2024-05-19 09:03:06.817458,2,1,-3,2,0,0,82,83,138,130,85,132.86,105,13.00,-15.00,-927.00
2024-05-19 09:03:06.917981,5,0,-3,1,0,0,82,83,139,130,85,132.89,105,66.00,-26.00,-970.00
2024-05-19 09:03:07.019884,3,0,-3,0,0,0,82,83,138,130,85,132.90,105,-45.00,21.00,-1010.00
2024-05-19 09:03:07.122664,2,0,-3,0,0,0,82,83,138,130,85,132.96,105,-44.00,32.00,-1087.00
2024-05-19 09:03:07.223949,0,0,-3,0,0,0,82,83,139,130,85,132.88,105,-21.00,43.00,-1042.00
2024-05-19 09:03:07.325943,0,0,-3,0,0,0,82,83,141,130,85,132.95,105,42.00,9.00,-1017.00
2024-05-19 09:03:07.428041,0,0,-3,0,0,0,82,83,143,130,85,132.93,105,74.00,5.00,-1002.00
2024-05-19 09:03:07.631346,0,-1,-3,0,0,0,82,84,145,130,85,132.95,106,20.00,17.00,-1019.00
2024-05-19 09:03:07.631757,0,-1,-3,0,0,-1,82,84,147,130,85,132.99,106,54.00,8.00,-997.00
2024-05-19 09:03:07.835987,1,-1,-3,0,0,-1,82,84,149,130,85,133.06,106,66.00,0.00,-1070.00
2024-05-19 09:03:07.836168,1,-2,-3,0,0,-1,82,84,150,130,85,133.05,106,8.00,24.00,-825.00
2024-05-19 09:03:07.938696,1,-1,-3,0,0,0,82,84,150,140,85,132.98,106,25.00,10.00,-954.00
2024-05-19 09:03:08.040206,0,-1,-3,0,0,0,82,84,150,140,85,133.00,106,46.00,8.00,-942.00
2024-05-19 09:03:08.143373,0,-2,-3,0,0,0,82,84,151,140,85,133.05,106,76.00,-3.00,-963.00
2024-05-19 09:03:08.245393,0,-2,-3,0,0,0,82,84,151,140,85,133.01,106,-11.00,45.00,-1038.00
2024-05-19 09:03:08.347783,0,-2,-3,0,0,0,82,84,151,140,85,132.94,106,3.00,32.00,-917.00
2024-05-19 09:03:08.447782,0,-2,-3,0,0,0,82,84,151,140,85,133.03,106,28.00,50.00,-989.00
2024-05-19 09:03:08.552913,0,-1,-3,0,0,0,81,84,150,140,85,132.99,107,-5.00,20.00,-979.00
2024-05-19 09:03:08.651962,0,-2,-3,0,0,0,81,84,149,140,85,132.99,107,-5.00,13.00,-999.00
2024-05-19 09:03:08.703188,0,-2,-3,0,0,0,81,84,148,140,85,133.02,107,-33.00,9.00,-964.00
2024-05-19 09:03:08.859916,0,-1,-4,0,0,0,81,84,146,140,85,132.97,107,13.00,32.00,-1024.00
2024-05-19 09:03:08.907137,0,-1,-4,0,0,1,81,84,144,140,85,132.92,107,-9.00,24.00,-1070.00
2024-05-19 09:03:09.008873,-1,-1,-4,0,0,1,81,84,144,130,85,132.92,107,-37.00,4.00,-1040.00
2024-05-19 09:03:09.167421,0,0,-4,0,0,0,81,84,144,130,85,132.97,107,-6.00,9.00,-1034.00
2024-05-19 09:03:09.212818,7,0,-3,0,0,0,81,84,142,130,85,132.94,107,-22.00,8.00,-1041.00
2024-05-19 09:03:09.371774,8,0,-3,-2,0,0,81,84,142,130,85,132.93,107,2.00,7.00,-1020.00
2024-05-19 09:03:09.416874,8,0,-3,-3,0,0,81,84,142,130,85,133.02,107,-19.00,29.00,-1060.00
2024-05-19 09:03:09.576524,7,0,-3,-5,0,0,81,84,141,130,85,132.93,108,43.00,41.00,-1163.00
2024-05-19 09:03:09.620817,6,0,-3,-6,0,0,81,84,141,130,85,132.84,108,45.00,9.00,-993.00
2024-05-19 09:03:09.781599,6,0,-3,-6,0,0,81,84,140,130,85,132.89,108,44.00,32.00,-1073.00
2024-05-19 09:03:09.824841,5,0,-3,-7,1,0,81,84,141,130,85,132.86,108,58.00,14.00,-888.00
2024-05-19 09:03:09.986128,4,-1,-3,-7,1,0,81,84,139,130,85,132.86,108,50.00,52.00,-1112.00
2024-05-19 09:03:10.028738,0,-2,-3,-7,1,0,81,84,139,130,85,132.82,108,88.00,11.00,-1082.00
2024-05-19 09:03:10.191396,-2,-3,-3,-7,1,0,81,84,140,130,85,132.87,108,63.00,41.00,-1031.00
2024-05-19 09:03:10.232738,-3,-2,-3,-6,1,0,81,84,141,130,85,132.93,108,51.00,70.00,-936.00
2024-05-19 09:03:10.395716,-4,-2,-3,-5,0,0,81,84,140,130,85,132.92,108,6.00,53.00,-1088.00
2024-05-19 09:03:10.436910,-2,-3,-3,-4,0,0,81,84,141,130,85,132.85,108,71.00,10.00,-999.00
2024-05-19 09:03:10.600527,0,-1,-3,-2,0,0,81,83,140,130,85,132.89,109,92.00,35.00,-936.00
2024-05-19 09:03:10.640705,2,0,-3,-1,0,0,81,83,139,130,85,132.89,109,80.00,38.00,-1008.00
2024-05-19 09:03:10.805489,2,0,-3,-2,0,0,81,83,139,130,85,132.85,109,24.00,13.00,-961.00
2024-05-19 09:03:10.845784,1,0,-3,-2,0,0,81,83,138,130,85,132.79,109,44.00,36.00,-1066.00
2024-05-19 09:03:11.010219,2,0,-3,-2,0,0,81,83,137,130,85,132.73,109,21.00,3.00,-973.00
2024-05-19 09:03:11.048742,1,0,-3,-1,0,0,81,83,137,130,85,132.89,109,50.00,-6.00,-935.00
2024-05-19 09:03:11.150790,0,0,-3,-1,0,0,81,83,136,130,85,132.90,109,50.00,18.00,-1114.00
2024-05-19 09:03:11.317313,-2,0,-3,0,0,0,81,83,136,130,85,132.93,109,112.00,-3.00,-986.00
2024-05-19 09:03:11.354749,0,0,-3,0,0,0,81,83,136,130,85,132.93,109,81.00,-6.00,-1022.00
2024-05-19 09:03:11.522255,0,0,-3,0,0,0,81,83,136,130,85,132.91,110,64.00,12.00,-1032.00
2024-05-19 09:03:11.558753,0,0,-3,0,0,0,82,83,136,130,85,132.94,110,17.00,5.00,-980.00
2024-05-19 09:03:11.727021,0,0,-3,0,0,0,82,83,137,130,85,132.94,110,78.00,12.00,-973.00
2024-05-19 09:03:11.762750,0,0,-3,0,0,0,82,83,138,130,85,132.89,110,12.00,19.00,-941.00
2024-05-19 09:03:11.931944,0,0,-3,0,0,0,82,83,138,130,85,133.00,110,89.00,-7.00,-1022.00
2024-05-19 09:03:11.966826,0,0,-3,0,0,0,82,83,139,130,85,132.95,110,74.00,-18.00,-968.00
2024-05-19 09:03:12.136538,1,0,-3,0,0,0,82,83,139,130,85,132.94,110,-28.00,50.00,-1025.00
2024-05-19 09:03:12.171030,1,0,-3,0,0,0,82,83,140,130,85,132.94,110,117.00,-37.00,-995.00
2024-05-19 09:03:12.341665,1,0,-3,0,0,0,82,83,140,130,85,132.96,110,75.00,-14.00,-990.00
2024-05-19 09:03:12.341844,2,0,-3,0,0,0,82,83,140,130,85,133.00,110,49.00,2.00,-996.00
2024-05-19 09:03:12.425718,2,0,-3,0,0,0,82,83,140,130,85,132.98,111,69.00,-33.00,-1014.00
2024-05-19 09:03:12.578886,2,1,-3,0,0,0,82,83,140,130,85,132.93,111,-31.00,36.00,-982.00
2024-05-19 09:03:12.629728,2,1,-3,0,0,0,82,83,140,130,85,132.90,111,49.00,-13.00,-982.00
2024-05-19 09:03:12.751068,2,1,-3,0,0,0,82,83,140,130,85,132.95,111,91.00,-30.00,-1048.00
2024-05-19 09:03:12.834162,2,1,-3,0,0,0,82,83,140,130,85,132.91,111,41.00,-20.00,-978.00
2024-05-19 09:03:12.955811,2,0,-3,0,0,0,82,83,139,130,85,132.95,111,7.00,20.00,-1074.00
2024-05-19 09:03:13.039712,2,0,-3,0,0,0,82,83,139,130,85,132.85,111,85.00,-11.00,-1091.00
2024-05-19 09:03:13.139761,2,1,-3,0,0,0,82,83,138,130,85,132.92,111,19.00,-4.00,-922.00
2024-05-19 09:03:13.263380,0,0,-3,0,0,0,82,83,137,130,85,132.83,111,5.00,9.00,-1028.00
2024-05-19 09:03:13.344052,1,0,-3,0,0,0,82,83,137,130,85,132.86,111,26.00,-5.00,-1024.00
2024-05-19 09:03:13.446427,1,0,-3,0,0,0,82,83,136,130,85,132.93,112,38.00,-20.00,-1020.00
2024-05-19 09:03:13.571097,1,-5,-3,0,0,0,80,83,137,130,85,132.83,112,76.00,-22.00,-1030.00
2024-05-19 09:03:13.651698,1,-7,-3,0,-1,0,80,83,138,130,85,132.78,112,-17.00,9.00,-1005.00
2024-05-19 09:03:13.752094,2,-5,-3,0,-3,0,80,83,137,130,85,132.90,112,43.00,-1.00,-1077.00
2024-05-19 09:03:13.854062,4,-3,-3,0,-3,0,80,83,137,130,85,132.88,112,0.00,20.00,-942.00
2024-05-19 09:03:13.979686,4,0,-3,0,-4,0,80,83,139,130,85,132.90,112,95.00,-33.00,-1064.00
2024-05-19 09:03:14.058598,2,1,-3,0,-3,0,80,83,139,130,85,132.95,112,4.00,25.00,-1012.00
2024-05-19 09:03:14.184514,1,1,-3,-1,-3,0,80,83,141,130,85,132.89,112,0.00,17.00,-924.00
2024-05-19 09:03:14.261573,0,1,-3,0,-3,0,80,83,141,130,85,132.91,112,47.00,-16.00,-1088.00
2024-05-19 09:03:14.389239,0,0,-3,0,-2,0,80,83,143,130,85,132.97,112,48.00,-7.00,-948.00
2024-05-19 09:03:14.465580,0,0,-3,0,-2,0,80,83,143,130,85,133.02,113,19.00,15.00,-1017.00
2024-05-19 09:03:14.594136,0,0,-3,0,-2,0,81,83,144,130,85,132.95,113,-64.00,34.00,-1000.00
2024-05-19 09:03:14.669689,0,0,-3,0,-2,0,81,83,146,130,85,132.93,113,-11.00,31.00,-965.00
2024-05-19 09:03:14.798978,0,0,-3,0,-3,0,81,83,148,130,85,132.96,113,-14.00,14.00,-924.00
2024-05-19 09:03:14.873785,0,0,-3,0,-3,0,81,83,149,130,85,133.00,113,-54.00,0.00,-967.00
2024-05-19 09:03:15.003712,1,2,-3,0,-3,0,81,83,149,130,85,133.00,113,91.00,-2.00,-1003.00
2024-05-19 09:03:15.077589,1,5,-3,0,-2,0,81,83,153,140,85,132.99,113,4.00,35.00,-944.00
2024-05-19 09:03:15.208506,1,4,-3,0,-1,0,81,83,153,140,85,132.98,113,-39.00,48.00,-938.00
2024-05-19 09:03:15.281597,2,2,-3,0,0,0,81,83,153,140,85,133.05,113,-30.00,14.00,-928.00
2024-05-19 09:03:15.413272,0,0,-3,0,0,0,81,83,153,140,85,132.99,113,30.00,-22.00,-1102.00
2024-05-19 09:03:15.485712,1,0,-3,0,0,0,81,83,154,140,85,133.02,114,51.00,-9.00,-1046.00
2024-05-19 09:03:15.618181,1,0,-3,0,0,0,82,84,154,140,85,132.92,114,3.00,-4.00,-956.00
2024-05-19 09:03:15.689596,0,1,-3,0,0,0,82,84,154,140,85,132.96,114,9.00,9.00,-935.00
2024-05-19 09:03:15.823619,0,1,-3,0,0,0,82,84,153,140,85,132.98,114,29.00,-12.00,-1030.00
2024-05-19 09:03:15.893691,0,0,-3,0,0,0,82,84,151,140,85,133.01,114,46.00,-25.00,-1044.00
2024-05-19 09:03:16.027769,1,0,-3,0,0,0,82,84,151,140,85,132.98,114,41.00,-16.00,-927.00
2024-05-19 09:03:16.097591,0,0,-3,0,0,1,82,84,149,140,85,132.91,114,69.00,-3.00,-1042.00
2024-05-19 09:03:16.232596,0,0,-3,0,0,0,82,84,147,140,85,132.97,114,77.00,-17.00,-1033.00
2024-05-19 09:03:16.250602,0,0,-3,0,0,0,82,84,146,140,85,132.96,114,-28.00,9.00,-958.00
2024-05-19 09:03:16.437673,0,0,-3,0,0,1,82,84,144,130,85,133.01,114,14.00,6.00,-982.00
2024-05-19 09:03:16.454364,0,0,-3,0,0,0,82,84,144,130,85,132.94,115,78.00,-6.00,-1005.00
2024-05-19 09:03:16.642227,0,0,-3,0,0,0,82,84,142,130,85,133.01,115,21.00,-5.00,-985.00
2024-05-19 09:03:16.709466,1,0,-3,0,0,0,82,84,140,130,85,132.94,115,-58.00,28.00,-1032.00
2024-05-19 09:03:16.760569,1,0,-3,0,0,0,82,84,140,130,84,132.90,115,-9.00,-7.00,-1022.00
2024-05-19 09:03:16.949485,1,0,-3,0,0,0,82,84,140,130,84,132.94,115,54.00,-35.00,-1023.00
2024-05-19 09:03:16.968069,1,0,-3,0,0,0,82,84,139,130,84,132.94,115,20.00,-9.00,-1075.00
2024-05-19 09:03:17.066547,2,0,-3,0,0,0,82,84,139,130,84,132.91,115,63.00,-41.00,-955.00
2024-05-19 09:03:17.168686,3,0,-3,0,0,0,82,84,139,130,84,132.88,115,45.00,-11.00,-1098.00
2024-05-19 09:03:17.270792,3,0,-3,0,0,0,82,84,138,130,84,132.96,115,5.00,3.00,-1031.00
2024-05-19 09:03:17.461258,2,0,-3,0,0,0,82,84,139,130,84,132.83,115,74.00,-12.00,-997.00
2024-05-19 09:03:17.474334,1,6,-3,0,0,0,82,84,138,130,84,132.87,116,-39.00,19.00,-1048.00
2024-05-19 09:03:17.666178,0,7,-3,-1,1,0,82,84,138,130,84,132.91,116,16.00,-22.00,-1022.00
2024-05-19 09:03:17.678424,-1,5,-3,0,2,0,82,84,137,130,84,132.93,116,-6.00,-7.00,-905.00
2024-05-19 09:03:17.872111,-2,3,-3,0,3,0,82,84,138,130,84,132.89,116,-7.00,3.00,-1086.00
2024-05-19 09:03:17.882406,0,0,-3,0,3,0,82,84,138,130,84,132.97,116,21.00,-9.00,-877.00
2024-05-19 09:03:18.075985,0,0,-3,1,3,0,82,84,140,130,84,132.94,116,-10.00,-39.00,-897.00
2024-05-19 09:03:18.086419,1,0,-3,1,2,0,82,84,142,130,84,133.02,116,14.00,-39.00,-905.00
2024-05-19 09:03:18.280446,1,0,-3,0,2,0,82,84,143,130,84,132.95,116,-2.00,-13.00,-1071.00
2024-05-19 09:03:18.290380,2,1,-3,0,2,0,82,84,143,130,84,132.97,116,-18.00,9.00,-941.00
2024-05-19 09:03:18.486113,1,1,-3,0,2,0,82,84,144,130,84,132.92,116,-31.00,-15.00,-898.00
2024-05-19 09:03:18.494390,1,2,-3,0,2,0,82,84,144,130,84,132.94,117,54.00,-24.00,-1075.00
2024-05-19 09:03:18.690148,1,1,-3,0,2,0,82,84,144,130,84,132.90,117,11.00,-8.00,-923.00
2024-05-19 09:03:18.698520,0,1,-3,0,2,0,82,84,144,130,84,132.93,117,16.00,-48.00,-951.00
2024-05-19 09:03:18.895087,1,1,-3,0,2,0,82,84,143,130,84,132.96,117,97.00,-54.00,-988.00
2024-05-19 09:03:18.902300,2,2,-3,0,1,0,82,84,143,130,84,132.96,117,55.00,-30.00,-1106.00
2024-05-19 09:03:19.099721,3,2,-3,0,2,0,82,84,142,130,84,132.91,117,-23.00,-5.00,-968.00
2024-05-19 09:03:19.106355,1,1,-3,0,2,0,82,84,143,130,84,132.88,117,-6.00,5.00,-1071.00
2024-05-19 09:03:19.304493,0,-2,-3,0,2,0,82,84,141,130,84,132.97,117,-32.00,11.00,-996.00
2024-05-19 09:03:19.310420,0,-5,-3,0,2,0,82,84,141,130,84,132.90,117,-38.00,2.00,-1002.00
2024-05-19 09:03:19.412520,-3,-2,-3,0,1,0,82,84,140,130,84,132.95,117,22.00,-8.00,-994.00
2024-05-19 09:03:19.612669,-3,-1,-3,0,0,0,82,84,139,130,84,132.97,118,-6.00,-5.00,-972.00
2024-05-19 09:03:19.616277,-2,0,-3,1,0,0,82,84,137,130,84,132.87,118,-40.00,-5.00,-979.00
2024-05-19 09:03:19.816400,3,0,-3,1,0,0,82,84,136,130,84,132.91,118,-34.00,-11.00,-1037.00
2024-05-19 09:03:19.820381,3,0,-3,1,0,0,82,84,135,130,84,132.87,118,-12.00,-9.00,-963.00
2024-05-19 09:03:20.021806,2,1,-3,0,0,0,82,84,136,130,84,132.92,118,19.00,-37.00,-1020.00
2024-05-19 09:03:20.025555,1,1,-3,0,0,0,82,84,136,130,84,132.87,118,18.00,5.00,-994.00
2024-05-19 09:03:20.126528,0,0,-3,0,0,0,82,84,136,130,84,132.87,118,7.00,-32.00,-1036.00
2024-05-19 09:03:20.228689,0,0,-3,0,0,0,82,84,135,130,84,132.88,118,-2.00,-28.00,-1041.00
2024-05-19 09:03:20.280783,0,0,-3,0,0,0,82,84,136,130,84,132.91,118,13.00,-11.00,-984.00
2024-05-19 09:03:20.430957,0,0,-3,0,0,0,82,84,136,130,84,132.94,118,0.00,0.00,-915.00
2024-05-19 09:03:20.485899,0,0,-3,0,0,0,82,84,135,130,84,132.90,119,-60.00,7.00,-1032.00
2024-05-19 09:03:20.585436,1,0,-3,0,0,0,82,84,135,130,84,132.91,119,-37.00,26.00,-1014.00
2024-05-19 09:03:20.738190,1,0,-3,0,0,0,82,84,135,130,84,132.97,119,-44.00,14.00,-988.00
2024-05-19 09:03:20.789347,0,0,-3,0,0,0,82,84,135,130,84,132.90,119,6.00,-10.00,-929.00
2024-05-19 09:03:20.942997,1,0,-3,0,0,0,82,84,136,130,84,132.94,119,0.00,-21.00,-1044.00
2024-05-19 09:03:20.993607,0,0,-3,0,0,0,82,84,135,130,84,133.00,119,-31.00,-3.00,-970.00
2024-05-19 09:03:21.147957,0,0,-3,0,0,0,82,84,136,130,84,132.93,119,-17.00,1.00,-1016.00
2024-05-19 09:03:21.197576,1,0,-3,0,0,0,82,84,136,130,84,133.04,119,24.00,24.00,-984.00
2024-05-19 09:03:21.353438,0,0,-3,0,0,0,82,84,136,130,84,133.01,119,5.00,-9.00,-967.00
2024-05-19 09:03:21.401370,0,0,-3,0,0,0,82,84,137,130,84,133.00,119,74.00,-10.00,-1002.00
2024-05-19 09:03:21.558452,0,0,-3,0,0,0,82,84,137,130,84,132.94,120,51.00,-19.00,-958.00
2024-05-19 09:03:21.605434,0,0,-3,0,0,0,82,85,138,130,84,132.96,120,-13.00,-14.00,-1045.00
2024-05-19 09:03:21.762156,0,0,-3,0,0,0,82,85,138,130,84,132.94,120,-20.00,19.00,-984.00
2024-05-19 09:03:21.809389,0,0,-3,0,0,0,82,85,139,130,83,133.01,120,-5.00,-3.00,-970.00
2024-05-19 09:03:21.911301,0,0,-3,0,0,0,82,85,139,130,83,132.90,120,12.00,-29.00,-925.00
2024-05-19 09:03:22.069437,0,0,-2,0,0,0,82,85,139,130,83,132.96,120,22.00,2.00,-983.00
2024-05-19 09:03:22.115273,0,0,3,0,0,0,82,85,139,130,83,132.97,120,-4.00,12.00,-1001.00
2024-05-19 09:03:22.273894,0,0,9,0,0,0,82,85,139,130,83,133.07,120,64.00,-38.00,-990.00
2024-05-19 09:03:22.319446,0,0,15,0,0,0,82,85,139,130,83,133.02,120,-15.00,30.00,-1009.00
2024-05-19 09:03:22.478878,0,0,21,0,0,0,82,85,140,130,83,132.88,120,-12.00,12.00,-1050.00
2024-05-19 09:03:22.523248,0,0,27,0,0,0,82,85,140,130,83,132.94,121,-70.00,35.00,-1043.00
2024-05-19 09:03:22.683628,0,0,33,0,0,0,82,84,140,130,83,132.94,121,11.00,16.00,-940.00
2024-05-19 09:03:22.727192,0,0,39,0,0,0,82,84,141,130,83,132.98,121,30.00,-25.00,-1029.00
2024-05-19 09:03:22.888448,0,0,46,0,0,0,82,84,141,130,83,132.89,121,30.00,-1.00,-990.00
2024-05-19 09:03:22.931155,0,0,52,0,0,0,82,84,141,130,83,132.98,121,35.00,19.00,-1038.00
2024-05-19 09:03:23.033591,0,0,58,0,0,0,82,84,141,130,83,133.04,121,12.00,-9.00,-991.00
2024-05-19 09:03:23.135249,0,0,64,0,0,0,82,84,141,130,83,132.98,121,-26.00,33.00,-1052.00
2024-05-19 09:03:23.299226,0,0,71,0,0,0,82,84,141,130,83,132.98,121,-16.00,56.00,-1047.00
2024-05-19 09:03:23.339155,-1,0,77,0,0,0,82,84,140,130,83,132.98,121,-42.00,46.00,-983.00
2024-05-19 09:03:23.502958,0,0,83,0,0,0,82,84,140,130,83,132.93,121,-23.00,0.00,-954.00
2024-05-19 09:03:23.543239,0,0,90,0,0,0,82,84,140,130,83,132.97,122,55.00,-4.00,-968.00
2024-05-19 09:03:23.707793,-1,0,96,0,0,0,82,84,139,130,83,133.07,122,-43.00,44.00,-1046.00
2024-05-19 09:03:23.747177,-1,0,102,0,0,0,82,84,139,130,83,132.99,122,5.00,-7.00,-1007.00
2024-05-19 09:03:23.912482,-1,0,108,0,0,0,82,84,139,130,83,132.92,122,19.00,4.00,-948.00
2024-05-19 09:03:23.951187,-1,0,114,0,0,0,82,84,138,130,83,132.95,122,26.00,42.00,-990.00
2024-05-19 09:03:24.053800,-1,0,120,0,0,0,82,84,138,130,83,132.97,122,15.00,23.00,-958.00
2024-05-19 09:03:24.219694,-1,0,125,0,0,0,82,84,138,130,83,132.90,122,-8.00,4.00,-984.00
2024-05-19 09:03:24.257099,-1,0,131,0,0,0,82,84,138,130,83,133.02,122,-18.00,17.00,-1034.00
2024-05-19 09:03:24.424423,-1,0,137,0,0,0,82,84,137,130,83,132.89,122,36.00,-15.00,-982.00
2024-05-19 09:03:24.424479,0,0,142,0,0,0,82,84,138,130,83,132.99,122,-24.00,34.00,-954.00
2024-05-19 09:03:24.512525,0,0,148,0,0,0,82,84,137,130,83,133.01,123,26.00,-4.00,-1022.00
2024-05-19 09:03:24.629501,0,0,154,0,0,0,82,85,138,130,83,132.97,123,-34.00,44.00,-969.00
2024-05-19 09:03:24.717944,0,0,160,0,0,0,82,85,138,130,83,132.95,123,17.00,39.00,-955.00
2024-05-19 09:03:24.818310,0,0,166,0,0,0,82,85,138,130,83,132.97,123,-1.00,11.00,-967.00
2024-05-19 09:03:24.920679,-1,0,172,0,0,0,82,85,139,130,83,133.03,123,-7.00,32.00,-1019.00
2024-05-19 09:03:25.025460,0,0,178,0,0,0,82,85,138,130,83,133.06,123,-38.00,75.00,-982.00
2024-05-19 09:03:25.123940,0,-1,-175,0,0,0,82,85,139,130,83,132.99,123,37.00,29.00,-966.00
2024-05-19 09:03:25.243693,0,-1,-168,0,0,0,82,85,139,130,83,133.00,123,34.00,36.00,-1029.00
2024-05-19 09:03:25.328445,0,-2,-162,0,0,0,82,85,140,130,83,133.12,123,82.00,-19.00,-984.00
2024-05-19 09:03:25.448440,0,-2,-155,0,0,0,82,85,141,130,83,133.03,123,-39.00,59.00,-1026.00
2024-05-19 09:03:25.533451,0,-1,-149,0,0,0,82,85,141,130,83,132.94,124,38.00,26.00,-1097.00
2024-05-19 09:03:25.653179,0,-1,-136,0,0,-1,82,84,142,130,83,132.98,124,-48.00,41.00,-1038.00
2024-05-19 09:03:25.737913,-1,0,-129,0,0,0,82,84,143,130,83,133.00,124,-6.00,28.00,-917.00
2024-05-19 09:03:25.838388,-1,0,-124,0,0,0,82,84,144,130,83,132.95,124,13.00,27.00,-973.00
2024-05-19 09:03:25.940205,0,0,-118,0,0,0,82,84,144,130,83,133.03,124,12.00,27.00,-1050.00
2024-05-19 09:03:26.042113,0,0,-112,0,0,0,82,84,144,130,83,133.06,124,48.00,11.00,-982.00
2024-05-19 09:03:26.165256,0,1,-107,0,0,0,82,84,145,130,83,132.97,124,-4.00,-10.00,-1029.00
2024-05-19 09:03:26.246063,0,1,-101,0,0,0,82,84,145,130,83,133.02,124,13.00,-18.00,-944.00
2024-05-19 09:03:26.370044,0,1,-96,0,0,0,82,84,144,130,83,132.97,124,41.00,-22.00,-984.00
2024-05-19 09:03:26.450134,0,1,-91,0,0,0,82,84,145,130,83,132.98,125,0.00,-6.00,-993.00
2024-05-19 09:03:26.574893,0,0,-85,0,0,0,82,84,145,130,83,132.97,125,11.00,-17.00,-998.00
2024-05-19 09:03:26.654142,0,0,-80,0,0,0,83,84,146,130,83,133.12,125,-26.00,-27.00,-986.00
2024-05-19 09:03:26.779877,0,0,-74,0,0,0,83,84,146,130,83,133.07,125,27.00,3.00,-1006.00
2024-05-19 09:03:26.858014,0,0,-69,0,0,0,83,84,146,130,82,133.01,125,-4.00,25.00,-1040.00
2024-05-19 09:03:26.960001,0,0,-64,0,0,0,83,84,147,130,82,133.05,125,18.00,-19.00,-981.00
2024-05-19 09:03:27.062018,0,0,-58,0,0,0,83,84,147,130,82,133.02,125,-33.00,-2.00,-999.00
2024-05-19 09:03:27.163919,0,0,-52,0,0,0,83,84,148,130,82,133.00,125,-5.00,-16.00,-1042.00
2024-05-19 09:03:27.291665,0,0,-46,0,0,0,83,84,148,140,82,132.84,125,3.00,0.00,-973.00
2024-05-19 09:03:27.368296,0,0,-40,0,0,0,83,84,148,140,82,132.96,125,-19.00,0.00,-1003.00
2024-05-19 09:03:27.496461,0,0,-34,0,0,0,83,84,148,140,82,132.92,126,-22.00,8.00,-990.00
2024-05-19 09:03:27.572054,0,0,-28,0,0,0,83,84,147,140,82,132.96,126,-1.00,-12.00,-1061.00
2024-05-19 09:03:27.701824,0,0,-22,0,0,0,82,85,147,130,82,132.88,126,-48.00,49.00,-992.00
2024-05-19 09:03:27.775958,-1,0,-18,0,0,0,82,85,146,130,82,133.00,126,-36.00,19.00,-1060.00
2024-05-19 09:03:27.906115,-1,0,-14,0,0,0,82,85,145,130,82,133.06,126,10.00,20.00,-1012.00
2024-05-19 09:03:27.979967,-1,0,-11,0,0,0,82,85,145,130,82,132.96,126,13.00,9.00,-975.00
2024-05-19 09:03:28.082024,-1,0,-9,0,0,0,82,85,144,130,82,133.03,126,-67.00,43.00,-933.00
2024-05-19 09:03:28.214014,-1,0,-8,0,0,0,82,85,144,130,82,133.01,126,-50.00,34.00,-1019.00
2024-05-19 09:03:28.285987,0,0,-7,0,0,0,82,85,144,130,82,132.89,126,-60.00,19.00,-999.00
2024-05-19 09:03:28.418063,0,0,-6,0,0,0,82,85,144,130,82,132.98,126,14.00,46.00,-945.00
2024-05-19 09:03:28.439119,0,0,-5,0,0,0,82,85,143,130,82,132.91,127,44.00,29.00,-1054.00
2024-05-19 09:03:28.623388,0,0,-4,0,0,0,82,85,142,130,82,133.04,127,33.00,31.00,-1080.00
2024-05-19 09:03:28.643016,0,-1,-3,0,0,0,82,84,142,130,82,133.05,127,-75.00,73.00,-929.00
2024-05-19 09:03:28.827806,0,-1,-2,0,0,0,82,84,142,130,82,133.06,127,-17.00,55.00,-1014.00
2024-05-19 09:03:28.847178,0,-1,-1,0,0,0,82,84,141,130,82,132.96,127,27.00,18.00,-1012.00
2024-05-19 09:03:28.949040,0,-1,-1,0,0,0,82,84,141,130,82,133.03,127,-27.00,22.00,-981.00
2024-05-19 09:03:29.051255,0,-1,0,0,0,0,82,84,140,130,82,133.03,127,-23.00,26.00,-1070.00
2024-05-19 09:03:29.153147,1,0,-1,0,0,0,82,84,140,130,82,132.94,127,-36.00,9.00,-899.00
2024-05-19 09:03:29.339982,0,0,-1,0,0,0,82,84,139,130,82,132.93,127,-52.00,-2.00,-991.00
2024-05-19 09:03:29.356885,0,0,-1,0,0,0,82,84,140,130,82,132.93,127,-37.00,30.00,-1047.00
2024-05-19 09:03:29.544533,0,0,0,0,0,0,82,84,139,130,82,133.04,128,-46.00,45.00,-1023.00
2024-05-19 09:03:29.560945,0,0,0,0,0,0,82,84,140,130,82,132.91,128,-47.00,38.00,-965.00
2024-05-19 09:03:29.749408,0,0,0,0,0,0,83,85,140,130,82,132.94,128,-87.00,15.00,-986.00
2024-05-19 09:03:29.764985,0,-1,0,0,0,0,83,85,140,130,82,132.96,128,-41.00,31.00,-988.00
2024-05-19 09:03:29.866995,0,0,-1,0,0,0,83,85,139,130,82,132.87,128,-13.00,23.00,-930.00
2024-05-19 09:03:30.056512,0,0,-1,0,0,0,83,85,139,130,82,132.88,128,-33.00,33.00,-1053.00
2024-05-19 09:03:30.070954,0,0,-1,0,0,0,83,85,139,130,82,132.90,128,-5.00,-1.00,-983.00
2024-05-19 09:03:30.261694,0,0,-1,0,0,0,83,85,139,130,82,132.91,128,1.00,20.00,-946.00
2024-05-19 09:03:30.275073,0,0,-1,0,0,0,83,85,139,130,82,132.88,128,10.00,-16.00,-985.00
2024-05-19 09:03:30.443131,0,0,-1,0,0,0,83,85,140,130,82,132.85,128,31.00,-22.00,-1000.00
2024-05-19 09:03:30.478873,0,0,0,0,0,0,83,85,139,130,82,132.81,129,27.00,7.00,-1057.00
2024-05-19 09:03:30.670853,0,0,-1,0,0,0,83,85,139,130,82,132.88,129,-6.00,17.00,-1019.00
2024-05-19 09:03:30.682886,-1,0,-6,0,0,0,83,84,139,130,82,132.72,129,51.00,-16.00,-994.00
2024-05-19 09:03:30.875651,0,0,-11,0,0,0,83,84,140,130,82,132.74,129,12.00,13.00,-1035.00
2024-05-19 09:03:30.888218,0,0,-16,0,0,0,83,84,139,130,82,132.83,129,-41.00,19.00,-977.00
2024-05-19 09:03:31.080354,0,0,-21,0,0,0,83,84,139,130,82,132.92,129,57.00,-12.00,-937.00
2024-05-19 09:03:31.090846,0,0,-27,0,0,0,83,84,139,130,82,132.87,129,-43.00,-9.00,-1016.00
2024-05-19 09:03:31.285162,0,0,-32,0,0,0,83,84,139,130,82,132.83,129,83.00,-25.00,-990.00
2024-05-19 09:03:31.294794,0,0,-37,0,0,0,83,84,138,130,82,132.97,129,-25.00,20.00,-1008.00
2024-05-19 09:03:31.396778,1,1,-43,0,0,0,83,84,138,130,82,132.94,129,-44.00,12.00,-1030.00
2024-05-19 09:03:31.498771,1,0,-48,0,0,0,83,84,138,130,82,132.90,130,23.00,-4.00,-1081.00
2024-05-19 09:03:31.694759,1,0,-53,0,0,0,83,84,138,130,82,132.92,130,-32.00,-27.00,-1039.00
2024-05-19 09:03:31.702807,1,0,-59,0,0,0,83,85,139,130,82,132.86,130,22.00,-6.00,-941.00
2024-05-19 09:03:31.899565,1,1,-64,0,0,0,83,85,138,130,82,132.92,130,-34.00,14.00,-977.00
2024-05-19 09:03:31.906764,2,0,-70,0,0,0,83,85,140,130,82,132.79,130,133.00,-36.00,-958.00
2024-05-19 09:03:32.104355,1,0,-76,0,0,0,83,85,140,130,82,132.91,130,94.00,-33.00,-1008.00
2024-05-19 09:03:32.111399,1,0,-82,0,0,0,83,85,140,130,82,132.86,130,41.00,8.00,-974.00
2024-05-19 09:03:32.309910,1,0,-88,0,0,0,83,85,141,130,82,133.03,130,35.00,1.00,-996.00
2024-05-19 09:03:32.313350,0,0,-95,0,0,0,83,85,142,130,82,132.91,130,88.00,-1.00,-988.00
2024-05-19 09:03:32.365806,1,0,-101,0,0,0,83,85,143,130,82,132.88,130,3.00,44.00,-891.00
2024-05-19 09:03:32.514369,1,-1,-108,0,0,0,83,85,143,130,82,132.89,131,44.00,21.00,-938.00
2024-05-19 09:03:32.569859,0,-1,-115,0,0,0,83,85,144,130,82,132.93,131,0.00,23.00,-978.00
2024-05-19 09:03:32.719187,0,-1,-121,0,0,0,82,84,144,130,82,132.94,131,8.00,3.00,-998.00
2024-05-19 09:03:32.773803,0,-1,-128,0,0,0,82,84,144,130,82,132.84,131,-25.00,19.00,-945.00
2024-05-19 09:03:32.875808,0,-1,-135,0,0,0,82,84,144,130,82,132.83,131,-18.00,21.00,-991.00
2024-05-19 09:03:33.026281,0,-1,-141,0,0,0,82,84,145,130,82,132.88,131,-45.00,33.00,-1001.00
2024-05-19 09:03:33.079755,0,-1,-148,0,0,0,82,84,144,130,82,132.84,131,14.00,4.00,-1006.00
2024-05-19 09:03:33.182513,0,-1,-154,0,0,0,82,84,144,130,82,132.79,131,4.00,9.00,-1014.00
2024-05-19 09:03:33.333169,0,0,-160,0,0,0,82,84,144,130,82,132.88,131,-49.00,20.00,-1001.00
2024-05-19 09:03:33.385686,0,-1,-166,0,0,0,82,84,143,130,82,132.98,131,-12.00,-7.00,-978.00
2024-05-19 09:03:33.537966,0,0,-171,0,0,0,82,84,142,130,82,132.95,132,-37.00,15.00,-994.00
2024-05-19 09:03:33.589848,-1,0,-177,0,0,0,82,84,142,130,82,132.87,132,-24.00,28.00,-988.00
2024-05-19 09:03:33.742695,-1,0,177,0,0,0,82,85,142,130,82,132.87,132,26.00,1.00,-988.00
2024-05-19 09:03:33.793675,-1,0,172,0,0,0,82,85,141,130,81,132.71,132,-61.00,24.00,-1028.00
2024-05-19 09:03:33.947550,-1,-1,166,0,0,0,82,85,140,130,81,132.79,132,-20.00,28.00,-1059.00
2024-05-19 09:03:33.997775,0,-1,160,0,0,0,82,85,140,130,81,132.80,132,-4.00,23.00,-1040.00
2024-05-19 09:03:34.100257,0,-1,154,0,0,0,82,85,139,130,81,132.81,132,-99.00,34.00,-945.00
2024-05-19 09:03:34.254791,-2,-1,148,0,0,0,82,85,139,130,81,132.83,132,-9.00,-14.00,-987.00
2024-05-19 09:03:34.303730,-2,0,143,0,0,0,82,85,138,130,81,132.76,132,-55.00,48.00,-902.00
2024-05-19 09:03:34.460712,-2,0,138,0,0,0,82,85,137,130,81,132.82,132,-29.00,34.00,-1000.00
2024-05-19 09:03:34.507694,-2,0,133,0,0,0,82,85,136,130,81,132.77,133,-3.00,40.00,-1023.00
2024-05-19 09:03:34.664353,-2,0,129,0,0,0,82,85,135,130,81,132.73,133,-13.00,22.00,-986.00
2024-05-19 09:03:34.711828,-3,-1,124,0,0,0,82,84,135,130,81,132.70,133,-58.00,37.00,-1028.00
2024-05-19 09:03:34.870646,-3,-1,119,0,0,0,82,84,134,130,81,132.74,133,-19.00,20.00,-987.00
2024-05-19 09:03:34.915724,-2,-1,115,0,0,0,82,84,134,130,81,132.70,133,-10.00,31.00,-1019.00
2024-05-19 09:03:35.074118,-2,-1,110,0,0,0,82,84,133,130,81,132.75,133,-21.00,12.00,-971.00
2024-05-19 09:03:35.119876,-1,-1,105,0,0,0,82,84,133,130,81,132.75,133,7.00,40.00,-980.00
2024-05-19 09:03:35.278709,-1,-1,100,0,0,0,82,84,133,130,81,132.76,133,10.00,47.00,-1051.00
2024-05-19 09:03:35.324349,-1,-1,94,0,0,0,82,84,133,130,81,132.81,133,-19.00,42.00,-1032.00
2024-05-19 09:03:35.483525,-1,-1,88,0,0,0,82,84,134,130,81,132.84,133,-78.00,51.00,-1002.00
2024-05-19 09:03:35.527671,-2,-1,83,0,0,0,82,84,135,130,81,132.78,134,-80.00,53.00,-1021.00
2024-05-19 09:03:35.689414,-1,0,77,0,0,0,82,84,135,130,81,132.78,134,32.00,12.00,-985.00
2024-05-19 09:03:35.731667,-1,-1,70,-1,0,0,82,84,136,130,81,132.74,134,9.00,30.00,-985.00
2024-05-19 09:03:35.869114,-2,-1,64,0,0,0,82,84,137,130,81,132.79,134,-53.00,15.00,-1056.00
2024-05-19 09:03:35.935682,-1,-1,58,0,0,0,82,84,136,130,81,132.86,134,-71.00,25.00,-911.00
2024-05-19 09:03:36.098022,-1,-1,51,0,0,0,82,84,135,130,81,132.75,134,-106.00,33.00,-920.00
2024-05-19 09:03:36.139718,-2,0,45,0,0,0,82,84,137,130,81,132.66,134,-9.00,3.00,-1128.00
2024-05-19 09:03:36.190599,-3,0,39,0,0,0,82,84,136,130,81,132.65,134,-28.00,-20.00,-994.00
2024-05-19 09:03:36.302860,-3,0,33,0,0,0,82,84,135,130,81,132.74,134,-25.00,-44.00,-940.00
2024-05-19 09:03:36.394645,-2,1,26,0,0,0,82,84,135,130,81,132.78,134,16.00,-39.00,-943.00
2024-05-19 09:03:36.507593,-2,2,20,0,0,0,82,84,134,130,81,132.76,135,-49.00,-38.00,-1021.00
2024-05-19 09:03:36.598538,-2,2,15,0,0,0,82,84,135,130,81,132.82,135,-75.00,-20.00,-1058.00
2024-05-19 09:03:36.712358,-2,2,11,0,0,0,83,85,135,130,81,132.84,135,-51.00,-19.00,-1055.00
2024-05-19 09:03:36.802621,-3,1,8,0,0,0,83,85,136,130,81,132.75,135,-103.00,18.00,-1029.00
2024-05-19 09:03:36.917160,-3,1,6,0,0,0,83,85,137,130,81,132.80,135,27.00,-75.00,-1014.00
2024-05-19 09:03:37.006615,-4,1,4,0,0,0,83,85,138,130,81,132.80,135,-120.00,-12.00,-954.00
2024-05-19 09:03:37.108836,-2,1,2,0,0,0,83,85,139,130,81,132.78,135,-55.00,-45.00,-1019.00
2024-05-19 09:03:37.224465,-2,1,1,0,0,0,83,85,139,130,81,132.75,135,-51.00,-48.00,-951.00
2024-05-19 09:03:37.313052,-1,2,1,0,0,0,83,85,141,130,81,132.69,135,-136.00,9.00,-1024.00
2024-05-19 09:03:37.429375,-2,2,1,0,0,0,83,85,140,130,81,132.65,135,-72.00,5.00,-1021.00
2024-05-19 09:03:37.517904,-3,2,1,0,0,0,83,85,141,130,81,132.82,136,8.00,-48.00,-930.00
2024-05-19 09:03:37.634528,-3,2,1,0,0,0,83,85,141,130,81,132.92,136,6.00,-62.00,-997.00
2024-05-19 09:03:37.720680,-2,2,1,0,0,0,82,86,141,130,81,132.81,136,-37.00,-41.00,-999.00
2024-05-19 09:03:37.838967,-2,1,1,0,0,0,82,86,140,130,81,132.79,136,-129.00,9.00,-1008.00
2024-05-19 09:03:37.924895,-1,2,1,0,0,0,82,86,140,130,81,132.75,136,-69.00,-23.00,-1028.00
2024-05-19 09:03:38.043759,-2,1,1,0,0,0,82,86,140,130,81,132.82,136,59.00,-68.00,-966.00
2024-05-19 09:03:38.128643,-2,1,1,0,0,0,82,86,138,130,81,132.77,136,-40.00,-24.00,-959.00
2024-05-19 09:03:38.248471,-1,2,1,0,0,0,82,86,137,130,81,132.75,136,21.00,-43.00,-939.00
2024-05-19 09:03:38.332968,-1,1,1,0,0,0,82,86,135,130,81,132.77,136,-105.00,38.00,-1014.00
2024-05-19 09:03:38.453341,0,1,1,0,0,0,82,86,135,130,81,132.84,136,-106.00,26.00,-993.00
2024-05-19 09:03:38.537407,-1,0,1,0,0,0,82,86,134,130,81,132.82,137,-107.00,6.00,-1098.00
2024-05-19 09:03:38.658263,-1,0,1,0,0,0,82,86,134,130,81,132.85,137,61.00,-60.00,-1019.00
2024-05-19 09:03:38.740874,-1,1,1,0,0,0,82,85,134,130,81,132.88,137,-76.00,-10.00,-912.00
2024-05-19 09:03:38.863004,0,2,0,0,0,0,82,85,134,130,81,132.92,137,-3.00,-18.00,-1073.00
2024-05-19 09:03:38.944891,-1,2,0,0,0,0,82,85,135,130,81,132.93,137,-11.00,-25.00,-957.00
2024-05-19 09:03:39.067707,-1,1,0,0,0,0,82,85,135,130,81,132.88,137,28.00,-45.00,-964.00
2024-05-19 09:03:39.151106,0,1,1,0,0,0,82,85,137,130,81,132.88,137,22.00,-58.00,-951.00
2024-05-19 09:03:39.253869,0,2,1,0,0,0,82,85,138,130,81,132.89,137,-60.00,-40.00,-1014.00
2024-05-19 09:03:39.354335,0,3,1,0,0,0,82,85,138,130,81,133.00,137,-78.00,2.00,-894.00
2024-05-19 09:03:39.455677,0,2,1,0,0,-1,82,85,140,130,81,133.03,137,-50.00,-49.00,-1693.00
2024-05-19 09:03:39.556524,0,0,1,0,0,-6,82,85,151,130,81,133.29,138,72.00,-5.00,-1419.00
2024-05-19 09:03:39.682010,-1,-32,1,0,-2,-12,82,85,6553,140,81,133.35,138,-13.00,557.00,-1113.00
2024-05-19 09:03:39.760784,3,87,2,0,-11,7,83,85,582,160,81,133.07,138,-36.00,543.00,-1044.00
2024-05-19 09:03:39.886838,0,5,-1,0,-5,10,83,85,182,140,81,133.41,138,10.00,191.00,-1553.00
2024-05-19 09:03:39.967740,0,2,-1,0,-5,7,83,85,146,140,81,132.85,138,12.00,-114.00,-1355.00
2024-05-19 09:03:40.066513,-1,3,0,-1,-5,4,83,85,139,130,81,132.99,138,-33.00,-82.00,-1322.00
2024-05-19 09:03:40.194290,-1,3,0,-1,-4,2,83,85,136,120,81,132.92,138,-90.00,11.00,-1220.00
2024-05-19 09:03:40.219428,-1,4,0,0,-4,1,83,85,134,120,81,132.90,138,-1.00,-51.00,-1142.00
2024-05-19 09:03:40.398838,-1,4,0,0,-3,0,83,85,133,120,81,132.83,138,37.00,-40.00,-1128.00
2024-05-19 09:03:40.423459,0,3,1,0,-3,0,83,85,134,120,81,132.81,139,43.00,-69.00,-1058.00
2024-05-19 09:03:40.603596,0,3,1,0,-3,0,83,85,134,120,81,132.83,139,-35.00,-48.00,-1136.00
2024-05-19 09:03:40.627425,0,4,1,0,-3,0,83,85,136,120,81,132.89,139,78.00,-83.00,-986.00
2024-05-19 09:03:40.808639,0,4,1,0,-3,0,83,85,138,120,81,132.86,139,46.00,-66.00,-1009.00
2024-05-19 09:03:40.831378,0,4,1,0,-2,0,83,85,140,120,81,132.92,139,47.00,-66.00,-1018.00
2024-05-19 09:03:41.013075,-1,4,1,-1,-2,0,83,85,141,120,81,132.92,139,-8.00,-50.00,-1008.00
2024-05-19 09:03:41.035653,-2,4,1,-1,-2,0,83,85,143,120,81,132.94,139,-81.00,-73.00,-922.00
2024-05-19 09:03:41.138386,-2,5,1,0,-2,0,83,85,144,120,81,132.90,139,9.00,-79.00,-980.00
2024-05-19 09:03:41.320406,-1,5,1,0,-2,0,83,85,145,120,81,132.90,139,-16.00,-61.00,-1013.00
2024-05-19 09:03:41.342440,-1,4,1,0,-2,0,83,85,143,120,81,132.90,139,-22.00,-71.00,-932.00
2024-05-19 09:03:41.444451,-1,5,1,0,-2,0,83,85,143,120,81,132.86,140,15.00,-111.00,-946.00
2024-05-19 09:03:41.627588,0,7,1,0,-2,0,83,85,143,120,81,132.92,140,-37.00,-69.00,-1013.00
2024-05-19 09:03:41.648442,0,8,1,0,-2,0,83,85,142,120,81,133.04,140,44.00,-97.00,-913.00
2024-05-19 09:03:41.833461,0,9,1,0,-2,0,83,85,142,120,81,133.01,140,-50.00,-89.00,-1025.00
2024-05-19 09:03:41.852438,2,8,1,1,-1,0,83,85,141,120,80,133.01,140,60.00,-85.00,-1061.00
2024-05-19 09:03:41.954421,3,8,1,1,-1,0,83,85,141,120,80,132.90,140,51.00,-67.00,-1014.00
2024-05-19 09:03:42.140106,3,8,1,0,0,0,83,85,139,120,80,132.92,140,27.00,-81.00,-966.00
2024-05-19 09:03:42.158463,3,7,1,0,0,0,83,85,138,120,80,132.98,140,-28.00,-76.00,-1054.00
2024-05-19 09:03:42.344419,3,7,1,0,0,0,83,85,139,120,80,132.94,140,67.00,-134.00,-1037.00
2024-05-19 09:03:42.362361,3,7,1,1,0,0,83,85,137,120,80,132.85,140,46.00,-100.00,-1062.00
2024-05-19 09:03:42.549204,4,7,1,0,0,0,83,85,138,120,80,132.80,141,42.00,-66.00,-1024.00
2024-05-19 09:03:42.566397,4,6,1,0,0,0,83,85,137,120,80,132.79,141,21.00,-42.00,-989.00
2024-05-19 09:03:42.754007,4,6,1,0,0,0,83,85,136,120,80,132.84,141,59.00,-101.00,-1031.00
2024-05-19 09:03:42.770367,4,6,1,0,0,0,83,85,137,120,80,132.90,141,-84.00,-64.00,-1001.00
2024-05-19 09:03:42.872529,3,6,1,0,0,0,83,85,138,120,80,132.83,141,33.00,-73.00,-1034.00
2024-05-19 09:03:43.061349,3,6,1,0,0,0,83,85,138,120,80,132.85,141,28.00,-83.00,-958.00
2024-05-19 09:03:43.077250,2,5,1,0,0,0,83,85,138,120,80,132.90,141,-19.00,-79.00,-1044.00
2024-05-19 09:03:43.266497,1,5,1,0,0,0,83,85,138,120,80,132.86,141,46.00,-66.00,-1051.00
2024-05-19 09:03:43.281399,2,5,1,0,0,0,83,85,138,120,80,132.83,141,93.00,-111.00,-990.00
2024-05-19 09:03:43.470914,2,5,1,0,0,0,83,85,138,120,80,132.85,141,42.00,-114.00,-968.00
2024-05-19 09:03:43.485305,2,5,1,0,0,0,83,85,137,120,80,132.85,142,36.00,-81.00,-1044.00
2024-05-19 09:03:43.675682,1,5,1,0,0,0,83,85,138,120,80,132.82,142,42.00,-112.00,-1081.00
2024-05-19 09:03:43.689207,2,6,1,0,0,0,83,85,137,120,80,132.79,142,17.00,-101.00,-1013.00
2024-05-19 09:03:43.880726,1,5,1,0,0,0,83,86,137,120,80,132.65,142,-52.00,-68.00,-1034.00
2024-05-19 09:03:43.893361,1,5,1,0,0,0,83,86,137,120,80,132.85,142,118.00,-84.00,-1023.00
2024-05-19 09:03:43.944459,1,5,1,0,0,0,83,86,138,120,80,132.72,142,78.00,-84.00,-994.00
2024-05-19 09:03:44.085304,2,5,1,0,1,0,83,86,138,120,80,132.79,142,108.00,-99.00,-967.00
2024-05-19 09:03:44.148305,3,4,1,0,0,0,83,86,138,120,80,132.70,142,23.00,-62.00,-955.00
2024-05-19 09:03:44.290130,4,5,1,0,0,0,83,86,140,120,80,132.78,142,98.00,-76.00,-1014.00
2024-05-19 09:03:44.352363,4,5,1,0,0,0,83,86,140,120,80,132.82,142,69.00,-67.00,-1011.00
2024-05-19 09:03:44.494928,4,5,1,0,1,0,83,86,140,120,80,132.75,143,-30.00,-59.00,-943.00
2024-05-19 09:03:44.556265,3,4,1,0,0,0,83,86,140,120,80,132.85,143,-12.00,-63.00,-996.00
2024-05-19 09:03:44.699877,2,4,1,0,0,0,83,86,141,120,80,132.85,143,-55.00,-50.00,-944.00
2024-05-19 09:03:44.760500,2,5,1,0,0,0,83,86,141,120,80,132.83,143,20.00,-79.00,-1029.00
2024-05-19 09:03:44.877142,3,5,1,0,0,0,83,86,142,120,79,132.83,143,130.00,-104.00,-940.00
2024-05-19 09:03:44.964314,3,5,1,0,0,0,83,86,142,120,79,132.85,143,76.00,-95.00,-950.00
2024-05-19 09:03:45.109900,4,5,1,0,0,0,83,86,142,120,79,132.84,143,72.00,-80.00,-1024.00
2024-05-19 09:03:45.168395,3,5,1,0,0,0,83,86,143,120,79,132.70,143,-32.00,-35.00,-936.00
2024-05-19 09:03:45.314556,2,4,1,-1,1,0,83,86,144,120,79,132.88,143,-49.00,-63.00,-954.00
2024-05-19 09:03:45.372497,1,4,1,-1,1,0,83,86,144,120,79,132.84,143,68.00,-83.00,-1082.00
2024-05-19 09:03:45.518851,1,4,1,0,1,0,83,86,143,120,79,132.89,144,-28.00,-41.00,-1063.00
2024-05-19 09:03:45.576545,1,4,1,-1,1,0,83,86,144,120,79,132.88,144,93.00,-60.00,-1004.00
2024-05-19 09:03:45.723707,1,3,1,0,1,0,83,86,145,120,79,132.73,144,4.00,-17.00,-1019.00
2024-05-19 09:03:45.780268,2,2,1,0,1,0,84,86,145,120,79,132.71,144,83.00,-29.00,-1002.00
