TS,pitch,roll,yaw,vgx,vgy,vgz,templ,temph,tof,h,bat,baro,time,agx,agy,agz
2024-05-19 09:04:37.550179,0,0,-6,0,0,0,85,88,10,0,75,131.63,168,4.00,5.00,-1000.00
2024-05-19 09:04:37.668787,0,0,-6,0,0,0,85,88,10,0,75,131.64,168,4.00,3.00,-1001.00
2024-05-19 09:04:37.754133,0,0,-6,0,0,0,85,88,10,0,75,131.65,168,6.00,6.00,-1001.00
2024-05-19 09:04:37.947462,0,0,-6,0,0,0,85,88,10,0,75,131.63,168,5.00,6.00,-998.00
2024-05-19 09:04:37.958127,0,0,-6,0,0,0,85,88,10,0,75,131.67,168,4.00,5.00,-1000.00
2024-05-19 09:04:38.152070,0,0,-6,0,0,0,85,89,10,0,75,131.67,168,5.00,5.00,-998.00
2024-05-19 09:04:38.161961,0,0,-6,0,0,0,85,89,10,0,75,131.65,168,5.00,6.00,-1002.00
2024-05-19 09:04:38.263925,0,0,-6,0,0,0,85,89,10,0,75,131.65,168,4.00,4.00,-999.00
2024-05-19 09:04:38.459468,0,0,-6,0,0,0,85,89,10,0,75,131.62,168,4.00,4.00,-1001.00
2024-05-19 09:04:38.468099,0,0,-6,0,0,0,85,89,10,0,75,131.66,168,4.00,4.00,-998.00
2024-05-19 09:04:38.664315,0,0,-6,0,0,0,85,89,10,0,75,131.66,168,4.00,3.00,-997.00
2024-05-19 09:04:38.671908,0,0,-6,0,0,0,85,89,10,0,75,131.63,168,5.00,4.00,-1002.00
2024-05-19 09:04:38.780723,0,0,-6,0,0,0,85,89,10,0,75,131.68,168,5.00,5.00,-999.00
2024-05-19 09:04:38.875838,0,0,-6,0,0,0,85,89,10,0,75,131.63,168,4.00,3.00,-997.00
2024-05-19 09:04:39.073867,0,0,-6,0,0,0,85,89,10,0,75,131.63,168,3.00,5.00,-1000.00
2024-05-19 09:04:39.079953,0,0,-6,0,0,0,85,88,10,0,75,131.63,168,4.00,5.00,-999.00
2024-05-19 09:04:39.278568,0,0,-6,0,0,0,85,88,10,0,75,131.63,168,5.00,3.00,-999.00
2024-05-19 09:04:39.284244,0,0,-6,0,0,0,85,88,10,0,75,131.64,168,4.00,5.00,-1000.00
2024-05-19 09:04:39.483636,0,0,-6,0,0,0,85,88,10,0,75,131.63,168,5.00,5.00,-999.00
2024-05-19 09:04:39.487919,0,0,-6,0,0,0,85,88,10,0,75,131.64,168,4.00,4.00,-999.00
2024-05-19 09:04:39.688233,0,0,-6,0,0,0,85,88,10,0,75,131.62,168,3.00,5.00,-999.00
2024-05-19 09:04:39.692000,0,0,-6,0,0,0,85,88,10,0,75,131.62,168,4.00,5.00,-1002.00
2024-05-19 09:04:39.893411,0,0,-6,0,0,0,85,88,10,0,75,131.62,168,4.00,5.00,-999.00
2024-05-19 09:04:39.895910,0,0,-6,0,0,0,85,88,10,0,75,131.60,168,6.00,5.00,-1000.00
2024-05-19 09:04:39.997999,0,0,-6,0,0,0,85,88,10,0,75,131.62,168,5.00,5.00,-999.00
2024-05-19 09:04:40.100041,0,0,-6,0,0,0,85,87,10,0,75,131.61,168,4.00,4.00,-997.00
2024-05-19 09:04:40.202090,0,0,-6,0,0,0,85,87,10,0,75,131.62,168,6.00,3.00,-1000.00
2024-05-19 09:04:40.306685,0,0,-6,0,0,0,85,87,10,0,75,131.65,168,6.00,5.00,-1000.00
2024-05-19 09:04:40.405917,0,0,-6,0,0,0,85,87,10,0,75,131.63,168,2.00,-4.00,-1004.00
2024-05-19 09:04:40.609770,0,0,-6,0,0,0,85,87,10,0,75,131.63,168,9.00,6.00,-1005.00
2024-05-19 09:04:40.610076,0,0,-6,0,0,0,85,87,10,0,75,131.63,169,51.00,47.00,-1005.00
2024-05-19 09:04:40.660738,0,0,-5,0,0,0,85,87,10,0,75,131.63,169,-48.00,0.00,-995.00
2024-05-19 09:04:40.814564,0,0,-5,0,0,0,85,87,10,0,75,131.63,169,1.00,22.00,-1040.00
2024-05-19 09:04:40.864882,-1,3,-6,0,0,0,85,87,10,0,75,131.63,169,4.00,3.00,-1120.00
2024-05-19 09:04:41.019289,-2,3,-6,1,0,-2,85,87,10,0,75,131.63,169,-98.00,15.00,-1327.00
2024-05-19 09:04:41.069297,0,0,-6,1,1,-5,85,88,10,0,75,131.63,169,36.00,-36.00,-1271.00
2024-05-19 09:04:41.227821,3,-1,-6,1,0,-7,85,88,18,0,75,132.03,169,-2.00,-32.00,-1144.00
2024-05-19 09:04:41.272952,3,-1,-6,0,0,-7,85,88,26,10,75,132.16,169,-40.00,-5.00,-1062.00
2024-05-19 09:04:41.429422,0,-1,-6,0,0,-7,85,88,34,20,75,132.27,169,-2.00,-34.00,-992.00
2024-05-19 09:04:41.477290,0,-1,-6,0,0,-7,85,88,39,20,75,132.32,169,19.00,-2.00,-967.00
2024-05-19 09:04:41.633930,0,0,-6,0,0,-7,85,88,46,30,75,132.33,170,19.00,-13.00,-897.00
2024-05-19 09:04:41.680814,0,0,-6,0,0,-6,85,88,52,30,75,132.39,170,85.00,-34.00,-924.00
2024-05-19 09:04:41.783744,-1,0,-6,-1,0,-4,85,88,58,40,75,132.46,170,107.00,-48.00,-882.00
2024-05-19 09:04:41.941364,-1,0,-6,0,0,-3,85,88,63,40,75,132.56,170,9.00,0.00,-918.00
2024-05-19 09:04:41.986773,-1,0,-6,-1,0,-2,85,88,66,40,75,132.50,170,-17.00,3.00,-987.00
2024-05-19 09:04:42.145752,-2,0,-6,0,0,-1,86,87,68,50,75,132.59,170,-38.00,8.00,-896.00
2024-05-19 09:04:42.190770,-2,0,-6,0,0,-1,86,87,69,50,75,132.59,170,-25.00,8.00,-905.00
2024-05-19 09:04:42.293097,-1,0,-6,0,0,0,86,87,71,50,75,132.66,170,10.00,-25.00,-1000.00
2024-05-19 09:04:42.452949,0,0,-6,0,0,0,86,87,71,50,75,132.66,170,4.00,-21.00,-948.00
2024-05-19 09:04:42.496755,0,1,-6,0,0,0,86,87,72,50,75,132.63,170,3.00,-48.00,-1026.00
2024-05-19 09:04:42.657749,0,2,-6,0,0,0,86,87,72,50,75,132.64,171,-23.00,-15.00,-1045.00
2024-05-19 09:04:42.700744,0,2,-6,0,0,0,86,87,73,50,75,132.63,171,-24.00,0.00,-911.00
2024-05-19 09:04:42.862558,0,2,-6,0,0,0,86,87,74,50,75,132.65,171,-89.00,6.00,-1012.00
2024-05-19 09:04:42.904710,0,2,-5,0,0,0,86,87,75,50,75,132.67,171,-42.00,-8.00,-1041.00
2024-05-19 09:04:43.067354,0,1,-5,0,0,0,86,87,76,50,75,132.64,171,-86.00,5.00,-1049.00
2024-05-19 09:04:43.109334,0,1,-5,0,0,0,86,88,78,50,75,132.69,171,-69.00,8.00,-1038.00
2024-05-19 09:04:43.272052,0,1,-5,0,0,0,86,88,79,50,75,132.64,171,-149.00,79.00,-1038.00
2024-05-19 09:04:43.312764,-1,0,-5,0,0,0,86,88,80,50,75,132.67,171,-91.00,19.00,-1008.00
2024-05-19 09:04:43.476953,-1,0,-5,0,0,0,86,88,81,60,75,132.62,171,-81.00,13.00,-963.00
2024-05-19 09:04:43.516696,-1,0,-5,0,0,0,86,88,82,60,75,132.54,171,12.00,-45.00,-949.00
2024-05-19 09:04:43.681766,0,0,-5,0,0,0,86,88,83,60,75,132.61,172,-116.00,9.00,-984.00
2024-05-19 09:04:43.720681,-1,0,-6,0,0,0,86,88,83,60,75,132.77,172,-18.00,-32.00,-977.00
2024-05-19 09:04:43.886659,-1,0,-6,0,0,0,86,88,84,60,75,132.71,172,-47.00,-11.00,-874.00
2024-05-19 09:04:43.924705,-1,1,-6,0,0,0,86,88,84,60,75,132.77,172,2.00,-48.00,-989.00
2024-05-19 09:04:44.091287,0,1,-6,0,0,0,86,88,84,60,75,132.75,172,-80.00,16.00,-991.00
2024-05-19 09:04:44.128701,-1,1,-6,0,0,0,86,88,84,60,75,132.79,172,-91.00,-2.00,-1010.00
2024-05-19 09:04:44.296126,-2,1,-6,0,0,0,86,88,84,60,75,132.78,172,-52.00,4.00,-1008.00
2024-05-19 09:04:44.332655,-2,1,-6,0,0,0,86,88,84,60,75,132.88,172,-48.00,-23.00,-912.00
2024-05-19 09:04:44.500962,-1,1,-6,0,0,0,86,88,85,60,75,132.92,172,-23.00,3.00,-974.00
2024-05-19 09:04:44.501539,0,0,-6,0,0,0,86,88,85,60,75,132.84,172,-46.00,-40.00,-1001.00
2024-05-19 09:04:44.587630,0,1,-6,0,0,0,86,88,85,60,75,132.85,173,-14.00,12.00,-975.00
2024-05-19 09:04:44.705814,0,2,-6,0,0,0,86,88,85,60,75,132.76,173,21.00,-19.00,-923.00
2024-05-19 09:04:44.791698,0,2,-6,0,0,0,86,88,86,60,75,132.74,173,1.00,-57.00,-1000.00
2024-05-19 09:04:44.910743,0,2,-6,0,0,0,86,88,85,60,75,132.80,173,-68.00,-40.00,-1013.00
2024-05-19 09:04:44.995766,0,1,-6,0,0,0,86,88,85,60,75,132.77,173,-16.00,-19.00,-935.00
2024-05-19 09:04:45.116481,-2,0,-6,0,0,0,86,88,85,60,75,132.75,173,-54.00,-18.00,-983.00
2024-05-19 09:04:45.199744,-2,0,-6,0,0,0,86,88,84,60,75,132.76,173,-87.00,-14.00,-993.00
2024-05-19 09:04:45.302219,0,2,-6,0,0,0,86,88,84,60,75,132.79,173,26.00,-77.00,-1096.00
2024-05-19 09:04:45.422599,0,2,-6,0,0,0,86,88,83,60,75,132.66,173,22.00,-51.00,-1053.00
2024-05-19 09:04:45.506456,0,3,-6,0,0,0,86,88,83,60,75,132.80,173,39.00,-90.00,-981.00
2024-05-19 09:04:45.627164,0,3,-5,0,0,0,86,88,83,60,75,132.79,174,-9.00,-40.00,-1042.00
2024-05-19 09:04:45.712996,0,3,-5,0,0,0,86,88,83,60,75,132.76,174,-86.00,-30.00,-1036.00
2024-05-19 09:04:45.812765,0,3,-5,0,0,0,86,88,83,60,75,132.83,174,-62.00,-31.00,-987.00
2024-05-19 09:04:45.934924,-1,3,-6,0,0,0,86,88,84,60,75,132.74,174,38.00,-62.00,-912.00
2024-05-19 09:04:46.016103,-2,2,-6,0,0,0,86,88,84,60,75,132.74,174,76.00,-70.00,-959.00
2024-05-19 09:04:46.139227,-2,2,-5,0,0,0,85,88,84,60,75,132.77,174,-21.00,-40.00,-978.00
2024-05-19 09:04:46.223216,-1,1,-5,0,0,0,85,88,85,60,75,132.81,174,35.00,-26.00,-975.00
2024-05-19 09:04:46.327421,-1,2,-6,0,0,0,85,88,86,60,75,132.81,174,71.00,-81.00,-915.00
2024-05-19 09:04:46.425607,-1,1,-6,0,0,0,85,88,86,60,75,132.85,174,-3.00,-41.00,-982.00
2024-05-19 09:04:46.526088,-1,2,-6,0,0,0,85,88,86,60,75,132.81,174,43.00,-62.00,-915.00
2024-05-19 09:04:46.631731,-1,2,-6,0,0,0,85,88,86,60,75,132.82,175,2.00,-21.00,-970.00
2024-05-19 09:04:46.732636,0,2,-6,0,0,0,85,88,86,60,75,132.88,175,13.00,-55.00,-1072.00
2024-05-19 09:04:46.837661,0,2,-6,0,0,0,85,88,86,60,75,132.82,175,15.00,-67.00,-1059.00
2024-05-19 09:04:46.933669,0,1,-6,0,0,0,85,88,87,60,75,132.78,175,-56.00,-35.00,-940.00
2024-05-19 09:04:47.060930,0,2,-6,0,0,0,85,88,87,60,75,132.78,175,85.00,-47.00,-996.00
2024-05-19 09:04:47.137744,0,2,-6,0,0,0,85,88,87,60,75,132.79,175,8.00,-35.00,-1030.00
2024-05-19 09:04:47.265985,1,1,-6,0,0,0,85,88,87,60,75,132.79,175,-20.00,-35.00,-972.00
2024-05-19 09:04:47.341686,0,1,-6,0,0,0,85,88,87,60,75,132.83,175,67.00,-56.00,-931.00
2024-05-19 09:04:47.470575,0,1,-6,0,0,0,85,88,86,60,75,132.77,175,-60.00,-8.00,-1035.00
2024-05-19 09:04:47.545649,1,1,-6,0,0,0,85,88,85,60,75,132.79,175,-20.00,-26.00,-903.00
2024-05-19 09:04:47.675390,0,1,-6,0,0,0,85,88,84,60,75,132.80,176,22.00,-23.00,-1011.00
2024-05-19 09:04:47.752724,-1,1,-6,0,0,1,85,88,83,60,75,132.73,176,37.00,-24.00,-1047.00
2024-05-19 09:04:47.851525,-1,0,-6,0,0,0,85,88,83,60,75,132.74,176,-84.00,-19.00,-1022.00
2024-05-19 09:04:47.909908,0,0,-6,0,0,0,85,88,82,60,75,132.79,176,5.00,-19.00,-926.00
2024-05-19 09:04:48.004562,-1,0,-6,0,0,0,85,88,82,60,75,132.78,176,-35.00,-3.00,-1091.00
2024-05-19 09:04:48.188390,0,1,-6,0,0,0,86,87,81,60,75,132.70,176,12.00,-39.00,-1037.00
2024-05-19 09:04:48.208563,0,1,-6,0,0,0,86,87,80,60,75,132.73,176,-58.00,1.00,-960.00
2024-05-19 09:04:48.310585,0,1,-6,0,0,0,86,87,79,60,75,132.79,176,-8.00,-9.00,-943.00
2024-05-19 09:04:48.494537,0,1,-6,0,0,0,86,87,78,60,75,132.76,176,-30.00,-8.00,-1093.00
2024-05-19 09:04:48.514479,0,1,-6,0,0,0,86,87,77,60,75,132.74,176,39.00,-49.00,-1002.00
2024-05-19 09:04:48.699362,0,2,-6,0,0,0,86,87,77,50,75,132.61,177,-97.00,20.00,-1094.00
2024-05-19 09:04:48.718484,0,2,-6,0,0,0,86,87,77,50,75,132.54,177,-65.00,-9.00,-1021.00
2024-05-19 09:04:48.904156,1,2,-6,0,0,0,86,87,78,50,75,132.79,177,52.00,0.00,-1053.00
2024-05-19 09:04:48.922528,0,2,-6,0,0,0,86,87,78,50,75,132.81,177,-10.00,-14.00,-1021.00
2024-05-19 09:04:49.109296,0,1,-6,0,0,0,86,87,79,50,75,132.75,177,-64.00,-8.00,-1107.00
2024-05-19 09:04:49.126535,-1,0,-6,0,0,0,86,88,80,50,75,132.74,177,-72.00,38.00,-1055.00
2024-05-19 09:04:49.313867,-1,0,-6,0,0,0,86,88,81,60,75,132.84,177,-27.00,-12.00,-1092.00
2024-05-19 09:04:49.330512,0,0,-6,0,0,0,86,88,83,60,75,132.81,177,-50.00,23.00,-1026.00
2024-05-19 09:04:49.518580,0,0,-6,0,0,-1,86,88,85,60,75,132.83,177,14.00,-4.00,-999.00
2024-05-19 09:04:49.534516,1,1,-6,0,0,-1,86,88,87,60,75,132.85,178,-9.00,-1.00,-941.00
2024-05-19 09:04:49.723698,2,1,-6,0,0,0,86,88,88,60,75,132.76,178,-4.00,3.00,-976.00
2024-05-19 09:04:49.738834,2,0,-6,0,0,0,86,88,89,60,75,132.90,178,-18.00,13.00,-908.00
2024-05-19 09:04:49.928157,2,0,-6,0,0,0,86,88,89,60,75,132.75,178,25.00,18.00,-954.00
2024-05-19 09:04:49.942600,2,0,-6,0,0,0,86,88,90,60,75,132.84,178,22.00,-24.00,-1026.00
2024-05-19 09:04:50.133501,3,0,-6,0,0,0,86,88,90,60,75,132.79,178,76.00,6.00,-1016.00
2024-05-19 09:04:50.146496,3,0,-6,0,0,0,85,87,90,60,75,132.82,178,30.00,-30.00,-1068.00
2024-05-19 09:04:50.337954,3,0,-5,0,0,0,85,87,90,60,75,132.79,178,3.00,1.00,-947.00
2024-05-19 09:04:50.350548,2,0,-5,0,0,0,85,87,90,60,75,132.76,178,58.00,-16.00,-1002.00
2024-05-19 09:04:50.542663,3,0,-5,0,0,0,85,87,89,60,75,132.72,178,-42.00,20.00,-845.00
2024-05-19 09:04:50.554455,1,0,-5,0,0,1,85,87,87,60,75,132.72,179,135.00,-60.00,-912.00
2024-05-19 09:04:50.747717,2,0,-5,0,0,1,85,87,86,60,75,132.76,179,61.00,-24.00,-1031.00
2024-05-19 09:04:50.759348,1,0,-6,0,0,1,85,87,85,60,75,132.83,179,22.00,-14.00,-1064.00
2024-05-19 09:04:50.860615,1,1,-6,0,0,0,85,87,84,60,75,132.85,179,75.00,-9.00,-1039.00
2024-05-19 09:04:50.962342,1,1,-6,0,0,0,85,87,82,60,75,132.76,179,-20.00,6.00,-1041.00
2024-05-19 09:04:51.156942,0,1,-6,0,0,0,85,87,82,60,75,132.77,179,68.00,-59.00,-1044.00
2024-05-19 09:04:51.166382,0,2,-6,0,0,0,84,87,81,60,75,132.66,179,4.00,-4.00,-1131.00
2024-05-19 09:04:51.361915,1,1,-6,0,0,-1,84,87,82,60,75,132.80,179,32.00,-11.00,-1081.00
2024-05-19 09:04:51.370404,1,1,-6,0,0,-2,84,87,84,60,75,132.80,179,-14.00,-18.00,-1104.00
2024-05-19 09:04:51.566510,1,1,-6,0,0,-3,84,87,87,60,75,132.86,179,-28.00,13.00,-1077.00
2024-05-19 09:04:51.574384,1,0,-6,0,0,-4,84,87,90,70,75,132.88,180,31.00,-37.00,-997.00
2024-05-19 09:04:51.771384,1,0,-6,0,0,-4,84,87,94,70,75,132.87,180,56.00,14.00,-1050.00
2024-05-19 09:04:51.771444,1,0,-6,0,0,-5,84,87,99,80,75,132.92,180,-9.00,-9.00,-1041.00
2024-05-19 09:04:51.829706,1,0,-6,0,0,-5,84,87,105,80,75,133.00,180,44.00,-22.00,-1050.00
2024-05-19 09:04:51.975980,1,-1,-6,0,0,-5,84,87,110,90,75,133.03,180,53.00,6.00,-1019.00
2024-05-19 09:04:52.033410,1,0,-6,0,0,-5,84,87,115,90,75,133.08,180,27.00,-15.00,-993.00
2024-05-19 09:04:52.186162,1,0,-6,0,0,-5,85,87,124,100,75,133.11,180,20.00,-2.00,-1074.00
2024-05-19 09:04:52.386037,2,0,-6,0,0,-5,85,87,130,100,75,133.12,180,40.00,-39.00,-911.00
2024-05-19 09:04:52.390217,4,1,-5,0,0,-5,85,87,134,110,75,133.11,180,135.00,-53.00,-1032.00
2024-05-19 09:04:52.441383,5,2,-6,0,-1,-5,85,87,139,110,75,133.23,180,85.00,-73.00,-907.00
2024-05-19 09:04:52.590533,6,3,-5,0,0,-4,85,87,143,120,75,133.26,181,69.00,-23.00,-918.00
2024-05-19 09:04:52.645797,5,3,-6,0,0,-3,85,87,146,120,75,133.32,181,82.00,-62.00,-939.00
2024-05-19 09:04:52.795556,5,2,-6,0,0,-3,85,87,148,130,75,133.34,181,-39.00,-17.00,-994.00
2024-05-19 09:04:52.850662,3,2,-6,-1,0,-3,85,87,152,130,75,133.39,181,29.00,-47.00,-992.00
2024-05-19 09:04:53.000129,1,1,-6,-1,0,-3,85,87,153,130,75,133.27,181,84.00,-57.00,-935.00
2024-05-19 09:04:53.053246,1,2,-6,0,0,-2,85,87,156,130,75,133.31,181,40.00,-9.00,-1013.00
2024-05-19 09:04:53.155286,1,2,-6,0,0,-2,86,88,157,140,75,133.38,181,94.00,-62.00,-963.00
2024-05-19 09:04:53.308006,1,1,-6,0,0,-2,86,88,157,140,75,133.46,181,122.00,-68.00,-906.00
2024-05-19 09:04:53.359555,1,2,-6,0,0,-1,86,88,159,140,75,133.49,181,101.00,-40.00,-1083.00
2024-05-19 09:04:53.512129,2,2,-5,0,0,-1,86,88,160,140,75,133.43,181,14.00,-16.00,-1011.00
2024-05-19 09:04:53.563281,3,2,-5,0,0,0,86,88,161,140,75,133.45,182,88.00,-34.00,-946.00
2024-05-19 09:04:53.716939,2,2,-5,0,0,0,86,88,161,140,75,133.53,182,17.00,-26.00,-926.00
2024-05-19 09:04:53.767391,2,2,-6,0,0,0,86,88,163,140,75,133.49,182,73.00,-38.00,-1052.00
2024-05-19 09:04:53.869599,2,2,-6,0,0,0,86,88,165,140,75,133.52,182,109.00,-79.00,-1025.00
2024-05-19 09:04:54.024143,2,2,-6,0,0,-1,86,88,166,140,75,133.52,182,-9.00,-30.00,-1059.00
2024-05-19 09:04:54.073424,1,2,-6,0,0,-1,86,88,167,140,75,133.52,182,36.00,-13.00,-1001.00
2024-05-19 09:04:54.228936,1,2,-6,0,0,-1,85,88,168,150,75,133.54,182,17.00,-32.00,-991.00
2024-05-19 09:04:54.277899,1,2,-6,0,0,0,85,88,170,150,75,133.53,182,-35.00,-7.00,-1056.00
2024-05-19 09:04:54.379481,1,1,-6,0,0,-1,85,88,172,150,75,133.57,182,-29.00,-47.00,-997.00
2024-05-19 09:04:54.536125,1,2,-6,0,0,-1,85,88,174,150,75,133.62,182,-42.00,1.00,-1046.00
2024-05-19 09:04:54.583258,1,2,-6,0,0,-1,85,88,175,150,75,133.61,183,-4.00,-2.00,-945.00
2024-05-19 09:04:54.740889,1,2,-5,0,0,0,85,88,177,150,75,133.65,183,100.00,-91.00,-977.00
2024-05-19 09:04:54.787336,1,3,-5,0,0,0,85,88,179,150,75,133.64,183,28.00,-42.00,-1090.00
2024-05-19 09:04:54.945852,1,3,-5,0,0,-1,85,88,181,150,75,133.63,183,-6.00,-14.00,-1030.00
2024-05-19 09:04:54.991394,1,2,-5,0,0,-1,85,88,184,160,75,133.60,183,-86.00,21.00,-986.00
2024-05-19 09:04:55.150710,0,2,-5,0,0,-1,85,88,186,160,75,133.65,183,45.00,-8.00,-959.00
2024-05-19 09:04:55.196250,0,2,-5,0,0,0,86,88,186,160,75,133.65,183,-40.00,7.00,-1001.00
2024-05-19 09:04:55.355786,1,1,-5,0,0,0,86,88,189,160,75,133.68,183,72.00,-47.00,-967.00
2024-05-19 09:04:55.400328,1,1,-5,0,0,0,86,88,190,160,75,133.69,183,19.00,-21.00,-967.00
2024-05-19 09:04:55.560282,1,1,-5,0,0,0,86,88,191,160,75,133.76,183,-24.00,7.00,-972.00
2024-05-19 09:04:55.604344,1,1,-5,0,0,0,86,88,191,160,75,133.68,184,18.00,-27.00,-1000.00
2024-05-19 09:04:55.764947,0,0,-5,0,0,0,86,88,191,160,75,133.72,184,-56.00,36.00,-1020.00
2024-05-19 09:04:55.808262,0,0,-5,0,1,0,86,88,191,160,75,133.78,184,-58.00,12.00,-988.00
2024-05-19 09:04:55.970124,-1,0,-5,-1,1,0,86,88,191,160,75,133.75,184,-64.00,35.00,-1032.00
2024-05-19 09:04:55.973468,-1,0,-5,0,0,0,86,88,191,160,75,133.73,184,54.00,-55.00,-935.00
2024-05-19 09:04:56.063322,0,0,-5,0,0,0,86,88,191,160,75,133.78,184,101.00,-153.00,-1001.00
2024-05-19 09:04:56.216058,0,1,-5,0,0,0,85,87,192,160,75,133.82,184,-30.00,-49.00,-1026.00
2024-05-19 09:04:56.267487,0,1,-5,0,0,0,85,87,190,160,75,133.79,184,23.00,-48.00,-957.00
2024-05-19 09:04:56.379683,0,1,-5,0,0,0,85,87,191,160,75,133.75,184,-76.00,18.00,-1028.00
2024-05-19 09:04:56.471418,0,1,-6,0,0,0,85,87,189,160,75,133.80,184,3.00,-57.00,-956.00
2024-05-19 09:04:56.584516,0,2,-6,0,0,0,85,87,189,160,75,133.76,185,-52.00,4.00,-1037.00
2024-05-19 09:04:56.675398,0,2,-6,0,0,0,85,87,189,160,75,133.73,185,-12.00,-2.00,-961.00
2024-05-19 09:04:56.788965,0,2,-6,0,0,0,85,87,189,160,75,133.76,185,-21.00,-7.00,-1060.00
2024-05-19 09:04:56.879229,0,1,-6,0,0,0,85,87,189,160,75,133.73,185,98.00,-98.00,-978.00
2024-05-19 09:04:56.993689,0,2,-6,0,0,0,85,87,190,160,75,133.75,185,-51.00,-3.00,-1030.00
2024-05-19 09:04:57.083296,1,2,-6,0,0,0,85,87,190,160,75,133.74,185,-39.00,-25.00,-942.00
2024-05-19 09:04:57.198359,0,1,-6,0,0,0,84,87,190,160,75,133.78,185,12.00,-32.00,-924.00
2024-05-19 09:04:57.287317,0,1,-6,0,0,1,84,87,189,160,75,133.71,185,-83.00,0.00,-890.00
2024-05-19 09:04:57.403254,0,1,-6,0,0,1,84,87,188,160,75,133.76,185,-18.00,-22.00,-944.00
2024-05-19 09:04:57.491056,0,1,-6,0,0,2,84,87,186,160,75,133.74,185,-53.00,2.00,-1029.00
2024-05-19 09:04:57.608202,0,1,-6,0,0,2,84,87,184,160,75,133.72,186,59.00,-39.00,-882.00
2024-05-19 09:04:57.695312,0,1,-6,0,0,2,84,87,181,160,75,133.68,186,18.00,-53.00,-996.00
2024-05-19 09:04:57.812851,0,1,-6,0,0,2,84,87,178,150,75,133.62,186,-27.00,-12.00,-899.00
2024-05-19 09:04:57.899086,0,1,-6,0,0,2,84,87,176,150,75,133.58,186,-31.00,3.00,-903.00
2024-05-19 09:04:58.017625,0,1,-6,0,0,2,84,87,172,150,75,133.63,186,62.00,-58.00,-928.00
2024-05-19 09:04:58.103037,0,1,-6,0,0,3,84,87,169,140,75,133.59,186,-5.00,2.00,-991.00
2024-05-19 09:04:58.222427,0,2,-6,0,0,3,85,88,165,140,75,133.56,186,0.00,-22.00,-993.00
2024-05-19 09:04:58.307632,0,2,-5,0,0,3,85,88,162,140,75,133.46,186,-84.00,-11.00,-1005.00
2024-05-19 09:04:58.427432,0,2,-5,0,0,3,85,88,158,130,75,133.53,186,-34.00,-38.00,-969.00
2024-05-19 09:04:58.511200,0,2,-5,0,0,3,85,88,156,130,75,133.47,186,10.00,-28.00,-981.00
2024-05-19 09:04:58.632026,0,2,-5,0,0,2,85,88,153,130,75,133.39,187,2.00,-56.00,-963.00
2024-05-19 09:04:58.715898,0,2,-5,0,0,2,85,88,151,130,75,133.42,187,-37.00,-45.00,-1073.00
2024-05-19 09:04:58.836833,0,2,-5,0,0,2,85,88,148,120,75,133.33,187,-51.00,-17.00,-1009.00
2024-05-19 09:04:58.926125,0,3,-5,0,0,2,85,88,146,120,75,133.50,187,-21.00,-28.00,-995.00
2024-05-19 09:04:59.023141,0,2,-5,0,0,2,85,88,143,120,75,133.39,187,-28.00,-57.00,-1066.00
2024-05-19 09:04:59.125775,0,2,-6,0,0,1,85,88,141,120,75,133.39,187,-5.00,-52.00,-1056.00
2024-05-19 09:04:59.226214,-1,2,-6,0,0,1,86,87,139,120,75,133.40,187,31.00,-37.00,-1078.00
2024-05-19 09:04:59.330549,0,1,-6,0,0,0,86,87,139,110,75,133.30,187,-20.00,-40.00,-1028.00
2024-05-19 09:04:59.430696,-2,0,-6,-1,1,0,86,87,139,110,75,133.36,187,-132.00,28.00,-1083.00
2024-05-19 09:04:59.531188,-2,0,-6,0,0,0,86,87,139,120,75,133.38,187,-40.00,-30.00,-975.00
2024-05-19 09:04:59.656708,-1,1,-6,0,0,0,86,87,140,120,75,133.30,188,21.00,-24.00,-1042.00
2024-05-19 09:04:59.735064,-1,1,-6,0,0,0,86,87,140,120,75,133.33,188,8.00,-45.00,-1026.00
2024-05-19 09:04:59.786021,-1,1,-6,0,0,0,86,87,140,120,75,133.38,188,-120.00,24.00,-956.00
2024-05-19 09:04:59.888100,-1,1,-6,0,0,0,86,87,141,120,75,133.37,188,-24.00,-53.00,-930.00
2024-05-19 09:05:00.065734,-1,1,-6,0,0,0,86,87,140,120,75,133.38,188,-63.00,-23.00,-1051.00
2024-05-19 09:05:00.091841,-1,0,-6,0,0,0,86,87,139,120,75,133.39,188,25.00,-40.00,-884.00
2024-05-19 09:05:00.270818,-2,0,-6,0,0,0,86,88,140,120,75,133.21,188,84.00,-61.00,-958.00
2024-05-19 09:05:00.296067,-1,0,-6,0,0,0,86,88,140,120,75,133.35,188,-60.00,9.00,-1032.00
2024-05-19 09:05:00.475640,-1,1,-6,0,0,0,86,88,140,120,75,133.28,188,45.00,-37.00,-1004.00
2024-05-19 09:05:00.500069,-1,1,-6,0,0,0,86,88,142,120,75,133.40,188,-40.00,-2.00,-1067.00
2024-05-19 09:05:00.680100,-1,1,-6,0,0,0,86,88,141,120,75,133.38,189,-1.00,-14.00,-1004.00
2024-05-19 09:05:00.703997,-2,1,-6,0,0,0,86,88,142,120,75,133.32,189,-45.00,-2.00,-943.00
2024-05-19 09:05:00.885127,-2,0,-6,0,0,0,86,88,143,120,75,133.40,189,-77.00,12.00,-1019.00
2024-05-19 09:05:00.907971,-2,0,-6,0,0,0,86,88,143,120,75,133.38,189,-70.00,5.00,-963.00
2024-05-19 09:05:01.076869,-2,0,-6,0,0,0,86,88,143,120,75,133.35,189,-73.00,13.00,-989.00
2024-05-19 09:05:01.113163,-2,0,-6,0,0,0,86,88,143,120,75,133.39,189,-57.00,-23.00,-969.00
2024-05-19 09:05:01.294450,-1,0,-6,0,0,0,84,88,142,120,75,133.36,189,-24.00,-16.00,-1052.00
2024-05-19 09:05:01.317123,-2,0,-6,0,0,0,84,88,143,120,75,133.35,189,-37.00,-53.00,-986.00
2024-05-19 09:05:01.499233,-7,0,-6,1,0,0,84,88,144,120,75,133.28,189,-74.00,-24.00,-957.00
2024-05-19 09:05:01.521194,-8,1,-6,2,0,0,84,88,145,120,75,133.22,189,-30.00,-23.00,-985.00
2024-05-19 09:05:01.704081,-8,1,-6,3,0,0,84,88,144,120,75,133.19,190,-59.00,-27.00,-981.00
2024-05-19 09:05:01.724859,-8,1,-6,5,0,0,84,88,145,120,75,133.21,190,-77.00,-23.00,-944.00
2024-05-19 09:05:01.908803,-7,1,-6,6,0,0,84,88,143,120,75,133.31,190,5.00,-49.00,-982.00
2024-05-19 09:05:01.929432,-6,2,-6,7,-1,0,84,88,143,120,75,133.30,190,-52.00,-40.00,-1079.00
2024-05-19 09:05:02.114897,-5,2,-6,7,-1,0,84,88,143,120,75,133.22,190,-50.00,-38.00,-1012.00
2024-05-19 09:05:02.133307,-2,2,-6,7,0,0,84,88,144,120,75,133.27,190,-52.00,-41.00,-1008.00
2024-05-19 09:05:02.319340,0,3,-6,7,0,0,85,87,144,120,75,133.30,190,-12.00,-12.00,-1081.00
2024-05-19 09:05:02.337522,2,1,-6,6,0,0,85,87,144,120,75,133.30,190,-82.00,5.00,-1044.00
2024-05-19 09:05:02.523967,3,1,-6,5,0,0,85,87,144,120,75,133.35,190,-13.00,-17.00,-1014.00
2024-05-19 09:05:02.541078,2,0,-6,4,0,0,85,87,143,120,75,133.32,190,-83.00,41.00,-905.00
2024-05-19 09:05:02.728032,0,0,-6,3,0,0,85,87,143,120,75,133.38,191,-37.00,-32.00,-998.00
2024-05-19 09:05:02.744945,0,0,-6,2,0,0,85,87,144,120,75,133.33,191,-31.00,-44.00,-1024.00
2024-05-19 09:05:02.933382,-1,0,-6,3,0,0,85,87,145,120,75,133.31,191,-46.00,-18.00,-1094.00
2024-05-19 09:05:02.949044,0,1,-6,3,0,0,85,87,145,120,75,133.30,191,10.00,-39.00,-1043.00
2024-05-19 09:05:03.137810,0,1,-6,3,0,0,85,87,145,120,75,133.38,191,-41.00,-45.00,-953.00
2024-05-19 09:05:03.152906,0,2,-6,3,0,0,85,87,144,120,75,133.35,191,-32.00,-35.00,-988.00
2024-05-19 09:05:03.342412,4,1,-6,2,0,0,85,88,145,120,75,133.43,191,-80.00,-5.00,-998.00
2024-05-19 09:05:03.356719,3,1,-6,0,0,1,85,88,144,120,75,133.38,191,-54.00,-30.00,-925.00
2024-05-19 09:05:03.547192,0,1,-6,0,0,1,85,88,141,120,75,133.39,191,37.00,-25.00,-1067.00
2024-05-19 09:05:03.560975,0,1,-6,0,0,1,85,88,140,120,75,133.40,192,19.00,-39.00,-955.00
2024-05-19 09:05:03.752225,1,2,-6,0,0,0,85,88,139,120,75,133.43,192,-14.00,-23.00,-1105.00
2024-05-19 09:05:03.764895,1,2,-6,0,0,0,85,88,139,120,75,133.43,192,-83.00,-20.00,-1000.00
2024-05-19 09:05:03.815871,1,2,-6,0,0,0,85,88,140,120,75,133.45,192,-23.00,-2.00,-990.00
2024-05-19 09:05:03.957664,0,1,-6,0,0,0,85,88,140,120,75,133.38,192,-24.00,-2.00,-1041.00
2024-05-19 09:05:04.020287,0,0,-6,0,0,0,85,88,141,120,75,133.40,192,-13.00,-14.00,-885.00
2024-05-19 09:05:04.161855,0,0,-6,0,0,0,85,88,141,120,75,133.43,192,48.00,-63.00,-997.00
2024-05-19 09:05:04.223900,0,0,-6,0,0,0,85,87,143,120,75,133.43,192,48.00,-15.00,-1046.00
2024-05-19 09:05:04.371799,0,0,-6,0,0,0,85,87,143,120,75,133.36,192,31.00,4.00,-864.00
2024-05-19 09:05:04.427982,0,0,-6,0,0,0,85,87,143,120,75,133.37,192,45.00,-42.00,-991.00
2024-05-19 09:05:04.571315,1,1,-6,0,0,0,85,87,145,120,75,133.38,193,4.00,9.00,-1063.00
2024-05-19 09:05:04.631956,0,1,-6,0,0,0,85,87,145,120,75,133.29,193,49.00,-12.00,-985.00
2024-05-19 09:05:04.776258,1,0,-6,0,0,0,85,87,145,120,75,133.39,193,-17.00,-23.00,-942.00
2024-05-19 09:05:04.835975,1,0,-6,0,0,0,85,87,146,120,75,133.42,193,33.00,-9.00,-949.00
2024-05-19 09:05:04.980999,1,0,-6,0,0,0,85,87,145,120,75,133.38,193,8.00,-29.00,-990.00
2024-05-19 09:05:05.043105,1,1,-6,0,0,0,85,87,145,120,75,133.46,193,25.00,-40.00,-972.00
2024-05-19 09:05:05.143042,1,1,-6,0,0,0,85,87,144,120,75,133.35,193,65.00,-36.00,-1034.00
2024-05-19 09:05:05.288732,1,1,-6,0,0,0,85,87,143,120,75,133.41,193,10.00,-20.00,-965.00
2024-05-19 09:05:05.345754,1,0,-6,0,0,0,85,87,142,120,75,133.36,193,59.00,4.00,-1032.00
2024-05-19 09:05:05.492977,1,0,-6,0,0,0,85,87,141,120,75,133.33,193,0.00,-16.00,-925.00
2024-05-19 09:05:05.549814,1,0,-6,0,0,0,85,87,141,120,75,133.31,194,52.00,-29.00,-980.00
2024-05-19 09:05:05.697667,1,0,-6,0,0,0,85,87,141,120,75,133.37,194,35.00,-6.00,-1074.00
2024-05-19 09:05:05.754437,4,1,-6,0,0,0,85,87,140,120,75,133.35,194,-4.00,-28.00,-991.00
2024-05-19 09:05:05.903389,8,1,-6,0,0,0,85,87,141,120,75,133.42,194,38.00,-12.00,-1053.00
2024-05-19 09:05:05.957651,8,1,-6,-1,0,0,85,87,140,120,75,133.25,194,64.00,-60.00,-989.00
2024-05-19 09:05:06.107267,8,1,-5,-2,0,0,85,87,139,120,75,133.31,194,66.00,-55.00,-1006.00
2024-05-19 09:05:06.162985,8,0,-5,-4,0,0,85,87,138,120,75,133.28,194,106.00,-73.00,-1007.00
2024-05-19 09:05:06.312061,8,1,-5,-5,0,0,85,87,137,110,75,133.19,194,94.00,-59.00,-1039.00
2024-05-19 09:05:06.367406,8,2,-5,-6,0,0,85,87,138,110,75,133.21,194,57.00,-34.00,-996.00
2024-05-19 09:05:06.467888,8,2,-5,-6,0,0,85,87,136,110,75,133.19,194,121.00,-51.00,-941.00
2024-05-19 09:05:06.570404,6,2,-5,-7,0,0,85,87,136,110,75,133.21,195,47.00,-27.00,-1062.00
2024-05-19 09:05:06.674767,3,1,-6,-8,0,0,85,87,134,110,75,133.21,195,70.00,-37.00,-941.00
2024-05-19 09:05:06.773640,0,1,-6,-7,0,0,85,87,133,110,75,133.24,195,129.00,-67.00,-946.00
2024-05-19 09:05:06.926464,-1,2,-6,-7,0,0,85,87,132,110,74,133.18,195,88.00,-65.00,-1061.00
2024-05-19 09:05:06.927057,-4,0,-6,-6,0,0,85,87,131,110,74,133.16,195,58.00,-27.00,-958.00
2024-05-19 09:05:07.029164,-4,1,-6,-5,0,0,85,87,130,110,74,133.21,195,87.00,-53.00,-983.00
2024-05-19 09:05:07.130957,-2,1,-6,-3,0,0,85,87,130,110,74,133.23,195,79.00,-47.00,-973.00
2024-05-19 09:05:07.283711,0,1,-6,-3,0,0,85,87,130,110,74,133.22,195,82.00,-38.00,-1034.00
2024-05-19 09:05:07.385666,0,1,-6,-2,0,0,85,87,130,110,74,133.11,195,30.00,-20.00,-1051.00
2024-05-19 09:05:07.438399,1,3,-6,-2,0,0,85,87,131,110,74,133.25,195,12.00,-10.00,-915.00
2024-05-19 09:05:07.538926,0,4,-6,-3,0,0,85,87,132,110,74,133.25,196,75.00,-51.00,-1141.00
2024-05-19 09:05:07.640832,-1,4,-6,-3,1,0,85,87,133,110,74,133.27,196,-6.00,12.00,-1045.00
2024-05-19 09:05:07.745677,-4,0,-6,-2,1,0,85,87,134,110,74,133.20,196,-17.00,-2.00,-1031.00
2024-05-19 09:05:07.844814,-4,-1,-6,0,0,0,85,87,135,110,74,133.34,196,-9.00,-17.00,-949.00
2024-05-19 09:05:07.953052,0,0,-6,0,0,0,85,87,136,110,74,133.27,196,36.00,-43.00,-1146.00
2024-05-19 09:05:08.048872,3,1,-6,0,0,-1,85,87,138,110,74,133.33,196,81.00,-52.00,-966.00
2024-05-19 09:05:08.155305,5,1,-6,0,0,0,85,87,138,110,74,133.28,196,-31.00,-34.00,-1006.00
2024-05-19 09:05:08.252760,5,1,-5,0,0,0,85,87,139,110,74,133.34,196,70.00,-18.00,-933.00
2024-05-19 09:05:08.354635,4,1,-5,0,0,0,85,87,139,110,74,133.36,196,138.00,-85.00,-956.00
2024-05-19 09:05:08.462797,3,1,-5,-1,0,0,85,87,139,110,74,133.39,196,-9.00,-48.00,-1006.00
2024-05-19 09:05:08.559114,-2,1,-5,-1,0,0,85,87,139,110,74,133.34,197,37.00,-2.00,-1010.00
2024-05-19 09:05:08.667392,-2,1,-5,0,0,0,85,87,138,110,74,133.33,197,-60.00,15.00,-1021.00
2024-05-19 09:05:08.763017,0,1,-5,0,0,0,85,87,138,110,74,133.23,197,-86.00,14.00,-1060.00
2024-05-19 09:05:08.872113,0,1,-6,0,0,0,85,87,139,110,74,133.32,197,-61.00,-9.00,-1013.00
2024-05-19 09:05:08.966892,0,1,-6,0,0,0,85,87,140,110,74,133.25,197,42.00,-45.00,-976.00
2024-05-19 09:05:09.076878,0,1,-6,0,0,0,85,87,139,120,74,133.30,197,85.00,-55.00,-982.00
2024-05-19 09:05:09.170899,0,1,-6,0,0,0,85,87,140,120,74,133.31,197,33.00,-53.00,-1044.00
2024-05-19 09:05:09.281690,0,1,-6,0,0,0,86,88,139,120,74,133.29,197,-19.00,-14.00,-1022.00
2024-05-19 09:05:09.374809,1,2,-6,0,0,0,86,88,138,120,74,133.34,197,-44.00,-5.00,-1022.00
2024-05-19 09:05:09.486560,0,1,-6,0,0,0,86,88,138,120,74,133.30,197,83.00,-47.00,-999.00
2024-05-19 09:05:09.578975,0,0,-5,0,0,0,86,88,137,110,74,133.29,198,-19.00,-20.00,-990.00
2024-05-19 09:05:09.691357,0,1,-5,0,0,0,86,88,135,110,74,133.22,198,-67.00,18.00,-1016.00
2024-05-19 09:05:09.782764,0,1,-6,0,0,0,86,88,135,110,74,133.31,198,20.00,-35.00,-990.00
2024-05-19 09:05:09.896131,0,1,-6,0,0,0,86,88,134,110,74,133.32,198,85.00,-73.00,-1004.00
2024-05-19 09:05:09.986745,0,1,-6,0,0,0,86,88,134,110,74,133.25,198,49.00,-49.00,-1060.00
2024-05-19 09:05:10.100994,0,2,-6,0,0,0,86,88,133,110,74,133.29,198,-37.00,19.00,-1082.00
2024-05-19 09:05:10.190777,0,2,-6,0,0,0,86,88,134,110,74,133.34,198,-40.00,-7.00,-1007.00
2024-05-19 09:05:10.305875,0,1,-6,0,0,0,85,88,134,110,74,133.26,198,-39.00,16.00,-1035.00
2024-05-19 09:05:10.394619,1,0,-6,0,0,0,85,88,134,110,74,133.24,198,23.00,-2.00,-1101.00
2024-05-19 09:05:10.510673,2,0,-6,0,0,0,85,88,135,110,74,133.26,198,41.00,0.00,-999.00
2024-05-19 09:05:10.598665,2,0,-6,0,0,0,85,88,136,110,74,133.23,199,33.00,-30.00,-963.00
2024-05-19 09:05:10.716215,2,0,-6,0,0,0,85,88,136,110,74,133.23,199,6.00,-26.00,-993.00
2024-05-19 09:05:10.802703,2,-3,-6,0,0,0,85,88,137,110,74,133.23,199,20.00,2.00,-1044.00
2024-05-19 09:05:10.920007,2,-8,-6,0,0,0,85,88,139,110,74,133.31,199,6.00,-1.00,-1107.00
2024-05-19 09:05:11.006697,1,-6,-6,0,-1,0,85,88,138,110,74,133.19,199,13.00,-1.00,-944.00
2024-05-19 09:05:11.058432,0,-4,-5,0,-3,0,85,88,138,110,74,133.29,199,81.00,-10.00,-1027.00
2024-05-19 09:05:11.159435,0,0,-5,0,-4,0,85,88,136,120,74,133.30,199,-2.00,9.00,-994.00
2024-05-19 09:05:11.329590,0,1,-5,0,-4,0,86,88,137,120,74,133.27,199,-2.00,-11.00,-979.00
2024-05-19 09:05:11.364870,1,2,-5,0,-3,0,86,88,138,120,74,133.21,199,-58.00,18.00,-1001.00
2024-05-19 09:05:11.534869,1,2,-5,0,-3,0,86,88,137,110,74,133.17,199,-11.00,0.00,-1011.00
2024-05-19 09:05:11.567862,1,1,-5,0,-2,0,86,88,136,110,74,133.27,200,-27.00,6.00,-1030.00
2024-05-19 09:05:11.739184,1,1,-5,0,-2,0,86,88,135,110,74,133.23,200,28.00,-51.00,-971.00
2024-05-19 09:05:11.771616,0,1,-5,0,-2,0,86,88,134,110,73,133.26,200,-18.00,-49.00,-970.00
2024-05-19 09:05:11.944122,0,1,-6,0,-3,0,86,88,134,110,73,133.30,200,10.00,-32.00,-1019.00
2024-05-19 09:05:11.975480,1,1,-6,0,-3,0,86,88,135,110,73,133.29,200,94.00,-71.00,-905.00
2024-05-19 09:05:12.148774,1,2,-6,0,-3,0,86,88,134,110,73,133.23,200,24.00,-50.00,-1012.00
2024-05-19 09:05:12.179510,1,3,-6,0,-3,0,86,88,134,110,73,133.26,200,-6.00,-36.00,-1003.00
2024-05-19 09:05:12.353587,1,4,-6,0,-2,0,85,88,133,110,73,133.35,200,-25.00,-32.00,-1000.00
2024-05-19 09:05:12.383439,1,5,-6,0,-1,0,85,88,134,110,73,133.28,200,81.00,-33.00,-938.00
2024-05-19 09:05:12.558444,0,5,-6,0,-1,0,85,88,134,110,73,133.31,200,23.00,-58.00,-1053.00
2024-05-19 09:05:12.587456,1,4,-6,0,0,0,85,88,134,110,73,133.23,201,4.00,-15.00,-1030.00
2024-05-19 09:05:12.689554,1,2,-6,0,0,0,85,88,134,110,73,133.18,201,-4.00,-36.00,-1051.00
2024-05-19 09:05:12.865977,1,2,-6,0,0,0,85,88,135,110,73,133.26,201,41.00,-44.00,-982.00
2024-05-19 09:05:12.893450,2,2,-6,0,0,0,85,88,136,110,73,133.21,201,-6.00,-55.00,-1012.00
2024-05-19 09:05:13.070602,2,2,-6,0,0,0,85,88,136,110,73,133.23,201,-38.00,-35.00,-1028.00
2024-05-19 09:05:13.097593,2,2,-6,0,0,0,85,88,137,110,73,133.28,201,56.00,-62.00,-1102.00
2024-05-19 09:05:13.199531,2,2,-6,0,0,0,85,88,138,110,73,133.24,201,-13.00,-26.00,-1014.00
2024-05-19 09:05:13.377807,2,2,-6,0,0,0,85,87,140,120,73,133.23,201,57.00,-45.00,-864.00
2024-05-19 09:05:13.403512,2,2,-6,0,0,0,85,87,140,120,73,133.25,201,60.00,-78.00,-939.00
2024-05-19 09:05:13.582679,2,2,-6,0,0,0,85,87,141,120,73,133.36,201,47.00,-48.00,-1044.00
2024-05-19 09:05:13.607608,2,2,-6,0,0,0,85,87,141,120,73,133.34,202,14.00,-22.00,-1010.00
2024-05-19 09:05:13.709495,2,2,-6,0,0,0,85,87,142,120,73,133.31,202,62.00,-41.00,-1115.00
2024-05-19 09:05:13.889984,2,1,-6,0,0,0,85,87,143,120,73,133.28,202,78.00,-65.00,-1001.00
2024-05-19 09:05:13.913453,2,2,-6,0,0,0,85,87,143,120,73,133.26,202,88.00,-40.00,-1011.00
2024-05-19 09:05:14.094492,3,2,-6,0,0,0,85,87,143,120,73,133.40,202,61.00,-28.00,-939.00
2024-05-19 09:05:14.117388,3,2,-6,0,0,0,85,87,143,120,73,133.30,202,21.00,-48.00,-960.00
2024-05-19 09:05:14.299302,2,1,-6,0,0,0,85,87,142,120,73,133.28,202,-34.00,-12.00,-1112.00
2024-05-19 09:05:14.321413,0,1,-6,0,0,0,86,88,141,120,73,133.18,202,33.00,-61.00,-1086.00
2024-05-19 09:05:14.504166,0,1,-6,0,0,0,86,88,141,120,73,133.29,202,32.00,-40.00,-966.00
2024-05-19 09:05:14.525361,0,1,-6,0,0,0,86,88,141,120,73,133.25,202,56.00,-52.00,-996.00
2024-05-19 09:05:14.644769,0,2,-6,0,0,0,86,88,141,120,73,133.29,203,9.00,-48.00,-974.00
2024-05-19 09:05:14.729399,1,2,-6,0,0,0,86,88,141,120,73,133.30,203,107.00,-96.00,-968.00
2024-05-19 09:05:14.913574,2,3,-6,0,0,0,86,88,142,120,73,133.30,203,8.00,-32.00,-1039.00
2024-05-19 09:05:14.933326,1,9,-6,0,0,0,86,88,144,120,73,133.28,203,-1.00,-41.00,-953.00
2024-05-19 09:05:14.984338,0,9,-6,0,1,0,86,88,146,120,73,133.30,203,16.00,-42.00,-1029.00
2024-05-19 09:05:15.118905,0,9,-6,0,2,0,86,88,146,120,73,133.29,203,109.00,-44.00,-1002.00
2024-05-19 09:05:15.188545,0,6,-6,0,3,0,86,88,144,120,73,133.39,203,92.00,-32.00,-1011.00
2024-05-19 09:05:15.341335,0,2,-6,0,4,0,86,88,144,120,73,133.25,203,-41.00,-53.00,-991.00
2024-05-19 09:05:15.528159,0,0,-6,0,4,0,86,88,145,120,73,133.39,203,43.00,-55.00,-975.00
2024-05-19 09:05:15.528235,0,0,-6,0,3,0,86,88,145,120,73,133.39,203,89.00,-64.00,-931.00
2024-05-19 09:05:15.596314,1,0,-6,1,2,0,86,88,146,120,73,133.36,204,42.00,-64.00,-959.00
2024-05-19 09:05:15.732789,3,1,-6,1,2,0,86,88,145,120,73,133.34,204,98.00,-81.00,-982.00
2024-05-19 09:05:15.800569,3,2,-6,1,2,0,86,88,145,120,73,133.28,204,68.00,-82.00,-980.00
2024-05-19 09:05:15.937550,4,3,-6,1,2,0,86,88,144,120,73,133.26,204,108.00,-92.00,-989.00
2024-05-19 09:05:16.004418,3,3,-6,0,2,0,86,88,142,120,73,133.31,204,34.00,-39.00,-972.00
2024-05-19 09:05:16.142370,2,3,-6,0,2,0,86,88,142,120,73,133.36,204,99.00,-64.00,-1009.00
2024-05-19 09:05:16.208565,2,2,-6,0,2,0,86,88,141,120,73,133.26,204,44.00,-66.00,-1033.00
2024-05-19 09:05:16.347175,2,1,-6,0,2,0,85,88,140,120,73,133.31,204,15.00,-97.00,-987.00
2024-05-19 09:05:16.412383,1,0,-6,0,2,0,85,88,139,120,73,133.29,204,-2.00,-29.00,-1109.00
2024-05-19 09:05:16.551856,1,-2,-6,0,1,0,85,88,139,110,73,133.22,204,20.00,-45.00,-1099.00
2024-05-19 09:05:16.616463,2,0,-6,0,0,0,85,88,139,110,73,133.17,205,76.00,-58.00,-999.00
2024-05-19 09:05:16.718477,3,1,-6,0,0,0,85,88,139,110,73,133.17,205,44.00,-3.00,-1028.00
2024-05-19 09:05:16.859829,3,2,-6,0,0,0,85,88,139,120,72,133.18,205,104.00,-63.00,-935.00
2024-05-19 09:05:16.922432,2,2,-6,0,0,0,85,88,138,120,72,133.12,205,78.00,-50.00,-971.00
2024-05-19 09:05:17.064518,2,2,-6,0,0,0,85,88,138,120,72,133.18,205,40.00,-72.00,-1013.00
2024-05-19 09:05:17.126436,2,1,-6,0,0,0,85,88,138,110,72,133.22,205,-6.00,-44.00,-1054.00
2024-05-19 09:05:17.268998,2,1,-6,0,0,0,85,88,137,110,72,133.20,205,58.00,-32.00,-1048.00
2024-05-19 09:05:17.330514,2,1,-6,0,0,0,85,88,137,110,72,133.22,205,76.00,-49.00,-974.00
2024-05-19 09:05:17.473968,3,1,-6,0,0,0,85,88,136,110,72,133.16,205,73.00,-34.00,-1061.00
2024-05-19 09:05:17.534490,4,2,-6,1,0,0,85,88,136,110,72,133.19,205,22.00,-26.00,-1002.00
2024-05-19 09:05:17.654020,5,2,-5,0,0,0,85,88,134,110,72,133.17,206,0.00,-8.00,-854.00
2024-05-19 09:05:17.738541,3,1,-6,0,0,0,85,88,133,110,72,133.19,206,37.00,-53.00,-1024.00
2024-05-19 09:05:17.883852,2,1,-6,0,0,0,85,88,131,110,72,133.16,206,58.00,-48.00,-1029.00
2024-05-19 09:05:17.942383,2,2,-6,0,0,0,85,88,130,110,72,133.15,206,74.00,-76.00,-1027.00
2024-05-19 09:05:18.088048,2,2,-5,0,0,0,85,88,129,110,72,133.14,206,47.00,-59.00,-1002.00
2024-05-19 09:05:18.146598,1,3,-5,0,0,1,85,88,129,110,72,133.07,206,41.00,-48.00,-1046.00
2024-05-19 09:05:18.292958,2,3,-5,0,0,0,85,88,129,110,72,133.10,206,41.00,-48.00,-1110.00
2024-05-19 09:05:18.350430,2,3,-5,0,0,0,85,88,130,110,72,133.05,206,-26.00,-16.00,-946.00
2024-05-19 09:05:18.498326,1,3,-5,0,0,0,85,88,131,110,72,133.06,206,75.00,-78.00,-1059.00
2024-05-19 09:05:18.554408,1,2,-5,0,0,0,85,88,132,110,72,133.06,206,43.00,-53.00,-942.00
2024-05-19 09:05:18.605155,1,2,-6,0,0,0,85,88,133,110,72,133.11,207,53.00,-44.00,-969.00
2024-05-19 09:05:18.804973,1,2,-6,0,0,0,85,88,133,110,72,133.01,207,56.00,-80.00,-925.00
2024-05-19 09:05:18.809127,0,1,-2,0,0,0,85,88,135,110,72,133.14,207,39.00,-40.00,-1080.00
2024-05-19 09:05:19.009471,1,2,3,0,0,0,85,88,136,110,72,133.11,207,70.00,-68.00,-1097.00
2024-05-19 09:05:19.013191,1,3,9,0,0,0,85,88,137,110,72,133.22,207,110.00,-52.00,-981.00
2024-05-19 09:05:19.115111,1,3,15,0,0,0,85,88,137,110,72,133.10,207,32.00,-57.00,-960.00
2024-05-19 09:05:19.217469,1,3,22,0,0,0,85,88,138,110,72,133.19,207,-20.00,-15.00,-924.00
2024-05-19 09:05:19.319409,0,1,33,0,0,0,85,88,139,110,72,133.22,207,64.00,-70.00,-1062.00
2024-05-19 09:05:19.421231,0,1,39,0,0,0,85,88,139,110,72,133.21,207,-75.00,-5.00,-1032.00
2024-05-19 09:05:19.523106,0,1,45,0,0,0,85,88,140,120,72,133.25,208,-65.00,-8.00,-956.00
2024-05-19 09:05:19.726929,-1,0,51,0,0,0,85,88,141,120,72,133.21,208,-72.00,-21.00,-937.00
2024-05-19 09:05:19.727011,-2,0,57,0,0,0,85,88,142,120,72,133.21,208,-15.00,-29.00,-938.00
2024-05-19 09:05:19.829197,-2,0,63,0,0,0,85,88,142,120,72,133.24,208,-9.00,-20.00,-1077.00
2024-05-19 09:05:19.931146,-3,0,68,0,0,0,85,88,142,120,72,133.17,208,4.00,-27.00,-1077.00
2024-05-19 09:05:20.033436,-3,0,74,0,0,0,85,88,142,120,72,133.17,208,-46.00,1.00,-1021.00
2024-05-19 09:05:20.135954,-3,1,80,0,0,0,85,88,142,120,72,133.20,208,-62.00,13.00,-994.00
2024-05-19 09:05:20.238003,-3,1,86,0,0,0,85,88,141,120,72,133.09,208,-33.00,19.00,-992.00
2024-05-19 09:05:20.340793,-3,1,92,0,0,0,86,88,141,120,72,133.09,208,-76.00,26.00,-915.00
2024-05-19 09:05:20.441083,-3,0,98,0,0,0,86,88,141,120,72,133.10,208,-75.00,8.00,-1015.00
2024-05-19 09:05:20.546443,-3,0,103,0,0,0,86,88,140,120,72,133.11,209,-66.00,30.00,-940.00
2024-05-19 09:05:20.645016,-3,0,109,0,0,0,86,88,139,120,72,133.22,209,-40.00,10.00,-969.00
2024-05-19 09:05:20.747150,-3,0,115,0,0,0,86,88,138,120,72,133.17,209,-72.00,44.00,-961.00
2024-05-19 09:05:20.852760,-4,0,121,0,0,0,86,88,138,120,72,133.08,209,-63.00,15.00,-1037.00
2024-05-19 09:05:20.952507,-3,0,127,0,0,0,86,88,137,120,72,133.12,209,-26.00,8.00,-990.00
2024-05-19 09:05:21.053019,-3,0,133,0,0,0,86,88,136,110,72,133.16,209,-55.00,26.00,-898.00
2024-05-19 09:05:21.154943,-3,0,139,0,0,0,86,88,135,110,72,133.14,209,-18.00,40.00,-1047.00
2024-05-19 09:05:21.263535,-3,0,146,0,0,0,86,88,135,110,72,133.17,209,-40.00,30.00,-964.00
2024-05-19 09:05:21.359009,-3,0,152,0,0,0,85,88,135,110,72,133.21,209,-38.00,71.00,-1041.00
2024-05-19 09:05:21.467499,-2,-1,158,0,0,0,85,88,135,110,72,133.19,209,-20.00,61.00,-1002.00
2024-05-19 09:05:21.563326,-2,-1,164,0,0,0,85,88,135,110,72,133.20,210,-16.00,28.00,-977.00
2024-05-19 09:05:21.671972,-2,-1,170,0,0,0,85,88,136,110,72,133.10,210,-85.00,55.00,-1051.00
2024-05-19 09:05:21.767002,-3,-2,176,0,0,0,85,88,136,110,72,133.23,210,34.00,1.00,-941.00
2024-05-19 09:05:21.876742,-2,-2,-177,0,0,0,85,88,137,110,72,133.25,210,36.00,36.00,-1058.00
2024-05-19 09:05:21.971010,-2,-2,-171,0,0,0,85,88,138,110,72,133.28,210,5.00,23.00,-998.00
2024-05-19 09:05:22.081645,-1,-2,-165,-1,0,0,85,88,139,110,72,133.24,210,26.00,24.00,-1016.00
2024-05-19 09:05:22.175008,0,-1,-159,-1,0,0,85,88,140,120,72,133.11,210,86.00,-10.00,-999.00
2024-05-19 09:05:22.286353,0,-1,-153,-1,0,0,85,88,140,120,72,133.16,210,31.00,73.00,-892.00
2024-05-19 09:05:22.379004,1,-2,-147,0,0,0,85,87,141,120,72,133.16,210,15.00,65.00,-996.00
2024-05-19 09:05:22.491140,1,-3,-141,0,0,0,85,87,140,120,72,133.13,210,33.00,49.00,-993.00
2024-05-19 09:05:22.582953,1,-3,-135,0,0,0,85,87,140,120,72,133.06,211,63.00,38.00,-1039.00
2024-05-19 09:05:22.695935,1,-3,-130,0,0,0,85,87,139,120,72,133.12,211,42.00,58.00,-890.00
2024-05-19 09:05:22.736072,2,-3,-124,0,0,0,85,87,138,120,72,133.09,211,51.00,56.00,-1012.00
2024-05-19 09:05:22.900665,3,-3,-118,0,0,0,85,87,138,120,71,133.12,211,-31.00,80.00,-1005.00
2024-05-19 09:05:22.940112,3,-2,-113,0,0,0,85,87,136,110,71,133.15,211,-19.00,67.00,-1031.00
2024-05-19 09:05:23.105537,2,-2,-107,0,0,0,85,87,135,110,71,132.96,211,51.00,35.00,-1115.00
2024-05-19 09:05:23.144117,2,-2,-101,0,0,0,85,87,135,110,71,133.11,211,34.00,71.00,-1021.00
2024-05-19 09:05:23.310337,2,-1,-95,0,0,0,85,87,134,110,71,133.09,211,47.00,17.00,-1039.00
2024-05-19 09:05:23.348371,2,-2,-89,0,0,0,85,88,133,110,71,133.10,211,119.00,12.00,-1043.00
2024-05-19 09:05:23.450067,1,-2,-83,0,0,0,85,88,133,110,71,133.09,211,-11.00,58.00,-1011.00
2024-05-19 09:05:23.618880,3,0,-77,0,0,0,85,88,134,110,71,133.07,212,72.00,15.00,-1008.00
2024-05-19 09:05:23.654025,4,0,-70,0,0,0,85,88,135,110,71,133.10,212,35.00,32.00,-992.00
2024-05-19 09:05:23.756113,3,0,-64,0,0,0,85,88,136,110,71,133.15,212,36.00,47.00,-1072.00
2024-05-19 09:05:23.924713,4,0,-57,0,0,0,85,88,138,110,71,133.15,212,123.00,-3.00,-1043.00
2024-05-19 09:05:23.960825,4,1,-51,0,0,0,85,88,140,110,71,133.02,212,34.00,17.00,-1117.00
2024-05-19 09:05:24.129457,3,2,-45,0,0,-1,85,88,142,110,71,133.09,212,92.00,-28.00,-1090.00
2024-05-19 09:05:24.164910,4,2,-39,0,0,-1,85,88,143,120,71,133.04,212,-21.00,24.00,-1051.00
2024-05-19 09:05:24.336463,3,2,-33,0,0,-1,85,88,143,120,71,133.14,212,115.00,-38.00,-938.00
2024-05-19 09:05:24.368299,3,1,-27,0,0,0,86,88,144,120,71,133.06,212,54.00,-38.00,-932.00
2024-05-19 09:05:24.539118,4,3,-22,0,0,0,86,88,144,120,71,133.21,212,93.00,-32.00,-989.00
2024-05-19 09:05:24.574105,5,4,-18,0,0,0,86,88,143,120,71,133.06,213,49.00,-40.00,-1113.00
2024-05-19 09:05:24.674019,4,4,-15,0,0,0,86,88,143,120,71,133.14,213,-2.00,-26.00,-842.00
2024-05-19 09:05:24.846857,2,3,-13,0,0,1,86,88,141,120,71,133.11,213,102.00,-39.00,-1009.00
2024-05-19 09:05:24.878116,1,3,-12,0,0,0,86,88,140,120,71,133.13,213,67.00,-22.00,-987.00
2024-05-19 09:05:25.051493,2,2,-10,0,0,0,86,88,139,120,71,133.15,213,91.00,-8.00,-1001.00
2024-05-19 09:05:25.082082,3,2,-9,0,0,1,86,88,139,110,71,133.11,213,66.00,-30.00,-1029.00
2024-05-19 09:05:25.256075,4,2,-8,0,0,0,86,88,138,110,71,133.09,213,90.00,-66.00,-1043.00
2024-05-19 09:05:25.285968,4,3,-7,0,0,0,86,88,138,110,71,133.15,213,-41.00,11.00,-961.00
2024-05-19 09:05:25.460920,4,3,-7,0,0,0,85,88,139,110,71,133.08,213,12.00,-35.00,-987.00
2024-05-19 09:05:25.490673,3,3,-7,0,0,0,85,88,139,110,71,133.12,213,55.00,-47.00,-998.00
2024-05-19 09:05:25.592057,3,2,-7,0,0,0,85,88,139,110,71,133.10,214,1.00,-29.00,-932.00
2024-05-19 09:05:25.770641,3,3,-7,0,0,0,85,88,140,120,71,133.15,214,25.00,-42.00,-960.00
2024-05-19 09:05:25.795954,3,3,-7,0,0,0,85,88,141,120,71,133.15,214,144.00,-67.00,-1015.00
2024-05-19 09:05:25.978633,3,2,-7,0,0,0,85,88,141,120,71,133.17,214,82.00,-60.00,-947.00
2024-05-19 09:05:26.000008,3,2,-7,0,0,0,85,88,140,120,71,133.10,214,67.00,-73.00,-962.00
2024-05-19 09:05:26.179774,2,3,-7,0,0,0,85,88,140,120,71,133.09,214,35.00,-52.00,-927.00
2024-05-19 09:05:26.204025,1,3,-7,-1,0,0,85,88,140,120,71,133.14,214,-55.00,-34.00,-1022.00
2024-05-19 09:05:26.382639,0,3,-6,-1,0,0,85,88,140,120,71,133.12,214,-42.00,-23.00,-972.00
2024-05-19 09:05:26.408382,0,3,-7,-1,0,0,85,88,140,120,71,133.10,214,-13.00,-41.00,-1055.00
2024-05-19 09:05:26.587665,0,4,-7,-1,0,0,85,88,140,120,71,133.03,214,24.00,-40.00,-956.00
2024-05-19 09:05:26.612254,0,4,-7,-1,0,0,85,88,140,120,71,133.11,215,21.00,-72.00,-973.00
2024-05-19 09:05:26.663375,0,4,-7,0,0,0,85,88,141,120,71,133.15,215,33.00,-50.00,-1031.00
2024-05-19 09:05:26.792003,0,4,-7,0,0,0,85,88,140,120,71,133.14,215,69.00,-90.00,-1018.00
2024-05-19 09:05:26.866883,0,4,-7,0,0,0,85,88,140,120,71,133.04,215,72.00,-103.00,-1006.00
2024-05-19 09:05:26.996964,0,3,-7,0,0,0,85,88,140,120,71,133.06,215,-87.00,-3.00,-1057.00
2024-05-19 09:05:27.071437,0,3,-7,-1,0,0,85,88,140,120,71,133.12,215,-11.00,-41.00,-996.00
2024-05-19 09:05:27.201671,0,3,-7,0,0,0,85,88,140,120,71,133.09,215,38.00,-49.00,-1029.00
2024-05-19 09:05:27.274868,0,3,-7,0,0,0,85,88,140,120,71,133.17,215,6.00,-43.00,-978.00
2024-05-19 09:05:27.407465,0,3,-7,0,1,0,85,88,139,120,71,133.14,215,29.00,-41.00,-973.00
2024-05-19 09:05:27.478757,0,2,-12,0,0,0,85,88,139,120,71,133.16,215,-36.00,-16.00,-1011.00
2024-05-19 09:05:27.611211,0,1,-18,0,0,0,85,88,139,120,71,133.14,216,-2.00,-21.00,-995.00
2024-05-19 09:05:27.682777,1,1,-23,0,0,0,85,88,138,110,71,133.06,216,-54.00,25.00,-1067.00
2024-05-19 09:05:27.821849,1,1,-29,0,0,0,85,88,138,110,71,133.03,216,-49.00,-9.00,-1021.00
2024-05-19 09:05:27.886757,1,1,-35,0,0,0,85,88,138,110,71,133.10,216,-32.00,-13.00,-1020.00
2024-05-19 09:05:28.021537,1,2,-41,0,0,0,85,88,137,110,71,133.11,216,35.00,-37.00,-963.00
2024-05-19 09:05:28.090716,2,1,-47,0,0,0,85,88,137,110,71,133.11,216,21.00,-14.00,-994.00
2024-05-19 09:05:28.225907,2,0,-54,0,0,0,85,88,136,110,71,133.02,216,27.00,-8.00,-981.00
2024-05-19 09:05:28.294767,2,0,-60,0,0,0,85,88,136,110,71,133.09,216,69.00,-12.00,-998.00
2024-05-19 09:05:28.430432,4,0,-65,0,0,0,85,88,137,110,71,133.07,216,47.00,-38.00,-1084.00
2024-05-19 09:05:28.499673,4,0,-71,0,0,0,85,88,137,110,71,133.07,216,106.00,-33.00,-989.00
2024-05-19 09:05:28.635210,5,0,-76,0,0,0,85,88,138,110,71,132.98,217,15.00,-7.00,-1032.00
2024-05-19 09:05:28.702761,5,0,-81,0,0,0,85,88,139,110,71,133.00,217,66.00,-24.00,-1007.00
2024-05-19 09:05:28.839866,4,0,-87,0,0,0,85,88,140,110,71,133.01,217,44.00,-8.00,-994.00
2024-05-19 09:05:28.906681,4,0,-92,0,0,0,85,88,142,120,71,133.04,217,27.00,21.00,-987.00
2024-05-19 09:05:29.044649,4,0,-98,0,0,0,85,88,142,120,71,133.12,217,82.00,-12.00,-989.00
2024-05-19 09:05:29.111279,4,0,-104,0,0,0,85,88,142,120,71,133.14,217,14.00,13.00,-1004.00
2024-05-19 09:05:29.212743,4,0,-110,0,0,0,85,88,141,120,71,133.03,217,-19.00,52.00,-985.00
2024-05-19 09:05:29.352066,3,0,-116,0,0,0,85,88,142,120,71,133.08,217,75.00,29.00,-1001.00
2024-05-19 09:05:29.417208,3,-1,-122,0,0,0,86,87,141,120,71,133.13,217,123.00,1.00,-995.00
2024-05-19 09:05:29.556717,3,-2,-128,0,0,0,86,87,141,120,71,133.10,217,12.00,77.00,-969.00
2024-05-19 09:05:29.620683,2,-2,-135,0,0,0,86,87,141,120,71,133.20,218,114.00,30.00,-998.00
2024-05-19 09:05:29.722718,2,-2,-141,0,0,0,86,87,140,120,71,133.09,218,46.00,23.00,-1054.00
2024-05-19 09:05:29.863819,1,-3,-148,0,0,0,86,87,140,120,70,133.13,218,39.00,38.00,-1003.00
2024-05-19 09:05:29.926769,0,-3,-155,0,0,0,86,87,140,120,70,133.14,218,26.00,38.00,-909.00
2024-05-19 09:05:30.068713,0,-3,-161,0,0,0,86,87,140,120,70,133.06,218,5.00,54.00,-1075.00
2024-05-19 09:05:30.130629,-1,-2,-168,0,0,0,86,87,141,120,70,133.09,218,-15.00,83.00,-1084.00
2024-05-19 09:05:30.273556,-2,-2,-175,0,0,0,86,87,141,120,70,133.09,218,40.00,50.00,-916.00
2024-05-19 09:05:30.334888,-2,-3,178,0,0,0,86,87,141,120,70,133.06,218,-36.00,65.00,-1029.00
2024-05-19 09:05:30.436648,-1,-3,171,0,0,0,85,88,141,120,70,133.14,218,-31.00,69.00,-913.00
2024-05-19 09:05:30.580757,-1,-3,165,0,0,0,85,88,141,120,70,133.05,218,-71.00,82.00,-959.00
2024-05-19 09:05:30.640737,-1,-2,159,0,0,0,85,88,140,120,70,133.13,219,35.00,25.00,-944.00
2024-05-19 09:05:30.785571,-2,-2,153,0,0,0,85,88,140,120,70,133.17,219,-46.00,41.00,-935.00
2024-05-19 09:05:30.844897,-1,-1,146,0,0,1,85,88,139,120,70,133.11,219,31.00,4.00,-1051.00
2024-05-19 09:05:30.895716,-2,-1,140,0,0,0,85,88,140,110,70,133.11,219,7.00,27.00,-1016.00
2024-05-19 09:05:31.092681,-2,0,134,0,0,0,85,88,139,110,70,133.13,219,-49.00,17.00,-967.00
2024-05-19 09:05:31.100010,-1,0,127,0,0,0,85,88,140,110,70,133.09,219,11.00,22.00,-1107.00
2024-05-19 09:05:31.297513,-1,0,121,0,0,0,85,88,141,110,70,133.12,219,3.00,-21.00,-974.00
2024-05-19 09:05:31.303699,-1,1,115,0,0,0,85,88,141,110,70,133.18,219,-94.00,64.00,-960.00
2024-05-19 09:05:31.502757,-1,2,109,0,0,0,86,87,142,120,70,133.08,219,-20.00,-1.00,-1059.00
2024-05-19 09:05:31.507897,-3,1,102,0,0,0,86,87,144,120,70,133.08,219,-114.00,21.00,-997.00
2024-05-19 09:05:31.707118,-3,1,96,0,0,0,86,87,146,120,70,133.00,220,-56.00,13.00,-1045.00
2024-05-19 09:05:31.711752,-3,2,90,0,0,0,86,87,146,120,70,133.05,220,-114.00,38.00,-921.00
2024-05-19 09:05:31.911844,-3,2,84,0,0,0,86,87,147,120,70,133.13,220,-14.00,-31.00,-950.00
2024-05-19 09:05:31.915561,-3,3,78,0,0,0,86,87,147,120,70,133.14,220,-45.00,0.00,-1019.00
2024-05-19 09:05:32.017800,-3,3,72,0,0,0,86,87,147,120,70,133.14,220,-50.00,-46.00,-1012.00
2024-05-19 09:05:32.119821,-3,3,66,0,0,0,86,87,148,120,70,133.19,220,-117.00,-16.00,-1065.00
2024-05-19 09:05:32.221760,-2,3,60,0,0,0,86,87,148,120,70,133.22,220,-68.00,-13.00,-951.00
2024-05-19 09:05:32.323745,-2,3,54,0,0,0,86,87,148,120,70,133.20,220,-99.00,-21.00,-987.00
2024-05-19 09:05:32.425902,-1,3,48,-1,0,0,84,88,148,120,70,133.30,220,34.00,-60.00,-1034.00
2024-05-19 09:05:32.528121,-2,3,42,0,0,0,84,88,148,120,70,133.35,220,-1.00,-52.00,-1026.00
2024-05-19 09:05:32.664480,0,3,36,0,0,0,84,88,148,120,70,133.32,221,31.00,-67.00,-950.00
2024-05-19 09:05:32.731735,0,3,30,0,0,0,84,88,148,120,70,133.27,221,-3.00,-36.00,-1035.00
2024-05-19 09:05:32.833959,1,3,24,0,0,0,84,88,148,120,70,133.27,221,-1.00,-44.00,-915.00
2024-05-19 09:05:32.936168,1,2,18,-1,0,0,84,88,148,120,70,133.26,221,3.00,-60.00,-1043.00
2024-05-19 09:05:33.038423,1,2,12,0,0,0,84,88,149,120,70,133.29,221,-21.00,-43.00,-1012.00
2024-05-19 09:05:33.140930,1,3,7,-1,0,0,84,88,149,120,70,133.25,221,19.00,-68.00,-1002.00
2024-05-19 09:05:33.243739,0,3,3,0,0,0,84,88,150,120,70,133.25,221,15.00,-71.00,-1052.00
2024-05-19 09:05:33.343706,1,3,1,0,0,0,84,88,149,120,70,133.23,221,26.00,-65.00,-1013.00
2024-05-19 09:05:33.445631,1,4,-2,0,0,0,85,88,149,120,70,133.27,221,28.00,-55.00,-951.00
2024-05-19 09:05:33.550387,2,4,-4,0,0,0,85,88,148,120,70,133.23,222,88.00,-67.00,-1046.00
2024-05-19 09:05:33.650280,2,4,-5,0,0,0,85,88,147,120,70,133.23,222,-11.00,-34.00,-990.00
2024-05-19 09:05:33.751906,1,3,-6,0,0,0,85,88,146,120,70,133.26,222,81.00,-38.00,-983.00
2024-05-19 09:05:33.857682,1,3,-6,-1,0,0,85,88,145,120,70,133.24,222,37.00,-31.00,-1026.00
2024-05-19 09:05:33.955809,0,3,-6,0,0,1,85,88,143,120,70,133.18,222,55.00,-44.00,-971.00
2024-05-19 09:05:34.063229,1,3,-7,0,0,1,85,88,142,120,70,133.15,222,109.00,-45.00,-1072.00
2024-05-19 09:05:34.159662,2,3,-7,0,0,0,85,88,142,110,70,133.11,222,38.00,-28.00,-1057.00
2024-05-19 09:05:34.267272,2,3,-6,0,0,0,85,88,141,110,70,133.19,222,55.00,-25.00,-1024.00
2024-05-19 09:05:34.363706,1,3,-6,0,0,0,85,88,140,110,70,133.15,222,-5.00,-24.00,-1061.00
2024-05-19 09:05:34.465865,1,3,-6,0,0,0,86,88,140,110,70,133.10,222,-9.00,-44.00,-1066.00
2024-05-19 09:05:34.574486,1,3,-6,0,0,0,86,88,140,110,70,133.11,223,-37.00,-13.00,-1029.00
2024-05-19 09:05:34.669877,1,3,-6,0,0,0,86,88,139,110,70,133.14,223,75.00,-64.00,-935.00
2024-05-19 09:05:34.779188,1,4,-6,0,0,0,86,88,138,110,70,133.12,223,38.00,-59.00,-1000.00
2024-05-19 09:05:34.822546,2,4,-6,0,0,0,86,88,138,110,70,133.17,223,100.00,-108.00,-1020.00
2024-05-19 09:05:34.985784,2,4,-6,0,0,0,86,88,138,110,70,133.14,223,46.00,-54.00,-1099.00
2024-05-19 09:05:35.026721,2,4,-6,0,0,0,86,88,137,110,70,133.14,223,69.00,-77.00,-971.00
2024-05-19 09:05:35.128564,2,4,-6,0,0,0,86,88,136,110,70,133.15,223,-52.00,-49.00,-951.00
2024-05-19 09:05:35.291275,2,4,-6,0,0,0,86,88,137,110,70,133.04,223,-41.00,-28.00,-931.00
2024-05-19 09:05:35.332611,2,4,-6,0,0,0,86,88,136,110,70,133.02,223,2.00,-40.00,-1074.00
2024-05-19 09:05:35.436125,2,4,-6,0,0,0,85,87,136,110,70,133.05,223,-39.00,-30.00,-1039.00
2024-05-19 09:05:35.536646,1,4,-6,0,0,0,85,87,136,110,70,133.05,224,6.00,-39.00,-1005.00
2024-05-19 09:05:35.668648,2,4,-6,0,0,0,85,87,135,110,70,133.01,224,-26.00,-34.00,-1004.00
2024-05-19 09:05:35.740464,1,4,-6,0,0,0,85,87,135,110,70,133.03,224,47.00,-56.00,-954.00
2024-05-19 09:05:35.905830,0,1,-6,0,0,0,85,87,136,110,69,133.17,224,64.00,-71.00,-1154.00
2024-05-19 09:05:35.944667,0,-1,-7,0,0,-6,85,87,138,110,69,133.37,224,48.00,-77.00,-1689.00
2024-05-19 09:05:36.110385,-1,-24,-6,0,-1,-12,85,87,149,120,69,133.43,224,-51.00,73.00,-1380.00
2024-05-19 09:05:36.148394,-3,-129,-4,0,-10,-9,85,87,426,140,69,133.52,224,-2.00,507.00,-1065.00
2024-05-19 09:05:36.315156,5,98,-5,0,-11,6,85,87,524,140,69,133.27,224,-74.00,607.00,-1057.00
2024-05-19 09:05:36.352420,0,6,-14,1,-4,10,85,87,195,130,69,133.65,224,-3.00,84.00,-1470.00
2024-05-19 09:05:36.454384,0,3,-13,2,-5,8,85,88,150,120,69,133.38,224,25.00,-82.00,-1312.00
2024-05-19 09:05:36.622567,1,4,-10,2,-4,4,85,88,146,110,69,133.26,225,-34.00,-6.00,-1407.00
2024-05-19 09:05:36.658335,2,2,-6,2,-3,1,85,88,146,110,69,133.18,225,-7.00,-6.00,-1236.00
2024-05-19 09:05:36.827161,2,1,-6,1,-3,0,85,88,146,110,69,133.25,225,39.00,-32.00,-1098.00
2024-05-19 09:05:36.862573,2,1,-6,1,-3,0,85,88,148,110,69,133.16,225,45.00,-26.00,-1079.00
2024-05-19 09:05:37.031964,1,1,-6,1,-3,0,85,88,150,110,69,133.14,225,-16.00,-2.00,-1026.00
2024-05-19 09:05:37.067072,0,2,-6,0,-3,0,85,88,152,110,69,133.26,225,-83.00,17.00,-1027.00
2024-05-19 09:05:37.237104,0,2,-6,1,-3,0,85,88,154,110,69,133.27,225,5.00,-10.00,-963.00
2024-05-19 09:05:37.270450,1,3,-6,1,-3,0,85,88,156,110,69,133.31,225,-14.00,-29.00,-912.00
2024-05-19 09:05:37.441545,1,3,-6,1,-3,0,85,88,156,120,69,133.26,225,-22.00,-21.00,-945.00
2024-05-19 09:05:37.483050,1,3,-6,0,-2,0,86,87,158,120,69,133.25,225,39.00,-34.00,-981.00
2024-05-19 09:05:37.576501,1,3,-6,0,-2,0,86,87,157,120,69,133.28,226,-62.00,4.00,-933.00
2024-05-19 09:05:37.748772,0,3,-6,0,-2,1,86,87,157,120,69,133.30,226,-56.00,1.00,-1016.00
2024-05-19 09:05:37.780309,0,3,-6,0,-1,1,86,87,155,120,69,133.22,226,-61.00,9.00,-974.00
2024-05-19 09:05:37.953583,0,2,-6,0,-1,1,86,87,153,120,69,133.30,226,-8.00,-12.00,-993.00
2024-05-19 09:05:37.984314,1,4,-6,0,-1,1,86,87,153,120,69,133.23,226,57.00,-56.00,-954.00
2024-05-19 09:05:38.158791,1,4,-6,0,-1,1,86,87,152,110,69,133.22,226,55.00,-60.00,-992.00
2024-05-19 09:05:38.188925,0,3,-6,0,0,1,86,87,151,110,69,133.20,226,-106.00,14.00,-998.00
2024-05-19 09:05:38.363137,0,3,-6,0,0,1,86,87,149,110,69,133.23,226,-30.00,-8.00,-1001.00
2024-05-19 09:05:38.363206,0,3,-6,0,0,0,86,87,147,110,69,133.21,226,-85.00,18.00,-1071.00
2024-05-19 09:05:38.494305,0,4,-6,0,0,0,85,88,145,110,69,133.15,226,-59.00,-25.00,-1067.00
2024-05-19 09:05:38.670388,0,4,-6,0,0,0,85,88,145,110,69,133.19,227,30.00,-28.00,-1036.00
2024-05-19 09:05:38.698328,1,4,-7,0,0,0,85,88,144,110,69,133.13,227,-85.00,-5.00,-1081.00
2024-05-19 09:05:38.875145,1,4,-7,0,0,0,85,88,142,110,68,133.20,227,0.00,-24.00,-978.00
2024-05-19 09:05:38.875200,1,4,-7,0,0,0,85,88,141,110,68,133.12,227,-54.00,-23.00,-1025.00
2024-05-19 09:05:38.953552,0,3,-7,0,0,0,85,88,140,110,68,133.06,227,71.00,-67.00,-991.00
2024-05-19 09:05:39.079892,0,3,-7,0,0,0,85,88,138,110,68,133.12,227,-12.00,-66.00,-1071.00
2024-05-19 09:05:39.157364,1,4,-7,0,0,0,85,88,138,110,68,133.06,227,-17.00,-43.00,-1060.00
2024-05-19 09:05:39.259609,1,4,-7,0,0,0,85,88,137,110,68,133.03,227,-28.00,-15.00,-1044.00
2024-05-19 09:05:39.387261,1,4,-7,0,0,0,85,88,135,110,68,133.10,227,-11.00,-50.00,-939.00
2024-05-19 09:05:39.463664,0,3,-7,0,0,0,86,88,134,100,68,132.99,227,8.00,-35.00,-1001.00
2024-05-19 09:05:39.592053,0,3,-7,0,0,0,86,88,133,100,68,133.10,228,49.00,-65.00,-1044.00
2024-05-19 09:05:39.667737,1,3,-7,0,0,0,86,88,133,100,68,133.05,228,-48.00,-43.00,-1044.00
2024-05-19 09:05:39.796867,2,4,-7,0,0,0,86,88,132,100,68,133.13,228,5.00,-58.00,-999.00
2024-05-19 09:05:39.871663,3,4,-7,0,0,0,86,88,132,100,68,133.09,228,-42.00,-27.00,-1104.00
2024-05-19 09:05:40.004338,2,3,-7,0,0,0,86,88,133,100,68,133.02,228,-17.00,-38.00,-1027.00
2024-05-19 09:05:40.075509,2,3,-7,0,0,0,86,88,133,100,68,133.03,228,75.00,-54.00,-1023.00
2024-05-19 09:05:40.207961,2,3,-7,0,1,-1,86,88,134,100,68,133.01,228,73.00,-78.00,-965.00
2024-05-19 09:05:40.279667,2,2,-7,0,0,0,86,88,136,100,68,133.07,228,-13.00,-36.00,-967.00
2024-05-19 09:05:40.411052,2,2,-7,0,1,0,86,88,136,100,68,133.05,228,44.00,-36.00,-895.00
2024-05-19 09:05:40.483466,2,2,-6,0,1,0,85,88,138,100,68,133.02,228,2.00,-40.00,-1053.00
2024-05-19 09:05:40.616031,2,2,-7,0,1,-1,85,88,140,100,68,133.03,229,112.00,-88.00,-961.00
2024-05-19 09:05:40.687561,1,2,-7,0,1,-1,85,88,141,110,68,133.12,229,26.00,-29.00,-835.00
2024-05-19 09:05:40.821085,1,2,-7,0,1,0,85,88,142,110,68,133.12,229,48.00,-61.00,-1123.00
2024-05-19 09:05:40.891334,1,2,-7,0,0,0,85,88,143,110,68,133.07,229,75.00,-87.00,-992.00
2024-05-19 09:05:41.025880,1,2,-7,0,0,0,85,88,144,110,68,133.14,229,18.00,-24.00,-928.00
2024-05-19 09:05:41.095509,2,2,-7,0,0,0,85,88,146,110,68,133.17,229,122.00,-87.00,-983.00
2024-05-19 09:05:41.230471,1,2,-7,0,0,0,85,88,147,110,68,133.12,229,4.00,-25.00,-944.00
2024-05-19 09:05:41.301788,2,2,-7,0,0,0,85,88,148,110,68,133.24,229,-15.00,-54.00,-953.00
2024-05-19 09:05:41.401508,1,3,-7,0,0,0,85,88,148,110,68,133.16,229,73.00,-35.00,-1024.00
2024-05-19 09:05:41.503353,0,3,-7,0,0,0,85,88,149,110,68,133.26,229,0.00,-49.00,-971.00
2024-05-19 09:05:41.640124,0,3,-7,0,0,0,85,88,149,110,68,133.20,230,71.00,-49.00,-1016.00
2024-05-19 09:05:41.707654,0,2,-7,0,0,0,85,88,149,110,68,133.12,230,27.00,-18.00,-997.00
2024-05-19 09:05:41.844841,1,1,-7,0,0,0,85,88,149,110,68,133.12,230,14.00,-45.00,-924.00
2024-05-19 09:05:41.911540,1,2,-7,0,0,0,85,88,149,110,68,133.18,230,-5.00,-41.00,-975.00
2024-05-19 09:05:42.049540,1,2,-7,0,0,0,85,88,147,110,68,133.05,230,-22.00,-50.00,-1023.00
2024-05-19 09:05:42.121119,0,2,-7,0,0,0,85,88,145,110,68,133.09,230,12.00,-6.00,-1028.00
2024-05-19 09:05:42.217415,0,1,-7,0,0,0,85,88,144,110,68,133.09,230,25.00,-26.00,-928.00
2024-05-19 09:05:42.356663,0,1,-7,0,0,1,85,88,141,110,68,133.11,230,81.00,-50.00,-999.00
2024-05-19 09:05:42.421303,0,2,-7,0,0,0,85,88,140,110,68,133.35,230,0.00,-71.00,-1541.00
2024-05-19 09:05:42.562767,-1,3,-7,1,0,-6,86,89,145,110,68,133.33,230,73.00,-101.00,-1817.00
2024-05-19 09:05:42.625227,0,24,-6,2,0,-12,86,89,183,120,68,133.18,231,42.00,94.00,-1628.00
2024-05-19 09:05:42.676700,-2,129,-7,3,7,-8,86,89,507,130,68,133.25,231,69.00,793.00,-1068.00
2024-05-19 09:05:42.868647,3,-105,-7,3,7,6,86,89,6553,130,68,133.30,231,63.00,807.00,-912.00
2024-05-19 09:05:42.880234,0,0,0,3,1,11,86,89,153,120,68,133.35,231,107.00,392.00,-1162.00
2024-05-19 09:05:43.074039,-7,25,6,3,5,10,86,89,160,110,68,132.99,231,117.00,59.00,-1060.00
2024-05-19 09:05:43.084259,2,-3,17,4,7,6,86,89,131,110,68,133.32,231,-98.00,-109.00,-1619.00
2024-05-19 09:05:43.278258,7,-6,26,3,4,2,86,89,128,100,68,133.10,231,-57.00,-36.00,-1400.00
2024-05-19 09:05:43.288046,6,-4,29,2,1,0,86,89,126,100,68,132.96,231,-77.00,-4.00,-1251.00
2024-05-19 09:05:43.483156,2,0,26,2,0,-2,86,89,126,100,68,133.04,231,-6.00,-34.00,-1104.00
2024-05-19 09:05:43.491976,0,1,15,2,0,-2,86,88,128,100,68,133.17,231,34.00,-62.00,-965.00
2024-05-19 09:05:43.687899,1,2,4,1,0,-2,86,88,129,100,68,133.11,232,105.00,-69.00,-1004.00
2024-05-19 09:05:43.696103,1,0,-6,1,0,-2,86,88,132,100,68,132.99,232,78.00,-57.00,-1092.00
2024-05-19 09:05:43.892734,1,0,-8,1,0,-2,86,88,133,100,68,133.06,232,55.00,-65.00,-920.00
2024-05-19 09:05:43.899945,3,-1,-8,1,0,-1,86,88,134,100,68,133.10,232,11.00,1.00,-917.00
2024-05-19 09:05:44.097524,3,-1,-8,0,0,-1,86,88,135,100,68,133.07,232,3.00,-5.00,-992.00
