TS,pitch,roll,yaw,vgx,vgy,vgz,templ,temph,tof,h,bat,baro,time,agx,agy,agz
2024-05-19 09:06:29.550496,0,0,-7,0,0,0,87,89,10,0,64,131.46,254,2.00,5.00,-999.00
2024-05-19 09:06:29.652461,0,0,-7,0,0,0,87,89,10,0,64,131.46,254,2.00,5.00,-999.00
2024-05-19 09:06:29.768120,0,0,-7,0,0,0,87,90,10,0,64,131.48,254,2.00,4.00,-998.00
2024-05-19 09:06:29.856410,0,0,-7,0,0,0,87,90,10,0,64,131.46,254,2.00,4.00,-1000.00
2024-05-19 09:06:29.972736,0,0,-7,0,0,0,87,90,10,0,64,131.49,254,3.00,4.00,-1000.00
2024-05-19 09:06:30.060454,0,0,-7,0,0,0,87,90,10,0,64,131.48,254,2.00,7.00,-1000.00
2024-05-19 09:06:30.177470,0,0,-7,0,0,0,87,90,10,0,64,131.45,254,4.00,4.00,-1002.00
2024-05-19 09:06:30.264052,0,0,-7,0,0,0,87,90,10,0,64,131.53,254,1.00,5.00,-999.00
2024-05-19 09:06:30.382159,0,0,-7,0,0,0,87,90,10,0,64,131.53,254,4.00,4.00,-999.00
2024-05-19 09:06:30.468041,0,0,-7,0,0,0,87,90,10,0,64,131.49,254,3.00,3.00,-999.00
2024-05-19 09:06:30.586986,0,0,-7,0,0,0,87,90,10,0,64,131.51,254,2.00,5.00,-1001.00
2024-05-19 09:06:30.671882,0,0,-7,0,0,0,87,90,10,0,64,131.48,254,2.00,3.00,-1000.00
2024-05-19 09:06:30.791861,0,0,-7,0,0,0,87,89,10,0,64,131.45,254,3.00,4.00,-999.00
2024-05-19 09:06:30.875934,0,0,-7,0,0,0,87,89,10,0,64,131.48,254,2.00,3.00,-998.00
2024-05-19 09:06:30.996641,0,0,-7,0,0,0,87,89,10,0,64,131.45,254,2.00,3.00,-999.00
2024-05-19 09:06:31.080102,0,0,-7,0,0,0,87,89,10,0,64,131.47,254,2.00,3.00,-998.00
2024-05-19 09:06:31.201490,0,0,-7,0,0,0,87,89,10,0,64,131.45,254,1.00,4.00,-999.00
2024-05-19 09:06:31.285374,0,0,-7,0,0,0,87,89,10,0,64,131.45,254,2.00,4.00,-1002.00
2024-05-19 09:06:31.406256,0,0,-7,0,0,0,87,89,10,0,64,131.45,254,1.00,4.00,-1000.00
2024-05-19 09:06:31.489151,0,0,-7,0,0,0,87,89,10,0,64,131.46,254,1.00,4.00,-999.00
2024-05-19 09:06:31.590903,0,0,-7,0,0,0,87,89,10,0,64,131.50,254,2.00,4.00,-1000.00
2024-05-19 09:06:31.693926,0,0,-7,0,0,0,87,89,10,0,64,131.50,254,-13.00,18.00,-1004.00
2024-05-19 09:06:31.795851,0,0,-7,0,0,0,87,89,10,0,64,131.50,254,10.00,26.00,-994.00
2024-05-19 09:06:31.918086,0,0,-6,0,0,0,87,89,10,0,64,131.50,254,20.00,34.00,-994.00
2024-05-19 09:06:32.000295,0,0,-6,0,0,0,87,89,10,0,64,131.50,254,-19.00,-15.00,-1030.00
2024-05-19 09:06:32.122869,0,0,-6,0,0,0,87,89,10,0,64,131.50,254,17.00,-23.00,-1053.00
2024-05-19 09:06:32.203853,-1,3,-7,0,0,0,87,89,10,0,64,131.50,254,-5.00,6.00,-1151.00
2024-05-19 09:06:32.254853,-2,4,-7,0,0,-1,87,89,10,0,64,131.50,254,16.00,-23.00,-1317.00
2024-05-19 09:06:32.430757,-2,1,-7,1,1,-4,87,89,10,0,64,131.50,254,35.00,-11.00,-1294.00
2024-05-19 09:06:32.460570,2,-2,-7,1,1,-7,87,89,17,10,64,131.89,254,8.00,-67.00,-1102.00
2024-05-19 09:06:32.634860,3,-4,-7,0,0,-8,87,89,25,10,64,132.01,254,50.00,-58.00,-1024.00
2024-05-19 09:06:32.665269,1,-1,-7,0,0,-8,87,89,35,20,64,132.21,255,-41.00,-15.00,-924.00
2024-05-19 09:06:32.765345,0,0,-7,0,0,-8,87,89,41,30,64,132.17,255,-58.00,-14.00,-989.00
2024-05-19 09:06:32.942679,0,1,-7,0,0,-7,87,89,50,40,64,132.19,255,5.00,3.00,-1014.00
2024-05-19 09:06:32.969145,0,0,-7,0,0,-6,87,89,58,40,64,132.19,255,3.00,-25.00,-821.00
2024-05-19 09:06:33.146861,0,0,-7,0,0,-5,87,89,62,50,64,132.42,255,-25.00,-7.00,-836.00
2024-05-19 09:06:33.173133,0,0,-7,0,0,-4,87,89,67,50,64,132.45,255,13.00,-15.00,-912.00
2024-05-19 09:06:33.351674,0,1,-7,0,0,-2,87,89,72,60,64,132.44,255,36.00,-35.00,-863.00
2024-05-19 09:06:33.377063,0,1,-7,0,0,-2,87,89,75,60,64,132.49,255,7.00,14.00,-1052.00
2024-05-19 09:06:33.556794,0,1,-7,0,0,-1,87,89,77,60,64,132.58,255,42.00,-28.00,-888.00
2024-05-19 09:06:33.581111,0,1,-7,0,0,0,87,89,78,60,64,132.59,255,14.00,-23.00,-958.00
2024-05-19 09:06:33.682762,0,0,-7,0,0,0,87,89,79,60,64,132.60,256,-21.00,-5.00,-1010.00
2024-05-19 09:06:33.863572,0,0,-7,0,0,0,86,89,80,60,64,132.56,256,8.00,17.00,-1023.00
2024-05-19 09:06:33.887102,-1,0,-7,0,0,0,86,89,80,60,64,132.58,256,-19.00,17.00,-1036.00
2024-05-19 09:06:34.064609,0,0,-7,0,0,0,86,89,80,70,64,132.52,256,-15.00,-23.00,-961.00
2024-05-19 09:06:34.090693,0,0,-6,0,0,0,86,89,80,70,64,132.56,256,15.00,2.00,-974.00
2024-05-19 09:06:34.273192,0,0,-6,0,0,0,86,89,79,70,64,132.53,256,-36.00,-12.00,-1023.00
2024-05-19 09:06:34.294727,1,0,-7,0,0,0,86,89,78,70,64,132.51,256,-32.00,-3.00,-1076.00
2024-05-19 09:06:34.478132,1,0,-7,0,0,0,86,89,77,70,64,132.46,256,-15.00,14.00,-970.00
2024-05-19 09:06:34.499429,0,0,-7,0,0,0,86,89,76,70,64,132.53,256,6.00,-1.00,-972.00
2024-05-19 09:06:34.683448,0,0,-7,0,0,0,86,89,75,60,64,132.46,256,13.00,-17.00,-1025.00
2024-05-19 09:06:34.703032,0,0,-7,0,0,0,86,89,74,60,64,132.45,257,-65.00,0.00,-1086.00
2024-05-19 09:06:34.887563,0,0,-7,0,0,0,87,90,74,60,64,132.44,257,18.00,-16.00,-911.00
2024-05-19 09:06:34.907562,-1,0,-7,0,0,0,87,90,73,60,64,132.51,257,-31.00,6.00,-1067.00
2024-05-19 09:06:35.092707,-1,0,-7,0,0,0,87,90,73,60,64,132.46,257,-68.00,25.00,-1048.00
2024-05-19 09:06:35.111222,-1,0,-7,0,0,0,87,90,73,60,64,132.46,257,-28.00,4.00,-1019.00
2024-05-19 09:06:35.297243,-1,0,-7,0,0,0,87,90,72,60,64,132.43,257,-5.00,-7.00,-986.00
2024-05-19 09:06:35.314764,-1,0,-7,0,0,0,87,90,73,60,64,132.45,257,-61.00,-11.00,-971.00
2024-05-19 09:06:35.502106,-2,0,-7,0,0,0,87,90,73,60,64,132.50,257,10.00,-40.00,-985.00
2024-05-19 09:06:35.520281,-2,0,-7,0,0,0,87,90,74,60,64,132.49,257,21.00,-27.00,-1030.00
2024-05-19 09:06:35.620865,-1,1,-7,0,0,0,87,90,76,60,64,132.47,257,-26.00,-30.00,-1104.00
2024-05-19 09:06:35.671769,-1,0,-7,0,0,0,87,90,77,60,64,132.58,258,-61.00,-9.00,-995.00
2024-05-19 09:06:35.825314,-1,0,-7,0,0,0,88,90,78,60,64,132.46,258,-64.00,39.00,-1042.00
2024-05-19 09:06:36.014215,-1,0,-7,0,0,-1,88,90,80,60,64,132.57,258,-53.00,-13.00,-1012.00
2024-05-19 09:06:36.014470,-1,0,-7,0,0,0,88,90,80,70,64,132.62,258,-22.00,-21.00,-942.00
2024-05-19 09:06:36.079964,-2,0,-7,0,0,0,88,90,81,70,64,132.50,258,1.00,-24.00,-1023.00
2024-05-19 09:06:36.219130,-2,0,-7,0,0,0,88,90,81,70,64,132.58,258,-26.00,-16.00,-915.00
2024-05-19 09:06:36.283773,-2,0,-7,0,0,0,88,90,82,70,64,132.59,258,-119.00,6.00,-1053.00
2024-05-19 09:06:36.423914,-3,0,-7,0,0,0,88,90,82,70,64,132.54,258,-73.00,24.00,-968.00
2024-05-19 09:06:36.487858,-4,0,-7,0,0,0,88,90,82,70,64,132.51,258,-45.00,-17.00,-970.00
2024-05-19 09:06:36.628540,-4,0,-7,0,0,0,88,90,82,70,64,132.57,258,-103.00,-8.00,-1121.00
2024-05-19 09:06:36.691807,-1,0,-7,0,0,0,88,90,83,70,64,132.53,259,88.00,-69.00,-1013.00
2024-05-19 09:06:36.833418,0,1,-7,1,0,0,87,90,85,70,64,132.57,259,-56.00,-11.00,-929.00
2024-05-19 09:06:36.895909,0,2,-7,0,0,0,87,90,85,70,64,132.55,259,-14.00,-5.00,-969.00
2024-05-19 09:06:37.041796,0,1,-7,0,0,0,87,90,86,70,64,132.54,259,2.00,-23.00,-1064.00
2024-05-19 09:06:37.100124,0,1,-7,0,0,0,87,90,87,70,64,132.56,259,-79.00,5.00,-1021.00
2024-05-19 09:06:37.243701,-2,0,-7,0,0,0,87,90,88,70,64,132.48,259,40.00,-28.00,-907.00
2024-05-19 09:06:37.304122,-1,0,-7,0,0,0,87,90,88,70,64,132.55,259,-3.00,-7.00,-987.00
2024-05-19 09:06:37.405704,0,0,-7,0,0,0,87,90,87,70,64,132.51,259,7.00,-17.00,-900.00
2024-05-19 09:06:37.507713,0,0,-7,0,0,0,87,90,87,70,64,132.54,259,7.00,-26.00,-1056.00
2024-05-19 09:06:37.652762,-1,0,-7,0,0,0,87,90,87,70,64,132.59,259,-44.00,35.00,-1033.00
2024-05-19 09:06:37.711853,-1,0,-7,0,0,-1,87,90,88,70,64,132.60,260,53.00,3.00,-1088.00
2024-05-19 09:06:37.857246,-1,-1,-7,0,0,-2,87,88,90,70,64,132.63,260,-13.00,-17.00,-1100.00
2024-05-19 09:06:37.915869,-1,-1,-7,0,0,-2,87,88,93,80,64,132.64,260,30.00,-5.00,-1123.00
2024-05-19 09:06:38.062053,-1,-1,-7,0,0,-3,87,88,95,80,64,132.62,260,-51.00,-20.00,-1044.00
2024-05-19 09:06:38.119683,-2,-1,-7,0,0,-4,87,88,99,80,64,132.66,260,-19.00,-3.00,-1044.00
2024-05-19 09:06:38.267163,-2,-1,-6,0,0,-4,87,88,104,90,64,132.71,260,-79.00,36.00,-1053.00
2024-05-19 09:06:38.323613,-2,-1,-6,0,0,-4,87,88,108,90,64,132.69,260,78.00,-58.00,-997.00
2024-05-19 09:06:38.472407,-1,-1,-6,0,0,-4,87,88,113,100,64,132.81,260,70.00,-15.00,-1011.00
2024-05-19 09:06:38.527733,0,0,-6,0,0,-5,87,88,118,100,64,132.84,260,33.00,-38.00,-967.00
2024-05-19 09:06:38.677858,0,0,-6,0,0,-5,87,88,124,110,64,132.94,260,32.00,0.00,-1023.00
2024-05-19 09:06:38.731746,0,0,-7,0,0,-5,87,88,130,110,64,132.94,261,9.00,-17.00,-934.00
2024-05-19 09:06:38.881323,0,0,-7,0,0,-5,87,89,135,120,64,132.97,261,83.00,-41.00,-965.00
2024-05-19 09:06:38.935690,0,0,-7,0,0,-5,87,89,139,120,64,133.06,261,28.00,-6.00,-974.00
2024-05-19 09:06:39.086254,0,0,-7,0,0,-4,87,89,144,130,64,133.06,261,36.00,-16.00,-951.00
2024-05-19 09:06:39.139675,0,0,-7,0,0,-4,87,89,148,130,64,133.12,261,14.00,-15.00,-994.00
2024-05-19 09:06:39.290887,0,0,-7,0,0,-4,87,89,153,130,64,133.10,261,-87.00,41.00,-1021.00
2024-05-19 09:06:39.343652,0,0,-7,0,0,-3,87,89,158,140,64,133.30,261,30.00,-38.00,-947.00
2024-05-19 09:06:39.495556,0,0,-7,0,0,-3,87,89,161,140,64,133.24,261,-53.00,21.00,-950.00
2024-05-19 09:06:39.496500,0,0,-7,0,0,-3,87,89,164,150,64,133.22,261,7.00,-5.00,-918.00
2024-05-19 09:06:39.701181,0,0,-7,0,0,-3,87,89,168,150,64,133.38,261,19.00,-22.00,-994.00
2024-05-19 09:06:39.701342,0,0,-7,0,0,-2,87,89,170,150,64,133.32,262,38.00,-25.00,-957.00
2024-05-19 09:06:39.803179,0,0,-7,0,0,-2,87,89,173,160,64,133.39,262,-18.00,-11.00,-958.00
2024-05-19 09:06:39.905410,0,0,-7,0,0,-2,87,89,174,160,64,133.31,262,-13.00,-11.00,-1032.00
2024-05-19 09:06:40.007312,0,0,-7,0,0,-2,87,89,177,160,64,133.35,262,-47.00,-7.00,-927.00
2024-05-19 09:06:40.110411,0,0,-7,0,0,-1,87,89,179,160,64,133.44,262,-29.00,-11.00,-1035.00
2024-05-19 09:06:40.210522,0,0,-7,0,-1,-1,87,89,180,160,64,133.42,262,94.00,-26.00,-967.00
2024-05-19 09:06:40.314949,1,1,-7,0,-1,-1,87,89,182,170,64,133.45,262,114.00,-55.00,-913.00
2024-05-19 09:06:40.414973,1,1,-7,0,0,-1,87,89,181,170,64,133.44,262,92.00,-29.00,-947.00
2024-05-19 09:06:40.519768,2,1,-7,1,-1,0,87,89,183,170,64,133.41,262,-24.00,-5.00,-979.00
2024-05-19 09:06:40.619119,3,1,-7,0,0,0,87,89,184,170,64,133.40,262,57.00,-25.00,-970.00
2024-05-19 09:06:40.724821,1,1,-7,0,0,0,87,89,183,170,64,133.43,263,-34.00,-33.00,-1018.00
2024-05-19 09:06:40.822619,0,1,-7,0,-1,0,88,89,185,170,64,133.43,263,9.00,-34.00,-960.00
2024-05-19 09:06:40.929514,1,2,-7,0,-1,0,88,89,185,170,64,133.43,263,92.00,-69.00,-967.00
2024-05-19 09:06:41.027128,1,3,-7,0,0,0,88,89,186,170,64,133.44,263,12.00,-21.00,-999.00
2024-05-19 09:06:41.129015,1,2,-7,0,0,0,88,89,187,170,64,133.44,263,1.00,-33.00,-1029.00
2024-05-19 09:06:41.236612,1,1,-7,0,0,0,88,89,188,170,64,133.46,263,107.00,-59.00,-963.00
2024-05-19 09:06:41.332716,1,2,-7,0,0,0,88,89,189,170,64,133.44,263,54.00,-40.00,-966.00
2024-05-19 09:06:41.441597,1,2,-7,0,0,0,88,89,190,170,64,133.47,263,55.00,-63.00,-1050.00
2024-05-19 09:06:41.536647,2,2,-7,0,0,0,88,89,190,170,64,133.43,263,80.00,-29.00,-960.00
2024-05-19 09:06:41.647175,3,2,-7,0,0,0,88,89,191,170,64,133.52,264,93.00,-53.00,-1028.00
2024-05-19 09:06:41.741089,3,1,-6,0,0,0,88,89,192,170,64,133.51,264,-14.00,0.00,-1056.00
2024-05-19 09:06:41.850963,2,1,-6,0,0,0,86,88,193,170,64,133.51,264,75.00,-82.00,-926.00
2024-05-19 09:06:41.944528,1,2,-6,0,0,0,86,88,194,170,64,133.50,264,46.00,-54.00,-900.00
2024-05-19 09:06:42.055847,1,1,-7,0,0,0,86,88,191,170,64,133.52,264,2.00,-46.00,-1002.00
2024-05-19 09:06:42.148674,1,2,-7,0,0,0,86,88,192,170,64,133.44,264,-16.00,-58.00,-931.00
2024-05-19 09:06:42.260966,0,2,-7,0,0,0,86,88,191,170,64,133.49,264,34.00,-40.00,-1025.00
2024-05-19 09:06:42.352556,0,2,-7,0,0,0,86,88,190,170,64,133.52,264,-29.00,-45.00,-1055.00
2024-05-19 09:06:42.465256,0,1,-7,0,0,0,86,88,190,170,64,133.46,264,-32.00,-48.00,-1080.00
2024-05-19 09:06:42.556491,0,1,-7,0,0,0,86,88,190,170,64,133.43,264,-6.00,-26.00,-1008.00
2024-05-19 09:06:42.658500,0,1,-7,0,0,0,86,88,187,170,64,133.48,265,-75.00,-12.00,-955.00
2024-05-19 09:06:42.772491,0,2,-7,0,0,1,86,88,185,170,64,133.45,265,36.00,-52.00,-899.00
2024-05-19 09:06:42.862868,0,2,-7,0,0,1,85,89,184,170,64,133.45,265,41.00,-57.00,-937.00
2024-05-19 09:06:42.977585,0,2,-7,0,0,2,85,89,181,170,64,133.36,265,42.00,-66.00,-1043.00
2024-05-19 09:06:43.066591,0,2,-7,0,0,2,85,89,177,160,64,133.40,265,31.00,-55.00,-921.00
2024-05-19 09:06:43.168523,0,2,-7,0,0,2,85,89,175,160,64,133.27,265,52.00,-79.00,-956.00
2024-05-19 09:06:43.284485,0,2,-7,0,0,3,85,89,172,160,64,133.24,265,50.00,-60.00,-993.00
2024-05-19 09:06:43.321444,0,2,-7,0,0,3,85,89,168,150,64,133.23,265,13.00,-61.00,-952.00
2024-05-19 09:06:43.489549,0,3,-7,0,0,3,85,89,166,150,64,133.21,265,-75.00,-32.00,-1029.00
2024-05-19 09:06:43.525497,0,3,-7,0,0,3,85,89,162,150,64,133.23,265,-39.00,-60.00,-1010.00
2024-05-19 09:06:43.694539,0,3,-7,0,0,3,85,89,159,150,64,133.15,266,-28.00,-25.00,-1060.00
2024-05-19 09:06:43.729349,0,3,-7,0,0,2,85,89,156,140,64,133.19,266,42.00,-83.00,-1005.00
2024-05-19 09:06:43.899964,1,3,-7,0,0,2,86,89,153,140,64,133.20,266,43.00,-56.00,-1041.00
2024-05-19 09:06:43.933766,1,2,-7,0,0,2,86,89,152,140,64,133.03,266,-41.00,-29.00,-1038.00
2024-05-19 09:06:44.106151,1,2,-7,0,0,1,86,89,150,140,64,133.07,266,13.00,-64.00,-1048.00
2024-05-19 09:06:44.137465,1,3,-7,0,0,1,86,89,147,130,64,133.08,266,-49.00,-38.00,-1051.00
2024-05-19 09:06:44.308491,1,3,-7,0,0,1,86,89,147,130,64,133.06,266,4.00,-44.00,-1032.00
2024-05-19 09:06:44.341579,2,3,-7,0,0,1,86,89,146,130,64,133.08,266,3.00,-54.00,-1026.00
2024-05-19 09:06:44.513085,2,3,-7,0,0,0,86,89,146,130,64,133.01,266,51.00,-53.00,-1113.00
2024-05-19 09:06:44.545345,2,3,-7,0,0,0,86,89,145,130,64,133.08,266,18.00,-74.00,-973.00
2024-05-19 09:06:44.718925,1,3,-7,0,0,0,86,89,144,130,64,132.93,267,114.00,-86.00,-957.00
2024-05-19 09:06:44.749529,2,2,-7,0,0,0,86,89,146,130,64,133.06,267,94.00,-112.00,-1000.00
2024-05-19 09:06:44.923195,2,3,-7,0,0,0,86,89,146,130,64,133.05,267,-7.00,-37.00,-1026.00
2024-05-19 09:06:44.953413,2,3,-7,0,0,0,86,89,146,130,64,133.04,267,25.00,-47.00,-1016.00
2024-05-19 09:06:45.128115,2,3,-7,0,0,0,86,89,147,130,64,133.02,267,25.00,-42.00,-1088.00
2024-05-19 09:06:45.157432,2,2,-7,0,0,0,86,89,147,130,64,132.95,267,76.00,-94.00,-1011.00
2024-05-19 09:06:45.333747,2,2,-7,0,0,0,86,89,147,130,64,132.89,267,40.00,-53.00,-958.00
2024-05-19 09:06:45.361769,2,2,-7,0,0,0,86,89,146,130,64,132.99,267,21.00,-57.00,-889.00
2024-05-19 09:06:45.537536,2,2,-7,0,0,0,86,89,146,130,64,132.99,267,64.00,-25.00,-953.00
2024-05-19 09:06:45.565550,2,1,-7,0,0,0,86,89,146,130,64,132.97,267,136.00,-71.00,-1043.00
2024-05-19 09:06:45.667575,4,1,-7,0,0,0,86,89,144,130,64,132.91,268,65.00,-75.00,-957.00
2024-05-19 09:06:45.845612,4,2,-7,0,0,0,86,89,143,130,64,132.97,268,51.00,-59.00,-897.00
2024-05-19 09:06:45.871399,3,1,-7,0,0,1,87,89,141,130,64,132.95,268,70.00,-37.00,-995.00
2024-05-19 09:06:46.049717,2,1,-7,0,0,1,87,89,140,130,64,132.93,268,0.00,11.00,-890.00
2024-05-19 09:06:46.075709,2,1,-7,0,0,0,87,89,139,130,64,132.90,268,81.00,-34.00,-993.00
2024-05-19 09:06:46.254264,3,1,-7,0,0,0,87,89,137,130,64,132.83,268,96.00,-57.00,-1055.00
2024-05-19 09:06:46.279396,3,2,-7,0,0,0,87,89,137,120,64,132.91,268,20.00,-43.00,-1035.00
2024-05-19 09:06:46.459624,2,2,-7,0,0,0,87,89,138,120,64,132.94,268,87.00,-38.00,-1027.00
2024-05-19 09:06:46.483523,2,3,-7,0,0,0,87,89,138,120,64,132.91,268,82.00,-60.00,-1052.00
2024-05-19 09:06:46.585360,1,3,-7,0,0,0,87,89,138,120,64,132.92,268,74.00,-76.00,-1050.00
2024-05-19 09:06:46.687393,2,2,-7,0,0,0,87,89,139,130,64,132.88,269,-8.00,-26.00,-1064.00
2024-05-19 09:06:46.869011,2,2,-7,0,0,0,87,89,140,130,64,132.95,269,9.00,-34.00,-1035.00
2024-05-19 09:06:46.891315,1,1,-7,0,0,0,87,89,140,130,64,132.88,269,-38.00,-25.00,-1039.00
2024-05-19 09:06:46.993319,0,0,-7,0,0,0,87,89,141,130,64,132.97,269,3.00,-25.00,-941.00
2024-05-19 09:06:47.175650,0,0,-7,0,0,0,87,89,141,130,64,132.94,269,19.00,-66.00,-1031.00
2024-05-19 09:06:47.197283,-5,1,-7,0,0,0,87,89,142,130,64,133.01,269,93.00,-71.00,-1017.00
2024-05-19 09:06:47.380489,-7,2,-7,2,0,0,87,89,144,130,64,133.02,269,36.00,-64.00,-1049.00
2024-05-19 09:06:47.401268,-6,2,-7,3,0,0,87,89,145,130,64,132.94,269,-69.00,-15.00,-1004.00
2024-05-19 09:06:47.585270,-5,2,-7,4,0,0,87,89,146,130,64,133.05,269,36.00,-50.00,-1057.00
2024-05-19 09:06:47.605286,-5,1,-7,6,0,0,87,89,147,130,64,133.02,269,17.00,-58.00,-980.00
2024-05-19 09:06:47.656627,-3,2,-7,7,0,0,87,89,146,130,64,133.01,270,25.00,-52.00,-959.00
2024-05-19 09:06:47.790079,-3,2,-7,8,-1,0,87,89,146,130,64,132.99,270,58.00,-66.00,-945.00
2024-05-19 09:06:47.860191,0,2,-7,8,0,0,86,89,147,130,64,133.09,270,-43.00,-40.00,-1062.00
2024-05-19 09:06:47.995188,1,2,-7,8,0,0,86,89,148,130,64,133.13,270,25.00,-60.00,-1002.00
2024-05-19 09:06:48.064569,4,1,-7,7,0,0,86,89,148,130,64,133.05,270,37.00,-100.00,-1013.00
2024-05-19 09:06:48.199686,6,2,-7,6,0,0,86,89,149,130,64,133.09,270,-107.00,-25.00,-1046.00
2024-05-19 09:06:48.268262,6,3,-7,4,0,0,86,89,149,130,64,133.14,270,-23.00,-37.00,-1018.00
2024-05-19 09:06:48.405069,4,2,-7,4,0,0,86,89,148,130,64,133.12,270,1.00,-37.00,-982.00
2024-05-19 09:06:48.472215,2,2,-7,3,0,0,86,89,148,130,64,133.14,270,13.00,-50.00,-923.00
2024-05-19 09:06:48.609140,2,2,-7,3,0,0,86,89,149,130,64,132.93,270,51.00,-59.00,-1049.00
2024-05-19 09:06:48.678309,2,0,-7,3,0,0,86,89,149,130,64,133.02,271,-6.00,-34.00,-991.00
2024-05-19 09:06:48.778944,3,-1,-7,3,0,0,86,89,148,130,64,133.09,271,68.00,-69.00,-1004.00
2024-05-19 09:06:48.880687,4,-1,-7,2,0,0,86,89,149,130,64,133.02,271,48.00,-18.00,-1067.00
2024-05-19 09:06:49.018971,5,-1,-7,2,-1,0,86,89,148,130,64,132.98,271,76.00,-55.00,-888.00
2024-05-19 09:06:49.084992,5,0,-7,1,-1,0,86,89,148,130,64,132.98,271,97.00,-53.00,-943.00
2024-05-19 09:06:49.223594,5,3,-7,1,-1,0,86,89,148,130,64,132.93,271,5.00,-9.00,-877.00
2024-05-19 09:06:49.290767,5,6,-7,0,-1,1,86,89,146,130,64,132.90,271,68.00,-35.00,-1057.00
2024-05-19 09:06:49.391195,3,3,-7,0,0,0,86,89,145,130,64,132.90,271,26.00,-39.00,-1014.00
2024-05-19 09:06:49.531120,2,2,-7,0,0,1,86,89,143,130,64,132.97,271,143.00,-53.00,-1082.00
2024-05-19 09:06:49.595301,2,1,-7,0,0,0,86,89,144,130,64,132.92,271,1.00,-28.00,-1113.00
2024-05-19 09:06:49.697643,1,1,-7,0,0,0,86,89,143,130,64,132.94,272,60.00,-49.00,-977.00
2024-05-19 09:06:49.838048,1,1,-7,0,0,0,86,89,143,130,64,132.88,272,-50.00,24.00,-964.00
2024-05-19 09:06:49.901702,1,1,-7,0,0,0,87,89,144,130,64,132.97,272,-59.00,13.00,-1061.00
2024-05-19 09:06:50.043120,1,1,-7,0,0,0,87,89,143,130,64,133.03,272,-8.00,-25.00,-961.00
2024-05-19 09:06:50.105251,1,1,-7,0,0,0,87,89,146,130,64,133.00,272,39.00,-73.00,-1020.00
2024-05-19 09:06:50.247597,0,2,-7,0,0,0,87,89,147,130,64,132.99,272,88.00,-55.00,-1005.00
2024-05-19 09:06:50.309240,0,2,-7,0,0,0,87,89,150,130,64,132.96,272,80.00,-31.00,-1066.00
2024-05-19 09:06:50.452597,2,2,-7,0,0,-1,87,89,152,130,64,133.05,272,36.00,-28.00,-954.00
2024-05-19 09:06:50.513202,2,2,-7,0,0,0,87,89,154,130,64,133.07,272,15.00,-16.00,-1027.00
2024-05-19 09:06:50.657689,3,1,-7,0,0,0,87,89,155,130,64,133.10,272,-22.00,-9.00,-852.00
2024-05-19 09:06:50.718365,2,1,-7,0,0,0,87,89,156,140,64,133.00,273,89.00,-29.00,-1024.00
2024-05-19 09:06:50.862115,2,1,-7,0,0,0,87,89,156,140,64,133.07,273,1.00,-34.00,-1021.00
2024-05-19 09:06:50.921288,2,1,-7,0,0,0,87,89,160,140,64,133.00,273,47.00,-73.00,-1011.00
2024-05-19 09:06:51.067231,2,1,-7,0,0,0,87,89,160,140,64,133.05,273,-60.00,0.00,-973.00
2024-05-19 09:06:51.125211,3,1,-7,0,0,0,87,89,160,140,64,133.13,273,72.00,-33.00,-974.00
2024-05-19 09:06:51.271985,2,1,-7,0,0,0,87,89,161,140,64,133.07,273,75.00,-28.00,-963.00
2024-05-19 09:06:51.329197,2,1,-7,0,0,0,87,89,160,140,64,133.12,273,88.00,-55.00,-968.00
2024-05-19 09:06:51.431139,2,1,-7,0,0,0,87,89,159,140,64,133.06,273,-45.00,-12.00,-933.00
2024-05-19 09:06:51.482077,2,1,-7,0,0,0,87,89,160,140,64,133.00,273,-7.00,-8.00,-959.00
2024-05-19 09:06:51.681208,6,1,-7,0,0,0,87,89,159,140,64,133.02,273,59.00,-36.00,-932.00
2024-05-19 09:06:51.686030,8,1,-7,0,0,1,87,89,157,140,64,132.95,274,65.00,-44.00,-1085.00
2024-05-19 09:06:51.886121,8,1,-7,-1,0,1,87,89,154,140,64,132.99,274,29.00,-36.00,-1142.00
2024-05-19 09:06:51.941828,8,1,-7,-2,0,0,87,89,154,140,64,132.96,274,106.00,-64.00,-982.00
2024-05-19 09:06:51.992003,8,1,-7,-3,0,1,87,89,153,140,64,132.92,274,104.00,-46.00,-988.00
2024-05-19 09:06:52.094111,8,0,-7,-4,0,0,87,89,151,130,64,132.87,274,15.00,13.00,-960.00
2024-05-19 09:06:52.196433,8,0,-7,-5,0,0,87,89,149,130,64,132.82,274,81.00,-29.00,-1046.00
2024-05-19 09:06:52.298122,8,0,-7,-5,0,0,87,89,149,130,64,132.91,274,69.00,-17.00,-981.00
2024-05-19 09:06:52.400429,8,0,-7,-6,1,0,87,89,149,130,64,132.92,274,85.00,1.00,-1013.00
2024-05-19 09:06:52.502803,8,0,-7,-6,1,0,87,89,147,130,64,132.88,274,38.00,14.00,-1002.00
2024-05-19 09:06:52.705245,6,-1,-7,-7,0,0,87,89,145,130,64,132.78,274,35.00,3.00,-1011.00
2024-05-19 09:06:52.706082,2,0,-7,-7,0,0,87,89,142,130,64,132.84,275,33.00,2.00,-953.00
2024-05-19 09:06:52.910314,0,0,-7,-6,0,0,87,89,142,130,64,132.85,275,35.00,27.00,-1035.00
2024-05-19 09:06:52.910367,-1,1,-7,-5,0,0,87,89,140,130,64,132.89,275,63.00,-20.00,-960.00
2024-05-19 09:06:53.012358,-1,1,-6,-4,0,0,87,89,138,130,64,132.93,275,7.00,6.00,-992.00
2024-05-19 09:06:53.115123,0,0,-6,-3,0,0,87,89,136,130,64,132.81,275,101.00,-41.00,-1014.00
2024-05-19 09:06:53.217491,1,0,-6,-3,0,0,87,89,134,130,64,132.81,275,81.00,-13.00,-968.00
2024-05-19 09:06:53.319725,1,0,-6,-3,0,0,87,89,132,130,64,132.84,275,98.00,-23.00,-981.00
2024-05-19 09:06:53.419849,1,0,-6,-2,0,0,87,89,130,120,64,132.91,275,22.00,2.00,-1044.00
2024-05-19 09:06:53.522025,2,0,-6,-2,0,0,87,89,128,120,64,132.82,275,8.00,6.00,-1043.00
2024-05-19 09:06:53.626734,2,0,-6,-2,0,0,87,89,128,120,64,132.75,275,43.00,-47.00,-1034.00
2024-05-19 09:06:53.726013,2,0,-6,-2,0,0,87,89,126,120,64,132.84,276,18.00,-3.00,-1103.00
2024-05-19 09:06:53.831486,2,1,-6,-2,0,0,87,89,126,120,64,132.76,276,9.00,-15.00,-1083.00
2024-05-19 09:06:53.929994,2,1,-6,-2,0,0,86,90,125,120,64,132.72,276,17.00,11.00,-1025.00
2024-05-19 09:06:54.036413,2,1,-6,-2,0,0,86,90,124,120,64,132.68,276,-29.00,8.00,-1036.00
2024-05-19 09:06:54.134032,2,1,-6,-2,0,0,86,90,125,120,64,132.71,276,1.00,-16.00,-1110.00
2024-05-19 09:06:54.241256,1,1,-6,-2,0,0,86,90,125,120,64,132.74,276,-19.00,1.00,-1086.00
2024-05-19 09:06:54.337999,0,1,-7,-2,0,0,86,90,126,120,64,132.78,276,134.00,-56.00,-985.00
2024-05-19 09:06:54.446020,-2,2,-7,-1,0,0,86,90,127,120,64,132.81,276,-7.00,-8.00,-1001.00
2024-05-19 09:06:54.542308,0,1,-7,-1,0,0,86,90,128,120,64,132.78,276,-24.00,18.00,-1050.00
2024-05-19 09:06:54.650938,0,1,-7,0,0,-1,86,90,129,120,64,132.90,276,11.00,-2.00,-1013.00
2024-05-19 09:06:54.746768,0,1,-7,0,0,-1,86,90,130,120,64,132.86,277,-71.00,21.00,-975.00
2024-05-19 09:06:54.855745,0,1,-7,0,0,-1,86,90,132,120,63,132.83,277,60.00,-29.00,-1049.00
2024-05-19 09:06:54.950099,1,1,-7,0,0,-1,87,89,133,120,63,132.82,277,-14.00,-27.00,-1115.00
2024-05-19 09:06:55.060561,2,1,-7,0,0,0,87,89,134,120,63,132.89,277,93.00,-46.00,-981.00
2024-05-19 09:06:55.154002,2,1,-6,0,0,0,87,89,135,120,63,132.87,277,61.00,-29.00,-990.00
2024-05-19 09:06:55.265369,1,0,-6,0,0,0,87,89,135,120,63,132.87,277,-72.00,28.00,-1017.00
2024-05-19 09:06:55.358023,1,0,-6,0,0,0,87,89,136,130,63,132.87,277,105.00,-50.00,-958.00
2024-05-19 09:06:55.470192,1,1,-6,0,0,0,87,89,136,130,63,132.82,277,45.00,-40.00,-974.00
2024-05-19 09:06:55.511265,1,1,-7,0,0,0,87,89,136,130,63,132.88,277,22.00,-26.00,-987.00
2024-05-19 09:06:55.674985,1,1,-7,0,0,0,87,89,136,130,63,132.88,278,-26.00,-5.00,-1008.00
2024-05-19 09:06:55.714994,0,1,-7,0,0,0,87,89,135,130,63,132.86,278,50.00,-59.00,-937.00
2024-05-19 09:06:55.879709,1,2,-7,0,0,0,87,89,135,130,63,132.87,278,-53.00,-20.00,-1016.00
2024-05-19 09:06:55.919047,1,2,-6,0,0,0,87,89,134,120,63,132.76,278,-21.00,-14.00,-1041.00
2024-05-19 09:06:56.084815,2,2,-6,0,0,0,87,89,134,120,63,132.82,278,-94.00,17.00,-994.00
2024-05-19 09:06:56.122996,2,2,-6,0,0,0,87,89,134,120,63,132.90,278,25.00,-54.00,-981.00
2024-05-19 09:06:56.293274,1,2,-6,0,0,0,87,89,134,120,63,132.82,278,-30.00,15.00,-1053.00
2024-05-19 09:06:56.327010,1,3,-7,0,0,0,87,89,133,120,63,132.84,278,-11.00,8.00,-1009.00
2024-05-19 09:06:56.494238,1,3,-7,0,0,0,87,89,134,120,63,132.92,278,38.00,-32.00,-995.00
2024-05-19 09:06:56.530955,2,2,-7,0,0,0,87,89,134,120,63,132.88,278,32.00,-33.00,-1049.00
2024-05-19 09:06:56.698841,1,0,-7,0,0,0,87,89,134,120,63,132.85,279,4.00,-13.00,-1016.00
2024-05-19 09:06:56.734995,0,-7,-7,0,0,0,87,89,134,120,63,132.91,279,-3.00,-26.00,-1054.00
2024-05-19 09:06:56.903600,1,-5,-7,0,-2,0,87,89,136,120,63,132.98,279,-25.00,-31.00,-1034.00
2024-05-19 09:06:56.939043,1,-2,-7,0,-3,0,86,89,135,120,63,132.85,279,-16.00,-14.00,-926.00
2024-05-19 09:06:57.108435,1,0,-7,0,-4,0,86,89,134,120,63,132.76,279,68.00,-9.00,-989.00
2024-05-19 09:06:57.144042,2,3,-7,0,-4,0,86,89,135,120,63,132.83,279,38.00,3.00,-956.00
2024-05-19 09:06:57.313453,1,2,-7,0,-3,0,86,89,137,120,63,132.97,279,-18.00,-9.00,-1007.00
2024-05-19 09:06:57.348778,0,2,-7,0,-3,0,86,89,136,120,63,132.91,279,-9.00,24.00,-1052.00
2024-05-19 09:06:57.449007,0,2,-7,0,-3,0,86,89,135,130,63,133.02,279,23.00,-23.00,-921.00
2024-05-19 09:06:57.620460,0,1,-7,0,-2,0,86,89,136,120,63,132.83,279,68.00,-53.00,-963.00
2024-05-19 09:06:57.655760,1,1,-7,0,-2,0,86,89,136,130,63,133.01,280,71.00,-36.00,-1011.00
2024-05-19 09:06:57.756668,3,1,-7,0,-2,0,86,89,137,130,63,132.96,280,-28.00,-12.00,-992.00
2024-05-19 09:06:57.858789,4,1,-7,0,-2,0,86,89,137,130,62,133.00,280,16.00,-36.00,-1027.00
2024-05-19 09:06:57.959712,4,2,-7,0,-2,0,86,89,138,130,62,133.04,280,2.00,-4.00,-977.00
2024-05-19 09:06:58.132457,3,2,-7,-1,-2,0,86,89,137,130,62,132.94,280,88.00,-27.00,-1012.00
2024-05-19 09:06:58.163943,1,1,-7,-1,-1,0,86,89,137,130,62,133.00,280,2.00,0.00,-1019.00
2024-05-19 09:06:58.337118,-2,1,-7,0,-1,0,86,89,136,130,62,132.96,280,-3.00,8.00,-1041.00
2024-05-19 09:06:58.367716,0,6,-7,0,-1,0,86,89,136,130,62,132.97,280,-29.00,-18.00,-1097.00
2024-05-19 09:06:58.542393,1,5,-7,0,0,0,86,89,136,130,62,132.98,280,-3.00,18.00,-986.00
2024-05-19 09:06:58.572086,1,2,-7,0,0,0,86,89,135,130,62,132.90,280,-4.00,-5.00,-935.00
2024-05-19 09:06:58.747694,1,1,-7,0,0,0,86,89,134,130,62,132.93,281,5.00,12.00,-981.00
2024-05-19 09:06:58.775762,1,1,-7,0,0,0,86,89,134,130,62,132.97,281,-30.00,-15.00,-993.00
2024-05-19 09:06:58.956438,2,1,-7,0,0,0,86,89,134,130,62,132.93,281,22.00,17.00,-1066.00
2024-05-19 09:06:58.979764,2,1,-7,0,0,0,86,89,134,130,62,132.87,281,-6.00,-7.00,-1027.00
2024-05-19 09:06:59.156481,2,1,-7,0,0,0,86,89,134,130,62,132.87,281,18.00,29.00,-997.00
2024-05-19 09:06:59.156825,3,1,-7,0,0,0,86,89,135,130,62,132.91,281,28.00,-7.00,-1048.00
2024-05-19 09:06:59.235085,2,0,-7,0,0,0,86,89,134,120,62,132.85,281,18.00,-8.00,-963.00
2024-05-19 09:06:59.361368,2,0,-7,0,0,0,86,89,135,120,62,132.83,281,-40.00,27.00,-1068.00
2024-05-19 09:06:59.438887,2,0,-7,0,0,0,86,89,135,130,62,132.85,281,38.00,-20.00,-986.00
2024-05-19 09:06:59.566180,2,1,-7,0,0,0,86,89,135,130,62,132.94,281,-37.00,4.00,-1017.00
2024-05-19 09:06:59.642915,2,1,-7,0,0,0,86,89,135,130,62,132.80,282,61.00,-4.00,-977.00
2024-05-19 09:06:59.744831,2,0,-7,0,0,0,86,89,134,130,62,132.81,282,57.00,-3.00,-1009.00
2024-05-19 09:06:59.873265,2,0,-7,0,0,0,86,89,133,130,62,132.85,282,31.00,-10.00,-968.00
2024-05-19 09:06:59.948859,3,0,-7,0,0,0,86,88,132,130,62,132.83,282,93.00,-13.00,-979.00
2024-05-19 09:07:00.078196,2,0,-7,0,0,0,86,88,130,120,62,132.80,282,44.00,-32.00,-941.00
2024-05-19 09:07:00.156969,2,1,-7,0,0,0,86,88,128,120,62,132.78,282,0.00,-15.00,-978.00
2024-05-19 09:07:00.254773,2,1,-7,0,0,0,86,88,126,120,62,132.77,282,46.00,-15.00,-1091.00
2024-05-19 09:07:00.385416,2,1,-7,0,0,0,86,88,125,120,62,132.80,282,78.00,-13.00,-1011.00
2024-05-19 09:07:00.458972,2,1,-7,0,0,0,86,88,124,120,62,132.80,282,53.00,-14.00,-972.00
2024-05-19 09:07:00.560690,1,1,-7,0,0,0,86,88,124,120,62,132.73,282,45.00,0.00,-1073.00
2024-05-19 09:07:00.692437,1,1,-7,0,0,0,86,88,124,120,62,132.86,283,37.00,-3.00,-1017.00
2024-05-19 09:07:00.764749,0,5,-7,0,0,0,86,88,125,120,62,132.87,283,40.00,-17.00,-1094.00
2024-05-19 09:07:00.866762,0,8,-7,0,1,0,86,88,126,120,62,132.81,283,69.00,-13.00,-1069.00
2024-05-19 09:07:00.999614,0,6,-7,0,3,0,87,89,126,120,62,132.78,283,13.00,8.00,-1097.00
2024-05-19 09:07:01.070756,1,3,-7,0,3,-1,87,89,128,120,62,132.78,283,-2.00,-30.00,-999.00
2024-05-19 09:07:01.204431,1,1,-7,0,4,0,87,89,129,120,62,132.83,283,34.00,-11.00,-1016.00
2024-05-19 09:07:01.274701,1,-1,-7,0,4,-1,87,89,130,120,62,132.83,283,-3.00,3.00,-955.00
2024-05-19 09:07:01.409276,0,-1,-7,0,3,-1,87,89,132,120,62,132.81,283,-38.00,14.00,-964.00
2024-05-19 09:07:01.478723,0,-1,-7,0,3,0,87,89,133,120,62,132.87,283,-33.00,11.00,-885.00
2024-05-19 09:07:01.614011,-1,0,-7,0,3,0,87,89,135,120,62,132.91,283,-2.00,-34.00,-936.00
2024-05-19 09:07:01.683136,-1,0,-7,0,2,0,87,89,136,120,62,132.86,284,82.00,-42.00,-1011.00
2024-05-19 09:07:01.819470,2,0,-7,1,2,0,87,89,139,120,62,132.90,284,24.00,1.00,-1009.00
2024-05-19 09:07:01.886666,4,1,-7,1,2,-1,87,89,140,130,62,132.95,284,41.00,-16.00,-1009.00
2024-05-19 09:07:02.023602,3,1,-7,0,2,-1,86,89,142,130,62,132.90,284,31.00,-25.00,-922.00
2024-05-19 09:07:02.090599,3,1,-7,0,2,0,86,89,143,130,62,132.91,284,-8.00,12.00,-1015.00
2024-05-19 09:07:02.228413,1,0,-7,0,2,0,86,89,144,130,62,132.95,284,45.00,-46.00,-917.00
2024-05-19 09:07:02.294676,2,0,-7,0,2,0,86,89,145,130,62,132.95,284,-22.00,8.00,-950.00
2024-05-19 09:07:02.433230,2,0,-7,0,2,0,86,89,144,130,62,132.93,284,-5.00,-4.00,-1046.00
2024-05-19 09:07:02.498635,1,0,-7,0,2,0,86,89,143,130,62,133.00,284,38.00,-39.00,-1066.00
2024-05-19 09:07:02.638019,1,0,-7,0,2,0,86,89,143,130,62,133.02,284,8.00,-18.00,-932.00
2024-05-19 09:07:02.702772,0,-2,-7,0,1,0,86,89,143,130,62,132.99,285,59.00,-24.00,-993.00
2024-05-19 09:07:02.843260,1,-2,-7,0,0,0,86,89,142,130,61,132.90,285,-19.00,16.00,-1093.00
2024-05-19 09:07:02.855432,1,0,-7,0,0,0,86,89,143,130,61,133.00,285,-13.00,12.00,-1003.00
2024-05-19 09:07:03.047689,0,0,-7,0,0,0,86,89,142,130,61,132.99,285,36.00,-11.00,-1028.00
2024-05-19 09:07:03.059948,0,0,-7,0,0,0,86,89,142,130,61,132.93,285,48.00,-28.00,-954.00
2024-05-19 09:07:03.252504,1,0,-7,0,0,0,86,89,143,130,61,132.94,285,59.00,0.00,-1006.00
2024-05-19 09:07:03.263721,1,0,-7,0,0,0,86,89,141,130,61,132.93,285,71.00,-26.00,-1003.00
2024-05-19 09:07:03.457235,1,0,-7,0,0,0,86,89,140,130,61,132.89,285,39.00,19.00,-966.00
2024-05-19 09:07:03.467638,1,0,-7,0,0,0,86,89,138,130,61,132.91,285,-3.00,21.00,-1001.00
2024-05-19 09:07:03.663407,1,0,-7,0,0,0,86,89,137,130,61,132.94,285,-39.00,56.00,-1017.00
2024-05-19 09:07:03.671622,1,0,-7,0,0,0,86,89,136,130,61,132.90,286,2.00,34.00,-982.00
2024-05-19 09:07:03.866901,1,0,-7,0,0,0,86,89,134,120,61,132.98,286,-17.00,49.00,-920.00
2024-05-19 09:07:03.875908,1,0,-7,0,0,0,86,89,134,120,61,132.89,286,-15.00,39.00,-1060.00
2024-05-19 09:07:04.071658,1,0,-7,0,0,0,86,89,133,120,61,132.90,286,-7.00,41.00,-991.00
2024-05-19 09:07:04.079524,1,0,-7,0,0,0,86,89,133,120,61,132.93,286,115.00,-34.00,-1015.00
2024-05-19 09:07:04.276692,1,0,-7,0,0,0,86,89,134,120,61,132.94,286,51.00,-24.00,-992.00
2024-05-19 09:07:04.283771,2,1,-7,0,0,0,86,89,136,120,61,132.93,286,-8.00,-6.00,-942.00
2024-05-19 09:07:04.481302,2,1,-7,0,0,0,86,89,137,120,61,132.95,286,-49.00,40.00,-941.00
2024-05-19 09:07:04.487650,1,1,-7,0,0,0,86,89,139,120,61,132.93,286,-10.00,17.00,-1051.00
2024-05-19 09:07:04.676796,0,0,-7,0,0,-1,86,89,140,120,61,133.04,286,-51.00,21.00,-978.00
2024-05-19 09:07:04.691980,-1,0,-7,0,0,0,86,89,142,130,61,132.97,287,-27.00,24.00,-929.00
2024-05-19 09:07:04.845564,-1,0,-7,0,0,0,86,89,145,130,61,133.00,287,20.00,9.00,-1038.00
2024-05-19 09:07:04.895453,0,0,-7,0,0,-1,86,89,148,130,61,133.05,287,47.00,-16.00,-965.00
2024-05-19 09:07:05.095527,2,0,-7,1,0,0,86,89,151,130,61,133.02,287,22.00,18.00,-952.00
2024-05-19 09:07:05.100601,3,1,-2,0,0,0,86,89,156,130,61,133.13,287,7.00,-9.00,-976.00
2024-05-19 09:07:05.300333,2,1,3,0,0,0,86,89,157,130,61,133.08,287,18.00,27.00,-958.00
2024-05-19 09:07:05.303819,2,1,9,0,0,0,86,89,159,140,61,133.08,287,86.00,-20.00,-903.00
2024-05-19 09:07:05.405422,1,1,15,0,0,0,86,89,160,140,61,133.09,287,51.00,-17.00,-995.00
2024-05-19 09:07:05.507655,1,1,21,0,0,0,86,89,162,140,61,133.12,287,5.00,4.00,-906.00
2024-05-19 09:07:05.609452,0,0,27,0,0,0,86,89,162,140,61,133.12,287,-37.00,5.00,-1095.00
2024-05-19 09:07:05.711836,0,0,33,0,0,0,86,89,163,140,61,133.13,288,-52.00,-8.00,-973.00
2024-05-19 09:07:05.914791,0,0,40,0,0,0,86,89,162,140,60,133.22,288,12.00,-34.00,-961.00
2024-05-19 09:07:05.915459,0,0,46,0,0,0,86,89,163,140,60,133.16,288,-70.00,7.00,-972.00
2024-05-19 09:07:06.017613,-1,0,52,0,0,0,86,89,163,140,60,133.16,288,-61.00,16.00,-1009.00
2024-05-19 09:07:06.119795,-1,0,58,0,0,0,86,89,164,140,60,133.16,288,-40.00,9.00,-993.00
2024-05-19 09:07:06.221598,-1,0,65,0,0,0,86,89,163,140,60,133.19,288,9.00,12.00,-1046.00
2024-05-19 09:07:06.324336,0,0,71,0,0,0,86,89,162,140,60,133.18,288,8.00,-29.00,-880.00
2024-05-19 09:07:06.426705,0,0,77,0,0,0,86,89,160,140,60,133.18,288,-34.00,-2.00,-1038.00
2024-05-19 09:07:06.529094,0,0,83,0,0,0,86,89,159,140,60,133.14,288,-74.00,32.00,-894.00
2024-05-19 09:07:06.629541,0,0,90,0,0,0,86,89,157,140,60,133.18,288,-40.00,-21.00,-939.00
2024-05-19 09:07:06.731423,0,1,96,0,0,1,86,89,155,140,60,133.07,289,19.00,-15.00,-1053.00
2024-05-19 09:07:06.836408,0,1,102,0,0,0,86,89,153,140,60,133.10,289,-30.00,-20.00,-990.00
2024-05-19 09:07:06.935400,0,0,108,0,0,1,86,89,150,140,60,133.07,289,-57.00,15.00,-1012.00
2024-05-19 09:07:07.041211,0,0,114,0,0,0,86,88,147,140,60,133.00,289,2.00,-9.00,-952.00
2024-05-19 09:07:07.139367,-1,0,120,0,0,1,86,88,143,130,60,132.99,289,-16.00,-29.00,-1122.00
2024-05-19 09:07:07.246281,0,0,126,0,0,1,86,88,140,130,60,132.96,289,44.00,-53.00,-1091.00
2024-05-19 09:07:07.343791,-1,0,133,0,0,1,86,88,136,130,60,132.92,289,41.00,-4.00,-973.00
2024-05-19 09:07:07.452105,0,0,139,0,0,1,86,88,133,130,60,132.84,289,-34.00,11.00,-1045.00
2024-05-19 09:07:07.496312,0,0,145,0,0,2,86,88,130,130,60,132.87,289,-95.00,49.00,-1171.00
2024-05-19 09:07:07.655513,0,0,151,0,0,1,86,88,128,120,60,132.95,289,-1.00,20.00,-1016.00
2024-05-19 09:07:07.701221,-1,-1,157,0,0,1,86,88,126,120,60,132.85,290,-4.00,25.00,-1050.00
2024-05-19 09:07:07.860315,-1,-1,163,0,0,0,86,88,125,120,60,132.81,290,-61.00,55.00,-991.00
2024-05-19 09:07:07.905337,-1,-1,169,0,0,0,86,88,123,120,60,132.86,290,12.00,8.00,-1136.00
2024-05-19 09:07:08.065144,-1,-1,175,0,0,0,86,89,123,120,60,132.86,290,-120.00,53.00,-1048.00
2024-05-19 09:07:08.109323,-1,-1,-178,0,0,0,86,89,122,120,60,132.78,290,3.00,22.00,-1130.00
2024-05-19 09:07:08.269933,-1,-1,-172,0,0,0,86,89,122,120,60,132.78,290,21.00,-3.00,-1024.00
2024-05-19 09:07:08.313284,0,-1,-166,0,0,0,86,89,121,120,60,132.86,290,65.00,21.00,-999.00
2024-05-19 09:07:08.474738,0,0,-160,0,0,0,86,89,123,120,60,132.87,290,14.00,38.00,-1098.00
2024-05-19 09:07:08.517263,1,0,-153,0,0,0,86,89,123,120,60,132.89,290,0.00,39.00,-1094.00
2024-05-19 09:07:08.639410,1,0,-147,0,0,-1,86,89,124,120,60,132.82,290,25.00,17.00,-952.00
2024-05-19 09:07:08.721770,0,-1,-141,0,0,-1,86,89,125,120,60,132.94,291,-6.00,24.00,-913.00
2024-05-19 09:07:08.884256,0,0,-135,0,0,0,86,89,125,120,60,132.94,291,18.00,30.00,-1005.00
2024-05-19 09:07:08.925301,0,-1,-129,0,0,0,86,89,127,120,60,132.89,291,-13.00,32.00,-1039.00
2024-05-19 09:07:09.089127,0,-1,-117,0,0,0,87,89,129,120,60,132.88,291,58.00,-5.00,-1125.00
2024-05-19 09:07:09.129252,1,0,-112,0,0,-1,87,89,131,120,60,132.90,291,46.00,19.00,-973.00
2024-05-19 09:07:09.293920,1,0,-106,0,0,-1,87,89,134,120,60,132.94,291,-52.00,28.00,-998.00
2024-05-19 09:07:09.333253,0,0,-101,0,0,-1,87,89,136,120,60,132.93,291,17.00,32.00,-1014.00
2024-05-19 09:07:09.498687,0,0,-95,0,0,-1,87,89,138,120,60,132.94,291,-13.00,28.00,-850.00
2024-05-19 09:07:09.537279,0,0,-89,0,0,-1,87,89,141,130,60,132.99,291,-29.00,-5.00,-932.00
2024-05-19 09:07:09.704854,0,-1,-83,0,0,-1,87,89,143,130,60,133.03,292,64.00,1.00,-960.00
2024-05-19 09:07:09.741265,-1,0,-78,0,0,-1,87,89,145,130,60,133.03,292,-19.00,32.00,-1029.00
2024-05-19 09:07:09.908335,-1,0,-72,0,0,0,87,89,147,130,60,133.03,292,-66.00,24.00,-1000.00
2024-05-19 09:07:09.945204,-1,0,-66,0,0,0,87,89,147,130,60,133.04,292,12.00,27.00,-922.00
2024-05-19 09:07:10.113803,-1,0,-60,0,0,0,86,89,149,130,60,133.10,292,49.00,16.00,-985.00
2024-05-19 09:07:10.149169,-1,0,-54,0,0,0,86,89,150,130,60,133.14,292,-28.00,29.00,-983.00
2024-05-19 09:07:10.317955,-1,0,-48,0,0,0,86,89,151,130,60,133.16,292,26.00,18.00,-1057.00
2024-05-19 09:07:10.353298,-1,0,-42,0,0,0,86,89,152,130,60,133.15,292,1.00,16.00,-1024.00
2024-05-19 09:07:10.523171,-2,0,-35,0,0,0,86,89,152,130,60,133.08,292,-15.00,13.00,-951.00
2024-05-19 09:07:10.557234,-2,0,-29,0,0,0,86,89,152,140,60,133.10,292,15.00,17.00,-986.00
2024-05-19 09:07:10.727698,-2,0,-24,0,0,0,86,89,151,140,60,133.10,293,-27.00,27.00,-1036.00
2024-05-19 09:07:10.762114,-2,0,-19,0,0,0,86,89,151,130,60,133.13,293,-58.00,59.00,-1039.00
2024-05-19 09:07:10.932297,-2,0,-16,0,0,0,86,89,150,130,59,133.15,293,-47.00,30.00,-919.00
2024-05-19 09:07:10.968028,-2,0,-13,0,0,0,86,89,150,130,59,133.09,293,-64.00,39.00,-955.00
2024-05-19 09:07:11.067234,-1,0,-11,0,0,0,86,88,148,130,59,133.11,293,-76.00,62.00,-1074.00
2024-05-19 09:07:11.239477,-1,0,-10,0,0,0,86,88,147,130,59,133.12,293,-40.00,11.00,-985.00
2024-05-19 09:07:11.271617,-1,0,-9,0,0,0,86,88,147,130,59,133.11,293,-121.00,75.00,-1115.00
2024-05-19 09:07:11.444862,-1,0,-8,0,0,0,86,88,147,130,59,133.05,293,6.00,19.00,-1015.00
2024-05-19 09:07:11.475716,-1,0,-7,0,0,0,86,88,147,130,59,133.06,293,-31.00,15.00,-1019.00
2024-05-19 09:07:11.643470,-1,0,-7,0,0,0,86,88,147,130,59,133.19,293,-69.00,18.00,-961.00
2024-05-19 09:07:11.679271,-1,0,-7,0,0,0,86,88,147,130,59,133.08,294,-44.00,12.00,-1080.00
2024-05-19 09:07:11.733484,-1,0,-6,0,0,0,86,88,147,130,59,133.13,294,-16.00,14.00,-1046.00
2024-05-19 09:07:11.834289,-1,0,-6,0,0,0,86,88,147,130,59,133.12,294,40.00,-21.00,-955.00
2024-05-19 09:07:11.935810,-1,0,-5,0,0,0,86,88,147,130,59,133.14,294,-66.00,39.00,-1047.00
2024-05-19 09:07:12.038141,-1,0,-5,0,0,0,86,88,148,130,59,133.12,294,13.00,-24.00,-939.00
2024-05-19 09:07:12.140720,-1,0,-5,0,0,0,86,88,148,130,59,133.12,294,-55.00,33.00,-978.00
2024-05-19 09:07:12.240318,-1,0,-4,0,0,0,86,88,149,130,59,133.09,294,0.00,18.00,-1014.00
2024-05-19 09:07:12.366084,-1,-1,-4,0,0,0,86,88,149,130,59,133.11,294,-59.00,37.00,-1061.00
2024-05-19 09:07:12.444166,-1,-1,-4,0,0,0,86,88,149,130,59,133.09,294,-43.00,41.00,-1065.00
2024-05-19 09:07:12.571008,-1,-1,-4,0,0,0,86,88,150,130,59,133.12,294,-79.00,41.00,-888.00
2024-05-19 09:07:12.648267,-2,-1,-4,0,0,0,86,88,151,130,59,133.14,295,-36.00,25.00,-1011.00
2024-05-19 09:07:12.750332,-2,-1,-4,0,0,0,86,88,151,130,59,133.16,295,17.00,0.00,-929.00
2024-05-19 09:07:12.878138,-1,-1,-5,0,0,0,86,88,151,130,59,133.24,295,-47.00,26.00,-938.00
2024-05-19 09:07:12.954189,-2,-1,-5,0,0,0,86,88,152,130,59,133.23,295,38.00,18.00,-1072.00
2024-05-19 09:07:13.082950,-1,-1,-5,1,0,0,86,88,153,130,59,133.17,295,69.00,2.00,-1029.00
2024-05-19 09:07:13.158322,-1,-1,-5,1,0,0,86,88,154,130,59,133.18,295,-44.00,33.00,-991.00
2024-05-19 09:07:13.273050,0,0,-5,1,0,0,86,88,155,130,59,133.19,295,-3.00,-26.00,-967.00
2024-05-19 09:07:13.362174,0,0,-5,1,0,0,86,88,157,130,59,133.18,295,-27.00,17.00,-1032.00
2024-05-19 09:07:13.492384,0,0,-9,0,0,0,86,88,156,140,59,133.28,295,-4.00,43.00,-919.00
2024-05-19 09:07:13.566188,0,0,-16,0,0,0,86,88,157,140,59,133.19,295,0.00,41.00,-891.00
2024-05-19 09:07:13.697156,-1,0,-23,0,0,0,86,88,158,140,59,133.23,296,-7.00,9.00,-907.00
2024-05-19 09:07:13.770105,0,0,-31,1,0,0,86,88,159,140,59,133.22,296,9.00,14.00,-929.00
2024-05-19 09:07:13.901992,0,0,-38,1,0,0,86,88,158,140,59,133.27,296,21.00,27.00,-926.00
2024-05-19 09:07:13.974219,0,0,-46,1,0,0,86,88,158,140,59,133.29,296,32.00,0.00,-939.00
2024-05-19 09:07:14.111841,0,0,-53,1,0,0,87,88,157,140,59,133.34,296,8.00,9.00,-963.00
2024-05-19 09:07:14.178145,0,0,-61,0,0,0,87,88,156,140,59,133.27,296,26.00,34.00,-970.00
2024-05-19 09:07:14.311942,0,0,-68,0,0,1,87,88,154,140,59,133.24,296,10.00,-15.00,-954.00
2024-05-19 09:07:14.382126,0,0,-76,0,0,1,87,88,153,140,59,133.19,296,-16.00,-23.00,-964.00
2024-05-19 09:07:14.516635,0,0,-83,0,0,1,87,88,152,130,59,133.14,296,-43.00,17.00,-993.00
2024-05-19 09:07:14.586424,0,0,-90,0,0,0,87,88,151,130,59,133.13,296,1.00,21.00,-1079.00
2024-05-19 09:07:14.688186,0,0,-97,0,0,0,87,88,149,130,59,133.13,297,2.00,-9.00,-1026.00
2024-05-19 09:07:14.790067,0,0,-104,0,0,0,87,88,149,130,59,133.01,297,10.00,31.00,-992.00
2024-05-19 09:07:14.925956,0,0,-111,0,0,0,87,88,148,130,59,133.07,297,9.00,29.00,-987.00
2024-05-19 09:07:14.994040,0,0,-117,0,0,0,87,88,147,130,59,133.14,297,18.00,3.00,-953.00
2024-05-19 09:07:15.132256,0,1,-124,0,0,0,87,89,147,130,59,133.11,297,60.00,-6.00,-987.00
2024-05-19 09:07:15.198084,0,1,-131,0,0,0,87,89,146,130,59,133.16,297,-28.00,11.00,-1020.00
2024-05-19 09:07:15.335573,1,1,-137,0,0,0,87,89,146,130,59,133.10,297,46.00,-24.00,-981.00
2024-05-19 09:07:15.402082,1,2,-143,0,0,0,87,89,145,130,59,133.09,297,-42.00,26.00,-1071.00
2024-05-19 09:07:15.540340,1,1,-150,0,0,0,87,89,145,130,59,133.12,297,17.00,-12.00,-945.00
2024-05-19 09:07:15.606051,1,1,-156,0,0,0,87,89,144,130,59,133.04,297,3.00,12.00,-1049.00
2024-05-19 09:07:15.745149,1,1,-162,0,0,0,87,89,144,130,59,133.10,298,-5.00,-10.00,-992.00
2024-05-19 09:07:15.810932,1,1,-168,0,0,0,87,89,143,130,59,133.15,298,29.00,11.00,-1012.00
2024-05-19 09:07:15.861055,2,0,-174,0,0,0,87,89,144,130,59,133.14,298,-12.00,-1.00,-1032.00
2024-05-19 09:07:16.053059,1,0,179,0,0,0,87,89,143,130,59,133.18,298,56.00,-7.00,-974.00
2024-05-19 09:07:16.115982,1,0,174,0,0,0,86,89,144,130,59,133.00,298,53.00,-24.00,-1042.00
2024-05-19 09:07:16.257167,1,0,168,0,0,0,86,89,145,130,59,133.01,298,8.00,-24.00,-1076.00
2024-05-19 09:07:16.319984,1,0,162,0,0,0,86,89,146,130,59,133.06,298,63.00,5.00,-1035.00
2024-05-19 09:07:16.461958,2,0,157,0,0,0,86,89,146,130,59,133.05,298,2.00,28.00,-966.00
2024-05-19 09:07:16.473479,2,0,151,0,0,0,86,89,148,130,59,133.05,298,-6.00,38.00,-995.00
2024-05-19 09:07:16.666865,2,0,145,0,0,0,86,89,148,130,59,133.06,298,8.00,36.00,-1001.00
2024-05-19 09:07:16.676972,2,0,139,1,0,0,86,89,149,130,59,133.08,299,1.00,-18.00,-985.00
2024-05-19 09:07:16.782721,1,0,133,1,0,0,86,89,148,130,58,133.14,299,49.00,-18.00,-952.00
2024-05-19 09:07:16.883177,1,0,127,1,0,0,86,89,149,130,58,133.03,299,45.00,-30.00,-904.00
2024-05-19 09:07:16.983162,1,0,120,1,0,0,86,89,149,130,58,133.21,299,4.00,-17.00,-1002.00
2024-05-19 09:07:17.180168,1,0,114,0,0,0,87,89,148,130,58,133.10,299,20.00,15.00,-1046.00
2024-05-19 09:07:17.187030,1,0,108,0,0,0,87,89,148,130,58,133.10,299,27.00,5.00,-958.00
2024-05-19 09:07:17.383546,1,0,102,0,0,0,87,89,148,130,58,133.16,299,13.00,12.00,-984.00
2024-05-19 09:07:17.390962,1,0,96,0,0,0,87,89,147,130,58,133.03,299,17.00,0.00,-1009.00
2024-05-19 09:07:17.588331,1,0,90,0,0,0,87,89,146,130,58,133.02,299,36.00,1.00,-1013.00
2024-05-19 09:07:17.594940,1,0,83,0,0,0,87,89,145,130,58,133.05,299,28.00,29.00,-1038.00
2024-05-19 09:07:17.696938,1,0,77,0,0,0,87,89,145,130,58,133.00,300,36.00,0.00,-930.00
2024-05-19 09:07:17.798941,1,0,71,0,0,0,87,89,145,130,58,133.09,300,38.00,-2.00,-1028.00
2024-05-19 09:07:17.997974,1,0,65,0,0,0,87,89,144,130,58,133.12,300,-6.00,50.00,-1012.00
2024-05-19 09:07:18.003891,1,0,59,0,0,0,87,89,144,130,58,133.05,300,42.00,15.00,-1002.00
2024-05-19 09:07:18.202676,1,0,53,0,0,0,87,88,144,130,58,133.00,300,69.00,-11.00,-945.00
2024-05-19 09:07:18.207070,1,0,47,0,0,0,87,88,143,130,58,133.10,300,32.00,15.00,-1005.00
2024-05-19 09:07:18.407399,1,0,41,0,0,0,87,88,143,130,58,133.09,300,7.00,21.00,-995.00
2024-05-19 09:07:18.410867,0,0,35,0,0,0,87,88,142,130,58,133.01,300,30.00,57.00,-1010.00
2024-05-19 09:07:18.513089,0,0,29,0,0,0,87,88,141,130,58,133.09,300,27.00,25.00,-1009.00
2024-05-19 09:07:18.614829,0,0,23,0,0,0,87,88,141,130,58,133.02,300,-1.00,29.00,-1091.00
2024-05-19 09:07:18.716877,0,-1,17,0,0,0,87,88,140,130,58,132.97,301,26.00,18.00,-1006.00
2024-05-19 09:07:18.818791,0,-1,12,0,0,0,87,88,140,130,58,133.00,301,18.00,15.00,-997.00
2024-05-19 09:07:19.022321,0,-1,8,0,0,0,87,88,140,130,58,133.00,301,-15.00,38.00,-1060.00
2024-05-19 09:07:19.023798,0,-1,4,0,0,0,87,88,139,130,58,132.95,301,29.00,34.00,-1001.00
2024-05-19 09:07:19.124896,0,-1,2,0,0,0,87,89,139,130,58,132.96,301,18.00,22.00,-997.00
2024-05-19 09:07:19.227041,0,0,0,0,0,0,87,89,140,130,58,132.97,301,-62.00,19.00,-1078.00
2024-05-19 09:07:19.329789,0,0,0,0,0,0,87,89,140,130,58,133.04,301,23.00,5.00,-942.00
2024-05-19 09:07:19.431101,0,0,-1,0,0,0,87,89,140,130,58,133.04,301,-5.00,8.00,-1001.00
2024-05-19 09:07:19.534593,0,0,-2,0,0,0,87,89,140,130,58,133.03,301,18.00,16.00,-985.00
2024-05-19 09:07:19.636430,0,0,-2,0,0,0,87,89,140,130,58,132.99,301,-4.00,36.00,-1018.00
2024-05-19 09:07:19.736762,0,0,-3,0,0,0,87,89,141,130,58,133.02,302,47.00,19.00,-947.00
2024-05-19 09:07:19.838900,0,0,-3,0,0,0,87,89,141,130,58,133.04,302,-4.00,-11.00,-965.00
2024-05-19 09:07:19.889714,0,0,-3,0,0,0,87,89,141,130,58,133.04,302,7.00,0.00,-892.00
2024-05-19 09:07:20.045879,0,0,-3,0,0,0,87,89,141,130,58,133.00,302,62.00,5.00,-990.00
2024-05-19 09:07:20.093878,0,0,-3,0,0,0,87,89,141,130,58,132.97,302,-29.00,47.00,-1052.00
2024-05-19 09:07:20.250722,0,0,-3,0,0,0,87,89,142,130,58,133.06,302,-29.00,21.00,-987.00
2024-05-19 09:07:20.297912,0,0,-3,0,0,0,87,89,142,130,58,133.04,302,68.00,8.00,-985.00
2024-05-19 09:07:20.456001,0,0,-3,0,0,0,87,89,142,130,58,133.07,302,44.00,-7.00,-1124.00
2024-05-19 09:07:20.501868,0,-1,-3,0,0,0,87,89,142,130,58,133.06,302,-14.00,35.00,-1066.00
2024-05-19 09:07:20.649727,0,0,-3,0,0,0,87,89,142,130,58,133.05,302,49.00,-13.00,-1014.00
2024-05-19 09:07:20.706027,0,0,-3,0,0,0,87,89,142,130,58,133.07,303,10.00,8.00,-975.00
2024-05-19 09:07:20.807899,0,0,-3,0,0,0,87,89,141,130,57,133.03,303,25.00,4.00,-991.00
2024-05-19 09:07:20.967665,0,0,-3,0,0,0,87,89,142,130,57,133.06,303,15.00,1.00,-963.00
2024-05-19 09:07:21.011738,0,0,-3,0,0,0,87,89,141,130,57,132.96,303,8.00,25.00,-997.00
2024-05-19 09:07:21.113755,0,0,-3,0,0,0,86,89,141,130,57,133.03,303,26.00,-4.00,-985.00
2024-05-19 09:07:21.274809,0,0,-3,0,0,0,86,89,141,130,57,132.98,303,8.00,16.00,-998.00
2024-05-19 09:07:21.317931,0,0,-3,0,0,0,86,89,142,130,57,132.96,303,41.00,8.00,-934.00
2024-05-19 09:07:21.479784,0,0,-3,0,0,0,86,89,142,130,57,133.05,303,28.00,21.00,-938.00
2024-05-19 09:07:21.521902,0,0,-3,0,0,0,86,89,142,130,57,133.08,303,25.00,0.00,-1010.00
2024-05-19 09:07:21.684611,0,-1,-3,0,0,0,86,89,143,130,57,132.95,303,13.00,4.00,-1079.00
2024-05-19 09:07:21.725894,0,-2,-3,0,0,0,86,89,143,130,57,133.07,304,-33.00,35.00,-1022.00
2024-05-19 09:07:21.889614,0,-2,-3,0,0,0,86,89,143,130,57,133.01,304,37.00,27.00,-1016.00
2024-05-19 09:07:21.929891,0,-2,-3,0,0,0,86,89,144,130,57,132.94,304,23.00,-12.00,-892.00
2024-05-19 09:07:22.031966,1,0,-3,1,0,0,86,89,144,130,57,132.93,304,54.00,-7.00,-953.00
2024-05-19 09:07:22.196499,2,0,-3,0,0,0,87,88,145,130,57,133.05,304,-14.00,44.00,-991.00
2024-05-19 09:07:22.235778,1,0,-3,0,0,0,87,88,145,130,57,133.01,304,70.00,28.00,-1073.00
2024-05-19 09:07:22.402289,1,0,-3,0,0,0,87,88,146,130,57,133.10,304,55.00,0.00,-976.00
2024-05-19 09:07:22.439908,1,0,-3,0,0,0,87,88,147,130,57,133.07,304,34.00,-11.00,-917.00
2024-05-19 09:07:22.541753,0,-1,-3,0,0,0,87,88,146,130,57,132.96,304,12.00,26.00,-903.00
2024-05-19 09:07:22.708531,-1,0,-6,0,0,-2,87,88,146,130,57,133.26,305,-34.00,50.00,-1452.00
2024-05-19 09:07:22.745775,-1,0,-12,1,0,-8,87,88,151,140,57,133.33,305,25.00,61.00,-1779.00
2024-05-19 09:07:22.913084,-13,-41,-14,1,0,-13,87,88,169,150,57,133.26,305,-20.00,181.00,-1362.00
2024-05-19 09:07:22.949601,-11,-159,20,1,-9,-6,87,88,6553,160,57,133.49,305,-114.00,422.00,-1218.00
2024-05-19 09:07:23.118267,28,59,-18,2,-7,8,87,88,644,160,57,133.22,305,-81.00,254.00,-1294.00
2024-05-19 09:07:23.153673,-23,-11,-39,4,-2,9,87,89,173,150,57,133.16,305,164.00,-173.00,-1434.00
2024-05-19 09:07:23.324554,-11,0,-40,7,-8,8,87,89,186,140,57,132.91,305,7.00,72.00,-1123.00
2024-05-19 09:07:23.358233,5,4,-38,7,-7,5,87,89,155,130,57,133.08,305,-99.00,102.00,-1363.00
2024-05-19 09:07:23.529379,8,2,-34,6,-5,1,87,89,152,130,57,133.11,305,-15.00,45.00,-1443.00
2024-05-19 09:07:23.562092,8,1,-26,5,-3,0,87,89,151,130,57,133.00,305,0.00,-5.00,-1211.00
2024-05-19 09:07:23.612641,7,1,-16,4,-2,-1,87,89,154,130,57,133.06,306,-1.00,-39.00,-1059.00
2024-05-19 09:07:23.714647,4,1,-5,2,-1,-1,87,89,154,130,57,133.09,306,17.00,-1.00,-1023.00
2024-05-19 09:07:23.819739,1,0,-2,1,-1,-1,87,89,156,130,57,133.14,306,23.00,43.00,-979.00
2024-05-19 09:07:23.919108,0,0,-2,1,0,-1,87,89,157,130,57,133.04,306,37.00,19.00,-944.00
2024-05-19 09:07:24.039505,0,0,-2,1,0,0,87,89,158,130,57,133.12,306,-14.00,23.00,-957.00
2024-05-19 09:07:24.123273,0,0,-2,1,0,0,86,89,158,130,57,133.05,306,24.00,22.00,-849.00
2024-05-19 09:07:24.244342,1,0,-2,1,0,0,86,89,159,130,57,133.06,306,23.00,50.00,-926.00
2024-05-19 09:07:24.326741,3,0,-2,1,0,1,86,89,159,130,57,133.15,306,-28.00,45.00,-966.00
2024-05-19 09:07:24.449134,4,0,-2,1,0,1,86,89,159,130,57,133.13,306,-6.00,44.00,-1019.00
2024-05-19 09:07:24.530653,3,0,-2,0,0,1,86,89,157,130,57,133.09,306,75.00,38.00,-1039.00
2024-05-19 09:07:24.653944,3,-1,-2,0,0,0,86,89,158,130,57,133.09,307,40.00,5.00,-1019.00
2024-05-19 09:07:24.734650,3,-1,-2,0,0,0,86,89,157,130,57,133.05,307,5.00,27.00,-1025.00
2024-05-19 09:07:24.836649,3,-1,-2,0,0,0,86,89,157,130,56,133.03,307,91.00,5.00,-1006.00
2024-05-19 09:07:24.961126,3,0,-2,0,0,0,86,89,156,130,56,133.11,307,99.00,9.00,-953.00
2024-05-19 09:07:25.041066,3,0,-2,0,0,0,86,89,155,130,56,133.17,307,44.00,18.00,-913.00
2024-05-19 09:07:25.145818,3,-1,-2,0,0,0,86,88,156,130,56,133.06,307,84.00,16.00,-998.00
2024-05-19 09:07:25.244617,3,0,-2,0,0,0,86,88,155,130,56,133.00,307,79.00,27.00,-1054.00
2024-05-19 09:07:25.370702,2,-1,-3,0,0,0,86,88,155,130,56,133.08,307,50.00,45.00,-995.00
2024-05-19 09:07:25.448589,3,0,-3,0,0,0,86,88,155,130,56,133.04,307,30.00,53.00,-978.00
2024-05-19 09:07:25.575669,2,-1,-3,0,0,0,86,88,154,130,56,133.01,307,40.00,31.00,-941.00
2024-05-19 09:07:25.652483,2,-1,-3,0,0,0,86,88,153,130,56,133.05,308,37.00,35.00,-933.00
2024-05-19 09:07:25.780345,2,-1,-3,0,0,0,86,88,152,130,56,133.09,308,41.00,36.00,-927.00
2024-05-19 09:07:25.856698,3,-2,-3,0,0,0,86,88,152,130,56,133.07,308,33.00,47.00,-1055.00
2024-05-19 09:07:25.985149,3,-2,-3,0,0,0,86,88,150,130,56,133.04,308,34.00,36.00,-1040.00
2024-05-19 09:07:26.060714,2,-2,-3,0,0,0,86,88,150,130,56,133.03,308,38.00,77.00,-988.00
2024-05-19 09:07:26.190418,2,-2,-3,0,0,0,86,88,149,130,56,133.03,308,66.00,50.00,-1103.00
2024-05-19 09:07:26.264728,2,-2,-3,0,0,0,86,88,148,130,56,132.99,308,8.00,63.00,-1033.00
2024-05-19 09:07:26.394844,2,-1,-3,0,0,0,86,88,148,130,56,133.02,308,76.00,53.00,-961.00
2024-05-19 09:07:26.468639,2,-2,-3,0,0,0,86,88,148,130,56,132.95,308,29.00,55.00,-1015.00
2024-05-19 09:07:26.599765,2,-2,-3,0,0,0,86,88,148,130,56,132.94,308,56.00,67.00,-1028.00
2024-05-19 09:07:26.672564,2,-2,-3,0,0,0,86,88,148,130,56,132.98,309,41.00,28.00,-1016.00
2024-05-19 09:07:26.804400,2,-2,-3,0,0,0,86,88,149,130,56,132.91,309,92.00,6.00,-1085.00
2024-05-19 09:07:26.878509,2,-1,-3,0,0,0,86,88,149,130,55,132.92,309,-8.00,55.00,-968.00
2024-05-19 09:07:27.009642,2,-1,-3,0,0,0,86,88,150,130,55,133.01,309,48.00,28.00,-913.00
2024-05-19 09:07:27.030550,2,-1,-3,0,0,0,86,88,151,130,55,132.98,309,33.00,53.00,-930.00
2024-05-19 09:07:27.214098,2,-2,-3,0,0,0,86,89,151,130,55,132.93,309,60.00,30.00,-996.00
2024-05-19 09:07:27.234565,2,-1,-3,0,0,0,86,89,152,130,55,133.04,309,87.00,20.00,-1043.00
2024-05-19 09:07:27.419478,2,-1,-3,0,0,0,86,89,154,130,55,133.00,309,-12.00,53.00,-954.00
2024-05-19 09:07:27.438733,1,-1,-3,0,0,0,86,89,155,130,55,132.95,309,-40.00,35.00,-1037.00
2024-05-19 09:07:27.623814,0,-1,-3,0,0,-1,86,89,157,130,55,133.03,309,23.00,47.00,-970.00
2024-05-19 09:07:27.642623,0,0,-3,0,0,0,86,89,158,130,55,133.11,310,59.00,14.00,-915.00
2024-05-19 09:07:27.828557,1,0,-3,0,0,0,86,89,160,130,55,133.07,310,7.00,49.00,-787.00
2024-05-19 09:07:27.846523,1,0,-3,0,0,0,86,89,161,130,55,133.11,310,-61.00,55.00,-1027.00
2024-05-19 09:07:28.033217,0,-1,-3,0,0,0,86,89,161,130,55,133.09,310,62.00,-13.00,-992.00
2024-05-19 09:07:28.050476,1,0,-3,0,0,0,86,89,161,140,55,133.03,310,22.00,15.00,-903.00
2024-05-19 09:07:28.238425,1,-1,-3,0,0,0,86,88,161,140,55,133.17,310,63.00,9.00,-969.00
2024-05-19 09:07:28.254483,1,-1,-3,0,0,0,86,88,161,140,55,133.17,310,56.00,2.00,-971.00
2024-05-19 09:07:28.442831,1,-1,-3,0,0,0,86,88,161,140,55,133.12,310,51.00,-13.00,-982.00
2024-05-19 09:07:28.458633,2,-1,-3,0,0,0,86,88,160,140,55,133.09,310,71.00,2.00,-1038.00
2024-05-19 09:07:28.647629,2,0,-3,0,0,0,86,88,159,130,55,133.12,310,-55.00,67.00,-1042.00
2024-05-19 09:07:28.662647,2,-1,-3,0,0,0,86,88,158,130,55,133.09,311,4.00,14.00,-1081.00
2024-05-19 09:07:28.852390,1,-1,-3,0,0,0,86,88,158,130,55,133.01,311,66.00,-11.00,-953.00
2024-05-19 09:07:28.866479,1,-1,-3,0,0,0,86,88,157,130,55,133.03,311,-22.00,20.00,-994.00
2024-05-19 09:07:29.014223,0,-1,-3,0,0,0,86,88,155,130,55,133.06,311,81.00,-13.00,-971.00
2024-05-19 09:07:29.070435,0,-1,-3,0,0,0,86,88,154,130,55,133.02,311,72.00,-3.00,-927.00
2024-05-19 09:07:29.261909,0,1,-3,0,0,0,86,89,153,130,55,133.28,311,13.00,41.00,-1472.00
2024-05-19 09:07:29.275751,0,2,-3,0,0,-5,86,89,158,130,55,133.32,311,62.00,-56.00,-1727.00
2024-05-19 09:07:29.466727,0,13,-3,1,0,-11,86,89,179,140,55,133.18,311,23.00,-21.00,-1749.00
2024-05-19 09:07:29.479469,-2,106,-4,1,7,-11,86,89,588,150,55,133.33,311,48.00,717.00,-1074.00
2024-05-19 09:07:29.660011,2,-130,-5,2,9,4,86,89,637,160,55,133.14,311,59.00,745.00,-836.00
2024-05-19 09:07:29.683358,0,-16,0,2,3,11,86,89,169,150,55,133.41,312,43.00,616.00,-1170.00
2024-05-19 09:07:29.876621,-4,29,2,2,5,10,86,89,185,140,55,132.89,312,7.00,85.00,-984.00
2024-05-19 09:07:29.887374,0,2,8,2,10,7,86,89,148,130,55,133.28,312,44.00,-97.00,-1574.00
2024-05-19 09:07:30.083549,2,-7,9,2,9,3,86,89,142,120,55,133.05,312,-40.00,-28.00,-1461.00
2024-05-19 09:07:30.091406,1,-9,1,2,6,0,86,89,143,120,55,133.05,312,47.00,-68.00,-1154.00
2024-05-19 09:07:30.290548,1,-9,-4,1,4,-1,86,89,143,120,55,133.02,312,85.00,-112.00,-1157.00
2024-05-19 09:07:30.295666,1,-5,-4,1,2,-2,86,89,142,120,55,133.03,312,5.00,-61.00,-1133.00
2024-05-19 09:07:30.490712,1,-1,-3,1,1,-2,86,89,144,120,55,133.04,312,18.00,-15.00,-966.00
2024-05-19 09:07:30.499326,1,0,-3,1,0,-2,86,89,147,130,55,132.96,312,-30.00,1.00,-886.00
2024-05-19 09:07:30.695495,1,0,-3,1,1,-2,86,89,149,130,55,132.92,312,18.00,-9.00,-1022.00
2024-05-19 09:07:30.703398,1,0,-3,1,1,-1,86,89,151,130,55,133.07,313,-23.00,3.00,-921.00
2024-05-19 09:07:30.754557,1,-1,-3,0,1,0,86,89,151,130,55,133.05,313,53.00,-26.00,-1087.00
2024-05-19 09:07:30.900294,1,-3,-3,0,0,-1,86,89,153,130,55,133.04,313,-10.00,-16.00,-921.00
2024-05-19 09:07:30.958364,1,-2,-3,0,0,0,86,89,154,130,55,133.06,313,66.00,-21.00,-1037.00
2024-05-19 09:07:31.105712,1,-1,-3,0,0,0,86,89,154,130,55,133.06,313,-15.00,0.00,-939.00
2024-05-19 09:07:31.163570,1,-1,-3,0,0,0,87,89,156,130,55,133.12,313,17.00,-16.00,-1079.00
2024-05-19 09:07:31.310708,2,0,-3,0,0,0,87,89,157,130,55,133.09,313,-3.00,21.00,-879.00
2024-05-19 09:07:31.367348,1,0,-3,0,0,0,87,89,158,130,55,133.08,313,8.00,-14.00,-1087.00
2024-05-19 09:07:31.514947,1,0,-3,0,0,0,87,89,159,130,55,133.12,313,26.00,-27.00,-1075.00
2024-05-19 09:07:31.571350,1,0,-3,0,0,0,87,89,162,130,55,133.13,313,-4.00,-3.00,-1071.00
2024-05-19 09:07:31.720767,2,0,-3,0,0,0,87,89,163,130,55,133.12,314,-26.00,11.00,-920.00
2024-05-19 09:07:31.776015,2,0,-3,0,0,0,87,89,165,140,54,133.18,314,134.00,-51.00,-962.00
2024-05-19 09:07:31.924599,3,0,-3,0,0,0,87,89,167,140,54,133.22,314,55.00,-18.00,-962.00
2024-05-19 09:07:31.979309,3,0,-3,0,0,0,87,89,168,140,54,133.12,314,91.00,-18.00,-926.00
2024-05-19 09:07:32.129306,2,0,-3,0,0,0,87,89,167,140,54,133.14,314,2.00,14.00,-996.00
2024-05-19 09:07:32.183339,1,0,-3,0,0,0,87,88,167,140,54,133.12,314,31.00,6.00,-958.00
2024-05-19 09:07:32.285292,0,-1,-3,0,0,0,87,88,168,140,54,133.24,314,-47.00,49.00,-1022.00
2024-05-19 09:07:32.436915,0,-1,-3,0,0,0,87,88,167,140,54,133.22,314,67.00,-9.00,-1072.00
2024-05-19 09:07:32.489268,0,-2,-3,0,0,0,87,88,169,140,54,133.15,314,19.00,27.00,-957.00
2024-05-19 09:07:32.641118,0,-2,-3,0,0,0,87,88,169,140,54,133.30,314,-56.00,34.00,-1102.00
2024-05-19 09:07:32.693439,0,-2,-3,0,0,0,87,88,169,140,54,133.15,315,103.00,-19.00,-992.00
2024-05-19 09:07:32.846639,0,-2,-3,0,0,0,87,88,169,140,54,133.27,315,4.00,4.00,-1053.00
2024-05-19 09:07:32.898369,1,-1,-3,0,0,0,87,88,170,140,54,133.20,315,24.00,9.00,-1039.00
2024-05-19 09:07:33.028659,1,0,-3,0,0,0,87,88,171,140,54,133.19,315,61.00,-12.00,-1069.00
2024-05-19 09:07:33.102922,1,0,-3,0,0,0,87,88,170,140,54,133.24,315,66.00,-17.00,-897.00
2024-05-19 09:07:33.255919,1,0,-3,0,0,0,87,88,170,140,54,133.22,315,-28.00,19.00,-1012.00
2024-05-19 09:07:33.306291,1,0,-3,0,0,0,87,88,169,140,54,133.16,315,73.00,-16.00,-987.00
2024-05-19 09:07:33.460427,1,0,-3,0,0,0,87,88,167,140,54,133.17,315,-17.00,9.00,-949.00
2024-05-19 09:07:33.510365,1,-1,-3,0,0,0,87,88,166,140,54,133.15,315,70.00,-27.00,-945.00
2024-05-19 09:07:33.665382,1,-1,-3,0,0,0,87,88,163,140,54,133.13,315,-42.00,30.00,-966.00
2024-05-19 09:07:33.715267,1,-1,-3,0,0,0,87,88,162,140,54,133.12,316,85.00,-24.00,-993.00
2024-05-19 09:07:33.817681,2,-1,-3,0,0,0,87,88,159,140,54,133.05,316,118.00,-22.00,-990.00
2024-05-19 09:07:33.972328,3,0,-3,0,0,0,87,88,157,140,54,133.04,316,87.00,-23.00,-1006.00
2024-05-19 09:07:34.021099,4,0,-3,0,0,1,87,88,154,140,54,133.06,316,-2.00,23.00,-931.00
2024-05-19 09:07:34.177372,2,0,-3,0,0,1,87,88,150,130,54,133.05,316,3.00,-5.00,-958.00
2024-05-19 09:07:34.224238,0,-1,-3,0,0,1,87,89,145,130,54,132.92,316,51.00,15.00,-1112.00
2024-05-19 09:07:34.381882,1,-1,-3,0,0,0,87,89,143,130,54,132.84,316,60.00,30.00,-1109.00
2024-05-19 09:07:34.428233,0,-1,-3,0,0,0,87,89,142,130,54,132.91,316,25.00,0.00,-991.00
2024-05-19 09:07:34.479389,1,-1,-3,0,0,1,87,89,140,130,54,132.95,316,98.00,3.00,-1045.00
2024-05-19 09:07:34.587499,2,0,-3,0,0,0,87,89,140,120,54,132.96,316,-33.00,19.00,-1214.00
2024-05-19 09:07:34.683656,3,0,-3,0,0,0,87,89,139,120,54,132.97,317,42.00,22.00,-1024.00
2024-05-19 09:07:34.792488,1,0,-3,0,0,0,87,89,138,120,54,132.92,317,-12.00,-7.00,-1086.00
2024-05-19 09:07:34.887226,1,0,-3,0,0,-1,87,89,138,120,54,132.89,317,59.00,-4.00,-945.00
2024-05-19 09:07:34.996376,1,0,-3,0,0,0,87,89,138,120,54,132.96,317,12.00,60.00,-1005.00
2024-05-19 09:07:35.091475,1,0,-3,0,0,0,87,89,137,120,54,132.94,317,18.00,27.00,-1094.00
2024-05-19 09:07:35.202291,0,-1,-3,0,0,0,86,89,137,120,54,132.93,317,4.00,19.00,-1072.00
2024-05-19 09:07:35.295646,0,-1,-3,0,0,0,86,89,138,120,54,132.93,317,39.00,-2.00,-1013.00
2024-05-19 09:07:35.405884,0,-1,-3,0,0,0,86,89,140,120,54,132.96,317,60.00,-10.00,-902.00
2024-05-19 09:07:35.498999,0,0,-3,0,0,0,86,89,140,120,54,132.96,317,52.00,8.00,-989.00
2024-05-19 09:07:35.610745,1,0,-3,0,0,0,86,89,141,120,54,132.98,317,78.00,-15.00,-906.00
2024-05-19 09:07:35.703141,1,0,-3,0,0,0,86,89,143,120,54,132.98,318,-6.00,50.00,-1091.00
2024-05-19 09:07:35.815882,2,0,-3,0,0,-1,86,89,144,120,54,133.08,318,-73.00,28.00,-1330.00
2024-05-19 09:07:35.907082,-1,1,-4,0,0,-4,86,89,153,130,54,133.18,318,37.00,0.00,-1661.00
2024-05-19 09:07:36.020638,-8,1,-5,1,0,-10,86,89,228,130,54,133.32,318,53.00,-44.00,-1580.00
2024-05-19 09:07:36.114047,-84,49,-53,6,0,-11,86,89,461,140,54,133.20,318,749.00,29.00,-1181.00
