TS,pitch,roll,yaw,vgx,vgy,vgz,templ,temph,tof,h,bat,baro,time,agx,agy,agz
2025-08-07T12:57:36.378892,0,0,-7,0,0,0,77,78,10,0,47,133.01,0,-6.00,2.00,-995.00
2025-08-07T12:57:36.480722,0,0,-7,0,0,0,77,78,10,0,47,133.19,0,-4.00,3.00,-1012.00
2025-08-07T12:57:36.582687,0,0,-7,0,0,0,77,78,10,0,47,133.21,0,-4.00,2.00,-1011.00
2025-08-07T12:57:36.684700,0,0,-7,-1,0,0,77,78,10,0,47,133.10,0,-5.00,2.00,-1007.00
2025-08-07T12:57:36.786667,0,0,-7,-1,0,0,77,79,10,0,47,132.76,0,-5.00,2.00,-1002.00
2025-08-07T12:57:36.889512,0,0,-7,-1,0,0,77,79,10,0,47,132.94,0,-4.00,2.00,-995.00
2025-08-07T12:57:36.991456,0,0,-7,-1,0,0,77,79,10,0,47,132.77,0,-4.00,2.00,-994.00
2025-08-07T12:57:37.092637,0,0,-7,-1,0,0,77,79,10,0,47,132.99,0,-5.00,2.00,-993.00
2025-08-07T12:57:37.194921,0,0,-7,0,0,0,77,79,10,0,47,133.14,0,-5.00,1.00,-998.00
2025-08-07T12:57:37.297025,0,0,-7,0,0,0,77,79,10,0,47,132.95,0,-5.00,2.00,-1003.00
2025-08-07T12:57:37.398749,0,0,-7,0,0,0,77,79,10,0,47,132.64,0,-4.00,1.00,-1000.00
2025-08-07T12:57:37.500844,0,0,-7,0,0,0,77,79,10,0,47,132.90,0,-5.00,3.00,-1001.00
2025-08-07T12:57:37.602576,0,0,-7,0,0,0,77,79,10,0,47,133.04,0,-4.00,2.00,-1003.00
2025-08-07T12:57:37.705337,0,0,-7,0,0,0,77,79,10,0,47,133.18,0,-5.00,1.00,-993.00
2025-08-07T12:57:37.807248,0,0,-7,0,0,0,76,79,10,0,47,133.16,0,-3.00,0.00,-1001.00
2025-08-07T12:57:37.909476,0,0,-7,0,0,0,76,79,10,0,47,133.30,0,-4.00,1.00,-995.00
2025-08-07T12:57:38.010823,0,0,-7,0,0,0,76,79,10,0,47,132.86,0,-6.00,1.00,-1000.00
2025-08-07T12:57:38.112592,0,0,-7,0,0,0,76,79,10,0,47,133.35,0,-6.00,1.00,-1031.00
2025-08-07T12:57:38.214546,0,0,-7,0,0,0,76,79,10,0,47,132.88,0,-3.00,3.00,-999.00
2025-08-07T12:57:38.316551,0,0,-7,0,0,0,76,79,10,0,47,133.02,0,-3.00,1.00,-983.00
2025-08-07T12:57:38.418620,0,0,-7,0,0,0,76,79,10,0,47,133.32,0,-5.00,2.00,-998.00
2025-08-07T12:57:38.521110,0,0,-7,0,0,0,76,79,10,0,47,133.05,0,-3.00,3.00,-1013.00
2025-08-07T12:57:38.622647,0,0,-7,0,0,0,76,79,10,0,47,133.03,0,-5.00,5.00,-998.00
2025-08-07T12:57:38.724766,0,0,-7,0,0,0,76,79,10,0,47,133.25,0,157.00,87.00,-994.00
2025-08-07T12:57:38.828518,0,0,-7,0,0,0,76,78,10,0,47,133.17,0,-4.00,7.00,-988.00
2025-08-07T12:57:38.929880,0,0,-6,0,0,0,76,78,10,0,47,132.94,0,-31.00,-29.00,-1001.00
2025-08-07T12:57:39.032052,0,-4,-2,0,-1,0,76,78,10,0,47,133.08,0,24.00,37.00,-1291.00
2025-08-07T12:57:39.134050,-1,-5,-9,-2,-2,-2,76,78,10,0,47,132.89,0,-265.00,-125.00,-1186.00
2025-08-07T12:57:39.236012,-8,0,-12,-3,-3,-3,76,78,10,0,47,133.11,0,-129.00,-66.00,-839.00
2025-08-07T12:57:39.286879,-2,1,-12,-4,-4,-2,76,78,10,0,47,133.59,0,-72.00,-54.00,-926.00
2025-08-07T12:57:39.388892,1,4,-8,-3,-4,-1,76,78,10,0,47,133.58,0,101.00,-6.00,-858.00
2025-08-07T12:57:39.490604,4,3,0,-3,-3,0,76,78,10,0,47,133.03,0,54.00,-29.00,-903.00
2025-08-07T12:57:39.592630,5,3,6,-2,-2,0,76,78,10,0,47,133.19,0,170.00,17.00,-928.00
2025-08-07T12:57:39.694327,8,2,14,-2,-1,0,76,78,34,0,47,133.60,0,282.00,61.00,-947.00
2025-08-07T12:57:39.796416,10,1,17,-1,-1,1,76,78,37,0,47,133.18,0,115.00,-162.00,-1006.00
2025-08-07T12:57:39.898367,10,2,20,-2,-3,0,76,78,37,0,47,133.12,0,77.00,-22.00,-1000.00
2025-08-07T12:57:40.000346,8,5,23,-1,-2,1,76,78,36,0,47,133.10,0,237.00,7.00,-891.00
2025-08-07T12:57:40.102288,9,6,29,-1,-1,1,76,78,34,0,47,133.15,0,267.00,15.00,-960.00
2025-08-07T12:57:40.204558,9,7,31,-1,0,1,76,78,33,0,47,133.26,0,253.00,-15.00,-1020.00
2025-08-07T12:57:40.306270,7,4,35,-1,0,0,76,78,33,0,47,133.28,0,192.00,-157.00,-1018.00
2025-08-07T12:57:40.408456,4,4,43,0,0,0,76,78,33,0,47,132.98,0,53.00,-86.00,-987.00
2025-08-07T12:57:40.510280,9,3,48,0,0,0,76,78,30,0,47,133.01,0,218.00,-57.00,-981.00
2025-08-07T12:57:40.612286,9,7,52,0,0,0,76,78,10,0,47,133.28,0,246.00,-160.00,-1025.00
2025-08-07T12:57:40.714381,8,8,50,1,0,0,76,78,10,0,47,133.24,0,174.00,-87.00,-1065.00
2025-08-07T12:57:40.816390,7,7,40,2,1,0,76,78,10,0,47,133.18,0,139.00,-84.00,-1057.00
2025-08-07T12:57:40.918585,5,5,23,2,1,0,76,78,10,0,47,133.45,0,189.00,-120.00,-946.00
2025-08-07T12:57:41.020631,6,4,11,3,1,0,76,78,10,0,47,133.25,0,155.00,-156.00,-975.00
2025-08-07T12:57:41.122477,5,4,-4,3,1,0,76,78,35,0,47,132.91,0,64.00,-2.00,-975.00
2025-08-07T12:57:41.224508,2,2,-20,2,0,1,76,78,59,0,47,133.11,0,41.00,-107.00,-939.00
2025-08-07T12:57:41.326608,-1,3,-26,2,-1,2,76,78,73,0,47,133.09,0,66.00,-484.00,-920.00
2025-08-07T12:57:41.428455,-1,6,-15,0,0,3,76,78,77,0,47,133.06,0,-151.00,-89.00,-939.00
2025-08-07T12:57:41.530626,0,9,-17,0,0,2,76,78,76,0,47,133.11,0,-112.00,-39.00,-1080.00
2025-08-07T12:57:41.635454,2,9,-18,0,0,2,76,78,74,0,47,133.15,0,-104.00,-17.00,-965.00
2025-08-07T12:57:41.735812,1,10,-13,0,0,3,76,78,72,0,47,132.93,0,-55.00,-44.00,-965.00
2025-08-07T12:57:41.837782,-1,12,-10,0,0,3,77,78,70,0,47,133.08,0,-173.00,-227.00,-981.00
2025-08-07T12:57:41.939599,-8,14,-16,0,0,3,77,78,67,0,47,132.92,0,-2.00,-304.00,-832.00
2025-08-07T12:57:42.043178,-7,14,-12,0,0,3,77,78,64,0,47,132.91,0,-365.00,-71.00,-894.00
2025-08-07T12:57:42.143654,-5,16,-12,0,0,3,77,78,60,0,47,132.78,0,-80.00,-287.00,-764.00
2025-08-07T12:57:42.244293,-2,16,-14,0,0,4,77,78,56,0,47,133.10,0,-88.00,-285.00,-850.00
2025-08-07T12:57:42.346454,-1,18,-8,0,0,4,77,78,52,0,47,132.60,0,41.00,-217.00,-971.00
2025-08-07T12:57:42.448476,-2,16,-8,0,0,4,77,78,47,0,47,132.69,0,-2.00,-390.00,-981.00
2025-08-07T12:57:42.550636,-1,17,-4,0,0,3,77,78,43,0,47,132.51,0,-60.00,-400.00,-1065.00
2025-08-07T12:57:42.601738,-2,21,-3,-1,0,1,77,78,42,0,47,132.96,0,-91.00,-471.00,-1118.00
2025-08-07T12:57:42.704036,-1,22,-2,0,0,0,77,78,42,0,47,132.54,0,70.00,-472.00,-1131.00
2025-08-07T12:57:42.806486,-1,20,-4,0,0,-2,76,79,44,0,47,132.59,0,14.00,-462.00,-1092.00
2025-08-07T12:57:42.908857,0,19,-6,0,0,-4,76,79,48,0,47,132.57,0,-34.00,-479.00,-971.00
2025-08-07T12:57:43.009851,0,18,-9,0,-1,-4,76,79,52,0,47,132.75,0,30.00,-395.00,-934.00
2025-08-07T12:57:43.111627,2,20,-14,0,-2,-4,76,79,58,0,47,132.87,0,-58.00,-283.00,-928.00
2025-08-07T12:57:43.213697,4,22,-18,0,-2,-3,76,79,64,0,47,132.77,0,16.00,-379.00,-889.00
2025-08-07T12:57:43.315691,6,26,-19,-1,-1,-3,76,79,68,0,47,133.12,0,79.00,-349.00,-929.00
2025-08-07T12:57:43.417431,8,25,-21,-1,-1,-3,76,79,73,0,47,132.98,0,101.00,-381.00,-953.00
2025-08-07T12:57:43.519979,10,22,-26,-1,-1,-3,76,79,74,0,47,132.94,0,134.00,-466.00,-718.00
2025-08-07T12:57:43.621642,17,21,-29,-1,-1,-2,76,79,77,0,47,132.86,0,278.00,-308.00,-928.00
2025-08-07T12:57:43.723780,18,20,-33,-1,-1,-3,76,79,61,0,47,132.95,0,216.00,-413.00,-957.00
2025-08-07T12:57:43.825733,17,20,-33,-2,0,-3,77,78,38,0,47,133.05,0,153.00,-369.00,-1037.00
2025-08-07T12:57:43.927888,12,19,-32,-3,0,-4,77,78,10,0,47,133.16,0,105.00,-252.00,-986.00
2025-08-07T12:57:44.029857,6,12,-26,-4,1,-4,77,78,32,0,47,133.15,0,132.00,-274.00,-784.00
2025-08-07T12:57:44.131743,1,6,-14,-5,1,-2,77,78,35,0,47,133.21,0,-64.00,-144.00,-736.00
2025-08-07T12:57:44.233813,0,3,-9,0,0,0,77,78,35,0,47,133.05,0,63.00,-129.00,-932.00
2025-08-07T12:57:44.335745,0,2,0,0,0,0,77,78,36,0,47,133.16,0,35.00,-10.00,-1053.00
2025-08-07T12:57:44.437413,0,0,8,0,0,0,77,78,42,0,47,133.22,0,15.00,-19.00,-1021.00
2025-08-07T12:57:44.539770,2,-3,14,0,0,0,77,78,32,0,47,133.25,0,53.00,-10.00,-1083.00
2025-08-07T12:57:44.641722,1,-3,20,0,0,0,77,78,31,0,47,133.15,0,121.00,-66.00,-964.00
2025-08-07T12:57:44.743537,0,-2,24,0,0,0,77,78,31,0,47,133.27,0,119.00,-3.00,-1016.00
2025-08-07T12:57:44.845457,0,-1,27,0,0,0,77,79,35,0,47,133.20,0,107.00,1.00,-989.00
2025-08-07T12:57:44.947709,0,-1,27,0,0,-1,77,79,48,0,47,133.17,0,129.00,39.00,-1048.00
2025-08-07T12:57:45.049771,0,0,27,0,0,-1,77,79,62,0,47,133.01,0,68.00,61.00,-1038.00
2025-08-07T12:57:45.151676,0,0,28,0,0,0,77,79,80,0,47,133.15,0,-18.00,35.00,-959.00
2025-08-07T12:57:45.253681,-3,0,28,0,0,0,77,79,10,0,47,133.29,0,-57.00,60.00,-945.00
2025-08-07T12:57:45.355921,-1,-1,29,0,0,0,77,79,10,0,47,133.13,0,-16.00,79.00,-962.00
2025-08-07T12:57:45.458725,0,-3,29,0,0,0,77,79,10,0,47,133.22,0,33.00,-53.00,-1033.00
2025-08-07T12:57:45.559901,-5,-6,29,0,0,0,77,79,91,0,47,133.43,0,-2.00,-45.00,-989.00
2025-08-07T12:57:45.661838,-12,-2,33,0,0,0,77,79,94,0,47,133.46,0,52.00,16.00,-973.00
2025-08-07T12:57:45.712418,-17,0,33,0,0,0,77,79,96,0,47,133.31,0,59.00,63.00,-1004.00
2025-08-07T12:57:45.865694,-14,1,35,0,0,0,77,79,94,0,47,133.29,0,-105.00,-93.00,-965.00
2025-08-07T12:57:45.967714,-14,1,40,0,0,0,77,79,94,0,47,133.08,0,-43.00,-222.00,-968.00
2025-08-07T12:57:46.069757,-11,-3,43,0,0,0,77,79,91,0,47,133.09,0,-150.00,-10.00,-1141.00
2025-08-07T12:57:46.120658,-6,-3,44,0,0,0,77,79,90,0,47,133.52,0,-202.00,181.00,-995.00
2025-08-07T12:57:46.222533,-1,-6,50,0,0,0,77,79,90,0,47,133.29,0,-42.00,53.00,-910.00
2025-08-07T12:57:46.324541,7,-8,59,-1,-2,0,77,79,90,0,47,133.19,0,174.00,37.00,-854.00
2025-08-07T12:57:46.426483,7,-7,64,-1,-2,1,77,79,89,0,47,132.87,0,254.00,40.00,-1027.00
2025-08-07T12:57:46.528466,9,-5,64,0,-1,0,77,79,87,0,47,133.46,0,404.00,-22.00,-1130.00
2025-08-07T12:57:46.630604,9,-4,63,0,0,0,77,79,87,0,47,133.11,0,171.00,167.00,-1282.00
2025-08-07T12:57:46.732595,6,-4,62,0,0,-3,77,79,89,0,47,132.88,0,239.00,-41.00,-979.00
2025-08-07T12:57:46.834512,7,-5,61,2,0,-4,77,80,94,0,47,133.14,0,167.00,5.00,-924.00
2025-08-07T12:57:46.941895,7,-8,57,3,0,-3,77,80,97,0,47,132.80,0,190.00,67.00,-811.00
2025-08-07T12:57:47.038545,7,-9,49,3,1,-2,77,80,73,0,47,133.20,0,158.00,31.00,-896.00
2025-08-07T12:57:47.140610,7,-7,41,0,0,0,77,80,10,0,47,133.17,0,137.00,73.00,-807.00
2025-08-07T12:57:47.242597,6,-6,34,0,0,0,77,80,10,0,47,133.31,0,117.00,67.00,-907.00
2025-08-07T12:57:47.344579,4,-5,27,0,0,1,77,80,10,0,47,133.26,0,74.00,-45.00,-991.00
2025-08-07T12:57:47.446695,4,-3,18,0,0,2,77,80,10,0,47,133.41,0,80.00,58.00,-1061.00
2025-08-07T12:57:47.548524,5,-2,8,0,0,1,77,80,10,0,47,133.27,0,47.00,-20.00,-972.00
2025-08-07T12:57:47.650729,7,-1,-2,0,0,2,77,80,10,0,47,132.82,0,-64.00,-14.00,-1064.00
2025-08-07T12:57:47.752592,7,0,-10,0,0,1,77,80,10,0,47,133.20,0,77.00,-101.00,-952.00
2025-08-07T12:57:47.854528,6,2,-17,0,0,1,77,79,10,0,47,133.31,0,61.00,-152.00,-1016.00
2025-08-07T12:57:47.956489,5,3,-27,0,0,1,77,79,35,0,47,133.14,0,102.00,-254.00,-891.00
2025-08-07T12:57:48.058518,5,1,-28,0,0,1,77,79,71,0,47,133.09,0,15.00,-27.00,-1107.00
2025-08-07T12:57:48.160620,3,0,-28,0,0,1,77,79,65,0,47,133.28,0,57.00,-22.00,-986.00
2025-08-07T12:57:48.263789,4,1,-28,0,0,1,77,79,78,0,47,133.02,0,65.00,53.00,-905.00
2025-08-07T12:57:48.365808,8,3,-25,0,0,2,77,79,78,0,47,133.13,0,20.00,9.00,-999.00
2025-08-07T12:57:48.467823,10,9,-24,0,0,2,77,79,76,0,47,133.14,0,163.00,-90.00,-1004.00
2025-08-07T12:57:48.569850,9,16,-30,0,0,2,77,79,60,0,47,133.06,0,55.00,-185.00,-827.00
2025-08-07T12:57:48.671442,10,19,-30,0,0,2,77,79,71,0,47,132.84,0,-34.00,-214.00,-877.00
2025-08-07T12:57:48.773550,12,20,-27,0,0,3,77,79,70,0,47,133.02,0,238.00,-354.00,-715.00
2025-08-07T12:57:48.875682,9,24,-30,0,0,4,78,80,64,0,47,133.00,0,191.00,-391.00,-929.00
2025-08-07T12:57:48.977532,7,25,-33,0,0,4,78,80,58,0,47,132.82,0,25.00,-659.00,-923.00
2025-08-07T12:57:49.079814,4,24,-35,0,0,4,78,80,53,0,47,132.82,0,178.00,-463.00,-785.00
2025-08-07T12:57:49.135500,5,25,-38,0,0,4,78,80,48,-10,47,132.68,0,154.00,-510.00,-923.00
2025-08-07T12:57:49.232661,6,27,-40,0,0,4,78,80,43,-10,47,132.77,0,112.00,-567.00,-925.00
2025-08-07T12:57:49.334592,5,29,-43,0,0,3,78,80,39,-20,47,132.85,0,134.00,-511.00,-896.00
2025-08-07T12:57:49.436592,6,29,-41,0,0,3,78,80,35,0,47,132.53,0,106.00,-525.00,-866.00
2025-08-07T12:57:49.538527,6,28,-40,0,0,3,78,80,30,0,47,132.67,0,147.00,-487.00,-900.00
2025-08-07T12:57:49.640600,5,25,-43,0,0,3,78,80,10,0,47,132.72,0,222.00,-421.00,-1132.00
2025-08-07T12:57:49.742690,4,19,-42,0,0,1,78,80,10,0,47,132.85,0,107.00,-412.00,-1045.00
2025-08-07T12:57:49.844640,3,18,-45,0,0,0,77,80,10,0,47,132.71,0,175.00,-314.00,-1022.00
2025-08-07T12:57:49.946529,3,19,-43,0,0,-1,77,80,10,0,47,132.93,0,123.00,-313.00,-1049.00
2025-08-07T12:57:50.048473,1,17,-42,0,0,-2,77,80,30,0,47,132.51,0,120.00,-432.00,-986.00
2025-08-07T12:57:50.150555,0,16,-44,0,0,-3,77,80,34,0,47,132.72,0,71.00,-391.00,-979.00
2025-08-07T12:57:50.252551,0,17,-43,0,-1,-4,77,80,40,0,47,132.76,0,53.00,-226.00,-1024.00
2025-08-07T12:57:50.354531,0,18,-41,0,-1,-5,77,80,46,0,47,132.42,0,75.00,-337.00,-871.00
2025-08-07T12:57:50.456824,4,21,-39,1,-1,-4,77,80,52,0,47,133.16,0,123.00,-340.00,-871.00
2025-08-07T12:57:50.558653,11,21,-37,1,-1,-4,77,80,58,10,47,132.74,0,161.00,-348.00,-902.00
2025-08-07T12:57:50.660546,16,21,-37,0,-1,-3,77,80,62,10,47,132.86,0,209.00,-329.00,-934.00
2025-08-07T12:57:50.762727,19,20,-36,0,-1,-3,77,80,66,10,47,133.00,0,241.00,-159.00,-1039.00
2025-08-07T12:57:50.865575,20,17,-34,0,0,-3,79,80,70,20,47,132.97,0,386.00,-297.00,-846.00
2025-08-07T12:57:50.967870,20,13,-37,0,-1,-3,79,80,72,0,47,132.94,0,330.00,-212.00,-906.00
2025-08-07T12:57:51.069779,20,10,-40,0,-1,-3,79,80,75,0,47,133.03,0,252.00,-71.00,-1144.00
2025-08-07T12:57:51.171646,19,4,-40,0,0,-4,79,80,78,0,47,133.05,0,190.00,-88.00,-955.00
2025-08-07T12:57:51.273617,13,0,-41,-1,0,-4,79,80,81,0,47,133.21,0,190.00,-2.00,-813.00
2025-08-07T12:57:51.375525,9,-4,-39,-1,0,-2,79,80,83,0,47,133.08,0,137.00,16.00,-834.00
2025-08-07T12:57:51.477689,8,-7,-36,-1,0,-1,79,80,84,0,47,132.95,0,167.00,-6.00,-896.00
2025-08-07T12:57:51.579811,8,-5,-33,-1,0,0,79,80,84,0,47,133.13,0,61.00,121.00,-1089.00
2025-08-07T12:57:51.681710,6,-3,-28,-1,0,0,79,80,85,0,47,133.19,0,1.00,200.00,-1061.00
2025-08-07T12:57:51.783573,4,-3,-23,-2,0,-1,79,80,86,0,47,133.03,0,-32.00,86.00,-1056.00
2025-08-07T12:57:51.885560,3,-4,-16,-3,1,-1,78,80,51,0,47,133.38,0,-29.00,79.00,-1012.00
2025-08-07T12:57:51.987508,1,-6,-9,-3,1,-1,78,80,35,0,47,133.16,0,-60.00,120.00,-999.00
2025-08-07T12:57:52.089798,2,-8,0,-4,1,-1,78,80,32,0,47,133.25,0,-136.00,161.00,-921.00
2025-08-07T12:57:52.192004,2,-9,7,-6,1,-1,78,80,10,0,47,133.29,0,26.00,187.00,-811.00
2025-08-07T12:57:52.293611,1,-9,15,-6,1,0,78,80,10,0,47,133.28,0,-66.00,3.00,-838.00
2025-08-07T12:57:52.395929,3,-12,24,-7,0,1,78,80,10,0,47,133.49,0,-64.00,-7.00,-864.00
2025-08-07T12:57:52.446868,-1,-8,36,0,0,2,78,80,80,0,47,133.56,0,-244.00,-127.00,-880.00
2025-08-07T12:57:52.548579,1,-7,45,0,0,4,78,80,84,0,47,133.19,0,50.00,-93.00,-795.00
2025-08-07T12:57:52.650631,0,-2,52,0,0,6,78,80,78,0,47,133.06,0,268.00,-200.00,-913.00
2025-08-07T12:57:52.752737,2,2,59,0,0,7,78,80,70,-10,47,132.94,0,266.00,3.00,-1001.00
2025-08-07T12:57:52.854658,0,7,61,0,0,7,78,80,62,-10,47,132.77,0,167.00,-187.00,-1087.00
2025-08-07T12:57:52.956538,1,6,64,0,0,7,78,80,54,-20,47,132.77,0,313.00,-226.00,-1217.00
2025-08-07T12:57:53.058559,1,6,61,0,0,5,78,80,50,-30,47,132.86,0,55.00,-284.00,-1487.00
2025-08-07T12:57:53.160955,2,5,56,0,0,1,78,80,49,-30,47,132.78,0,101.00,-159.00,-1342.00
2025-08-07T12:57:53.262608,3,5,54,0,0,-2,78,80,53,-30,47,133.13,0,62.00,-165.00,-1395.00
2025-08-07T12:57:53.364835,3,5,50,0,0,-6,78,80,61,-30,47,132.94,0,347.00,-341.00,-1131.00
2025-08-07T12:57:53.466718,5,9,47,0,0,-8,78,80,69,-20,47,132.93,0,424.00,-9.00,-818.00
2025-08-07T12:57:53.568661,5,11,47,0,0,-8,78,80,10,-10,47,133.22,0,326.00,50.00,-921.00
2025-08-07T12:57:53.671202,4,10,44,0,0,-7,78,80,10,0,47,133.18,0,217.00,3.00,-915.00
2025-08-07T12:57:53.772752,3,6,36,0,0,-6,78,80,30,0,47,133.15,0,153.00,32.00,-799.00
2025-08-07T12:57:53.874703,2,-2,23,0,0,-4,77,80,34,0,47,133.56,0,328.00,101.00,-541.00
2025-08-07T12:57:53.976643,3,-6,9,0,0,0,77,80,10,0,47,132.86,0,27.00,-99.00,-663.00
2025-08-07T12:57:54.078727,6,-4,-10,0,0,2,77,80,10,0,47,133.15,0,-239.00,-180.00,-1063.00
2025-08-07T12:57:54.180888,5,-2,-18,0,0,2,77,80,10,0,47,133.28,0,-345.00,-163.00,-1221.00
2025-08-07T12:57:54.282639,6,-4,-18,0,0,1,77,80,10,0,47,133.19,0,-331.00,-22.00,-1106.00
2025-08-07T12:57:54.384622,5,-4,-16,0,0,0,77,80,10,0,47,133.13,0,88.00,23.00,-747.00
2025-08-07T12:57:54.490536,1,-4,-14,0,0,1,77,80,10,0,47,133.19,0,27.00,-268.00,-908.00
2025-08-07T12:57:54.588618,2,0,-9,0,0,1,77,80,10,0,47,133.34,0,-94.00,2.00,-1128.00
2025-08-07T12:57:54.690733,3,1,-7,0,0,0,77,80,10,0,47,133.01,0,90.00,68.00,-987.00
2025-08-07T12:57:54.792688,0,-1,-7,0,0,0,77,80,10,0,47,133.22,0,-10.00,113.00,-980.00
2025-08-07T12:57:54.894641,0,0,-3,0,0,0,78,81,10,0,47,133.26,0,74.00,-256.00,-1010.00
2025-08-07T12:57:54.996686,0,0,-3,0,0,0,78,81,10,0,47,132.86,0,-2.00,6.00,-998.00
2025-08-07T12:57:55.098846,0,0,-3,0,0,0,78,81,10,0,47,133.04,0,-6.00,2.00,-1000.00
2025-08-07T12:57:55.200738,0,0,-3,0,0,0,78,81,10,0,47,133.29,0,-6.00,1.00,-1006.00
2025-08-07T12:57:55.302696,0,0,-3,0,0,0,78,81,10,0,47,133.10,0,-3.00,3.00,-999.00
2025-08-07T12:57:55.404685,0,0,-3,0,0,0,78,81,10,0,47,133.11,0,-5.00,0.00,-962.00
2025-08-07T12:57:55.506694,0,0,-3,0,0,0,78,81,10,0,47,132.99,0,-3.00,1.00,-966.00
2025-08-07T12:57:55.608628,0,0,-3,0,0,0,78,81,10,0,47,133.14,0,-5.00,2.00,-1009.00
2025-08-07T12:57:55.659773,0,0,-3,0,0,0,78,81,10,0,47,133.10,0,-3.00,2.00,-1017.00
2025-08-07T12:57:55.762040,0,0,-3,0,0,0,78,81,10,0,47,133.08,0,-5.00,2.00,-1001.00
2025-08-07T12:57:55.914786,0,0,-3,0,0,0,78,80,10,0,47,133.28,0,-6.00,0.00,-995.00
2025-08-07T12:57:56.019359,0,0,-3,0,0,0,78,80,10,0,47,133.15,0,-6.00,1.00,-994.00
2025-08-07T12:57:56.068083,0,0,-3,0,0,0,78,80,10,0,47,132.86,0,-4.00,3.00,-991.00
2025-08-07T12:57:56.170482,0,0,-3,0,0,0,78,80,10,0,47,133.43,0,-6.00,2.00,-1006.00
2025-08-07T12:57:56.272470,0,0,-3,0,0,0,78,80,10,0,47,133.25,0,-4.00,1.00,-1007.00
2025-08-07T12:57:56.374085,0,0,-3,0,0,0,78,80,10,0,47,133.18,0,-5.00,3.00,-993.00
