TS,pitch,roll,yaw,vgx,vgy,vgz,templ,temph,tof,h,bat,baro,time,agx,agy,agz
2025-08-07T18:48:53.058442,3.59,-176.16,8.20,-0.96,0.91,1.38,33.19,33.19,27.00,138.99,0.00,996.67,42.61,-0.91,-0.17,-10.22
2025-08-07T18:48:53.486300,4.30,-176.66,8.37,-0.36,-2.22,-0.64,33.19,33.19,27.00,138.98,0.00,996.67,43.04,-0.91,0.67,-9.98
2025-08-07T18:48:53.700292,3.68,-176.62,8.29,0.10,2.55,-0.35,33.19,33.19,27.00,138.98,0.00,996.67,43.25,0.02,-0.73,-10.29
2025-08-07T18:48:53.914459,3.89,-176.33,8.35,1.36,-1.33,0.26,33.19,33.19,26.00,139.01,0.00,996.66,43.47,-0.01,-0.62,-10.23
2025-08-07T18:48:54.126530,4.08,-176.07,8.32,1.74,-1.10,-0.14,33.19,33.19,26.00,139.01,0.00,996.66,43.68,-0.33,0.20,-10.25
2025-08-07T18:48:54.342867,3.90,-175.94,8.69,1.10,0.99,1.71,33.19,33.19,27.00,139.01,0.00,996.66,43.89,-1.01,0.29,-10.38
2025-08-07T18:48:54.556759,3.72,-176.07,8.75,-0.26,0.78,0.28,33.19,33.19,27.00,139.01,0.00,996.66,44.11,-0.57,-0.06,-10.04
2025-08-07T18:48:54.770275,3.92,-175.80,8.76,1.58,-0.67,0.05,33.19,33.19,27.00,139.01,0.00,996.66,44.32,-1.19,-0.18,-10.23
2025-08-07T18:48:54.984627,3.95,-175.83,9.08,0.69,0.30,1.50,33.19,33.19,26.00,138.98,0.00,996.67,44.53,-1.56,0.83,-10.64
2025-08-07T18:48:55.207422,4.03,-176.24,8.98,-1.49,-0.37,-0.46,33.19,33.19,27.00,138.98,0.00,996.67,44.75,-0.71,0.16,-10.17
2025-08-07T18:48:55.412448,4.32,-176.67,9.04,-1.74,-1.36,0.28,33.19,33.19,28.00,138.98,0.00,996.67,44.96,-0.78,-0.10,-10.27
2025-08-07T18:48:55.626328,4.23,-176.28,8.65,2.00,0.71,-1.83,33.19,33.19,26.00,139.00,0.00,996.67,45.18,-1.36,-0.34,-10.34
2025-08-07T18:48:55.849211,3.51,-175.97,8.27,1.90,3.36,-1.77,33.19,33.19,27.00,139.00,0.00,996.67,45.39,-0.62,0.10,-10.26
2025-08-07T18:48:56.053746,3.62,-176.17,8.07,-0.13,-0.28,-0.93,33.19,33.19,25.00,139.00,0.00,996.67,45.60,-1.16,0.85,-10.68
2025-08-07T18:48:56.267592,3.67,-175.94,7.59,1.85,-0.09,-2.23,33.18,33.18,27.00,139.02,0.00,996.66,45.82,-0.85,0.75,-10.25
2025-08-07T18:48:56.485909,3.20,-175.98,7.46,0.03,2.06,-0.61,33.18,33.18,25.00,139.02,0.00,996.66,46.03,-0.38,-0.30,-10.17
2025-08-07T18:48:56.706584,3.57,-176.23,7.32,-0.79,-1.38,-0.64,33.18,33.18,27.00,138.99,0.00,996.67,46.25,-1.30,0.03,-10.39
2025-08-07T18:48:56.912290,3.66,-176.54,7.20,-1.20,-0.28,-0.59,33.18,33.18,27.00,138.99,0.00,996.67,46.46,-0.92,-0.11,-10.14
2025-08-07T18:48:57.126134,4.00,-176.33,7.17,1.36,-1.35,-0.12,33.18,33.18,28.00,138.99,0.00,996.67,46.68,-1.16,0.06,-9.89
2025-08-07T18:48:57.348033,3.96,-176.53,7.36,-0.76,0.36,0.90,33.18,33.18,27.00,139.00,0.00,996.67,46.89,-1.04,-0.30,-10.38
2025-08-07T18:48:57.564709,4.12,-176.36,7.49,1.50,-0.57,0.58,33.18,33.18,27.00,139.00,0.00,996.67,47.10,-1.04,0.62,-10.14
2025-08-07T18:48:57.768249,3.72,-176.17,7.94,1.32,2.16,2.09,33.18,33.18,27.00,139.00,0.00,996.67,47.32,-1.22,0.15,-10.25
2025-08-07T18:48:58.196104,4.11,-176.52,8.06,0.25,-0.95,0.43,33.18,33.18,28.00,138.97,0.00,996.67,47.75,-0.83,0.80,-10.19
2025-08-07T18:48:58.410186,4.40,-176.60,7.87,0.06,-1.27,-0.90,33.18,33.18,27.00,138.97,0.00,996.67,47.96,-1.00,0.21,-10.42
2025-08-07T18:48:58.624159,4.47,-176.75,7.92,-0.55,-0.14,0.23,33.18,33.18,26.00,138.97,0.00,996.67,48.17,-1.13,-0.26,-10.22
2025-08-07T18:48:58.838097,4.22,-176.63,7.53,0.86,1.08,-1.80,33.18,33.18,29.00,138.97,0.00,996.67,48.39,-0.60,-0.00,-10.59
2025-08-07T18:48:59.052382,4.81,-176.74,7.79,-0.45,-2.37,1.21,33.18,33.18,28.00,138.94,0.00,996.67,48.60,-1.59,-0.45,-10.12
2025-08-07T18:48:59.266147,5.04,-176.43,7.87,1.84,-1.18,0.37,33.18,33.18,26.00,138.94,0.00,996.67,48.82,-0.76,0.01,-10.34
2025-08-07T18:48:59.488128,5.17,-176.15,7.74,1.42,-0.58,-0.61,33.18,33.18,27.00,138.94,0.00,996.67,49.03,-0.90,-0.43,-10.20
2025-08-07T18:48:59.694016,5.27,-176.06,7.81,0.75,-0.52,0.32,33.18,33.18,26.00,138.96,0.00,996.67,49.24,-0.91,-0.14,-10.42
2025-08-07T18:48:59.908112,5.12,-176.02,7.72,0.60,0.49,-0.43,33.18,33.18,27.00,138.96,0.00,996.67,49.46,-0.52,0.10,-10.02
2025-08-07T18:49:00.130607,5.34,-175.97,7.45,0.77,-0.81,-1.27,33.18,33.18,26.00,138.96,0.00,996.67,49.67,-1.30,0.28,-10.13
2025-08-07T18:49:00.558061,5.16,-175.84,7.64,1.53,0.32,-0.01,33.17,33.17,28.00,138.95,0.00,996.67,50.10,-0.72,-0.07,-10.22
2025-08-07T18:49:00.772063,5.27,-175.86,8.03,0.00,-0.51,1.82,33.17,33.17,26.00,138.95,0.00,996.67,50.31,-0.97,-0.57,-10.24
2025-08-07T18:49:00.977990,5.26,-176.03,7.85,-0.19,0.01,-0.84,33.17,33.17,27.00,138.92,0.00,996.68,50.53,-0.87,0.38,-10.30
2025-08-07T18:49:01.192061,5.71,-176.29,7.93,-1.17,-2.08,0.40,33.17,33.17,28.00,138.92,0.00,996.68,50.74,-1.07,-0.56,-10.19
2025-08-07T18:49:01.406641,5.56,-175.62,7.74,3.56,0.42,-0.91,33.17,33.17,26.00,138.94,0.00,996.67,50.96,-0.49,0.00,-10.64
2025-08-07T18:49:01.624455,5.29,-175.85,7.60,-0.68,0.99,-0.62,33.17,33.17,27.00,138.94,0.00,996.67,51.17,-0.37,0.03,-10.29
2025-08-07T18:49:01.833998,5.30,-176.09,7.39,-0.23,-0.26,-0.99,33.17,33.17,27.00,138.94,0.00,996.67,51.38,-0.60,0.98,-10.39
2025-08-07T18:49:02.047999,4.97,-175.91,7.35,1.52,1.43,-0.18,33.17,33.17,28.00,138.93,0.00,996.67,51.60,-0.66,0.47,-10.10
2025-08-07T18:49:02.272576,4.72,-176.18,7.22,-0.55,1.42,-0.64,33.17,33.17,28.00,138.93,0.00,996.67,51.81,-1.28,0.71,-10.06
2025-08-07T18:49:02.483819,5.17,-175.96,7.10,1.36,-1.74,-0.56,33.17,33.17,27.00,138.93,0.00,996.67,52.03,-1.64,-0.11,-10.36
2025-08-07T18:49:02.689987,5.16,-175.96,6.72,0.74,0.03,-1.77,33.17,33.17,26.00,138.93,0.00,996.67,52.24,-0.92,0.69,-10.47
2025-08-07T18:49:02.911825,5.06,-176.34,6.66,-1.37,0.74,-0.27,33.17,33.17,28.00,138.93,0.00,996.67,52.46,-1.47,0.06,-10.32
2025-08-07T18:49:03.125816,5.22,-176.58,6.82,-0.29,-0.74,0.75,33.17,33.17,28.00,138.89,0.00,996.67,52.67,-0.98,0.97,-10.26
2025-08-07T18:49:03.331859,4.87,-176.79,7.16,-0.44,1.49,1.60,33.17,33.17,27.00,138.89,0.00,996.68,52.88,-0.60,0.45,-10.05
2025-08-07T18:49:03.545822,4.92,-176.83,7.02,0.28,-0.45,-0.66,33.17,33.17,27.00,138.89,0.00,996.68,53.10,-0.46,0.36,-10.50
2025-08-07T18:49:03.767711,4.90,-176.91,7.33,0.02,-0.02,1.44,33.16,33.16,27.00,138.92,0.00,996.67,53.31,-0.68,0.11,-10.29
2025-08-07T18:49:03.974821,4.53,-176.97,7.34,-0.01,1.72,0.06,33.16,33.16,27.00,138.92,0.00,996.67,53.53,-0.82,-0.01,-10.32
2025-08-07T18:49:04.187845,4.33,-176.82,7.58,1.00,0.81,1.10,33.16,33.16,27.00,138.92,0.00,996.67,53.74,-0.49,0.01,-10.24
2025-08-07T18:49:04.409863,4.56,-176.65,8.11,1.16,-1.15,2.47,33.16,33.16,27.00,138.93,0.00,996.67,53.95,-0.72,0.03,-10.11
2025-08-07T18:49:04.623844,4.27,-176.42,8.07,1.27,1.40,-0.18,33.16,33.16,27.00,138.93,0.00,996.67,54.17,-0.85,-0.21,-10.83
2025-08-07T18:49:04.837736,4.38,-175.94,7.89,2.83,-0.67,-0.84,33.16,33.16,28.00,138.93,0.00,996.67,54.38,-0.50,0.37,-9.95
2025-08-07T18:49:05.044483,4.12,-176.16,7.62,-0.74,1.08,-1.25,33.16,33.16,27.00,138.91,0.00,996.68,54.60,-0.44,-0.16,-10.42
2025-08-07T18:49:05.257692,4.36,-175.94,7.49,1.38,-0.89,-0.62,33.16,33.16,27.00,138.91,0.00,996.68,54.81,-1.27,-0.14,-10.28
2025-08-07T18:49:05.479648,4.11,-175.90,7.20,0.55,1.03,-1.37,33.16,33.16,27.00,138.90,0.00,996.68,55.02,-0.52,0.02,-10.40
2025-08-07T18:49:05.685817,4.23,-175.92,7.02,0.39,-0.32,-0.81,33.16,33.16,27.00,138.90,0.00,996.68,55.24,-1.18,0.13,-10.37
2025-08-07T18:49:05.899836,4.07,-176.15,6.90,-0.52,0.76,-0.59,33.16,33.16,27.00,138.90,0.00,996.68,55.45,-0.73,0.39,-10.04
2025-08-07T18:49:06.121814,4.03,-176.20,6.84,-0.07,0.61,-0.24,33.15,33.15,27.00,138.92,0.00,996.68,55.67,-1.54,-0.46,-10.48
2025-08-07T18:49:06.336916,3.90,-176.22,7.07,0.19,1.00,1.05,33.15,33.15,25.00,138.92,0.00,996.68,55.88,-1.42,-0.09,-10.18
2025-08-07T18:49:06.541554,4.02,-176.19,7.34,0.42,-0.69,1.27,33.15,33.15,27.00,138.92,0.00,996.68,56.09,-0.54,-0.17,-10.07
2025-08-07T18:49:06.755576,3.83,-176.11,7.49,0.68,1.05,0.70,33.15,33.15,28.00,138.91,0.00,996.68,56.31,-0.94,-0.18,-10.42
2025-08-07T18:49:06.977523,3.98,-175.75,7.88,2.14,-0.77,1.82,33.15,33.15,28.00,138.91,0.00,996.68,56.52,-0.61,0.14,-10.24
2025-08-07T18:49:07.183552,3.91,-175.88,8.12,0.02,0.35,1.12,33.15,33.15,27.00,138.91,0.00,996.68,56.74,-0.75,0.43,-10.18
2025-08-07T18:49:07.397661,3.39,-175.66,7.94,1.84,2.53,-0.82,33.15,33.15,28.00,138.91,0.00,996.68,56.95,-0.79,0.75,-10.37
2025-08-07T18:49:07.613953,3.29,-175.28,8.02,2.00,0.47,0.34,33.15,33.15,27.00,138.91,0.00,996.68,57.16,-0.68,-0.41,-10.51
2025-08-07T18:49:07.833622,3.77,-175.32,7.73,0.92,-2.25,-1.33,33.15,33.15,27.00,138.92,0.00,996.68,57.38,-0.64,1.20,-10.16
2025-08-07T18:49:08.048108,3.89,-175.71,8.10,-1.28,-0.28,1.71,33.15,33.15,27.00,138.92,0.00,996.68,57.59,-1.24,0.26,-10.16
2025-08-07T18:49:08.467955,3.71,-175.57,7.92,1.01,0.41,-1.22,33.14,33.14,27.00,138.92,0.00,996.68,58.02,-0.48,0.11,-10.16
2025-08-07T18:49:08.689456,3.48,-175.64,8.16,0.02,1.11,1.15,33.14,33.14,27.00,138.92,0.00,996.68,58.23,-0.69,-0.18,-10.27
2025-08-07T18:49:08.903730,3.45,-175.53,8.55,0.92,0.06,1.80,33.14,33.14,27.00,138.92,0.00,996.68,58.45,-0.45,-0.05,-9.86
2025-08-07T18:49:09.109567,3.69,-175.88,8.37,-1.11,-0.90,-0.82,33.14,33.14,27.00,138.92,0.00,996.67,58.66,-1.04,0.26,-10.41
2025-08-07T18:49:09.332432,4.09,-175.83,8.12,0.80,-1.79,-1.16,33.14,33.14,27.00,138.92,0.00,996.67,58.87,-0.87,0.29,-10.04
2025-08-07T18:49:09.537138,3.94,-175.65,8.13,1.15,0.88,0.03,33.14,33.14,27.00,138.92,0.00,996.67,59.09,-1.05,-0.19,-10.44
2025-08-07T18:49:09.759328,4.14,-175.68,7.81,0.45,-1.07,-1.51,33.14,33.14,27.00,138.90,0.00,996.68,59.30,-0.49,0.39,-10.18
2025-08-07T18:49:09.969275,4.09,-175.78,7.71,0.43,0.20,-0.44,33.14,33.14,27.00,138.90,0.00,996.68,59.52,-0.64,0.91,-10.24
2025-08-07T18:49:10.179336,3.68,-175.71,7.30,0.89,2.07,-1.94,33.14,33.14,27.00,138.90,0.00,996.68,59.73,-0.98,0.25,-10.30
2025-08-07T18:49:10.401420,3.66,-175.59,7.21,1.06,0.65,-0.41,33.14,33.14,28.00,138.90,0.00,996.68,59.94,-1.74,0.17,-10.18
2025-08-07T18:49:10.607320,3.56,-175.07,7.13,3.00,0.30,-0.36,33.14,33.14,27.00,138.90,0.00,996.68,60.16,-0.30,0.19,-10.02
2025-08-07T18:49:10.821319,3.26,-175.34,7.20,-0.53,1.68,0.32,33.14,33.14,27.00,138.90,0.00,996.68,60.37,-1.10,0.50,-10.60
2025-08-07T18:49:11.043222,3.81,-175.59,7.14,-0.56,-2.49,-0.29,33.14,33.14,28.00,138.90,0.00,996.68,60.59,-0.83,0.41,-10.15
2025-08-07T18:49:11.250123,3.76,-175.72,7.25,0.46,0.27,0.51,33.14,33.14,27.00,138.90,0.00,996.68,60.80,-0.78,1.24,-10.24
2025-08-07T18:49:11.677212,4.10,-175.44,7.31,0.98,-0.71,0.64,33.14,33.14,27.00,138.86,0.00,996.68,61.23,-0.56,0.51,-10.33
2025-08-07T18:49:11.892129,4.17,-175.45,7.07,0.40,0.06,-1.11,33.13,33.13,26.00,138.88,0.00,996.68,61.44,-1.52,-0.01,-10.52
2025-08-07T18:49:12.105337,3.92,-175.56,6.93,0.37,0.96,-0.67,33.13,33.13,27.00,138.88,0.00,996.68,61.66,-0.31,0.86,-10.59
2025-08-07T18:49:12.332287,3.93,-175.81,6.57,-0.38,0.04,-1.68,33.13,33.13,26.00,138.88,0.00,996.68,61.87,-0.87,0.81,-10.42
2025-08-07T18:49:12.541139,3.44,-175.64,6.46,0.98,2.71,-0.50,33.13,33.13,27.00,138.83,0.00,996.69,62.08,-1.45,-0.46,-10.21
2025-08-07T18:49:12.747287,2.96,-176.02,6.65,-1.36,2.45,0.87,33.13,33.13,27.00,138.83,0.00,996.69,62.30,-0.86,0.10,-10.20
2025-08-07T18:49:12.961190,2.84,-176.20,6.51,-0.27,0.50,-0.66,33.13,33.13,27.00,138.83,0.00,996.69,62.51,-0.42,0.33,-10.28
2025-08-07T18:49:13.175149,2.59,-176.57,6.27,-0.87,1.13,-1.11,33.13,33.13,27.00,138.85,0.00,996.68,62.73,-0.37,1.03,-10.26
2025-08-07T18:49:13.397211,2.90,-176.43,6.00,1.13,-0.98,-1.25,33.13,33.13,27.00,138.85,0.00,996.68,62.94,-1.43,0.23,-10.31
2025-08-07T18:49:13.603333,2.68,-176.78,5.98,-1.11,1.14,-0.14,33.13,33.13,27.00,138.85,0.00,996.68,63.15,-0.74,0.49,-10.20
2025-08-07T18:49:13.817122,2.61,-176.92,5.77,-0.15,0.38,-0.96,33.13,33.13,27.00,138.86,0.00,996.68,63.37,-0.55,0.37,-10.73
2025-08-07T18:49:14.031123,2.47,-177.02,5.88,-0.12,0.87,0.54,33.13,33.13,28.00,138.86,0.00,996.68,63.58,-0.84,0.16,-10.26
2025-08-07T18:49:14.247256,2.38,-177.17,5.70,-0.45,0.73,-0.88,33.13,33.13,27.00,138.83,0.00,996.69,63.80,-1.04,-0.06,-10.17
2025-08-07T18:49:14.460012,2.80,-176.93,5.33,1.44,-1.93,-1.71,33.13,33.13,29.00,138.83,0.00,996.69,64.01,-0.55,0.02,-10.17
2025-08-07T18:49:14.687426,3.00,-177.21,5.00,-0.96,-0.66,-1.56,33.13,33.13,27.00,138.83,0.00,996.69,64.22,-1.05,0.20,-10.32
2025-08-07T18:49:14.899131,2.66,-177.35,4.78,-0.39,1.81,-1.01,33.13,33.13,29.00,138.84,0.00,996.68,64.44,-0.93,-0.01,-10.15
2025-08-07T18:49:15.101007,2.85,-177.30,4.62,0.54,-0.67,-0.76,33.13,33.13,27.00,138.84,0.00,996.68,64.65,-0.89,0.06,-10.27
2025-08-07T18:49:15.323056,2.64,-177.40,4.56,0.05,1.34,-0.26,33.13,33.13,28.00,138.84,0.00,996.68,64.87,-1.11,0.57,-10.25
2025-08-07T18:49:15.528970,3.18,-177.19,4.21,1.13,-2.75,-1.65,33.12,33.12,26.00,138.85,0.00,996.68,65.08,-0.23,-0.25,-10.49
2025-08-07T18:49:15.744788,3.37,-176.99,3.93,1.68,-0.77,-1.33,33.12,33.12,27.00,138.85,0.00,996.68,65.29,-0.76,0.84,-10.05
2025-08-07T18:49:15.957027,5.17,-176.95,4.29,0.45,-8.20,1.68,33.12,33.12,28.00,138.85,0.00,996.68,65.51,-1.38,-0.06,-10.43
2025-08-07T18:49:16.171185,5.24,-177.20,4.52,-0.71,-0.52,1.10,33.12,33.12,28.00,138.83,0.00,996.69,65.72,-0.60,0.39,-10.50
2025-08-07T18:49:16.392886,5.65,-177.23,4.23,0.25,-2.11,-1.36,33.12,33.12,27.00,138.83,0.00,996.69,65.94,-0.64,0.22,-10.10
2025-08-07T18:49:16.607106,5.93,-177.11,4.17,0.87,-1.39,-0.27,33.12,33.12,27.00,138.82,0.00,996.69,66.15,-0.92,0.04,-10.44
2025-08-07T18:49:16.812909,6.04,-177.35,3.91,-0.59,-0.81,-1.24,33.12,33.12,27.00,138.82,0.00,996.69,66.36,-0.51,0.60,-10.53
2025-08-07T18:49:17.026858,5.84,-177.06,3.79,1.61,0.67,-0.58,33.12,33.12,26.00,138.82,0.00,996.69,66.58,-0.54,-0.05,-10.33
2025-08-07T18:49:17.240846,5.73,-176.97,3.85,0.95,0.53,0.29,33.12,33.12,27.00,138.82,0.00,996.69,66.79,-1.07,0.41,-10.24
2025-08-07T18:49:17.453733,5.60,-176.57,3.73,2.28,0.18,-0.56,33.12,33.12,27.00,138.82,0.00,996.69,67.01,-0.25,0.16,-10.46
2025-08-07T18:49:17.669090,5.27,-176.61,3.66,0.28,1.48,-0.33,33.12,33.12,28.00,138.82,0.00,996.69,67.22,-0.77,0.29,-9.82
2025-08-07T18:49:17.882904,5.75,-176.70,3.65,0.20,-2.19,-0.04,33.12,33.12,28.00,138.86,0.00,996.68,67.43,-1.14,0.53,-10.33
2025-08-07T18:49:18.099689,6.00,-176.65,3.63,0.61,-1.38,-0.07,33.12,33.12,28.00,138.86,0.00,996.68,67.65,-0.67,0.10,-10.05
2025-08-07T18:49:18.310779,5.79,-176.50,3.51,1.35,0.90,-0.58,33.12,33.12,28.00,138.83,0.00,996.69,67.86,-0.91,0.60,-10.47
2025-08-07T18:49:18.525471,6.15,-176.56,3.37,0.02,-1.71,-0.64,33.12,33.12,27.00,138.83,0.00,996.69,68.08,-0.97,0.02,-9.83
2025-08-07T18:49:18.738852,5.98,-176.52,3.50,0.46,0.73,0.60,33.12,33.12,27.00,138.83,0.00,996.69,68.29,-1.01,-0.17,-10.29
2025-08-07T18:49:18.955259,5.95,-176.64,3.30,-0.21,-0.11,-0.90,33.12,33.12,27.00,138.83,0.00,996.69,68.50,-0.56,0.06,-10.15
2025-08-07T18:49:19.168312,5.81,-177.10,3.28,-1.90,0.21,-0.11,33.12,33.12,27.00,138.83,0.00,996.69,68.72,-0.19,-0.05,-10.52
2025-08-07T18:49:19.380631,5.72,-177.13,3.54,-0.06,0.30,1.19,33.12,33.12,27.00,138.83,0.00,996.69,68.93,-0.86,-0.33,-10.28
2025-08-07T18:49:19.594703,5.51,-177.30,3.54,-0.12,0.84,0.02,33.12,33.12,27.00,138.84,0.00,996.68,69.15,-0.68,0.75,-10.21
2025-08-07T18:49:19.808659,5.55,-176.99,3.56,1.64,-0.38,0.08,33.12,33.12,28.00,138.84,0.00,996.68,69.36,-0.62,-0.21,-10.43
2025-08-07T18:49:20.025740,5.13,-177.14,3.50,-0.01,1.78,-0.29,33.12,33.12,28.00,138.84,0.00,996.68,69.57,-0.58,0.76,-10.06
2025-08-07T18:49:20.236732,5.33,-176.74,3.50,2.14,-0.98,0.00,33.12,33.12,28.00,138.83,0.00,996.69,69.79,-0.90,-0.08,-10.41
2025-08-07T18:49:20.451160,5.18,-176.45,3.47,1.52,0.74,-0.12,33.12,33.12,28.00,138.83,0.00,996.69,70.00,-1.00,-0.29,-10.57
2025-08-07T18:49:20.672900,4.89,-176.38,3.22,0.94,1.31,-1.16,33.11,33.11,29.00,138.83,0.00,996.69,70.22,-0.83,0.46,-10.11
2025-08-07T18:49:20.878579,4.64,-176.44,3.26,0.14,1.22,0.20,33.11,33.11,29.00,138.83,0.00,996.69,70.43,-0.91,0.18,-10.29
2025-08-07T18:49:21.092585,4.62,-176.28,3.28,1.01,0.52,0.05,33.11,33.11,27.00,138.83,0.00,996.69,70.64,-1.67,-0.18,-10.19
2025-08-07T18:49:21.314836,4.35,-176.40,3.33,-0.23,1.36,0.26,33.11,33.11,28.00,138.82,0.00,996.69,70.86,-0.94,0.03,-10.29
2025-08-07T18:49:21.520721,4.21,-176.21,3.64,1.45,0.70,1.45,33.11,33.11,27.00,138.82,0.00,996.69,71.07,-0.81,0.32,-10.47
2025-08-07T18:49:21.734573,4.47,-176.38,4.04,-0.16,-1.48,1.85,33.11,33.11,28.00,138.82,0.00,996.69,71.29,-0.35,0.52,-10.23
2025-08-07T18:49:21.949349,4.46,-176.18,4.26,1.23,0.06,1.05,33.11,33.11,30.00,138.82,0.00,996.69,71.50,-0.74,-0.07,-10.15
2025-08-07T18:49:22.170658,4.89,-175.90,4.62,1.41,-2.03,1.68,33.11,33.11,27.00,138.82,0.00,996.69,71.71,-0.89,-0.54,-10.07
2025-08-07T18:49:22.377605,4.80,-175.79,5.03,0.92,0.45,1.91,33.11,33.11,27.00,138.82,0.00,996.69,71.93,-0.94,-0.04,-10.50
2025-08-07T18:49:22.588692,4.79,-175.86,4.96,-0.10,0.15,-0.32,33.11,33.11,31.00,138.79,0.00,996.69,72.14,-1.00,-0.34,-10.21
2025-08-07T18:49:23.018677,4.92,-176.25,4.87,0.83,-0.35,0.03,33.11,33.11,28.00,138.80,0.00,996.69,72.57,-1.32,0.98,-10.48
2025-08-07T18:49:23.232378,4.57,-176.20,4.72,1.18,1.89,-0.72,33.11,33.11,27.00,138.80,0.00,996.69,72.79,-1.30,1.08,-10.23
2025-08-07T18:49:23.446489,4.62,-176.41,4.27,-0.62,-0.13,-2.06,33.11,33.11,26.00,138.80,0.00,996.69,73.00,-1.05,0.04,-10.42
2025-08-07T18:49:23.668308,4.51,-176.51,4.51,-0.26,0.62,1.09,33.11,33.11,28.00,138.82,0.00,996.69,73.21,-1.07,-0.23,-10.56
2025-08-07T18:49:23.874588,4.25,-176.65,4.52,-0.53,1.10,0.05,33.11,33.11,28.00,138.82,0.00,996.69,73.43,-0.57,-0.34,-10.60
2025-08-07T18:49:24.088424,4.79,-176.74,4.29,0.06,-2.48,-1.08,33.11,33.11,27.00,138.82,0.00,996.69,73.64,-0.93,0.28,-10.27
2025-08-07T18:49:24.312303,4.65,-177.14,3.89,-1.37,0.81,-1.86,33.11,33.11,27.00,138.79,0.00,996.69,73.86,-1.12,0.45,-10.30
2025-08-07T18:49:24.516406,4.61,-177.65,3.76,-2.16,0.33,-0.59,33.11,33.11,27.00,138.79,0.00,996.69,74.07,-1.13,0.02,-10.55
2025-08-07T18:49:24.731276,4.62,-177.75,4.09,0.22,0.23,1.54,33.10,33.10,26.00,138.79,0.00,996.69,74.28,-1.36,0.87,-10.22
2025-08-07T18:49:24.947247,4.68,-177.92,3.74,-0.65,-0.17,-1.63,33.10,33.10,28.00,138.79,0.00,996.69,74.50,-1.04,-0.09,-10.25
2025-08-07T18:49:25.166294,4.95,-177.85,3.66,0.77,-0.83,-0.36,33.10,33.10,27.00,138.79,0.00,996.69,74.71,-1.69,0.45,-10.05
2025-08-07T18:49:25.372852,4.72,-177.63,3.35,1.19,0.68,-1.46,33.10,33.10,27.00,138.81,0.00,996.69,74.93,-0.09,-0.13,-10.45
2025-08-07T18:49:25.586360,4.83,-177.78,3.22,-0.21,-0.81,-0.62,33.10,33.10,27.00,138.81,0.00,996.69,75.14,-0.30,0.51,-10.27
2025-08-07T18:49:25.808301,4.57,-177.87,3.14,-0.12,0.93,-0.33,33.10,33.10,27.00,138.81,0.00,996.69,75.35,-0.26,0.21,-10.61
2025-08-07T18:49:26.015507,4.62,-178.01,3.28,-0.36,-0.22,0.61,33.10,33.10,27.00,138.78,0.00,996.69,75.57,-0.86,0.15,-10.34
2025-08-07T18:49:26.228273,4.57,-177.49,3.70,2.61,0.18,2.00,33.10,33.10,27.00,138.78,0.00,996.69,75.78,-0.75,-0.12,-10.45
2025-08-07T18:49:26.442232,4.71,-177.19,3.62,1.53,-0.32,-0.41,33.10,33.10,28.00,138.78,0.00,996.69,76.00,-1.46,-0.19,-10.22
2025-08-07T18:49:26.659705,4.66,-177.20,3.54,-0.27,-0.22,-0.36,33.10,33.10,27.00,138.81,0.00,996.69,76.21,-0.04,-0.91,-10.13
2025-08-07T18:49:26.873581,5.22,-177.73,3.17,-1.75,-2.20,-1.72,33.10,33.10,26.00,138.81,0.00,996.69,76.42,-1.69,0.94,-10.18
2025-08-07T18:49:27.094220,5.63,-177.97,3.09,-0.88,-2.08,-0.35,33.10,33.10,27.00,138.83,0.00,996.69,76.64,-0.75,0.06,-10.34
2025-08-07T18:49:27.301716,5.36,-177.98,3.51,0.46,1.29,1.94,33.10,33.10,27.00,138.83,0.00,996.69,76.85,-0.96,0.62,-10.21
2025-08-07T18:49:27.512989,5.11,-178.06,3.40,-0.19,0.96,-0.52,33.10,33.10,27.00,138.83,0.00,996.69,77.07,-0.59,-0.02,-10.22
2025-08-07T18:49:27.727072,5.35,-178.14,3.45,0.06,-0.93,0.25,33.10,33.10,27.00,138.82,0.00,996.69,77.28,-1.33,0.50,-10.54
2025-08-07T18:49:27.941126,5.35,-178.01,3.51,0.55,-0.23,0.26,33.10,33.10,28.00,138.82,0.00,996.69,77.49,-0.56,-0.47,-10.38
2025-08-07T18:49:28.163185,5.41,-177.77,3.13,1.42,-0.17,-1.77,33.10,33.10,27.00,138.82,0.00,996.69,77.71,-1.17,0.13,-10.17
2025-08-07T18:49:28.369224,5.56,-177.84,3.07,-0.45,-0.54,-0.27,33.09,33.09,28.00,138.85,0.00,996.68,77.92,-1.25,-0.63,-10.09
2025-08-07T18:49:28.583121,5.50,-177.68,3.07,0.81,0.35,0.02,33.09,33.09,25.00,138.85,0.00,996.68,78.14,-1.16,-0.27,-10.33
2025-08-07T18:49:28.805039,5.34,-177.82,2.97,-0.55,0.87,-0.49,33.09,33.09,27.00,138.85,0.00,996.68,78.35,-1.24,-0.17,-10.66
2025-08-07T18:49:29.015089,5.59,-177.73,3.07,0.63,-0.95,0.46,33.09,33.09,27.00,138.85,0.00,996.68,78.56,-1.41,0.02,-10.31
2025-08-07T18:49:29.233358,5.35,-177.58,3.05,0.95,1.11,-0.06,33.09,33.09,28.00,138.85,0.00,996.68,78.78,-0.95,-0.04,-10.19
2025-08-07T18:49:29.451591,6.03,-177.91,3.23,-1.20,-2.93,0.83,33.09,33.09,29.00,138.86,0.00,996.68,78.99,-1.48,0.26,-10.04
2025-08-07T18:49:29.653257,5.98,-177.93,2.97,0.23,0.20,-1.22,33.09,33.09,28.00,138.86,0.00,996.68,79.21,-1.03,0.25,-10.39
2025-08-07T18:49:29.874034,5.35,-178.30,3.21,-1.63,2.65,1.13,33.09,33.09,27.00,138.86,0.00,996.68,79.42,-0.37,-0.09,-10.35
2025-08-07T18:49:30.079090,5.21,-178.11,3.52,1.39,0.53,1.42,33.09,33.09,26.00,138.86,0.00,996.68,79.63,-0.74,0.57,-10.32
2025-08-07T18:49:30.294866,5.13,-177.67,3.48,2.14,0.52,-0.17,33.09,33.09,28.00,138.86,0.00,996.68,79.85,-1.12,-0.18,-9.95
2025-08-07T18:49:30.508897,4.97,-177.43,3.71,1.71,0.70,1.09,33.09,33.09,27.00,138.86,0.00,996.68,80.06,-0.84,0.60,-10.17
2025-08-07T18:49:30.723119,5.07,-177.57,3.74,-0.33,-0.84,0.14,33.09,33.09,27.00,138.88,0.00,996.68,80.28,-0.16,0.18,-10.05
2025-08-07T18:49:30.939871,4.82,-177.64,3.77,0.08,1.26,0.11,33.09,33.09,27.00,138.88,0.00,996.68,80.49,-1.08,0.32,-10.63
2025-08-07T18:49:31.151665,5.04,-177.37,3.67,1.41,-1.21,-0.43,33.09,33.09,28.00,138.88,0.00,996.68,80.70,-0.60,-0.19,-10.06
2025-08-07T18:49:31.369651,4.92,-177.70,3.50,-0.84,0.99,-0.82,33.09,33.09,27.00,138.88,0.00,996.68,80.92,-1.73,1.02,-10.34
2025-08-07T18:49:31.579093,4.87,-177.62,3.64,0.90,0.07,0.67,33.09,33.09,27.00,138.88,0.00,996.68,81.13,-0.58,0.54,-10.11
2025-08-07T18:49:31.800797,4.57,-177.71,3.86,0.05,1.81,1.01,33.09,33.09,27.00,138.88,0.00,996.68,81.35,-1.58,0.49,-10.37
2025-08-07T18:49:32.006807,5.35,-177.86,3.74,-0.39,-3.58,-0.55,33.09,33.09,27.00,138.88,0.00,996.68,81.56,-1.10,0.21,-10.13
2025-08-07T18:49:32.228821,5.37,-178.12,3.77,-1.02,-0.25,0.15,33.09,33.09,27.00,138.88,0.00,996.68,81.77,-0.67,-0.03,-10.48
2025-08-07T18:49:32.435498,4.99,-177.83,4.08,1.85,1.98,1.44,33.10,33.10,27.00,138.85,0.00,996.68,81.99,-1.24,0.59,-10.03
2025-08-07T18:49:32.648214,5.06,-177.54,4.03,1.55,-0.26,-0.26,33.10,33.10,27.00,138.85,0.00,996.68,82.20,-1.11,-0.12,-10.46
2025-08-07T18:49:32.862771,4.81,-177.27,3.80,1.48,1.05,-1.08,33.10,33.10,26.00,138.85,0.00,996.68,82.42,-0.65,-0.05,-10.21
2025-08-07T18:49:33.076819,4.50,-177.72,4.26,-1.84,1.52,2.18,33.10,33.10,27.00,138.85,0.00,996.68,82.63,-0.93,0.06,-10.19
2025-08-07T18:49:33.504698,4.84,-177.87,4.25,-0.29,-1.44,0.47,33.10,33.10,28.00,138.86,0.00,996.68,83.06,-1.86,0.41,-9.85
2025-08-07T18:49:33.728608,4.76,-177.54,4.36,1.52,0.35,0.49,33.10,33.10,27.00,138.86,0.00,996.68,83.27,-0.75,-0.43,-10.32
2025-08-07T18:49:33.933952,4.87,-177.78,4.43,-1.06,-0.49,0.35,33.10,33.10,27.00,138.86,0.00,996.68,83.49,-0.90,-0.33,-10.12
2025-08-07T18:49:34.155061,4.88,-177.63,4.14,1.21,0.38,-1.34,33.10,33.10,28.00,138.84,0.00,996.68,83.70,-1.68,0.57,-10.06
2025-08-07T18:49:34.360650,4.71,-177.23,4.50,2.08,0.93,1.67,33.10,33.10,27.00,138.84,0.00,996.68,83.91,-1.08,-0.10,-10.35
2025-08-07T18:49:34.574899,4.62,-177.19,4.53,0.43,0.20,0.15,33.10,33.10,27.00,138.84,0.00,996.68,84.13,-0.47,-0.03,-10.53
2025-08-07T18:49:35.012530,4.80,-176.46,4.33,2.05,-1.56,-0.85,33.10,33.10,25.00,138.86,0.00,996.68,84.56,-0.77,-0.09,-10.38
2025-08-07T18:49:35.216655,4.71,-176.22,4.41,1.50,0.21,0.35,33.10,33.10,27.00,138.86,0.00,996.68,84.77,-0.44,0.02,-10.21
2025-08-07T18:49:35.430611,4.85,-176.48,4.29,-0.94,-0.71,-0.56,33.10,33.10,27.00,138.84,0.00,996.68,84.98,-0.73,-0.07,-9.74
2025-08-07T18:49:35.645850,4.43,-176.16,4.01,1.96,1.83,-1.31,33.10,33.10,26.00,138.84,0.00,996.68,85.20,-0.59,0.15,-10.61
2025-08-07T18:49:35.858523,4.17,-175.83,4.15,1.71,1.34,0.66,33.10,33.10,27.00,138.82,0.00,996.69,85.41,-1.01,-0.40,-10.20
2025-08-07T18:49:36.080514,3.63,-175.45,4.20,2.05,2.58,0.23,33.10,33.10,28.00,138.82,0.00,996.69,85.63,-0.74,-0.35,-10.46
2025-08-07T18:49:36.286503,3.45,-175.75,4.20,-0.81,0.76,0.00,33.10,33.10,27.00,138.82,0.00,996.69,85.84,-0.43,0.40,-9.95
2025-08-07T18:49:36.500602,3.25,-176.31,3.90,-2.23,1.40,-1.42,33.10,33.10,27.00,138.83,0.00,996.69,86.05,-1.44,0.06,-10.12
2025-08-07T18:49:36.714703,2.82,-176.31,3.76,0.64,2.33,-0.61,33.10,33.10,28.00,138.83,0.00,996.69,86.27,-1.15,0.57,-10.26
2025-08-07T18:49:36.928475,2.85,-176.30,4.04,0.19,-0.09,1.27,33.10,33.10,27.00,138.83,0.00,996.69,86.48,-0.61,-0.46,-10.30
2025-08-07T18:49:37.154969,3.12,-176.16,3.79,1.00,-1.24,-1.13,33.11,33.11,27.00,138.82,0.00,996.69,86.70,-0.66,-0.05,-10.80
2025-08-07T18:49:37.358405,3.05,-176.10,3.59,1.00,0.74,-0.96,33.11,33.11,27.00,138.82,0.00,996.69,86.91,-1.31,0.63,-9.99
2025-08-07T18:49:37.580133,3.06,-175.75,3.62,2.17,0.16,0.14,33.11,33.11,28.00,138.82,0.00,996.69,87.12,-0.93,0.23,-10.24
2025-08-07T18:49:37.784617,3.31,-175.41,3.67,1.87,-1.06,0.23,33.11,33.11,27.00,138.81,0.00,996.69,87.34,-0.80,-0.26,-10.14
2025-08-07T18:49:38.006670,3.10,-175.51,3.44,0.03,1.29,-1.07,33.11,33.11,25.00,138.81,0.00,996.69,87.55,-1.11,0.14,-10.00
2025-08-07T18:49:38.212453,3.46,-175.91,3.49,-1.29,-1.42,0.25,33.11,33.11,26.00,138.79,0.00,996.69,87.77,-1.19,0.32,-10.70
2025-08-07T18:49:38.425157,3.18,-176.17,3.21,-0.81,1.26,-1.31,33.11,33.11,27.00,138.79,0.00,996.69,87.98,-0.40,0.08,-10.09
2025-08-07T18:49:38.648358,3.16,-176.07,3.23,1.15,-0.13,0.08,33.11,33.11,27.00,138.79,0.00,996.69,88.19,-0.25,0.65,-10.53
2025-08-07T18:49:38.864073,3.13,-175.75,3.11,2.17,0.45,-0.55,33.11,33.11,27.00,138.82,0.00,996.69,88.41,-1.07,0.52,-9.96
2025-08-07T18:49:39.068366,3.46,-175.60,3.27,0.74,-0.84,0.72,33.11,33.11,28.00,138.82,0.00,996.69,88.62,-1.93,-0.74,-10.07
2025-08-07T18:49:39.282600,3.43,-175.91,3.26,-1.34,0.45,-0.03,33.11,33.11,28.00,138.82,0.00,996.69,88.84,-1.25,-0.59,-10.32
2025-08-07T18:49:39.496312,3.34,-175.88,3.26,0.60,0.41,0.00,33.11,33.11,27.00,138.82,0.00,996.69,89.05,-0.59,0.18,-10.48
2025-08-07T18:49:39.719058,3.63,-176.11,3.59,-0.58,-1.41,1.56,33.11,33.11,27.00,138.82,0.00,996.69,89.26,-0.54,0.19,-10.12
2025-08-07T18:49:39.932272,3.37,-176.06,3.19,0.19,1.02,-1.86,33.12,33.12,27.00,138.82,0.00,996.69,89.48,-0.20,-0.75,-10.46
2025-08-07T18:49:40.138275,4.01,-175.86,3.33,1.53,-2.54,0.61,33.12,33.12,27.00,138.82,0.00,996.69,89.69,-1.62,0.39,-10.62
2025-08-07T18:49:40.353208,3.37,-175.76,3.24,0.78,2.87,-0.38,33.12,33.12,25.00,138.82,0.00,996.69,89.91,-0.44,-0.19,-10.48
2025-08-07T18:49:40.566323,3.72,-176.03,3.65,-0.64,-1.59,1.88,33.12,33.12,26.00,138.80,0.00,996.69,90.12,-0.68,0.45,-10.17
2025-08-07T18:49:40.780358,3.61,-176.00,3.13,0.55,0.84,-2.43,33.12,33.12,27.00,138.80,0.00,996.69,90.33,-1.34,0.04,-10.52
2025-08-07T18:49:40.994874,3.59,-175.87,2.86,0.69,0.16,-1.24,33.12,33.12,27.00,138.80,0.00,996.69,90.55,-0.74,-0.55,-10.27
2025-08-07T18:49:41.206197,3.72,-175.79,3.00,0.97,-0.80,0.66,33.12,33.12,27.00,138.79,0.00,996.69,90.76,-0.32,0.38,-10.09
2025-08-07T18:49:41.430228,3.94,-176.07,2.65,-1.14,-1.03,-1.66,33.12,33.12,25.00,138.79,0.00,996.69,90.98,-0.71,-0.48,-10.65
2025-08-07T18:49:41.636304,4.04,-176.10,2.82,0.26,-0.11,0.81,33.12,33.12,27.00,138.79,0.00,996.69,91.19,-1.39,0.07,-10.01
2025-08-07T18:49:41.850851,4.23,-176.38,2.77,-0.88,-0.64,-0.23,33.12,33.12,27.00,138.79,0.00,996.69,91.40,-1.23,0.15,-10.57
2025-08-07T18:49:42.064801,4.04,-176.43,2.80,-0.33,0.71,0.12,33.12,33.12,28.00,138.79,0.00,996.69,91.62,-0.43,-0.83,-10.44
2025-08-07T18:49:42.286152,3.85,-176.27,2.70,1.01,1.22,-0.47,33.13,33.13,28.00,138.79,0.00,996.69,91.83,-1.24,-0.17,-9.97
2025-08-07T18:49:42.706148,3.86,-176.53,2.84,-0.96,-0.40,1.62,33.13,33.13,26.00,138.79,0.00,996.69,92.26,-0.52,-0.43,-9.75
2025-08-07T18:49:42.920124,3.98,-176.35,2.83,1.10,-0.66,-0.01,33.13,33.13,29.00,138.80,0.00,996.69,92.47,-0.56,-0.13,-10.29
2025-08-07T18:49:43.134157,4.13,-176.42,2.85,0.00,-0.83,0.06,33.13,33.13,28.00,138.80,0.00,996.69,92.69,-0.51,-0.05,-10.38
2025-08-07T18:49:43.358677,4.49,-176.25,2.63,1.13,-1.77,-1.01,33.13,33.13,26.00,138.80,0.00,996.69,92.90,-0.62,0.02,-10.07
2025-08-07T18:49:43.566887,4.14,-175.89,2.72,2.03,1.37,0.40,33.13,33.13,27.00,138.78,0.00,996.69,93.12,-0.21,-0.15,-10.67
2025-08-07T18:49:43.776391,4.33,-175.71,2.69,1.29,-0.90,-0.12,33.13,33.13,27.00,138.78,0.00,996.69,93.33,-0.77,0.13,-10.19
2025-08-07T18:49:43.992208,4.16,-175.47,2.41,1.38,0.90,-1.33,33.13,33.13,27.00,138.78,0.00,996.69,93.54,-0.92,-0.36,-10.21
2025-08-07T18:49:44.212333,4.00,-175.60,2.45,0.13,0.56,0.20,33.13,33.13,27.00,138.78,0.00,996.69,93.76,-0.36,0.61,-10.20
2025-08-07T18:49:44.417963,3.95,-175.67,2.40,-0.04,0.01,-0.23,33.13,33.13,27.00,138.78,0.00,996.69,93.97,-0.36,-0.27,-10.30
2025-08-07T18:49:44.640070,4.12,-175.71,2.75,0.35,-0.90,1.65,33.13,33.13,28.00,138.76,0.00,996.69,94.19,-0.50,0.27,-10.01
2025-08-07T18:49:44.845978,4.00,-176.11,2.91,-1.10,0.42,0.73,33.13,33.13,29.00,138.76,0.00,996.69,94.40,-0.44,0.69,-10.26
2025-08-07T18:49:45.059938,3.91,-176.11,2.81,0.83,0.47,-0.49,33.13,33.13,28.00,138.76,0.00,996.69,94.61,-0.79,0.90,-10.13
2025-08-07T18:49:45.274057,3.80,-175.64,2.52,2.63,0.39,-1.33,33.13,33.13,29.00,138.78,0.00,996.69,94.83,-0.51,0.07,-10.52
2025-08-07T18:49:45.488075,3.93,-176.29,2.72,-2.91,-0.20,0.93,33.13,33.13,26.00,138.78,0.00,996.69,95.04,-1.39,-0.48,-9.90
2025-08-07T18:49:45.712955,4.10,-176.13,2.40,1.18,-0.78,-1.51,33.13,33.13,26.00,138.78,0.00,996.69,95.26,-0.74,0.14,-10.27
2025-08-07T18:49:45.916510,3.77,-175.70,2.38,2.58,1.25,-0.11,33.14,33.14,26.00,138.76,0.00,996.69,95.47,-0.13,0.32,-10.02
2025-08-07T18:49:46.130932,3.96,-175.82,2.74,-0.23,-0.93,1.71,33.14,33.14,27.00,138.76,0.00,996.69,95.68,-0.62,-0.12,-10.43
2025-08-07T18:49:46.342683,4.59,-175.71,2.87,0.89,-2.78,0.61,33.14,33.14,29.00,138.72,0.00,996.70,95.90,-1.14,-0.11,-10.47
2025-08-07T18:49:46.558070,4.68,-175.46,2.82,1.39,-0.69,-0.26,33.14,33.14,27.00,138.72,0.00,996.70,96.11,-0.38,-0.35,-10.28
2025-08-07T18:49:46.771787,4.87,-175.20,2.97,1.93,-1.22,0.70,33.14,33.14,27.00,138.72,0.00,996.70,96.33,-0.26,0.50,-10.13
2025-08-07T18:49:46.994708,5.02,-175.58,2.93,-1.42,-0.74,-0.17,33.14,33.14,27.00,138.72,0.00,996.70,96.54,-0.77,-0.19,-10.35
2025-08-07T18:49:47.210181,5.09,-175.50,2.96,0.86,-0.25,0.11,33.14,33.14,27.00,138.72,0.00,996.70,96.75,-1.11,0.11,-10.24
2025-08-07T18:49:47.421823,5.19,-175.30,2.99,1.99,-0.61,0.17,33.14,33.14,28.00,138.72,0.00,996.70,96.97,-0.60,1.15,-10.07
2025-08-07T18:49:47.626226,5.41,-175.51,2.73,-0.62,-0.93,-1.22,33.14,33.14,29.00,138.70,0.00,996.70,97.18,-1.17,-0.12,-10.32
2025-08-07T18:49:47.843327,5.13,-175.40,2.70,0.87,1.19,-0.14,33.14,33.14,28.00,138.70,0.00,996.70,97.40,-0.67,-0.12,-10.22
2025-08-07T18:49:48.055980,5.38,-175.24,2.66,1.30,-0.95,-0.20,33.14,33.14,27.00,138.70,0.00,996.70,97.61,-1.46,0.18,-10.73
