TS,pitch,roll,yaw,vgx,vgy,vgz,templ,temph,tof,h,bat,baro,time,agx,agy,agz
2025-08-07T18:34:48.529089,3.98,1.18,-21.78,1.57,-3.60,2.37,31.95,31.95,2885.00,142.41,0.00,996.26,31.63,-1.57,-0.67,9.31
2025-08-07T18:34:48.742544,4.87,1.10,-22.01,-0.31,3.79,-1.10,31.95,31.95,2886.00,142.41,0.00,996.26,31.84,-1.54,0.09,9.85
2025-08-07T18:34:48.956518,2.95,0.76,-21.82,-1.70,-9.39,0.89,31.95,31.95,2885.00,142.37,0.00,996.27,32.06,-1.21,0.32,9.60
2025-08-07T18:34:49.178987,4.82,1.02,-21.95,1.17,8.18,-0.59,31.95,31.95,2901.00,142.37,0.00,996.27,32.27,-1.77,0.28,9.39
2025-08-07T18:34:49.385595,3.06,0.72,-21.94,-0.77,-8.31,0.03,31.95,31.95,2876.00,142.37,0.00,996.27,32.48,-0.63,-1.03,9.75
2025-08-07T18:34:49.598669,4.60,0.85,-21.95,0.99,6.96,-0.04,31.95,31.95,2889.00,142.35,0.00,996.27,32.70,-1.19,-0.47,9.35
2025-08-07T18:34:49.817612,5.37,0.87,-21.71,-0.17,3.04,1.13,31.95,31.95,2904.00,142.35,0.00,996.27,32.91,-1.85,0.59,9.35
2025-08-07T18:34:50.026343,5.09,0.11,-21.51,-3.35,-2.05,0.92,31.95,31.95,2892.00,142.35,0.00,996.27,33.13,-2.24,-0.37,9.78
2025-08-07T18:34:50.251775,6.26,0.15,-21.46,0.31,5.28,0.26,31.95,31.95,2884.00,142.30,0.00,996.27,33.34,-1.31,-0.17,9.22
2025-08-07T18:34:50.462235,6.01,0.20,-21.52,0.28,-1.56,-0.29,31.95,31.95,2886.00,142.30,0.00,996.27,33.55,-1.71,-0.09,9.62
2025-08-07T18:34:50.669500,5.99,0.05,-21.78,-0.57,-0.73,-1.19,31.95,31.95,2887.00,142.29,0.00,996.28,33.77,-2.32,-0.19,10.01
2025-08-07T18:34:50.882823,5.78,0.63,-21.84,2.30,-1.65,-0.30,31.95,31.95,2904.00,142.29,0.00,996.28,33.98,-2.18,0.83,9.51
2025-08-07T18:34:51.096408,5.72,0.24,-21.33,-1.93,-0.72,2.38,31.95,31.95,2885.00,142.29,0.00,996.28,34.19,-1.71,0.21,9.40
2025-08-07T18:34:51.310483,5.80,0.16,-21.20,-0.27,0.18,0.63,31.95,31.95,2908.00,142.28,0.00,996.28,34.41,-1.32,-0.12,9.77
2025-08-07T18:34:51.524165,5.72,-0.06,-21.24,-0.83,-0.93,-0.20,31.95,31.95,2887.00,142.28,0.00,996.28,34.62,-1.85,-0.37,9.10
2025-08-07T18:34:51.738377,6.53,0.07,-20.78,0.41,3.66,2.12,31.95,31.95,2897.00,142.26,0.00,996.28,34.84,-1.31,0.41,9.26
2025-08-07T18:34:51.952282,6.53,-0.24,-21.10,-1.85,-0.29,-1.48,31.95,31.95,2900.00,142.26,0.00,996.28,35.05,-1.51,0.59,9.21
2025-08-07T18:34:52.173197,5.90,0.15,-21.01,1.61,-3.39,0.43,31.95,31.95,2893.00,142.26,0.00,996.28,35.26,-1.81,0.46,9.56
2025-08-07T18:34:52.388323,6.47,0.01,-20.93,-0.71,2.14,0.37,31.95,31.95,2899.00,142.23,0.00,996.28,35.48,-1.97,0.09,9.47
2025-08-07T18:34:52.592661,6.52,-0.05,-21.36,-0.45,0.06,-2.01,31.95,31.95,2902.00,142.23,0.00,996.28,35.69,-1.41,0.26,9.36
2025-08-07T18:34:52.808310,6.91,0.02,-21.08,0.82,1.95,1.31,31.95,31.95,2891.00,142.23,0.00,996.28,35.91,-0.85,-0.82,8.86
2025-08-07T18:34:53.023963,7.49,0.51,-21.06,2.36,2.58,0.11,31.95,31.95,2883.00,142.22,0.00,996.28,36.12,-1.46,-0.03,9.10
2025-08-07T18:34:53.236295,7.59,0.22,-20.64,-1.52,0.09,1.96,31.95,31.95,2866.00,142.22,0.00,996.28,36.33,-1.79,0.36,9.06
2025-08-07T18:34:53.450321,7.57,0.37,-20.67,-0.05,-0.52,-0.15,31.94,31.94,2898.00,142.35,0.00,996.27,36.55,-2.07,1.41,9.51
2025-08-07T18:34:53.672290,8.16,0.14,-20.80,-1.09,2.49,-0.62,31.94,31.94,2887.00,142.35,0.00,996.27,36.76,-1.86,0.02,9.46
2025-08-07T18:34:53.879917,7.32,-0.11,-21.12,-1.49,-4.29,-1.48,31.94,31.94,2891.00,142.35,0.00,996.27,36.98,-1.86,0.58,9.64
2025-08-07T18:34:54.093496,7.53,0.17,-21.09,1.00,0.87,0.14,31.94,31.94,2894.00,142.32,0.00,996.27,37.19,-1.46,0.51,9.14
2025-08-07T18:34:54.306411,7.77,-0.18,-21.00,-2.02,0.87,0.41,31.94,31.94,2901.00,142.32,0.00,996.27,37.40,-1.73,0.71,9.44
2025-08-07T18:34:54.520188,7.98,0.58,-20.52,3.23,0.58,2.25,31.94,31.94,2893.00,142.28,0.00,996.28,37.62,-2.06,0.67,9.71
2025-08-07T18:34:54.734541,7.59,0.76,-20.75,0.28,-1.96,-1.05,31.94,31.94,2888.00,142.28,0.00,996.28,37.83,-1.56,1.10,9.48
2025-08-07T18:34:54.948018,7.60,1.02,-20.52,1.12,-0.60,1.07,31.94,31.94,2893.00,142.28,0.00,996.28,38.05,-2.30,0.30,9.30
2025-08-07T18:34:55.162070,7.89,0.79,-20.47,-1.26,1.01,0.23,31.94,31.94,2886.00,142.28,0.00,996.28,38.26,-1.98,0.48,9.58
2025-08-07T18:34:55.379374,7.71,0.88,-19.97,0.12,-0.92,2.32,31.94,31.94,2879.00,142.28,0.00,996.28,38.47,-1.48,0.75,9.80
2025-08-07T18:34:55.811158,8.19,0.50,-19.95,-1.55,0.43,1.07,31.94,31.94,2878.00,142.23,0.00,996.28,38.90,-1.19,0.62,9.49
2025-08-07T18:34:56.026020,7.76,0.17,-19.91,-1.35,-2.38,0.17,31.94,31.94,2888.00,142.23,0.00,996.28,39.12,-1.99,-0.31,9.68
2025-08-07T18:34:56.232442,7.95,0.43,-20.01,1.29,0.30,-0.47,31.94,31.94,2884.00,142.21,0.00,996.28,39.33,-2.33,-0.06,9.48
2025-08-07T18:34:56.446933,7.99,0.51,-19.63,0.41,-0.31,1.76,31.94,31.94,2896.00,142.21,0.00,996.28,39.54,-2.15,0.01,9.06
2025-08-07T18:34:56.660029,8.39,0.28,-19.60,-1.12,1.85,0.14,31.94,31.94,2896.00,142.21,0.00,996.28,39.76,-1.43,0.15,9.51
2025-08-07T18:34:57.089822,9.00,0.51,-19.52,1.17,2.00,0.32,31.94,31.94,2888.00,142.20,0.00,996.29,40.19,-1.93,0.06,8.80
2025-08-07T18:34:57.302228,8.64,0.29,-19.45,-0.36,-2.02,0.34,31.94,31.94,2893.00,142.20,0.00,996.29,40.40,-1.98,-1.08,9.16
2025-08-07T18:34:57.516124,8.85,0.57,-19.64,1.41,0.82,-0.87,31.94,31.94,2893.00,142.20,0.00,996.29,40.62,-1.63,-0.09,8.96
2025-08-07T18:34:57.735295,8.97,-0.20,-19.78,-3.08,0.04,-0.65,31.94,31.94,2882.00,142.20,0.00,996.29,40.83,-2.32,-0.89,9.02
2025-08-07T18:34:57.942023,8.46,-0.14,-20.21,0.36,-2.50,-2.04,31.94,31.94,2898.00,142.20,0.00,996.29,41.04,-1.71,-0.24,9.79
2025-08-07T18:34:58.157925,8.63,-0.02,-20.38,0.74,0.82,-0.78,31.94,31.94,2891.00,142.20,0.00,996.29,41.26,-1.37,-0.29,9.40
2025-08-07T18:34:58.376314,8.63,0.18,-20.55,0.07,-0.44,-0.78,31.94,31.94,2893.00,142.20,0.00,996.29,41.47,-2.40,1.70,9.93
2025-08-07T18:34:58.585948,8.28,-0.20,-20.98,-1.43,-1.74,-2.04,31.95,31.95,2898.00,142.15,0.00,996.29,41.69,-1.67,-0.71,10.21
2025-08-07T18:34:58.807876,11.89,0.50,-21.24,3.44,17.08,-1.20,31.95,31.95,2898.00,142.15,0.00,996.29,41.90,-1.63,-0.22,9.35
2025-08-07T18:34:59.015454,8.59,-0.16,-21.68,-3.40,-15.41,-2.06,31.95,31.95,367.00,142.14,0.00,996.29,42.11,-1.45,0.55,9.84
2025-08-07T18:34:59.227668,10.62,0.30,-21.64,1.99,9.68,0.20,31.95,31.95,17.00,142.14,0.00,996.29,42.33,-1.46,0.30,9.75
2025-08-07T18:34:59.444053,20.96,5.08,-29.43,23.72,47.63,-36.43,31.95,31.95,65.00,142.14,0.00,996.29,42.54,-5.09,-1.74,9.37
2025-08-07T18:34:59.657507,26.65,6.17,-32.17,5.17,28.59,-12.78,31.95,31.95,38.00,142.14,0.00,996.29,42.76,-1.02,0.89,9.90
2025-08-07T18:34:59.878528,26.36,2.38,-30.43,-18.04,-0.93,8.14,31.95,31.95,57.00,142.14,0.00,996.29,42.97,-4.13,1.17,10.37
2025-08-07T18:35:00.091912,35.42,0.70,-46.30,-8.27,42.76,-74.18,31.95,31.95,61.00,142.12,0.00,996.30,43.18,-5.74,0.95,9.40
2025-08-07T18:35:00.297812,35.38,5.60,-55.23,25.08,1.80,-41.71,31.95,31.95,61.00,142.12,0.00,996.30,43.40,-2.12,-2.53,7.93
2025-08-07T18:35:00.520045,35.07,11.02,-66.72,27.73,-1.42,-53.71,31.95,31.95,52.00,142.12,0.00,996.30,43.61,-5.07,-2.20,6.94
2025-08-07T18:35:00.725973,17.16,8.18,-79.48,-11.40,-84.81,-59.65,31.95,31.95,71.00,142.15,0.00,996.29,43.83,-4.35,-1.79,7.66
2025-08-07T18:35:00.947916,15.44,11.68,-90.14,18.99,-7.13,-49.78,31.95,31.95,63.00,142.15,0.00,996.29,44.04,-1.10,-2.81,9.96
2025-08-07T18:35:01.154012,15.79,8.59,-98.71,-13.04,1.79,-40.07,31.95,31.95,52.00,142.15,0.00,996.29,44.25,-2.57,-1.15,10.24
2025-08-07T18:35:01.367897,20.03,6.32,-108.21,-10.77,20.06,-44.35,31.96,31.96,53.00,142.13,0.00,996.30,44.47,-2.83,1.36,8.98
2025-08-07T18:35:01.581911,12.31,14.59,-118.57,40.63,-36.87,-48.46,31.96,31.96,56.00,142.13,0.00,996.30,44.68,-3.50,-1.07,9.07
2025-08-07T18:35:01.807382,7.84,25.55,-121.44,55.15,-21.47,-13.40,31.96,31.96,39.00,142.16,0.00,996.29,44.90,-2.11,-2.40,8.19
2025-08-07T18:35:02.009887,7.24,25.86,-125.66,4.74,-3.71,-19.69,31.96,31.96,51.00,142.16,0.00,996.29,45.11,-3.32,-1.74,11.00
2025-08-07T18:35:02.231790,1.23,26.16,-129.66,4.36,-29.91,-18.70,31.96,31.96,56.00,142.16,0.00,996.29,45.32,-3.45,-0.82,9.27
2025-08-07T18:35:02.437937,-4.23,30.96,-135.27,25.40,-26.79,-26.20,31.98,31.98,50.00,142.14,0.00,996.29,45.54,-1.40,-0.02,8.70
2025-08-07T18:35:02.651716,-2.17,27.60,-139.09,-11.78,8.46,-17.89,31.98,31.98,53.00,142.14,0.00,996.29,45.75,-1.70,-2.25,9.05
2025-08-07T18:35:02.865934,-0.74,38.47,-139.89,53.61,6.58,-3.71,31.99,31.99,2355.00,142.17,0.00,996.29,45.97,-0.02,1.50,9.32
2025-08-07T18:35:03.078690,38.60,20.84,-171.35,-80.79,184.64,-147.04,31.99,31.99,2732.00,142.17,0.00,996.29,46.18,-4.67,0.65,8.02
2025-08-07T18:35:03.293897,36.84,25.96,-166.94,27.03,-5.76,20.63,31.99,31.99,2771.00,142.17,0.00,996.29,46.39,-2.17,-1.34,10.95
2025-08-07T18:35:03.510178,51.39,24.74,-139.81,-4.69,68.99,126.78,32.00,32.00,2793.00,142.19,0.00,996.29,46.61,-6.46,2.45,7.04
2025-08-07T18:35:03.721844,61.14,18.27,-162.81,-28.68,50.63,-107.48,32.00,32.00,2775.00,142.19,0.00,996.29,46.82,-1.16,0.31,8.61
2025-08-07T18:35:03.935697,66.29,19.62,-164.01,8.77,28.98,-5.62,32.00,32.00,2871.00,142.19,0.00,996.29,47.03,-2.25,-0.99,8.28
2025-08-07T18:35:04.154938,69.80,2.22,-174.53,-79.82,19.50,-49.16,32.01,32.01,3234.00,142.16,0.00,996.29,47.25,-6.42,-2.38,8.09
2025-08-07T18:35:04.364151,74.48,-0.28,-170.30,-8.17,26.46,19.77,32.01,32.01,3739.00,142.16,0.00,996.29,47.46,-4.03,-5.48,5.98
2025-08-07T18:35:04.578385,76.74,14.32,-166.79,71.17,14.00,16.41,32.02,32.02,3672.00,142.18,0.00,996.29,47.68,-7.37,-3.19,7.97
2025-08-07T18:35:04.791727,-66.65,49.00,-171.76,166.96,176.44,-23.25,32.02,32.02,3750.00,142.18,0.00,996.29,47.89,-6.15,-0.30,3.98
2025-08-07T18:35:05.005856,74.55,66.34,-169.91,71.83,180.70,8.64,32.02,32.02,1105.00,142.18,0.00,996.29,48.10,-10.44,3.39,-2.41
2025-08-07T18:35:05.227837,36.83,100.92,-158.91,153.69,176.29,51.41,32.02,32.02,449.00,142.17,0.00,996.29,48.32,-5.45,-0.61,-7.22
2025-08-07T18:35:05.434467,13.43,114.44,-177.01,54.31,109.50,-84.56,32.02,32.02,435.00,142.17,0.00,996.29,48.53,-2.46,-4.34,-7.99
2025-08-07T18:35:05.645922,7.29,118.36,-180.44,9.58,29.08,-16.03,32.03,32.03,958.00,142.16,0.00,996.29,48.75,-2.07,-5.20,-8.84
2025-08-07T18:35:05.864219,16.44,108.52,-168.26,-54.94,-42.52,56.89,32.03,32.03,541.00,142.16,0.00,996.29,48.96,-3.56,-4.23,-9.45
2025-08-07T18:35:06.076415,10.63,105.92,-145.73,-22.40,26.58,105.30,32.03,32.03,827.00,142.16,0.00,996.29,49.17,-0.97,-6.60,-9.91
2025-08-07T18:35:06.289772,10.49,104.30,-141.88,-17.88,-0.26,18.00,32.02,32.02,806.00,142.37,0.00,996.27,49.39,-0.13,-4.88,-7.77
2025-08-07T18:35:06.503630,8.90,109.31,-159.71,13.64,6.79,-83.33,32.02,32.02,790.00,142.37,0.00,996.27,49.60,-0.39,-5.70,-9.19
2025-08-07T18:35:06.717603,10.86,114.24,-184.12,14.10,-8.63,-114.06,32.02,32.02,770.00,142.37,0.00,996.27,49.82,-3.04,-4.90,-8.74
2025-08-07T18:35:06.931599,22.36,118.75,-190.16,13.52,-53.36,-28.21,32.03,32.03,756.00,142.34,0.00,996.27,50.03,-4.59,-3.21,-8.72
2025-08-07T18:35:07.145715,22.84,119.77,-169.97,-3.29,-2.84,94.31,32.03,32.03,732.00,142.34,0.00,996.27,50.24,-3.40,-4.91,-10.31
2025-08-07T18:35:07.358549,13.37,121.59,-149.83,0.83,44.35,94.11,32.04,32.04,719.00,142.30,0.00,996.27,50.46,-2.86,-4.32,-10.24
2025-08-07T18:35:07.573710,13.01,121.10,-146.08,-10.36,1.54,17.53,32.04,32.04,736.00,142.30,0.00,996.27,50.67,-1.76,-3.90,-7.97
2025-08-07T18:35:07.787487,11.75,126.83,-153.24,19.90,6.37,-33.46,32.04,32.04,622.00,142.30,0.00,996.27,50.89,-2.89,-3.26,-8.98
2025-08-07T18:35:08.001535,14.08,132.01,-166.70,17.47,-10.43,-62.88,32.06,32.06,741.00,142.28,0.00,996.28,51.10,-3.49,-4.16,-9.45
2025-08-07T18:35:08.215433,21.30,137.08,-177.24,17.58,-34.14,-49.25,32.06,32.06,722.00,142.28,0.00,996.28,51.31,-3.13,-3.80,-9.32
2025-08-07T18:35:08.441545,19.46,136.77,-183.58,-8.22,8.64,-29.63,32.07,32.07,707.00,142.26,0.00,996.28,51.53,-3.71,-5.05,-8.88
2025-08-07T18:35:08.643828,20.02,135.44,-178.75,-12.72,-3.27,22.60,32.07,32.07,691.00,142.26,0.00,996.28,51.74,-2.32,-4.19,-9.14
2025-08-07T18:35:08.857382,33.76,132.62,-167.58,-20.07,-65.39,52.19,32.07,32.07,689.00,142.26,0.00,996.28,51.96,-4.52,-5.11,-10.10
2025-08-07T18:35:09.079416,19.46,135.87,-158.43,10.05,67.59,42.77,32.08,32.08,688.00,142.22,0.00,996.28,52.17,-3.66,-1.34,-7.03
2025-08-07T18:35:09.285494,12.21,141.40,-163.13,21.00,34.21,-21.95,32.08,32.08,728.00,142.22,0.00,996.28,52.38,-2.78,-2.15,-9.70
2025-08-07T18:35:09.499349,9.83,144.09,-168.55,7.84,11.08,-25.34,32.08,32.08,694.00,142.22,0.00,996.28,52.60,-1.87,-2.66,-10.67
2025-08-07T18:35:09.714400,16.87,143.77,-173.01,-6.46,-32.66,-20.85,32.10,32.10,690.00,142.20,0.00,996.29,52.81,-4.43,-3.62,-11.88
2025-08-07T18:35:09.927665,20.05,132.37,-155.18,-58.24,-14.64,83.30,32.10,32.10,700.00,142.20,0.00,996.29,53.03,-4.22,-0.85,-10.31
2025-08-07T18:35:10.149541,15.34,137.93,-156.11,21.29,21.53,-4.30,32.11,32.11,330.00,142.19,0.00,996.29,53.24,-1.17,-0.81,-6.57
2025-08-07T18:35:10.355443,13.22,148.19,-167.05,43.58,10.99,-51.13,32.11,32.11,437.00,142.19,0.00,996.29,53.46,-4.18,-2.43,-8.80
2025-08-07T18:35:10.576072,16.60,153.53,-173.88,20.86,-15.24,-31.91,32.11,32.11,688.00,142.19,0.00,996.29,53.67,-4.95,-3.70,-11.41
2025-08-07T18:35:10.781901,18.52,149.46,-174.29,-23.70,-9.07,-1.92,32.13,32.13,650.00,142.18,0.00,996.29,53.88,-3.21,-3.42,-9.57
2025-08-07T18:35:10.997692,19.07,146.34,-171.72,-19.78,-2.18,11.97,32.13,32.13,640.00,142.18,0.00,996.29,54.10,-4.41,-3.95,-9.59
2025-08-07T18:35:11.426243,22.92,142.49,-174.76,-7.33,-11.59,-7.48,32.14,32.14,653.00,142.17,0.00,996.29,54.53,-5.74,-0.15,-9.97
2025-08-07T18:35:11.639517,50.42,126.68,-161.18,-78.65,-129.31,63.45,32.14,32.14,605.00,142.17,0.00,996.29,54.74,-7.68,0.67,-8.48
2025-08-07T18:35:11.853447,49.00,126.31,-156.51,-8.54,4.88,21.82,32.16,32.16,249.00,142.13,0.00,996.29,54.95,-3.20,-1.88,-5.10
2025-08-07T18:35:12.076644,42.34,123.76,-167.85,-17.29,32.15,-52.98,32.16,32.16,275.00,142.13,0.00,996.29,55.17,-9.19,-0.09,-6.93
2025-08-07T18:35:12.289373,38.63,125.37,-170.97,3.14,17.40,-14.59,32.16,32.16,251.00,142.13,0.00,996.29,55.38,-8.45,2.04,-10.02
2025-08-07T18:35:12.495326,43.13,112.71,-166.13,-65.61,-20.52,22.61,32.18,32.18,293.00,142.10,0.00,996.30,55.60,-6.09,-0.07,-5.42
2025-08-07T18:35:12.717460,14.27,137.17,-172.18,109.29,136.52,-28.26,32.18,32.18,410.00,142.10,0.00,996.30,55.81,-4.47,-1.42,-7.06
2025-08-07T18:35:12.931411,12.50,153.17,-184.02,70.21,8.53,-55.31,32.20,32.20,595.00,142.08,0.00,996.30,56.02,-3.34,-4.53,-11.47
2025-08-07T18:35:13.147307,3.40,141.95,-172.66,-56.83,43.63,53.07,32.20,32.20,520.00,142.08,0.00,996.30,56.24,-3.31,-1.83,-12.20
2025-08-07T18:35:13.351489,-2.52,122.92,-155.28,-95.14,29.60,81.21,32.20,32.20,470.00,142.08,0.00,996.30,56.45,-3.08,-1.44,-9.65
2025-08-07T18:35:13.563401,0.29,128.89,-152.34,20.88,-13.60,13.76,32.21,32.21,494.00,142.09,0.00,996.30,56.67,0.84,-4.00,-9.61
2025-08-07T18:35:13.781765,3.31,137.63,-164.80,34.65,-14.35,-58.26,32.21,32.21,473.00,142.09,0.00,996.30,56.88,-0.17,-4.22,-10.17
2025-08-07T18:35:13.993510,8.92,144.37,-177.48,28.13,-25.88,-59.23,32.23,32.23,456.00,142.05,0.00,996.30,57.09,-2.49,0.05,-11.48
2025-08-07T18:35:14.429349,9.66,132.98,-150.90,-40.66,6.47,96.06,32.23,32.23,446.00,142.05,0.00,996.30,57.52,-2.81,-1.19,-9.77
2025-08-07T18:35:14.635375,9.21,139.31,-138.09,23.06,1.86,59.85,32.24,32.24,461.00,142.06,0.00,996.30,57.74,-1.20,-4.93,-9.24
2025-08-07T18:35:14.849224,9.44,149.68,-150.65,43.32,-0.66,-58.69,32.24,32.24,448.00,142.06,0.00,996.30,57.95,-2.68,-4.38,-9.85
2025-08-07T18:35:15.063371,14.41,161.06,-168.74,49.75,-22.08,-84.53,32.24,32.24,448.00,142.06,0.00,996.30,58.16,-5.00,-3.36,-9.51
2025-08-07T18:35:15.277401,13.77,159.43,-167.11,-10.16,3.65,7.59,32.26,32.26,464.00,142.00,0.00,996.31,58.38,-3.81,-1.10,-10.01
2025-08-07T18:35:15.501368,1.25,124.76,-119.49,-167.04,59.83,222.55,32.26,32.26,431.00,142.00,0.00,996.31,58.59,-3.68,0.59,-13.68
2025-08-07T18:35:15.713348,7.66,133.40,-114.82,34.96,-30.37,21.79,32.27,32.27,462.00,142.01,0.00,996.31,58.81,-0.57,-1.58,-8.70
2025-08-07T18:35:16.137311,17.67,175.33,-157.18,71.00,-22.90,-58.49,32.27,32.27,442.00,142.01,0.00,996.31,59.23,-4.00,-0.09,-10.86
2025-08-07T18:35:16.355205,12.20,149.67,-115.12,-125.01,26.33,196.54,32.29,32.29,454.00,141.96,0.00,996.32,59.45,-4.70,-5.33,-11.33
2025-08-07T18:35:16.561165,10.08,147.63,-105.73,-15.40,9.65,43.89,32.29,32.29,408.00,141.96,0.00,996.32,59.66,-1.25,-4.75,-8.49
2025-08-07T18:35:16.783281,17.03,158.72,-143.38,47.15,-33.51,-175.92,32.30,32.30,404.00,141.94,0.00,996.32,59.88,-1.28,-5.87,-11.24
2025-08-07T18:35:16.990404,29.25,162.88,-163.87,17.84,-58.05,-95.77,32.30,32.30,441.00,141.94,0.00,996.32,60.09,-3.61,0.07,-10.22
2025-08-07T18:35:17.203140,30.24,144.30,-133.09,-92.16,-5.42,143.86,32.30,32.30,460.00,141.94,0.00,996.32,60.30,-4.32,-3.97,-9.83
2025-08-07T18:35:17.417326,22.69,132.63,-119.86,-61.11,34.00,61.80,32.31,32.31,416.00,141.91,0.00,996.32,60.52,-1.54,-3.60,-9.01
2025-08-07T18:35:17.631236,29.17,142.48,-132.06,42.27,-31.91,-56.99,32.31,32.31,417.00,141.91,0.00,996.32,60.73,-2.54,-0.44,-11.54
2025-08-07T18:35:17.851963,34.15,157.13,-138.89,65.15,-25.89,-31.94,32.31,32.31,426.00,141.91,0.00,996.32,60.94,-1.14,-2.00,-9.65
2025-08-07T18:35:18.059120,40.40,160.00,-154.08,10.67,-31.85,-70.98,32.32,32.32,438.00,141.89,0.00,996.32,61.16,-2.22,-1.57,-9.99
2025-08-07T18:35:18.281472,44.40,160.63,-159.07,-0.02,-20.86,-23.33,32.32,32.32,448.00,141.89,0.00,996.32,61.37,-4.06,-2.27,-9.87
2025-08-07T18:35:18.492533,40.16,163.92,-143.71,13.09,17.07,71.76,32.33,32.33,430.00,141.91,0.00,996.32,61.59,-2.05,-1.41,-10.21
2025-08-07T18:35:18.700323,32.94,145.62,-138.15,-89.81,32.67,26.00,32.33,32.33,434.00,141.91,0.00,996.32,61.80,-3.84,-1.95,-9.39
2025-08-07T18:35:18.923234,29.65,117.95,-112.02,-134.13,13.94,122.11,32.33,32.33,453.00,141.91,0.00,996.32,62.01,-2.88,2.26,-10.79
2025-08-07T18:35:19.137089,27.84,132.33,-115.16,63.72,6.14,-14.65,32.35,32.35,573.00,141.89,0.00,996.32,62.23,-0.52,1.71,-8.44
2025-08-07T18:35:19.343160,29.21,149.12,-140.65,75.41,-8.05,-119.11,32.35,32.35,502.00,141.89,0.00,996.32,62.44,-2.27,-0.24,-10.59
2025-08-07T18:35:19.557144,35.92,178.87,-167.75,138.19,-33.41,-126.64,32.36,32.36,430.00,141.89,0.00,996.32,62.66,-2.95,-1.49,-11.45
2025-08-07T18:35:19.771052,41.81,-170.91,-180.39,47.18,-29.70,-59.08,32.36,32.36,532.00,141.89,0.00,996.32,62.87,-3.28,-2.69,-9.22
2025-08-07T18:35:19.993081,36.18,174.55,-158.63,-70.13,24.46,101.67,32.36,32.36,564.00,141.89,0.00,996.32,63.08,-3.25,-3.30,-10.17
2025-08-07T18:35:20.204779,23.08,151.26,-126.03,-112.14,60.63,152.37,32.37,32.37,451.00,141.82,0.00,996.33,63.30,-3.48,-1.32,-11.46
2025-08-07T18:35:20.413014,14.45,132.56,-108.54,-91.29,38.69,81.73,32.37,32.37,489.00,141.82,0.00,996.33,63.51,0.42,1.16,-9.87
2025-08-07T18:35:20.627231,17.17,135.88,-116.10,12.30,-14.90,-35.33,32.37,32.37,617.00,141.82,0.00,996.33,63.73,0.88,1.52,-8.30
2025-08-07T18:35:20.844181,18.57,159.40,-139.03,108.33,-7.96,-107.16,32.38,32.38,525.00,141.84,0.00,996.33,63.94,-0.67,0.75,-10.29
2025-08-07T18:35:21.055205,23.89,177.51,-171.06,83.90,-25.94,-149.69,32.38,32.38,417.00,141.84,0.00,996.33,64.15,-2.45,-1.02,-11.00
2025-08-07T18:35:21.279504,34.87,-162.25,-191.48,95.12,-53.85,-95.39,32.39,32.39,466.00,141.82,0.00,996.33,64.37,-1.54,-2.22,-10.35
2025-08-07T18:35:21.483110,32.90,-170.57,-174.47,-39.40,7.33,79.47,32.39,32.39,531.00,141.82,0.00,996.33,64.58,-2.38,-2.74,-9.94
2025-08-07T18:35:21.704954,25.98,166.15,-127.14,-111.08,32.01,221.18,32.39,32.39,451.00,141.82,0.00,996.33,64.80,-4.67,-2.08,-10.79
2025-08-07T18:35:21.910985,26.42,165.35,-101.01,-4.02,-3.57,122.08,32.40,32.40,431.00,141.81,0.00,996.33,65.01,-1.89,2.12,-10.29
2025-08-07T18:35:22.132073,24.56,168.37,-107.19,13.69,7.17,-28.87,32.40,32.40,457.00,141.81,0.00,996.33,65.22,-1.41,1.21,-9.15
2025-08-07T18:35:22.339052,28.88,-165.44,-139.57,123.67,-21.70,-151.28,32.41,32.41,429.00,141.79,0.00,996.33,65.44,-2.65,-0.28,-11.40
2025-08-07T18:35:22.553945,39.36,-149.67,-172.77,74.71,-51.33,-155.16,32.41,32.41,406.00,141.79,0.00,996.33,65.65,-2.69,-3.56,-9.70
2025-08-07T18:35:22.767086,36.73,-153.13,-167.58,-14.69,10.33,24.26,32.41,32.41,495.00,141.79,0.00,996.33,65.87,-2.92,-2.01,-9.74
2025-08-07T18:35:22.981240,36.34,-175.34,-141.26,-104.24,0.79,122.99,32.42,32.42,441.00,141.80,0.00,996.33,66.08,-5.07,-1.93,-10.50
2025-08-07T18:35:23.204035,31.34,163.20,-105.25,-101.32,21.77,168.28,32.42,32.42,408.00,141.80,0.00,996.33,66.29,-2.71,1.04,-10.28
2025-08-07T18:35:23.408891,32.78,159.15,-94.90,-19.70,-9.86,48.35,32.42,32.42,510.00,141.80,0.00,996.33,66.51,0.02,1.94,-8.44
2025-08-07T18:35:23.623142,38.33,179.76,-111.96,96.96,-29.13,-79.72,32.43,32.43,477.00,141.77,0.00,996.34,66.72,-0.86,1.28,-10.72
2025-08-07T18:35:23.844870,39.15,-167.04,-131.10,63.17,-6.28,-89.45,32.43,32.43,402.00,141.77,0.00,996.34,66.94,-2.56,0.56,-10.53
2025-08-07T18:35:24.054508,44.97,-148.94,-151.40,85.95,-30.43,-94.87,32.43,32.43,414.00,141.77,0.00,996.34,67.15,-2.04,-3.08,-9.86
2025-08-07T18:35:24.274347,47.83,-149.30,-152.31,-0.56,-17.12,-4.24,32.43,32.43,497.00,141.77,0.00,996.34,67.36,-1.50,-3.16,-9.19
2025-08-07T18:35:24.479052,46.24,-172.50,-120.02,-108.51,5.10,150.87,32.43,32.43,484.00,141.77,0.00,996.34,67.58,-4.16,-1.70,-10.33
2025-08-07T18:35:24.701300,31.68,171.14,-88.92,-77.67,66.44,145.36,32.44,32.44,408.00,141.76,0.00,996.34,67.79,-2.63,-0.69,-9.86
2025-08-07T18:35:24.906839,29.80,167.24,-82.81,-19.47,6.29,28.52,32.44,32.44,456.00,141.76,0.00,996.34,68.01,-0.53,-0.06,-8.72
2025-08-07T18:35:25.131161,39.16,-173.24,-99.96,92.07,-46.87,-80.12,32.45,32.45,473.00,141.75,0.00,996.34,68.22,-1.20,0.44,-10.29
2025-08-07T18:35:25.548779,52.23,-127.59,-136.68,81.61,-35.82,-64.40,32.45,32.45,490.00,141.75,0.00,996.34,68.65,-2.43,-4.61,-9.07
2025-08-07T18:35:25.770825,47.13,-147.60,-120.10,-92.85,20.38,77.48,32.46,32.46,590.00,141.72,0.00,996.34,68.86,-1.98,-4.51,-9.15
2025-08-07T18:35:25.976773,44.66,-171.40,-101.56,-111.44,8.58,86.64,32.46,32.46,417.00,141.72,0.00,996.34,69.08,-2.89,-2.26,-11.47
2025-08-07T18:35:26.189711,39.20,170.61,-85.97,-84.39,23.01,72.83,32.46,32.46,416.00,141.72,0.00,996.34,69.29,-2.23,1.07,-9.94
2025-08-07T18:35:26.405001,38.17,170.75,-87.48,0.67,2.01,-7.05,32.47,32.47,504.00,141.72,0.00,996.34,69.50,-1.27,1.31,-7.69
2025-08-07T18:35:26.631555,39.62,-173.82,-102.67,73.26,-9.83,-70.98,32.47,32.47,477.00,141.72,0.00,996.34,69.72,-1.49,1.10,-11.19
2025-08-07T18:35:26.832669,38.66,-157.45,-120.85,77.54,2.33,-84.96,32.47,32.47,396.00,141.70,0.00,996.35,69.93,-3.16,-2.26,-10.81
2025-08-07T18:35:27.054930,47.20,-157.87,-134.40,0.51,-42.93,-63.33,32.47,32.47,440.00,141.70,0.00,996.35,70.15,-3.33,0.84,-12.21
2025-08-07T18:35:27.268705,58.81,-176.50,-127.83,-86.34,-57.76,30.70,32.47,32.47,461.00,141.70,0.00,996.35,70.36,-4.73,0.81,-11.48
2025-08-07T18:35:27.474857,55.43,177.87,-107.68,-26.04,13.74,94.19,32.47,32.47,551.00,141.79,0.00,996.34,70.57,-5.69,0.95,-8.45
2025-08-07T18:35:27.688727,71.75,172.21,-98.43,-27.20,-79.96,43.19,32.47,32.47,395.00,141.79,0.00,996.34,70.79,-5.32,-0.08,-8.13
2025-08-07T18:35:27.904085,71.64,179.54,-87.86,36.39,-3.86,49.42,32.48,32.48,295.00,141.79,0.00,996.34,71.00,-4.09,3.70,-7.76
2025-08-07T18:35:28.117342,54.09,-174.39,-85.37,29.76,77.48,11.64,32.48,32.48,315.00,141.79,0.00,996.34,71.22,-1.00,1.41,-8.48
2025-08-07T18:35:28.330723,46.05,-170.76,-98.62,18.99,34.43,-61.92,32.48,32.48,795.00,141.79,0.00,996.34,71.43,-1.89,1.67,-7.81
2025-08-07T18:35:28.545233,47.21,-169.89,-114.81,5.11,-7.85,-75.63,32.49,32.49,666.00,141.79,0.00,996.33,71.64,-3.68,0.21,-9.25
2025-08-07T18:35:28.757720,58.27,-169.29,-128.38,4.22,-55.51,-63.43,32.49,32.49,526.00,141.79,0.00,996.33,71.86,-3.93,0.86,-12.05
2025-08-07T18:35:28.972516,56.48,-169.85,-128.15,-1.81,5.50,1.06,32.49,32.49,452.00,141.79,0.00,996.33,72.07,-5.45,-0.32,-11.11
2025-08-07T18:35:29.194870,51.84,-173.85,-124.02,-18.69,19.36,19.30,32.50,32.50,421.00,141.77,0.00,996.34,72.29,-4.56,-1.07,-8.63
2025-08-07T18:35:29.410348,51.41,-172.73,-115.81,5.61,-0.00,38.40,32.50,32.50,408.00,141.77,0.00,996.34,72.50,-5.23,-0.58,-8.93
2025-08-07T18:35:29.614494,51.70,-173.55,-118.89,-4.16,-4.92,-14.41,32.50,32.50,397.00,141.77,0.00,996.34,72.71,-2.56,-1.77,-9.76
2025-08-07T18:35:29.836557,50.85,-170.02,-123.89,17.23,1.36,-23.36,32.50,32.50,391.00,141.77,0.00,996.34,72.93,-4.19,-0.43,-9.65
2025-08-07T18:35:30.042579,52.67,-171.30,-124.85,-5.50,-11.04,-4.50,32.50,32.50,389.00,141.77,0.00,996.34,73.14,-4.52,-0.69,-9.32
2025-08-07T18:35:30.470818,51.91,-170.33,-119.22,0.99,-0.34,5.04,32.49,32.49,403.00,142.01,0.00,996.31,73.57,-5.00,-1.44,-9.06
2025-08-07T18:35:30.692541,51.54,-170.58,-120.24,-0.83,-0.40,-4.81,32.48,32.48,408.00,142.16,0.00,996.29,73.79,-5.22,-1.13,-9.19
2025-08-07T18:35:30.898351,51.22,-171.11,-120.26,-2.51,-0.96,-0.09,32.48,32.48,407.00,142.16,0.00,996.29,74.00,-4.41,-1.60,-9.19
2025-08-07T18:35:31.116681,50.57,-171.00,-120.48,0.67,1.22,-1.01,32.48,32.48,409.00,142.16,0.00,996.29,74.21,-5.53,-1.39,-8.88
2025-08-07T18:35:31.326265,50.24,-171.79,-120.74,-3.49,-0.15,-1.23,32.49,32.49,408.00,142.14,0.00,996.29,74.43,-5.60,-1.10,-8.86
2025-08-07T18:35:31.540645,49.79,-171.18,-121.01,3.25,0.32,-1.25,32.49,32.49,407.00,142.14,0.00,996.29,74.64,-5.61,-0.87,-9.17
2025-08-07T18:35:31.762596,49.46,-171.14,-121.20,0.56,-0.54,-0.88,32.49,32.49,409.00,142.14,0.00,996.29,74.86,-4.80,-0.90,-9.15
2025-08-07T18:35:31.968558,49.13,-170.99,-121.51,1.14,-0.50,-1.43,32.50,32.50,408.00,142.10,0.00,996.30,75.07,-4.85,-0.85,-9.11
2025-08-07T18:35:32.182778,48.55,-171.40,-121.07,-1.90,1.24,2.03,32.50,32.50,409.00,142.10,0.00,996.30,75.28,-5.79,-1.57,-8.89
2025-08-07T18:35:32.396513,48.78,-171.69,-120.63,-1.56,-2.81,2.05,32.51,32.51,409.00,142.03,0.00,996.31,75.50,-5.36,-1.86,-8.82
2025-08-07T18:35:32.824610,48.00,-171.24,-120.92,1.64,-1.04,-0.20,32.51,32.51,408.00,142.03,0.00,996.31,75.93,-4.77,-1.40,-9.14
2025-08-07T18:35:33.038431,48.04,-171.28,-121.57,0.21,-1.80,-3.04,32.49,32.49,409.00,142.32,0.00,996.27,76.14,-5.30,-0.77,-8.78
2025-08-07T18:35:33.252568,47.52,-171.38,-121.82,-0.43,0.76,-1.17,32.49,32.49,407.00,142.32,0.00,996.27,76.35,-5.19,-1.55,-8.76
2025-08-07T18:35:33.474337,47.46,-170.87,-121.60,2.39,-1.44,1.01,32.50,32.50,407.00,142.24,0.00,996.28,76.57,-5.12,-1.61,-8.91
2025-08-07T18:35:33.680347,47.31,-170.47,-121.80,1.95,-0.90,-0.93,32.50,32.50,410.00,142.24,0.00,996.28,76.78,-5.11,-1.52,-8.62
2025-08-07T18:35:33.893839,46.63,-169.68,-121.46,3.72,1.48,1.60,32.50,32.50,405.00,142.24,0.00,996.28,77.00,-5.15,-1.85,-9.14
2025-08-07T18:35:34.108351,46.49,-170.16,-121.38,-2.13,-1.04,0.38,32.51,32.51,405.00,142.20,0.00,996.29,77.21,-5.14,-1.64,-9.14
2025-08-07T18:35:34.322427,46.08,-169.92,-121.65,1.31,0.30,-1.27,32.51,32.51,408.00,142.20,0.00,996.29,77.42,-5.15,-1.45,-9.10
2025-08-07T18:35:34.540386,45.55,-170.31,-122.17,-1.11,1.42,-2.47,32.51,32.51,409.00,142.20,0.00,996.29,77.64,-6.00,-0.45,-8.72
2025-08-07T18:35:34.758380,44.93,-170.27,-122.57,-0.01,1.36,-1.86,32.50,32.50,411.00,142.39,0.00,996.26,77.85,-4.99,-2.12,-8.93
2025-08-07T18:35:34.964299,44.73,-170.84,-122.57,-2.71,-0.47,0.00,32.50,32.50,408.00,142.39,0.00,996.26,78.07,-5.25,-1.69,-8.87
2025-08-07T18:35:35.182431,44.40,-170.94,-122.78,-0.17,0.40,-0.96,32.51,32.51,408.00,142.33,0.00,996.27,78.28,-5.90,-1.19,-9.25
2025-08-07T18:35:35.392280,44.61,-171.63,-123.06,-3.03,-2.06,-1.31,32.51,32.51,408.00,142.33,0.00,996.27,78.49,-5.77,-1.16,-8.71
2025-08-07T18:35:35.606345,44.11,-171.79,-122.74,-0.69,0.98,1.47,32.51,32.51,409.00,142.33,0.00,996.27,78.71,-5.41,-1.43,-9.35
2025-08-07T18:35:35.828235,43.51,-172.10,-122.64,-1.14,1.46,0.48,32.51,32.51,408.00,142.37,0.00,996.27,78.92,-4.96,-0.82,-8.74
2025-08-07T18:35:36.042744,43.19,-171.90,-122.34,1.23,-0.06,1.44,32.51,32.51,410.00,142.37,0.00,996.27,79.14,-4.60,-0.88,-8.93
2025-08-07T18:35:36.250157,42.76,-171.99,-122.58,-0.34,0.52,-1.14,32.51,32.51,409.00,142.33,0.00,996.27,79.35,-4.58,-1.23,-8.84
2025-08-07T18:35:36.462277,42.52,-172.19,-122.73,-1.01,-0.37,-0.69,32.51,32.51,410.00,142.33,0.00,996.27,79.56,-4.60,-1.58,-8.96
2025-08-07T18:35:36.676176,42.03,-171.92,-122.89,1.31,1.19,-0.78,32.51,32.51,410.00,142.33,0.00,996.27,79.78,-5.36,-1.36,-9.00
2025-08-07T18:35:36.892267,41.61,-171.67,-123.32,1.18,0.76,-2.01,32.52,32.52,408.00,142.26,0.00,996.28,79.99,-5.06,-1.46,-9.00
2025-08-07T18:35:37.104066,42.08,-172.52,-123.17,-3.70,-3.19,0.70,32.52,32.52,409.00,142.26,0.00,996.28,80.21,-5.59,-0.95,-9.03
2025-08-07T18:35:37.318139,41.74,-171.89,-123.71,3.00,0.76,-2.50,32.52,32.52,410.00,142.26,0.00,996.28,80.42,-5.87,-1.34,-9.00
2025-08-07T18:35:37.532134,41.77,-172.02,-123.45,-0.57,-1.13,1.21,32.53,32.53,411.00,142.20,0.00,996.29,80.63,-5.49,-1.40,-8.88
2025-08-07T18:35:37.746265,41.28,-172.23,-123.58,-0.75,1.30,-0.59,32.53,32.53,411.00,142.20,0.00,996.29,80.85,-5.27,-1.01,-8.75
2025-08-07T18:35:37.961786,41.09,-171.94,-123.72,1.38,-0.34,-0.69,32.54,32.54,409.00,142.18,0.00,996.29,81.06,-4.81,-1.36,-8.83
2025-08-07T18:35:38.182119,40.63,-171.69,-123.17,1.18,1.07,2.57,32.54,32.54,409.00,142.18,0.00,996.29,81.28,-5.07,-1.44,-8.95
2025-08-07T18:35:38.395949,40.69,-172.39,-123.43,-2.91,-1.27,-1.19,32.54,32.54,410.00,142.18,0.00,996.29,81.49,-5.41,-0.72,-9.10
2025-08-07T18:35:38.907080,40.44,-173.22,-123.95,-1.76,-0.28,-0.78,32.53,32.53,408.00,142.33,0.00,996.27,81.92,-5.66,-0.89,-8.95
2025-08-07T18:35:39.316334,39.53,-172.44,-124.01,-0.17,-0.86,2.17,32.54,32.54,408.00,142.27,0.00,996.28,82.35,-4.89,-0.36,-9.06
2025-08-07T18:35:39.521153,39.29,-172.91,-123.85,-2.19,0.56,0.73,32.54,32.54,410.00,142.27,0.00,996.28,82.56,-5.97,-1.33,-9.00
2025-08-07T18:35:39.930849,38.94,-173.44,-124.31,-1.59,1.21,-0.58,32.55,32.55,410.00,142.25,0.00,996.28,82.99,-4.96,-1.79,-9.06
2025-08-07T18:35:40.135522,38.82,-173.33,-124.56,0.92,-0.21,-1.19,32.55,32.55,410.00,142.19,0.00,996.28,83.20,-5.29,-0.39,-8.87
2025-08-07T18:35:40.340358,39.18,-173.61,-124.83,-0.46,-1.91,-1.27,32.56,32.56,409.00,142.19,0.00,996.29,83.42,-6.66,0.48,-8.87
2025-08-07T18:35:40.544891,39.24,-174.44,-124.91,-3.81,-1.18,-0.35,32.56,32.56,411.00,142.19,0.00,996.29,83.63,-5.03,-0.91,-8.83
2025-08-07T18:35:40.749954,38.98,-173.79,-124.68,3.26,0.41,1.06,32.57,32.57,410.00,142.16,0.00,996.29,83.84,-5.27,-0.67,-8.77
2025-08-07T18:35:40.956043,38.70,-173.57,-124.65,0.63,0.03,0.12,32.57,32.57,412.00,142.16,0.00,996.29,84.06,-4.24,-1.85,-8.79
2025-08-07T18:35:41.170009,38.26,-172.79,-124.81,3.61,1.02,-0.73,32.57,32.57,408.00,142.16,0.00,996.29,84.27,-4.70,-1.31,-9.03
2025-08-07T18:35:41.391934,38.04,-172.96,-124.84,-0.62,0.09,-0.14,32.58,32.58,407.00,142.11,0.00,996.30,84.49,-4.70,-0.92,-8.68
2025-08-07T18:35:41.820067,37.84,-173.20,-124.50,0.67,-1.05,1.15,32.58,32.58,408.00,142.08,0.00,996.30,84.91,-5.60,-0.41,-8.88
2025-08-07T18:35:42.025904,37.88,-173.47,-123.97,-1.21,-0.76,2.46,32.58,32.58,410.00,142.08,0.00,996.30,85.13,-5.56,-1.19,-8.92
2025-08-07T18:35:42.248853,37.47,-173.90,-123.95,-2.08,1.02,0.09,32.58,32.58,409.00,142.08,0.00,996.30,85.34,-4.74,-1.18,-8.77
2025-08-07T18:35:42.455728,37.63,-174.59,-124.20,-3.04,-1.36,-1.14,32.58,32.58,412.00,142.14,0.00,996.29,85.56,-5.60,-0.67,-9.08
2025-08-07T18:35:42.671036,37.73,-174.56,-123.80,-0.45,-1.50,1.88,32.58,32.58,408.00,142.14,0.00,996.29,85.77,-4.60,-2.04,-8.95
2025-08-07T18:35:42.881931,37.12,-174.61,-123.99,-0.08,2.06,-0.88,32.59,32.59,407.00,142.11,0.00,996.30,85.98,-4.87,-0.64,-8.80
2025-08-07T18:35:43.103903,33.63,-172.06,-121.85,12.65,15.88,9.99,32.59,32.59,409.00,142.11,0.00,996.30,86.20,-5.70,-0.12,-10.31
2025-08-07T18:35:43.317984,28.12,-178.98,-109.96,-32.53,25.60,55.56,32.59,32.59,407.00,142.11,0.00,996.30,86.41,-5.12,-0.57,-10.19
2025-08-07T18:35:43.523987,25.40,-178.03,-102.45,3.75,12.79,35.09,32.60,32.60,439.00,142.09,0.00,996.30,86.63,-3.98,-1.45,-7.89
2025-08-07T18:35:43.736202,25.99,-171.44,-107.22,31.63,-3.50,-22.27,32.60,32.60,451.00,142.09,0.00,996.30,86.84,-3.18,0.01,-9.49
2025-08-07T18:35:43.951914,25.12,-166.76,-112.26,22.97,3.45,-23.59,32.60,32.60,427.00,142.09,0.00,996.30,87.05,-3.60,-0.33,-10.86
2025-08-07T18:35:44.173912,23.22,-164.89,-109.46,10.13,8.37,13.09,32.61,32.61,435.00,142.06,0.00,996.30,87.27,-3.70,-0.09,-11.34
2025-08-07T18:35:44.379866,21.86,-173.69,-101.24,-40.56,6.17,38.44,32.61,32.61,488.00,142.06,0.00,996.30,87.48,-3.49,-0.09,-9.71
2025-08-07T18:35:44.593939,18.71,-176.23,-93.03,-11.87,14.21,38.35,32.61,32.61,596.00,142.04,0.00,996.31,87.69,-2.26,-0.65,-9.63
2025-08-07T18:35:44.807857,16.79,-179.46,-86.01,-14.80,8.23,32.80,32.61,32.61,660.00,142.04,0.00,996.31,87.91,-1.47,0.46,-9.14
2025-08-07T18:35:45.029852,19.10,179.19,-89.34,-6.63,-12.69,-15.57,32.61,32.61,704.00,142.04,0.00,996.31,88.12,0.11,-0.36,-8.14
2025-08-07T18:35:45.235927,25.76,-175.52,-103.83,25.09,-32.54,-67.71,32.62,32.62,687.00,142.04,0.00,996.31,88.34,-1.91,-0.12,-9.96
2025-08-07T18:35:45.450651,30.64,-169.93,-111.91,26.50,-23.76,-37.74,32.62,32.62,548.00,142.04,0.00,996.31,88.55,-3.78,-1.14,-9.90
2025-08-07T18:35:45.663890,35.21,-168.89,-117.50,5.69,-22.92,-26.11,32.63,32.63,481.00,142.03,0.00,996.31,88.76,-3.63,-0.44,-10.50
2025-08-07T18:35:45.877772,34.66,-171.20,-116.10,-9.91,1.54,6.52,32.63,32.63,444.00,142.03,0.00,996.31,88.98,-4.43,0.01,-10.20
2025-08-07T18:35:46.091881,34.09,179.58,-103.99,-42.97,1.85,56.58,32.63,32.63,436.00,142.03,0.00,996.31,89.19,-5.85,0.36,-12.07
2025-08-07T18:35:46.303751,25.89,178.20,-86.68,-7.04,37.75,80.92,32.64,32.64,503.00,141.99,0.00,996.31,89.41,-3.81,-0.86,-10.57
2025-08-07T18:35:46.519840,18.42,174.50,-75.97,-18.20,34.35,50.02,32.64,32.64,629.00,141.99,0.00,996.31,89.62,-1.49,-0.45,-6.65
2025-08-07T18:35:46.734095,31.14,179.37,-88.63,22.62,-60.46,-59.14,32.64,32.64,694.00,141.99,0.00,996.31,89.83,-3.05,-0.16,-8.10
2025-08-07T18:35:46.947752,21.48,-178.76,-104.37,7.81,44.95,-73.54,32.64,32.64,632.00,141.98,0.00,996.31,90.05,-3.54,-1.98,-9.93
2025-08-07T18:35:47.163620,20.55,-167.96,-113.32,50.51,4.76,-41.85,32.64,32.64,531.00,141.98,0.00,996.31,90.26,-5.11,-2.42,-10.59
2025-08-07T18:35:47.375796,20.92,-167.40,-117.85,2.51,-1.68,-21.14,32.65,32.65,511.00,141.99,0.00,996.31,90.48,-4.04,-2.69,-10.07
2025-08-07T18:35:47.589881,19.78,-169.87,-114.46,-11.67,6.03,15.82,32.65,32.65,507.00,141.99,0.00,996.31,90.69,-5.09,-2.20,-9.67
2025-08-07T18:35:47.805639,19.08,-177.59,-96.66,-36.36,3.85,83.18,32.65,32.65,496.00,141.99,0.00,996.31,90.90,-5.15,-1.13,-10.95
2025-08-07T18:35:48.025887,33.14,166.97,-88.75,-73.61,-65.88,36.95,32.66,32.66,524.00,141.98,0.00,996.31,91.12,-6.20,-0.51,-10.10
2025-08-07T18:35:48.231646,70.79,152.67,-86.02,-69.09,-178.29,12.77,32.66,32.66,331.00,141.98,0.00,996.31,91.33,-8.00,0.72,-7.67
2025-08-07T18:35:48.445669,-81.35,146.47,-87.95,-30.01,-133.41,-9.01,32.66,32.66,492.00,141.95,0.00,996.32,91.55,-6.83,2.90,-1.48
2025-08-07T18:35:48.667730,85.69,150.44,-93.74,31.47,-58.54,-27.07,32.66,32.66,4154.00,141.95,0.00,996.32,91.76,-7.58,2.15,2.89
2025-08-07T18:35:48.881607,-78.30,153.28,-90.92,25.09,78.93,13.18,32.66,32.66,3943.00,141.95,0.00,996.32,91.97,-8.42,4.81,1.83
2025-08-07T18:35:49.087714,-88.30,157.24,-89.71,18.79,44.09,5.67,32.67,32.67,1114.00,141.96,0.00,996.32,92.19,-8.47,4.08,-0.02
2025-08-07T18:35:49.519360,65.13,153.51,-94.10,-14.65,-104.52,-12.27,32.67,32.67,3601.00,141.96,0.00,996.32,92.62,-8.00,1.70,0.96
2025-08-07T18:35:49.737837,78.20,150.67,-96.49,-0.43,61.69,-11.19,32.63,32.63,3993.00,142.49,0.00,996.25,92.83,-8.59,2.47,1.36
2025-08-07T18:35:49.945669,32.63,173.10,-85.90,106.53,215.08,49.51,32.63,32.63,570.00,142.49,0.00,996.25,93.04,-9.39,4.79,-4.41
2025-08-07T18:35:50.165571,3.31,-172.80,-70.09,67.99,138.87,73.85,32.64,32.64,214.00,142.48,0.00,996.25,93.26,-3.70,2.40,-8.43
2025-08-07T18:35:50.380094,5.78,-161.82,-70.57,53.44,-11.16,-2.23,32.64,32.64,44.00,142.48,0.00,996.25,93.47,-1.97,0.91,-11.62
2025-08-07T18:35:50.593655,10.86,-161.39,-72.24,3.38,-25.01,-7.80,32.64,32.64,10.00,142.48,0.00,996.25,93.69,0.51,-0.84,-10.90
2025-08-07T18:35:50.799500,8.75,-160.12,-69.24,7.81,9.02,14.00,32.65,32.65,21.00,142.44,0.00,996.26,93.90,-0.03,-0.06,-10.22
2025-08-07T18:35:51.013744,11.75,-163.66,-72.28,-14.80,-14.67,-14.20,32.65,32.65,4.00,142.44,0.00,996.26,94.11,-0.98,0.42,-11.94
2025-08-07T18:35:51.230490,13.40,-161.45,-70.44,11.92,-7.94,8.58,32.65,32.65,5.00,142.43,0.00,996.26,94.33,-1.99,-0.33,-10.23
2025-08-07T18:35:51.655505,11.55,-161.03,-74.54,-0.02,-2.15,1.01,32.65,32.65,15.00,142.43,0.00,996.26,94.76,-0.84,0.50,-10.85
2025-08-07T18:35:51.873212,12.59,-161.06,-74.64,1.66,-5.91,-0.46,32.65,32.65,15.00,142.43,0.00,996.26,94.97,-0.30,-0.10,-10.32
2025-08-07T18:35:52.086215,12.41,-160.68,-73.85,3.66,0.26,3.68,32.65,32.65,16.00,142.43,0.00,996.26,95.18,-1.10,0.12,-10.08
2025-08-07T18:35:52.297624,-15.17,-145.27,-85.99,76.50,130.69,-56.73,32.65,32.65,16.00,142.43,0.00,996.26,95.40,-1.33,4.29,-19.61
2025-08-07T18:35:52.519564,-15.10,-146.46,-85.82,-2.08,1.42,0.80,32.66,32.66,17.00,142.40,0.00,996.26,95.61,-0.65,0.57,-10.52
2025-08-07T18:35:52.739150,-14.78,-147.74,-85.76,-2.56,0.29,0.28,32.66,32.66,17.00,142.40,0.00,996.26,95.83,-0.65,0.61,-10.20
2025-08-07T18:35:52.939316,-14.25,-148.32,-85.51,0.68,-0.57,1.16,32.66,32.66,16.00,142.37,0.00,996.27,96.04,-1.02,0.66,-10.17
2025-08-07T18:35:53.153682,-14.41,-149.34,-85.49,-1.50,2.72,0.11,32.66,32.66,17.00,142.37,0.00,996.27,96.25,-1.15,0.70,-10.30
2025-08-07T18:35:53.367370,-14.19,-149.66,-85.94,1.66,0.53,-2.09,32.66,32.66,17.00,142.37,0.00,996.27,96.47,-0.38,0.44,-10.43
2025-08-07T18:35:53.581504,-13.89,-150.43,-85.93,-0.60,0.32,0.03,32.67,32.67,16.00,142.35,0.00,996.27,96.68,-0.80,0.33,-10.28
2025-08-07T18:35:53.795439,-12.97,-151.30,-85.61,-0.91,-2.84,1.48,32.67,32.67,16.00,142.35,0.00,996.27,96.90,-0.41,0.87,-10.22
2025-08-07T18:35:54.010025,-12.75,-152.10,-85.68,-1.03,0.96,-0.32,32.67,32.67,18.00,142.35,0.00,996.27,97.11,-1.42,0.01,-10.08
2025-08-07T18:35:54.223898,-12.81,-152.80,-85.75,-0.43,1.72,-0.32,32.67,32.67,16.00,142.35,0.00,996.27,97.32,-0.36,0.47,-10.06
2025-08-07T18:35:54.437678,-12.26,-153.33,-85.71,0.30,-0.79,0.17,32.67,32.67,17.00,142.35,0.00,996.27,97.54,-1.14,0.42,-10.15
2025-08-07T18:35:54.651662,-11.84,-153.61,-85.96,0.91,-0.26,-1.14,32.67,32.67,15.00,142.30,0.00,996.27,97.75,-1.14,-0.56,-10.19
2025-08-07T18:35:54.873689,-11.53,-153.76,-86.39,2.10,-0.15,-2.03,32.67,32.67,16.00,142.30,0.00,996.27,97.97,-0.34,0.57,-10.01
2025-08-07T18:35:55.082500,-11.25,-154.25,-86.51,0.39,-0.17,-0.53,32.67,32.67,15.00,142.30,0.00,996.27,98.18,-0.14,0.42,-10.34
2025-08-07T18:35:55.294084,-11.00,-154.80,-86.30,-0.17,0.24,0.98,32.67,32.67,17.00,142.31,0.00,996.27,98.39,-0.68,0.03,-10.31
