TS,pitch,roll,yaw,vgx,vgy,vgz,templ,temph,tof,h,bat,baro,time,agx,agy,agz
2025-08-07T18:36:05.207981,64.29,41.56,10074.17,-14.57,-5.16,36.13,33.39,33.39,38.00,141.02,0.00,996.43,289.35,-0.64,0.62,-10.08
2025-08-07T18:36:05.422007,64.45,41.66,10081.74,-12.50,-6.80,35.39,33.37,33.37,53.00,141.08,0.00,996.42,289.56,-0.21,0.37,-10.02
2025-08-07T18:36:05.643973,64.55,41.11,10089.43,-15.51,-6.48,35.95,33.37,33.37,37.00,141.08,0.00,996.42,289.77,-0.27,0.64,-10.44
2025-08-07T18:36:05.850086,64.47,41.47,10097.19,-11.54,-5.96,36.24,33.37,33.37,58.00,141.08,0.00,996.42,289.99,0.30,-0.02,-10.08
2025-08-07T18:36:06.065828,64.79,41.28,10104.49,-13.77,-7.29,34.13,33.37,33.37,38.00,141.05,0.00,996.42,290.20,-0.68,0.65,-10.20
2025-08-07T18:36:06.278227,64.81,41.58,10112.17,-11.31,-5.88,35.90,33.37,33.37,57.00,141.05,0.00,996.42,290.42,-0.80,0.85,-10.08
2025-08-07T18:36:06.491976,64.96,41.57,10119.68,-13.16,-6.37,35.08,33.36,33.36,38.00,141.03,0.00,996.43,290.63,-0.93,0.22,-10.07
2025-08-07T18:36:06.918048,64.11,42.24,10133.31,-12.14,-3.67,29.48,33.36,33.36,38.00,141.03,0.00,996.43,291.06,-0.10,0.04,-10.29
2025-08-07T18:36:07.134049,64.42,42.50,10140.93,-11.79,-7.68,35.60,33.36,33.36,55.00,140.99,0.00,996.43,291.27,0.14,0.25,-10.42
2025-08-07T18:36:07.347875,64.72,42.83,10151.82,-10.93,-7.41,50.88,33.36,33.36,38.00,140.99,0.00,996.43,291.49,-0.27,1.17,-10.15
2025-08-07T18:36:07.569987,64.23,43.11,10161.45,-11.71,-3.56,45.02,33.36,33.36,54.00,140.99,0.00,996.43,291.70,-0.55,0.05,-10.26
2025-08-07T18:36:07.784027,64.39,43.20,10168.42,-12.41,-6.89,32.55,33.35,33.35,39.00,140.99,0.00,996.43,291.91,0.04,0.42,-10.54
2025-08-07T18:36:07.989789,65.68,42.31,10178.35,-17.33,-12.19,46.42,33.35,33.35,53.00,140.99,0.00,996.43,292.13,-0.18,-0.14,-9.97
2025-08-07T18:36:08.203906,64.57,43.30,10187.29,-8.15,-0.87,41.74,33.34,33.34,39.00,140.95,0.00,996.43,292.34,-0.23,0.56,-10.97
2025-08-07T18:36:08.417796,66.08,42.56,10194.91,-16.44,-13.30,35.61,33.34,33.34,43.00,140.95,0.00,996.43,292.56,-0.10,0.19,-10.11
2025-08-07T18:36:08.639755,65.47,42.27,10202.50,-14.90,-2.84,35.51,33.34,33.34,37.00,140.95,0.00,996.43,292.77,-1.02,-0.71,-10.19
2025-08-07T18:36:08.845777,67.63,42.19,10207.46,-13.27,-16.43,23.14,33.34,33.34,54.00,140.98,0.00,996.43,292.98,-0.20,0.45,-10.32
2025-08-07T18:36:09.059723,66.72,40.89,10213.94,-19.21,-1.67,30.29,33.34,33.34,3.00,140.98,0.00,996.43,293.20,-0.95,0.29,-10.78
2025-08-07T18:36:09.274069,66.30,42.07,10220.09,-7.04,-3.82,28.76,33.34,33.34,0.00,140.98,0.00,996.43,293.41,-1.09,1.19,-10.83
2025-08-07T18:36:09.487730,65.15,40.25,10226.37,-21.71,-0.72,29.32,33.33,33.33,113.00,140.98,0.00,996.43,293.63,-0.14,0.20,-10.56
2025-08-07T18:36:09.704761,66.88,42.20,10218.99,-4.29,-13.93,-34.49,33.33,33.33,171.00,140.98,0.00,996.43,293.84,-1.02,-0.46,-9.72
2025-08-07T18:36:09.916428,68.20,43.44,10225.86,-6.55,-11.58,32.12,33.33,33.33,221.00,140.98,0.00,996.43,294.05,-1.89,1.14,-9.30
2025-08-07T18:36:10.137752,68.03,48.21,10233.51,9.11,-4.63,35.74,33.33,33.33,376.00,141.01,0.00,996.43,294.27,-1.92,-1.06,-9.69
2025-08-07T18:36:10.343569,64.93,52.55,10243.50,7.60,8.56,46.71,33.33,33.33,1016.00,141.01,0.00,996.43,294.48,-0.44,-0.88,-9.21
2025-08-07T18:36:10.773705,59.75,56.84,10258.98,-12.87,-15.82,25.25,33.32,33.32,791.00,141.00,0.00,996.43,294.91,2.36,-0.74,-9.32
2025-08-07T18:36:10.985865,65.87,55.84,10260.47,-17.62,-35.27,6.94,33.32,33.32,859.00,141.00,0.00,996.43,295.12,0.84,-2.25,-10.61
2025-08-07T18:36:11.199475,64.21,57.16,10269.17,-6.37,2.44,40.67,33.32,33.32,775.00,141.00,0.00,996.43,295.34,-1.49,-1.52,-10.02
2025-08-07T18:36:11.413612,69.53,53.57,10271.89,-29.67,-30.83,12.71,33.32,33.32,694.00,141.00,0.00,996.43,295.55,-1.34,-1.62,-10.31
2025-08-07T18:36:11.627670,74.79,53.49,10276.96,-13.25,-31.03,23.71,33.32,33.32,621.00,141.00,0.00,996.43,295.77,-1.36,-1.60,-10.68
2025-08-07T18:36:11.843140,79.48,53.36,10283.32,-13.41,-28.58,29.71,33.32,33.32,533.00,140.97,0.00,996.43,295.98,-1.74,-1.35,-10.41
2025-08-07T18:36:12.055565,81.21,50.53,10288.70,-26.23,-14.42,25.11,33.32,33.32,492.00,140.97,0.00,996.43,296.19,-2.52,-1.26,-9.55
2025-08-07T18:36:12.271295,81.82,51.78,10295.52,-6.87,-9.35,31.89,33.32,33.32,452.00,140.96,0.00,996.43,296.41,-2.58,-0.97,-10.46
2025-08-07T18:36:12.481901,84.76,53.46,10302.21,-4.61,-20.80,31.25,33.32,33.32,422.00,140.96,0.00,996.43,296.62,-1.98,-0.77,-10.50
2025-08-07T18:36:12.697224,86.43,52.44,10307.12,-17.67,-14.31,22.84,33.32,33.32,407.00,140.96,0.00,996.43,296.84,-3.14,-1.53,-9.70
2025-08-07T18:36:12.917336,86.19,53.04,10311.54,-10.31,-5.47,20.58,33.32,33.32,404.00,140.91,0.00,996.44,297.05,-2.91,-1.93,-9.67
2025-08-07T18:36:13.136884,87.16,53.73,10317.67,-9.88,-11.13,28.65,33.32,33.32,402.00,140.91,0.00,996.44,297.27,-3.33,-2.05,-9.96
2025-08-07T18:36:13.341352,87.02,54.80,10324.57,-8.08,-5.64,32.21,33.32,33.32,402.00,140.91,0.00,996.44,297.48,-3.73,-2.12,-9.37
2025-08-07T18:36:13.555315,85.59,53.03,10332.71,-21.51,-0.13,38.07,33.31,33.31,398.00,140.88,0.00,996.44,297.69,-2.55,-2.16,-9.96
2025-08-07T18:36:13.777283,85.32,52.27,10341.18,-16.66,-5.61,39.58,33.31,33.31,398.00,140.88,0.00,996.44,297.91,-2.27,-1.70,-9.61
2025-08-07T18:36:13.983551,85.12,52.47,10347.90,-12.14,-5.33,31.37,33.31,33.31,393.00,140.88,0.00,996.44,298.12,-3.43,-1.73,-9.50
2025-08-07T18:36:14.198299,85.80,53.28,10356.84,-9.16,-9.32,41.77,33.31,33.31,392.00,140.84,0.00,996.45,298.34,-3.82,-1.66,-9.65
2025-08-07T18:36:14.411816,86.05,53.67,10363.62,-11.24,-7.74,31.71,33.31,33.31,392.00,140.84,0.00,996.45,298.55,-3.01,-1.87,-9.66
2025-08-07T18:36:14.625419,85.07,53.28,10373.21,-14.34,-1.82,44.79,33.31,33.31,392.00,140.82,0.00,996.45,298.76,-3.30,-0.85,-10.13
2025-08-07T18:36:14.839479,85.05,54.55,10380.16,-6.98,-6.51,32.52,33.31,33.31,391.00,140.82,0.00,996.45,298.98,-2.73,-1.72,-9.30
2025-08-07T18:36:15.053344,84.53,55.57,10387.59,-8.06,-4.23,34.68,33.31,33.31,387.00,140.82,0.00,996.45,299.19,-2.54,-1.78,-9.48
2025-08-07T18:36:15.267806,84.05,58.54,10394.58,1.21,-4.32,32.70,33.32,33.32,392.00,140.78,0.00,996.46,299.41,-2.52,-1.87,-9.33
2025-08-07T18:36:15.695366,83.61,62.29,10409.83,-15.50,-8.02,41.87,33.32,33.32,406.00,140.78,0.00,996.46,299.83,-2.93,-2.98,-8.45
2025-08-07T18:36:15.909277,84.04,59.48,10416.84,-26.11,-8.29,32.74,33.32,33.32,400.00,140.82,0.00,996.45,300.05,-3.11,-2.72,-9.25
2025-08-07T18:36:16.131401,84.98,57.19,10424.71,-23.91,-11.29,36.81,33.32,33.32,394.00,140.82,0.00,996.45,300.26,-2.41,-2.90,-10.19
2025-08-07T18:36:16.337334,84.69,57.26,10433.43,-12.64,-4.84,40.76,33.32,33.32,392.00,140.82,0.00,996.45,300.48,-3.50,-2.41,-9.42
2025-08-07T18:36:16.559239,84.63,56.22,10439.62,-17.92,-6.26,28.88,33.32,33.32,393.00,140.80,0.00,996.45,300.69,-2.88,-2.43,-9.85
2025-08-07T18:36:16.774826,85.27,55.85,10447.30,-15.05,-9.12,35.89,33.32,33.32,392.00,140.80,0.00,996.45,300.90,-3.54,-2.62,-8.92
2025-08-07T18:36:16.985428,85.37,55.47,10453.80,-15.33,-6.72,30.41,33.32,33.32,393.00,140.79,0.00,996.45,301.12,-3.55,-3.17,-9.28
2025-08-07T18:36:17.204994,86.01,56.23,10461.89,-9.88,-9.47,37.80,33.32,33.32,396.00,140.79,0.00,996.45,301.33,-3.09,-2.96,-9.07
2025-08-07T18:36:17.415151,86.10,56.47,10468.65,-12.03,-6.58,31.57,33.32,33.32,393.00,140.79,0.00,996.45,301.55,-3.72,-2.49,-9.11
2025-08-07T18:36:17.621429,86.01,56.03,10476.05,-15.42,-6.11,34.58,33.33,33.33,393.00,140.79,0.00,996.45,301.76,-3.23,-2.99,-9.80
2025-08-07T18:36:17.839195,85.62,56.87,10483.79,-9.10,-4.68,36.16,33.33,33.33,394.00,140.79,0.00,996.45,301.97,-3.14,-2.44,-9.47
2025-08-07T18:36:18.057133,85.37,56.25,10490.12,-16.00,-5.06,29.58,33.33,33.33,391.00,140.79,0.00,996.45,302.19,-3.48,-2.40,-9.39
2025-08-07T18:36:18.263083,85.45,55.77,10498.29,-15.08,-6.98,38.16,33.33,33.33,395.00,140.78,0.00,996.45,302.40,-2.73,-1.75,-8.99
2025-08-07T18:36:18.485145,85.26,54.31,10505.02,-20.08,-5.36,31.48,33.33,33.33,395.00,140.78,0.00,996.45,302.62,-3.31,-2.23,-9.08
2025-08-07T18:36:18.691100,85.55,54.62,10512.87,-12.05,-7.67,36.65,33.34,33.34,394.00,140.74,0.00,996.46,302.83,-3.47,-2.94,-9.43
2025-08-07T18:36:18.914027,86.03,54.89,10519.80,-12.43,-8.72,32.39,33.34,33.34,397.00,140.74,0.00,996.46,303.04,-3.17,-3.16,-9.00
2025-08-07T18:36:19.119044,86.45,54.47,10526.96,-15.36,-8.40,33.46,33.34,33.34,395.00,140.74,0.00,996.46,303.26,-3.40,-2.75,-9.65
2025-08-07T18:36:19.333146,86.76,55.51,10534.55,-8.35,-7.44,35.49,33.35,33.35,398.00,140.73,0.00,996.46,303.47,-4.31,-2.62,-9.34
2025-08-07T18:36:19.547184,86.90,54.77,10541.60,-16.70,-7.21,32.91,33.35,33.35,397.00,140.73,0.00,996.46,303.69,-3.21,-2.48,-9.61
2025-08-07T18:36:19.769902,87.04,55.21,10548.47,-10.84,-7.30,32.10,33.35,33.35,399.00,140.73,0.00,996.46,303.90,-2.96,-1.72,-9.22
2025-08-07T18:36:19.975173,87.21,54.97,10555.55,-14.83,-7.78,33.11,33.36,33.36,399.00,140.72,0.00,996.46,304.11,-2.45,-3.23,-9.28
2025-08-07T18:36:20.194855,86.84,55.60,10563.83,-10.40,-4.52,38.70,33.36,33.36,401.00,140.72,0.00,996.46,304.33,-3.67,-2.69,-8.94
2025-08-07T18:36:20.414868,85.88,56.17,10571.78,-10.79,-2.36,37.11,33.36,33.36,398.00,140.72,0.00,996.46,304.54,-2.33,-2.87,-8.94
2025-08-07T18:36:20.616917,84.90,55.14,10580.25,-18.29,-2.02,39.60,33.37,33.37,403.00,140.69,0.00,996.47,304.76,-2.80,-2.99,-9.51
2025-08-07T18:36:20.830956,85.16,54.55,10586.37,-16.06,-7.90,28.62,33.37,33.37,398.00,140.69,0.00,996.47,304.97,-2.50,-2.35,-9.10
2025-08-07T18:36:21.045110,86.26,54.04,10594.38,-15.73,-11.39,37.40,33.38,33.38,400.00,140.66,0.00,996.47,305.18,-3.77,-2.58,-9.55
2025-08-07T18:36:21.258915,86.81,55.03,10602.10,-8.38,-8.68,36.07,33.38,33.38,397.00,140.66,0.00,996.47,305.40,-4.05,-2.01,-9.38
2025-08-07T18:36:21.472965,87.43,53.88,10609.82,-18.75,-9.73,36.10,33.38,33.38,394.00,140.66,0.00,996.47,305.61,-2.82,-2.51,-9.60
2025-08-07T18:36:21.901353,88.29,53.08,10623.23,-18.18,-9.07,26.79,33.39,33.39,398.00,140.64,0.00,996.47,306.04,-3.34,-2.67,-9.11
2025-08-07T18:36:22.115251,89.77,52.68,10629.02,-15.51,-13.62,27.03,33.39,33.39,396.00,140.64,0.00,996.47,306.25,-3.36,-2.70,-9.17
2025-08-07T18:36:22.329060,-89.90,53.18,10633.59,-11.63,-8.61,21.39,33.39,33.39,403.00,140.69,0.00,996.47,306.47,-2.87,-3.56,-9.36
2025-08-07T18:36:22.542839,-88.88,53.06,10640.91,-14.29,-11.55,34.21,33.39,33.39,402.00,140.69,0.00,996.47,306.68,-3.69,-3.11,-9.58
2025-08-07T18:36:22.759093,-88.52,53.88,10646.56,-9.77,-8.42,26.36,33.39,33.39,406.00,140.69,0.00,996.47,306.90,-3.76,-3.06,-9.45
2025-08-07T18:36:22.970935,-86.45,52.30,10652.97,-21.31,-17.00,30.00,33.41,33.41,408.00,140.66,0.00,996.47,307.11,-2.95,-3.21,-9.32
2025-08-07T18:36:23.184584,-84.91,52.67,10656.58,-11.33,-14.07,16.85,33.41,33.41,411.00,140.66,0.00,996.47,307.32,-3.97,-1.69,-9.11
2025-08-07T18:36:23.399112,-80.95,49.73,10660.22,-27.71,-25.55,16.99,33.42,33.42,417.00,140.66,0.00,996.47,307.54,-4.46,-2.93,-9.00
2025-08-07T18:36:23.612749,-78.07,49.58,10668.67,-14.52,-20.74,39.48,33.42,33.42,424.00,140.66,0.00,996.47,307.75,-4.27,-2.50,-8.56
2025-08-07T18:36:23.826671,-77.14,48.08,10675.07,-21.27,-11.35,29.95,33.42,33.42,437.00,140.66,0.00,996.47,307.97,-5.10,-3.09,-8.52
2025-08-07T18:36:24.042918,-76.92,48.76,10683.38,-11.07,-7.96,38.79,33.43,33.43,432.00,140.66,0.00,996.47,308.18,-5.34,-3.31,-8.46
2025-08-07T18:36:24.255334,-77.90,48.82,10690.38,-13.62,-1.88,32.71,33.43,33.43,438.00,140.66,0.00,996.47,308.39,-6.01,-2.66,-8.35
2025-08-07T18:36:24.468845,-77.97,49.36,10698.45,-11.39,-7.04,37.71,33.43,33.43,435.00,140.66,0.00,996.47,308.61,-4.22,-2.68,-8.84
2025-08-07T18:36:24.682891,-78.99,50.17,10705.89,-10.29,-1.85,34.77,33.43,33.43,438.00,140.68,0.00,996.47,308.82,-5.44,-3.17,-8.19
2025-08-07T18:36:24.896850,-78.89,49.66,10713.79,-16.17,-7.23,36.93,33.43,33.43,436.00,140.68,0.00,996.47,309.04,-5.27,-2.56,-8.61
2025-08-07T18:36:25.118523,-79.73,50.77,10722.50,-8.86,-2.72,40.68,33.44,33.44,432.00,140.66,0.00,996.47,309.25,-5.18,-3.12,-8.27
2025-08-07T18:36:25.324678,-79.71,50.03,10729.34,-17.39,-6.87,31.97,33.44,33.44,437.00,140.66,0.00,996.47,309.46,-4.92,-2.83,-8.37
2025-08-07T18:36:25.538700,-79.41,50.31,10737.51,-12.96,-8.43,38.19,33.44,33.44,434.00,140.66,0.00,996.47,309.68,-4.51,-3.45,-8.22
2025-08-07T18:36:25.754686,-80.52,50.40,10744.75,-13.73,-1.68,33.83,33.45,33.45,437.00,140.64,0.00,996.47,309.89,-4.77,-3.33,-8.61
2025-08-07T18:36:25.967102,-79.85,50.58,10752.73,-12.86,-9.73,37.31,33.45,33.45,435.00,140.64,0.00,996.47,310.11,-5.44,-2.58,-8.71
2025-08-07T18:36:26.188446,-80.43,51.80,10759.53,-7.76,-3.79,31.77,33.45,33.45,437.00,140.64,0.00,996.47,310.32,-5.50,-2.33,-8.65
2025-08-07T18:36:26.394734,-80.11,51.40,10766.96,-15.83,-8.66,34.70,33.46,33.46,436.00,140.62,0.00,996.47,310.53,-4.43,-3.21,-8.99
2025-08-07T18:36:26.610649,-80.87,52.73,10774.59,-7.28,-2.97,35.69,33.46,33.46,436.00,140.62,0.00,996.47,310.75,-5.28,-2.60,-8.55
2025-08-07T18:36:26.823303,-80.27,51.89,10781.74,-17.85,-9.65,33.37,33.46,33.46,435.00,140.62,0.00,996.47,310.96,-4.86,-3.11,-8.53
2025-08-07T18:36:27.036600,-79.70,51.72,10789.45,-14.64,-8.95,36.03,33.46,33.46,436.00,140.62,0.00,996.47,311.18,-6.06,-3.16,-8.23
2025-08-07T18:36:27.250554,-79.64,50.72,10796.23,-18.08,-7.26,31.71,33.46,33.46,436.00,140.62,0.00,996.47,311.39,-4.32,-1.89,-8.36
2025-08-07T18:36:27.466466,-81.39,52.37,10809.31,-5.54,1.05,61.10,33.47,33.47,434.00,140.61,0.00,996.48,311.60,-4.81,-2.28,-10.38
2025-08-07T18:36:27.686827,-89.06,62.87,10814.02,36.08,30.36,22.01,33.47,33.47,491.00,140.61,0.00,996.48,311.82,-7.06,-4.26,-9.97
2025-08-07T18:36:27.892598,84.97,46.02,10846.39,-92.44,22.61,151.28,33.47,33.47,350.00,140.61,0.00,996.48,312.03,-5.23,-1.75,-8.94
2025-08-07T18:36:28.106626,58.78,41.83,10864.21,-30.25,118.35,83.29,33.48,33.48,460.00,140.66,0.00,996.47,312.25,-2.02,3.16,-6.08
2025-08-07T18:36:28.332114,59.45,37.82,10872.69,-33.51,-8.26,39.60,33.48,33.48,613.00,140.66,0.00,996.47,312.46,-0.78,-1.76,-7.81
2025-08-07T18:36:28.534543,60.80,43.78,10873.83,15.31,-11.45,5.34,33.48,33.48,42.00,140.66,0.00,996.47,312.67,-1.31,0.90,-10.84
2025-08-07T18:36:28.756360,63.09,45.26,10874.87,-5.31,-16.98,4.87,33.48,33.48,0.00,140.65,0.00,996.47,312.89,0.55,1.29,-11.60
2025-08-07T18:36:28.962951,56.87,48.33,10874.92,2.50,23.78,0.23,33.48,33.48,0.00,140.65,0.00,996.47,313.10,-0.26,1.34,-9.86
2025-08-07T18:36:29.185939,56.52,44.87,10882.92,-29.37,-3.21,37.35,33.48,33.48,39.00,140.65,0.00,996.47,313.32,-1.10,-0.62,-10.80
2025-08-07T18:36:29.391074,57.12,44.86,10890.58,-12.31,-7.90,35.80,33.48,33.48,56.00,140.69,0.00,996.47,313.53,-0.64,1.12,-10.24
2025-08-07T18:36:29.606722,57.12,44.48,10897.94,-14.60,-4.90,34.42,33.48,33.48,40.00,140.69,0.00,996.47,313.74,-0.95,0.22,-10.05
2025-08-07T18:36:29.822488,57.34,44.09,10905.17,-14.93,-6.39,33.75,33.49,33.49,44.00,140.70,0.00,996.46,313.96,-0.27,-0.28,-10.12
2025-08-07T18:36:30.040312,57.85,43.99,10912.08,-13.25,-7.94,32.33,33.49,33.49,39.00,140.70,0.00,996.46,314.17,0.07,0.36,-10.31
2025-08-07T18:36:30.246367,58.16,44.32,10919.82,-11.22,-6.86,36.16,33.49,33.49,40.00,140.70,0.00,996.46,314.39,-0.22,0.34,-10.13
2025-08-07T18:36:30.460819,58.21,43.87,10927.20,-14.26,-4.94,34.45,33.49,33.49,40.00,140.71,0.00,996.46,314.60,-1.62,1.55,-10.08
2025-08-07T18:36:30.674440,58.29,43.84,10934.35,-12.72,-5.45,33.43,33.49,33.49,45.00,140.71,0.00,996.46,314.81,-0.86,0.78,-10.48
2025-08-07T18:36:30.888375,58.85,43.42,10941.57,-15.18,-7.47,33.74,33.49,33.49,40.00,140.71,0.00,996.46,315.03,-1.50,-0.40,-10.46
2025-08-07T18:36:31.110487,59.46,43.19,10948.71,-13.94,-7.81,33.37,33.49,33.49,44.00,140.70,0.00,996.46,315.24,-1.32,0.35,-10.32
2025-08-07T18:36:31.317125,59.49,43.15,10956.45,-13.27,-5.42,36.15,33.49,33.49,43.00,140.70,0.00,996.46,315.46,-0.78,-0.06,-10.58
2025-08-07T18:36:31.538210,59.98,42.55,10964.28,-15.51,-7.42,36.61,33.49,33.49,44.00,140.70,0.00,996.46,315.67,-1.07,0.78,-10.11
2025-08-07T18:36:31.744093,59.89,42.14,10971.62,-14.76,-5.00,34.27,33.49,33.49,39.00,140.70,0.00,996.46,315.88,-0.57,0.55,-10.39
2025-08-07T18:36:31.958310,60.54,41.90,10979.43,-14.52,-8.77,36.50,33.49,33.49,43.00,140.70,0.00,996.46,316.10,-0.07,-0.40,-9.80
2025-08-07T18:36:32.174734,60.78,41.59,10986.79,-14.40,-6.52,34.42,33.49,33.49,41.00,140.69,0.00,996.47,316.31,-0.73,0.47,-9.90
2025-08-07T18:36:32.386349,61.02,41.28,10994.32,-14.44,-6.26,35.16,33.49,33.49,46.00,140.69,0.00,996.47,316.53,-1.26,0.45,-10.33
2025-08-07T18:36:32.600305,61.48,41.14,11001.65,-13.25,-7.81,34.26,33.49,33.49,41.00,140.69,0.00,996.47,316.74,-0.45,1.16,-10.15
2025-08-07T18:36:32.822201,61.55,41.11,11009.08,-13.22,-5.71,34.73,33.49,33.49,43.00,140.72,0.00,996.46,316.95,-0.90,0.33,-10.42
2025-08-07T18:36:33.028174,61.87,40.89,11016.51,-13.94,-6.60,34.74,33.49,33.49,42.00,140.72,0.00,996.46,317.17,-1.49,0.68,-10.09
2025-08-07T18:36:33.243593,61.92,40.77,11024.18,-12.72,-5.94,35.81,33.49,33.49,43.00,140.72,0.00,996.46,317.38,-0.33,2.04,-10.01
2025-08-07T18:36:33.456337,62.06,40.92,11031.40,-12.44,-6.16,33.75,33.49,33.49,40.00,140.71,0.00,996.46,317.60,-0.79,0.23,-10.39
2025-08-07T18:36:33.675169,62.30,40.93,11038.68,-12.99,-6.78,34.00,33.49,33.49,43.00,140.71,0.00,996.46,317.81,-0.52,0.47,-10.04
2025-08-07T18:36:33.892221,62.76,40.64,11045.52,-14.43,-7.76,31.97,33.48,33.48,41.00,140.72,0.00,996.46,318.02,-0.71,0.36,-10.35
2025-08-07T18:36:34.105890,63.02,40.65,11053.11,-13.08,-6.87,35.46,33.48,33.48,42.00,140.72,0.00,996.46,318.24,-0.73,0.32,-10.47
2025-08-07T18:36:34.311956,63.33,40.56,11060.27,-13.25,-7.13,33.49,33.48,33.48,39.00,140.72,0.00,996.46,318.45,-0.66,0.91,-10.50
2025-08-07T18:36:34.527070,63.45,40.15,11067.65,-14.43,-5.87,34.45,33.48,33.48,39.00,140.69,0.00,996.46,318.67,-1.38,1.52,-10.06
2025-08-07T18:36:34.739987,63.96,40.10,11074.95,-12.93,-8.23,34.12,33.48,33.48,41.00,140.69,0.00,996.46,318.88,-0.47,1.24,-10.48
2025-08-07T18:36:34.954048,64.75,40.06,11082.60,-13.24,-9.18,35.77,33.48,33.48,40.00,140.69,0.00,996.46,319.09,-1.33,0.56,-10.27
2025-08-07T18:36:35.175955,64.93,39.97,11090.00,-13.42,-6.66,34.59,33.48,33.48,44.00,140.69,0.00,996.47,319.31,-0.69,0.68,-10.12
2025-08-07T18:36:35.381940,65.10,39.59,11097.91,-14.28,-6.48,36.96,33.48,33.48,39.00,140.69,0.00,996.47,319.52,-0.96,1.72,-10.26
2025-08-07T18:36:35.607129,65.21,39.76,11105.04,-12.00,-6.32,33.28,33.48,33.48,43.00,140.69,0.00,996.47,319.74,-0.79,1.02,-10.27
2025-08-07T18:36:35.809964,65.85,39.96,11112.98,-11.74,-9.03,37.11,33.47,33.47,37.00,140.68,0.00,996.47,319.95,-0.42,1.27,-10.16
2025-08-07T18:36:36.237759,66.01,39.45,11127.83,-15.25,-7.36,33.72,33.46,33.46,41.00,140.70,0.00,996.46,320.38,-0.34,0.42,-10.22
2025-08-07T18:36:36.452039,65.86,39.85,11135.28,-11.25,-5.18,34.79,33.46,33.46,46.00,140.70,0.00,996.46,320.59,-0.73,0.45,-10.29
2025-08-07T18:36:36.663893,65.63,39.59,11142.87,-14.38,-5.18,35.48,33.46,33.46,41.00,140.70,0.00,996.46,320.81,0.03,0.41,-10.30
2025-08-07T18:36:36.889697,66.07,39.52,11149.99,-13.25,-7.93,33.29,33.46,33.46,45.00,140.70,0.00,996.46,321.02,-0.81,0.87,-10.22
2025-08-07T18:36:37.093669,66.44,38.95,11157.73,-16.28,-7.00,36.15,33.46,33.46,41.00,140.70,0.00,996.46,321.23,-2.10,-0.28,-10.29
2025-08-07T18:36:37.307714,66.71,38.78,11165.29,-13.67,-7.27,35.34,33.46,33.46,46.00,140.70,0.00,996.46,321.45,-0.61,1.10,-10.36
2025-08-07T18:36:37.522190,67.10,38.72,11172.62,-13.65,-7.85,34.26,33.46,33.46,37.00,140.69,0.00,996.47,321.66,-0.68,0.23,-10.10
2025-08-07T18:36:37.743893,67.25,38.39,11180.13,-14.54,-6.29,35.10,33.46,33.46,39.00,140.69,0.00,996.47,321.88,-1.57,0.94,-10.47
2025-08-07T18:36:37.950403,67.33,38.65,11187.57,-11.83,-6.65,34.74,33.45,33.45,43.00,140.73,0.00,996.46,322.09,-0.32,0.87,-10.19
2025-08-07T18:36:38.163986,67.55,38.19,11194.84,-15.28,-6.90,33.97,33.45,33.45,41.00,140.73,0.00,996.46,322.30,-1.06,0.74,-10.21
2025-08-07T18:36:38.385900,67.61,38.46,11202.22,-12.05,-6.45,34.50,33.45,33.45,42.00,140.73,0.00,996.46,322.52,-0.56,0.33,-10.28
2025-08-07T18:36:38.599680,67.44,38.71,11209.33,-12.09,-5.23,33.23,33.44,33.44,41.00,140.72,0.00,996.46,322.73,-0.71,0.36,-10.24
2025-08-07T18:36:38.813952,67.41,38.44,11216.97,-14.55,-5.67,35.68,33.44,33.44,43.00,140.72,0.00,996.46,322.95,-1.18,0.39,-10.09
2025-08-07T18:36:39.020643,67.37,38.96,11223.99,-10.75,-5.59,32.81,33.44,33.44,39.00,140.72,0.00,996.46,323.16,-1.20,0.50,-10.21
2025-08-07T18:36:39.233672,67.57,38.42,11230.88,-16.32,-6.63,32.21,33.44,33.44,47.00,140.75,0.00,996.46,323.37,-1.37,-0.51,-9.85
2025-08-07T18:36:39.455671,67.35,38.18,11238.13,-14.28,-4.94,33.86,33.44,33.44,40.00,140.75,0.00,996.46,323.59,-0.89,0.68,-10.10
2025-08-07T18:36:39.885343,67.56,37.40,11252.75,-13.57,-7.12,34.81,33.43,33.43,41.00,140.74,0.00,996.46,324.02,-0.86,0.89,-10.28
2025-08-07T18:36:40.089876,67.29,37.23,11260.23,-14.78,-4.63,34.94,33.43,33.43,43.00,140.74,0.00,996.46,324.23,-0.96,-0.77,-10.44
2025-08-07T18:36:40.311643,67.71,37.07,11267.90,-13.94,-8.00,35.86,33.43,33.43,41.00,140.73,0.00,996.46,324.44,-0.85,0.82,-10.20
2025-08-07T18:36:40.517607,67.62,37.16,11275.72,-12.64,-5.38,36.53,33.43,33.43,45.00,140.73,0.00,996.46,324.66,-1.25,1.08,-10.41
2025-08-07T18:36:40.732359,67.61,37.67,11283.40,-10.69,-5.68,35.90,33.43,33.43,40.00,140.73,0.00,996.46,324.87,-1.30,0.95,-9.87
2025-08-07T18:36:40.945740,68.17,37.60,11290.83,-13.59,-8.63,34.71,33.42,33.42,41.00,140.74,0.00,996.46,325.09,-0.92,0.57,-10.42
2025-08-07T18:36:41.161170,68.54,37.13,11297.92,-15.19,-7.79,33.11,33.42,33.42,41.00,140.74,0.00,996.46,325.30,-0.86,1.23,-10.22
2025-08-07T18:36:41.373852,68.77,37.26,11305.47,-12.63,-7.12,35.29,33.42,33.42,43.00,140.74,0.00,996.46,325.51,-0.98,0.66,-10.13
2025-08-07T18:36:41.587605,68.89,37.37,11313.17,-12.57,-6.66,36.00,33.41,33.41,42.00,140.75,0.00,996.46,325.73,-0.87,1.04,-10.40
2025-08-07T18:36:41.803994,68.46,36.47,11320.88,-17.41,-4.05,36.01,33.41,33.41,46.00,140.75,0.00,996.46,325.94,-0.89,0.92,-10.25
2025-08-07T18:36:42.237595,69.17,36.61,11335.58,-11.44,-9.12,34.18,33.41,33.41,46.00,140.78,0.00,996.46,326.37,-0.56,0.60,-10.18
2025-08-07T18:36:42.443533,69.48,36.83,11343.31,-12.35,-7.74,36.10,33.41,33.41,42.00,140.78,0.00,996.46,326.58,-0.65,0.55,-10.27
2025-08-07T18:36:42.667277,69.70,36.65,11350.63,-14.11,-7.24,34.24,33.40,33.40,45.00,140.75,0.00,996.46,326.80,-0.85,0.81,-10.35
2025-08-07T18:36:42.869785,69.81,36.92,11357.96,-12.20,-6.46,34.21,33.40,33.40,39.00,140.75,0.00,996.46,327.01,-1.26,0.26,-10.18
2025-08-07T18:36:43.086557,70.04,36.63,11365.24,-14.37,-7.38,33.71,33.40,33.40,46.00,140.75,0.00,996.46,327.23,-0.60,1.06,-10.25
2025-08-07T18:36:43.311205,69.72,36.67,11372.57,-13.25,-4.78,34.29,33.40,33.40,36.00,140.75,0.00,996.46,327.44,-0.70,0.41,-10.46
2025-08-07T18:36:43.515297,70.04,36.45,11380.13,-14.35,-7.67,35.32,33.40,33.40,40.00,140.75,0.00,996.46,327.66,-0.94,0.72,-10.26
2025-08-07T18:36:43.729403,70.43,36.46,11387.51,-13.47,-8.16,34.47,33.40,33.40,43.00,140.75,0.00,996.46,327.87,-0.76,0.30,-10.17
2025-08-07T18:36:43.943227,70.41,36.81,11395.18,-11.96,-6.23,35.84,33.39,33.39,41.00,140.77,0.00,996.46,328.08,-0.74,0.10,-10.32
2025-08-07T18:36:44.157180,70.23,36.25,11402.72,-15.37,-5.42,35.23,33.39,33.39,43.00,140.77,0.00,996.46,328.30,-0.83,1.80,-10.24
2025-08-07T18:36:44.375280,70.53,36.09,11409.82,-13.94,-7.82,33.16,33.39,33.39,40.00,140.76,0.00,996.46,328.51,-0.63,1.08,-11.08
2025-08-07T18:36:44.583393,70.60,35.83,11417.34,-14.66,-6.46,35.16,33.39,33.39,44.00,140.76,0.00,996.46,328.73,-1.08,0.64,-10.20
2025-08-07T18:36:44.799339,70.95,35.78,11424.89,-13.62,-7.93,35.29,33.39,33.39,39.00,140.76,0.00,996.46,328.94,-0.92,0.69,-10.29
2025-08-07T18:36:45.013399,71.03,36.00,11432.01,-12.72,-6.77,33.26,33.38,33.38,44.00,140.77,0.00,996.46,329.15,-0.68,-0.04,-10.11
2025-08-07T18:36:45.227514,71.18,35.96,11439.21,-13.37,-6.84,33.63,33.38,33.38,41.00,140.77,0.00,996.46,329.37,-1.26,1.06,-10.21
2025-08-07T18:36:45.441992,71.35,35.58,11446.47,-14.83,-6.78,33.94,33.38,33.38,46.00,140.77,0.00,996.46,329.58,-1.59,1.33,-10.33
2025-08-07T18:36:45.663334,71.23,35.17,11453.71,-15.10,-6.16,33.84,33.38,33.38,38.00,140.77,0.00,996.46,329.80,-0.09,1.22,-10.34
2025-08-07T18:36:45.869381,71.51,35.14,11461.52,-13.31,-7.73,36.50,33.38,33.38,45.00,140.77,0.00,996.46,330.01,-0.72,1.17,-10.14
2025-08-07T18:36:46.083299,71.81,35.19,11469.13,-13.12,-7.70,35.55,33.38,33.38,40.00,140.77,0.00,996.46,330.22,-1.12,0.90,-10.32
2025-08-07T18:36:46.306148,71.87,34.84,11476.80,-14.93,-6.92,35.86,33.37,33.37,42.00,140.78,0.00,996.45,330.44,-0.39,1.01,-10.25
2025-08-07T18:36:46.511151,71.70,34.59,11484.09,-14.79,-6.07,34.06,33.37,33.37,41.00,140.78,0.00,996.45,330.65,0.01,0.51,-10.40
2025-08-07T18:36:46.733354,71.69,34.55,11492.04,-13.67,-6.28,37.16,33.37,33.37,44.00,140.80,0.00,996.45,330.87,-0.97,0.73,-10.22
2025-08-07T18:36:46.939139,71.68,34.53,11499.55,-13.27,-6.49,35.06,33.37,33.37,40.00,140.80,0.00,996.45,331.08,-0.51,1.28,-10.25
2025-08-07T18:36:47.161166,71.80,34.63,11507.01,-13.04,-7.38,34.90,33.37,33.37,43.00,140.80,0.00,996.45,331.29,-0.08,0.69,-10.07
2025-08-07T18:36:47.367211,71.96,34.42,11514.58,-14.29,-7.27,35.35,33.36,33.36,42.00,140.83,0.00,996.45,331.51,-0.58,1.04,-10.22
2025-08-07T18:36:47.581111,71.84,34.54,11521.83,-12.92,-6.16,33.87,33.36,33.36,42.00,140.83,0.00,996.45,331.72,-0.33,0.79,-10.34
2025-08-07T18:36:47.795363,72.16,34.80,11529.20,-12.00,-8.10,34.42,33.36,33.36,41.00,140.83,0.00,996.45,331.94,-0.53,1.16,-10.18
2025-08-07T18:36:48.010247,72.50,35.44,11536.68,-10.18,-8.13,34.99,33.36,33.36,47.00,140.82,0.00,996.45,332.15,-0.69,1.09,-10.12
2025-08-07T18:36:48.223519,72.94,35.58,11544.02,-12.61,-8.46,34.30,33.36,33.36,42.00,140.82,0.00,996.45,332.36,-1.04,1.01,-10.28
2025-08-07T18:36:48.445043,72.66,35.60,11551.40,-12.93,-5.38,34.47,33.36,33.36,46.00,140.82,0.00,996.45,332.58,-0.41,1.40,-10.28
2025-08-07T18:36:48.651143,72.45,35.20,11558.64,-15.24,-5.84,33.83,33.35,33.35,42.00,140.81,0.00,996.45,332.79,-0.25,0.84,-10.35
2025-08-07T18:36:48.865884,72.48,34.83,11566.03,-15.47,-6.84,34.55,33.35,33.35,43.00,140.81,0.00,996.45,333.01,-0.34,0.22,-9.91
2025-08-07T18:36:49.078938,72.15,34.58,11573.40,-14.67,-4.94,34.42,33.35,33.35,42.00,140.81,0.00,996.45,333.22,-0.74,0.65,-10.24
2025-08-07T18:36:49.293047,72.29,34.40,11580.80,-14.67,-6.80,34.58,33.35,33.35,45.00,140.81,0.00,996.45,333.43,-1.46,0.15,-10.11
2025-08-07T18:36:49.514897,72.10,34.16,11588.08,-14.84,-5.56,34.06,33.35,33.35,40.00,140.81,0.00,996.45,333.65,-0.72,0.34,-10.18
2025-08-07T18:36:49.721858,71.98,34.19,11595.29,-13.36,-5.87,33.66,33.35,33.35,41.00,140.80,0.00,996.45,333.86,-0.91,0.79,-10.38
2025-08-07T18:36:49.935164,72.06,34.24,11603.00,-13.19,-6.81,36.03,33.35,33.35,41.00,140.80,0.00,996.45,334.08,-0.81,0.88,-10.25
2025-08-07T18:36:50.148999,72.33,34.45,11610.48,-12.81,-7.61,34.97,33.35,33.35,45.00,140.80,0.00,996.45,334.29,-0.99,0.15,-10.24
2025-08-07T18:36:50.362880,71.97,34.66,11617.85,-12.63,-5.01,34.42,33.34,33.34,40.00,140.82,0.00,996.45,334.50,-0.36,0.50,-10.35
2025-08-07T18:36:50.578750,71.90,34.32,11625.31,-15.41,-6.81,34.85,33.34,33.34,45.00,140.82,0.00,996.45,334.72,0.54,0.11,-9.88
2025-08-07T18:36:50.799707,71.88,34.36,11632.80,-13.94,-6.32,35.00,33.34,33.34,41.00,140.82,0.00,996.45,334.93,-0.79,-0.45,-10.20
2025-08-07T18:36:51.004817,71.81,34.60,11639.97,-12.72,-6.16,33.54,33.34,33.34,43.00,140.82,0.00,996.45,335.15,-0.71,0.06,-10.14
2025-08-07T18:36:51.223472,71.94,34.84,11647.61,-12.15,-6.80,35.66,33.34,33.34,40.00,140.82,0.00,996.45,335.36,-1.26,1.05,-10.09
2025-08-07T18:36:51.435677,72.18,34.74,11654.41,-13.68,-7.30,31.80,33.34,33.34,42.00,140.81,0.00,996.45,335.57,-1.29,1.19,-10.19
2025-08-07T18:36:51.646952,72.14,34.64,11661.88,-14.21,-6.43,34.91,33.34,33.34,42.00,140.81,0.00,996.45,335.79,-0.50,0.19,-10.20
2025-08-07T18:36:51.860841,71.91,35.02,11669.33,-12.02,-5.10,34.82,33.34,33.34,45.00,140.81,0.00,996.45,336.00,-1.26,0.11,-9.94
2025-08-07T18:36:52.074817,71.97,35.03,11676.61,-13.36,-6.69,34.01,33.33,33.33,42.00,140.81,0.00,996.45,336.22,-0.82,0.76,-10.02
2025-08-07T18:36:52.286784,71.90,35.11,11683.99,-13.04,-6.00,34.50,33.33,33.33,45.00,140.81,0.00,996.45,336.43,-0.98,0.78,-10.18
2025-08-07T18:36:52.505632,72.12,35.20,11691.45,-13.22,-7.84,34.82,33.33,33.33,42.00,140.81,0.00,996.45,336.64,-0.11,0.28,-10.04
2025-08-07T18:36:52.716793,72.47,34.75,11698.91,-15.28,-7.74,34.88,33.33,33.33,44.00,140.81,0.00,996.45,336.86,-1.54,1.29,-10.29
2025-08-07T18:36:52.939047,72.51,35.06,11706.13,-12.34,-6.25,33.74,33.33,33.33,42.00,140.81,0.00,996.45,337.07,-1.71,0.13,-10.51
2025-08-07T18:36:53.152686,72.32,34.78,11713.92,-14.23,-5.62,36.38,33.33,33.33,47.00,140.85,0.00,996.45,337.29,-0.73,1.68,-10.22
2025-08-07T18:36:53.358686,72.39,34.88,11721.26,-12.69,-6.71,34.32,33.33,33.33,37.00,140.85,0.00,996.45,337.50,-0.96,1.33,-10.19
2025-08-07T18:36:53.583805,72.66,34.41,11728.87,-15.60,-7.74,35.57,33.33,33.33,41.00,140.85,0.00,996.45,337.71,-0.82,0.88,-10.28
2025-08-07T18:36:53.794745,72.58,34.10,11735.88,-14.20,-6.14,32.77,33.32,33.32,45.00,140.84,0.00,996.45,337.93,-0.82,2.28,-10.21
2025-08-07T18:36:54.000676,72.90,33.78,11742.95,-15.28,-7.73,33.03,33.32,33.32,39.00,140.84,0.00,996.45,338.14,-1.37,0.29,-10.21
2025-08-07T18:36:54.216169,73.19,33.89,11750.43,-13.05,-7.76,34.93,33.32,33.32,43.00,140.84,0.00,996.45,338.36,-1.05,0.61,-10.22
2025-08-07T18:36:54.428623,73.39,33.93,11758.25,-13.48,-7.32,36.55,33.32,33.32,40.00,140.85,0.00,996.45,338.57,-1.12,0.56,-9.98
2025-08-07T18:36:54.650944,73.18,33.68,11765.32,-15.02,-5.71,33.06,33.32,33.32,44.00,140.85,0.00,996.45,338.78,-0.53,0.11,-9.87
2025-08-07T18:36:54.857393,72.80,33.26,11772.81,-15.79,-4.81,34.97,33.32,33.32,38.00,140.86,0.00,996.45,339.00,-0.66,0.31,-10.22
2025-08-07T18:36:55.068982,72.97,33.52,11780.00,-12.49,-7.32,33.58,33.32,33.32,43.00,140.86,0.00,996.45,339.21,-0.82,0.50,-10.10
2025-08-07T18:36:55.292468,73.22,33.43,11787.41,-13.88,-7.81,34.65,33.32,33.32,42.00,140.86,0.00,996.45,339.43,-0.65,1.00,-9.98
