TS,pitch,roll,yaw,vgx,vgy,vgz,templ,temph,tof,h,bat,baro,time,agx,agy,agz
2024-05-17 16:53:16.150571,0,0,-4,0,0,0,78,80,10,0,76,191.20,30,10.00,10.00,-1000.00
2024-05-17 16:53:16.168277,0,0,-4,0,0,0,78,80,10,0,76,191.16,30,11.00,10.00,-999.00
2024-05-17 16:53:16.270461,0,0,-4,0,0,0,78,80,10,0,76,191.22,30,11.00,9.00,-1000.00
2024-05-17 16:53:16.455008,0,0,-4,0,0,0,78,80,10,0,76,191.16,30,12.00,9.00,-997.00
2024-05-17 16:53:16.474283,0,0,-4,0,0,0,78,80,10,0,76,191.21,30,10.00,10.00,-999.00
2024-05-17 16:53:16.659427,0,0,-4,0,0,0,78,80,10,0,76,191.17,30,11.00,9.00,-1000.00
2024-05-17 16:53:16.678642,0,0,-4,0,0,0,78,80,10,0,76,191.17,30,11.00,10.00,-999.00
2024-05-17 16:53:16.867063,0,0,-4,0,0,0,78,80,10,0,76,191.20,30,11.00,9.00,-998.00
2024-05-17 16:53:16.882702,0,0,-4,0,0,0,78,80,10,0,76,191.18,30,9.00,10.00,-999.00
2024-05-17 16:53:17.069045,0,0,-4,0,0,0,78,80,10,0,76,191.16,30,11.00,10.00,-999.00
2024-05-17 16:53:17.087279,0,0,-4,0,0,0,78,80,10,0,76,191.18,30,11.00,11.00,-998.00
2024-05-17 16:53:17.189759,0,0,-4,0,0,0,78,80,10,0,76,191.15,30,11.00,9.00,-996.00
2024-05-17 16:53:17.291080,0,0,-4,0,0,0,78,80,10,0,76,191.14,30,11.00,10.00,-1002.00
2024-05-17 16:53:17.478899,0,0,-4,0,0,0,78,80,10,0,76,191.20,30,11.00,9.00,-999.00
2024-05-17 16:53:17.494212,0,0,-4,0,0,0,78,80,10,0,76,191.20,30,10.00,9.00,-1001.00
2024-05-17 16:53:17.596378,0,0,-4,0,0,0,78,80,10,0,76,191.18,30,12.00,10.00,-1001.00
2024-05-17 16:53:17.791653,0,0,-4,0,0,0,78,80,10,0,76,191.15,30,10.00,10.00,-999.00
2024-05-17 16:53:17.800292,0,0,-4,0,0,0,78,80,10,0,76,191.20,30,10.00,11.00,-1000.00
2024-05-17 16:53:18.097452,0,0,-4,0,0,0,78,80,10,0,76,191.14,30,11.00,10.00,-998.00
2024-05-17 16:53:18.097656,0,0,-4,0,0,0,78,80,10,0,76,191.14,30,11.00,11.00,-997.00
2024-05-17 16:53:18.106382,0,0,-4,0,0,0,78,80,10,0,76,191.12,30,11.00,9.00,-999.00
2024-05-17 16:53:18.208275,0,0,-4,0,0,0,78,80,10,0,76,191.22,30,12.00,10.00,-999.00
2024-05-17 16:53:18.400519,0,0,-4,0,0,0,78,80,10,0,76,191.16,30,10.00,9.00,-1000.00
2024-05-17 16:53:18.412746,0,0,-4,0,0,0,78,80,10,0,76,191.17,30,11.00,10.00,-1001.00
2024-05-17 16:53:18.572472,0,0,-4,0,0,0,78,80,10,0,76,191.14,30,10.00,8.00,-998.00
2024-05-17 16:53:18.617089,0,0,-4,0,0,0,78,80,10,0,76,191.14,30,9.00,10.00,-1000.00
2024-05-17 16:53:18.809781,0,0,-4,0,0,0,78,80,10,0,76,191.16,30,8.00,10.00,-1001.00
2024-05-17 16:53:18.822224,0,0,-4,0,0,0,78,80,10,0,76,191.16,30,13.00,4.00,-996.00
2024-05-17 16:53:18.922123,0,0,-3,0,0,0,78,80,10,0,76,191.16,31,8.00,7.00,-996.00
2024-05-17 16:53:19.117152,0,0,-2,0,0,0,78,80,10,0,76,191.16,31,-9.00,-28.00,-1020.00
2024-05-17 16:53:19.126109,0,0,-1,0,0,0,78,81,10,0,76,191.16,31,-20.00,-5.00,-927.00
2024-05-17 16:53:19.325244,0,0,-1,0,0,0,78,81,10,0,76,191.16,31,-32.00,6.00,-1075.00
2024-05-17 16:53:19.330095,0,0,-1,0,0,-2,78,81,10,0,76,191.16,31,-11.00,-1.00,-1205.00
2024-05-17 16:53:19.382608,0,0,-1,0,0,-5,78,81,10,0,76,191.16,31,-6.00,2.00,-1363.00
2024-05-17 16:53:19.483682,0,1,-1,0,0,-7,78,81,15,0,76,191.19,31,-27.00,2.00,-1173.00
2024-05-17 16:53:19.585110,0,1,-1,0,0,-8,78,81,23,10,76,191.47,31,-34.00,9.00,-1119.00
2024-05-17 16:53:19.734265,-1,0,-1,0,0,-8,78,81,31,20,76,191.57,31,-5.00,-3.00,-1004.00
2024-05-17 16:53:19.789047,-1,0,-1,0,0,-7,78,81,39,20,76,191.63,31,-11.00,-17.00,-966.00
2024-05-17 16:53:19.936785,0,0,-1,0,0,-7,78,81,47,30,76,191.71,32,-2.00,11.00,-917.00
2024-05-17 16:53:19.993060,0,0,-1,0,0,-6,78,81,54,40,76,191.76,32,-23.00,-16.00,-875.00
2024-05-17 16:53:20.152663,0,0,-1,0,0,-4,77,81,59,40,76,191.85,32,-21.00,16.00,-880.00
2024-05-17 16:53:20.197001,-1,0,-1,0,0,-3,77,81,64,50,76,191.91,32,-21.00,22.00,-890.00
2024-05-17 16:53:20.345888,0,0,-1,0,0,-2,77,81,67,50,76,191.93,32,2.00,-21.00,-882.00
2024-05-17 16:53:20.401168,0,0,-1,0,0,-1,77,81,70,50,76,192.04,32,5.00,-17.00,-924.00
2024-05-17 16:53:20.552754,0,0,-1,0,0,0,77,81,72,50,76,191.98,32,1.00,3.00,-933.00
2024-05-17 16:53:20.605380,0,0,-1,0,0,0,77,81,74,50,76,192.03,32,-1.00,0.00,-964.00
2024-05-17 16:53:20.755509,0,0,-1,0,0,0,77,81,75,50,76,191.99,32,-7.00,4.00,-971.00
2024-05-17 16:53:20.810570,0,0,-1,0,0,0,77,81,76,50,76,192.09,32,-27.00,17.00,-993.00
2024-05-17 16:53:20.911034,0,0,-1,0,0,0,77,81,77,60,76,192.01,33,-5.00,-2.00,-1001.00
2024-05-17 16:53:21.013178,0,0,-1,0,0,0,77,81,78,60,76,192.11,33,-8.00,3.00,-1007.00
2024-05-17 16:53:21.115008,0,0,-1,0,0,0,78,80,80,60,76,192.03,33,5.00,8.00,-1013.00
2024-05-17 16:53:21.267511,0,0,-1,0,0,0,78,80,81,60,76,192.14,33,-16.00,-3.00,-1002.00
2024-05-17 16:53:21.330365,0,0,-1,0,0,0,78,80,82,60,76,192.15,33,-18.00,19.00,-988.00
2024-05-17 16:53:21.421163,0,0,-1,0,0,0,78,80,83,60,76,192.16,33,2.00,-2.00,-984.00
2024-05-17 16:53:21.574652,0,0,-1,0,0,0,78,80,84,60,76,192.16,33,-7.00,13.00,-988.00
2024-05-17 16:53:21.624937,0,0,-1,0,0,0,78,80,85,60,76,192.20,33,12.00,-8.00,-982.00
2024-05-17 16:53:21.779598,0,0,-1,0,0,0,78,80,85,60,76,192.21,33,-3.00,6.00,-975.00
2024-05-17 16:53:21.828977,0,0,-1,0,0,0,78,80,86,60,76,192.15,33,4.00,4.00,-983.00
2024-05-17 16:53:21.984955,0,0,-1,0,0,0,78,80,86,60,76,192.21,34,-5.00,3.00,-981.00
2024-05-17 16:53:22.032948,0,0,-1,0,0,0,78,80,86,60,76,192.18,34,9.00,8.00,-988.00
2024-05-17 16:53:22.134868,0,0,-1,0,0,0,77,80,86,60,76,192.20,34,-10.00,6.00,-985.00
2024-05-17 16:53:22.293924,0,0,-1,0,0,0,77,80,85,60,76,192.15,34,7.00,9.00,-1001.00
2024-05-17 16:53:22.338948,0,0,-1,0,0,0,77,80,85,60,76,192.12,34,-12.00,19.00,-989.00
2024-05-17 16:53:22.496274,0,0,-1,0,0,0,77,80,84,60,76,192.23,34,-5.00,-14.00,-976.00
2024-05-17 16:53:22.542944,0,0,-1,0,0,0,77,80,84,60,76,192.19,34,8.00,5.00,-998.00
2024-05-17 16:53:22.645751,0,0,-1,0,0,0,77,80,84,60,76,192.17,34,-24.00,23.00,-978.00
2024-05-17 16:53:22.803455,0,0,-1,0,0,0,77,80,84,60,76,192.17,34,5.00,2.00,-998.00
2024-05-17 16:53:22.853834,0,0,-1,0,0,0,77,80,83,60,76,192.12,34,2.00,13.00,-997.00
2024-05-17 16:53:22.950970,0,0,-1,0,0,0,77,80,82,60,76,192.15,35,-21.00,21.00,-999.00
2024-05-17 16:53:23.110677,0,0,-1,0,0,0,77,80,82,60,76,192.08,35,-17.00,4.00,-994.00
2024-05-17 16:53:23.154931,0,0,-1,0,0,0,77,79,81,60,76,192.08,35,-31.00,17.00,-1028.00
2024-05-17 16:53:23.315453,0,0,-1,0,0,0,77,79,81,60,76,192.19,35,0.00,4.00,-993.00
2024-05-17 16:53:23.315637,0,0,-1,0,0,0,77,79,80,60,76,192.16,35,0.00,6.00,-998.00
2024-05-17 16:53:23.409892,0,0,-1,0,0,0,77,79,80,60,76,192.10,35,-5.00,2.00,-1005.00
2024-05-17 16:53:23.520265,0,0,-1,0,0,0,77,79,79,60,76,192.09,35,26.00,-2.00,-1012.00
2024-05-17 16:53:23.613881,0,0,-1,0,0,0,77,79,79,60,76,192.10,35,-3.00,-6.00,-964.00
2024-05-17 16:53:23.725553,0,0,-1,0,0,0,77,79,79,60,76,192.07,35,21.00,11.00,-1010.00
2024-05-17 16:53:23.817995,0,0,-1,0,0,0,77,79,79,60,76,192.15,35,10.00,8.00,-1016.00
2024-05-17 16:53:23.929873,0,0,-1,0,0,0,77,79,78,60,76,192.08,36,0.00,10.00,-1003.00
2024-05-17 16:53:24.021883,0,0,-1,0,0,0,77,79,79,60,76,192.16,36,17.00,-3.00,-1001.00
2024-05-17 16:53:24.123915,0,0,-1,0,0,0,76,79,79,60,76,192.11,36,15.00,5.00,-997.00
2024-05-17 16:53:24.237057,0,0,-1,0,0,0,76,79,79,60,76,192.09,36,14.00,3.00,-1004.00
2024-05-17 16:53:24.327890,0,0,-1,0,0,0,76,79,79,60,76,192.11,36,14.00,17.00,-986.00
2024-05-17 16:53:24.450933,0,0,-1,0,0,0,76,79,79,60,76,192.14,36,-3.00,12.00,-1002.00
2024-05-17 16:53:24.531847,0,0,-1,0,0,0,76,79,79,60,76,192.12,36,25.00,-4.00,-982.00
2024-05-17 16:53:24.646645,0,0,-1,0,0,0,76,79,79,60,76,192.19,36,2.00,19.00,-1003.00
2024-05-17 16:53:24.735833,0,0,-1,0,0,0,76,79,79,60,76,192.15,36,17.00,8.00,-1014.00
2024-05-17 16:53:24.838002,0,0,-1,0,0,0,76,79,79,60,76,192.06,36,1.00,20.00,-991.00
2024-05-17 16:53:24.955901,0,0,-1,0,0,0,76,79,79,60,76,192.12,37,11.00,-3.00,-998.00
2024-05-17 16:53:25.042544,0,0,-1,0,0,0,76,79,79,60,76,192.16,37,11.00,-9.00,-997.00
2024-05-17 16:53:25.143896,0,0,-1,0,0,0,76,79,79,60,76,192.13,37,-5.00,16.00,-1010.00
2024-05-17 16:53:25.261277,0,0,-1,0,0,0,76,79,79,60,76,192.12,37,15.00,17.00,-1015.00
2024-05-17 16:53:25.347883,0,0,-1,0,0,0,76,79,79,60,76,192.16,37,5.00,15.00,-1002.00
2024-05-17 16:53:25.451434,0,0,-1,0,0,0,76,79,79,60,76,192.16,37,0.00,12.00,-997.00
2024-05-17 16:53:25.568425,0,0,-1,0,0,0,76,79,79,60,76,192.06,37,9.00,8.00,-984.00
2024-05-17 16:53:25.655134,0,0,-1,0,0,0,76,79,80,60,76,192.16,37,-51.00,38.00,-995.00
2024-05-17 16:53:25.757260,0,0,-1,0,0,0,76,79,80,60,76,192.05,37,-16.00,16.00,-997.00
2024-05-17 16:53:25.859056,0,0,-1,0,0,0,76,79,80,60,76,192.09,37,-14.00,18.00,-997.00
2024-05-17 16:53:25.962223,0,0,-1,0,0,0,76,79,80,60,76,192.07,38,-32.00,51.00,-1021.00
2024-05-17 16:53:26.064018,0,0,-1,0,0,0,76,79,81,60,76,192.06,38,27.00,-11.00,-999.00
2024-05-17 16:53:26.166498,0,0,-1,0,0,0,76,79,82,60,76,192.05,38,3.00,-3.00,-1001.00
2024-05-17 16:53:26.269388,0,0,-1,0,0,0,76,79,81,60,76,192.13,38,11.00,-14.00,-1006.00
2024-05-17 16:53:26.370723,0,0,-1,0,0,0,76,79,81,60,76,192.10,38,14.00,0.00,-993.00
2024-05-17 16:53:26.471035,0,0,-1,0,0,0,76,79,80,60,76,192.13,38,-7.00,27.00,-1016.00
2024-05-17 16:53:26.573016,0,0,-1,0,0,0,76,79,81,60,76,192.15,38,-60.00,54.00,-1006.00
2024-05-17 16:53:26.694977,0,0,-1,0,0,0,76,79,81,60,76,192.12,38,24.00,-18.00,-974.00
2024-05-17 16:53:26.776847,0,0,-1,0,0,0,76,79,80,60,76,192.10,38,19.00,10.00,-1021.00
2024-05-17 16:53:26.878635,0,0,-1,0,0,0,76,79,80,60,76,192.16,38,-41.00,52.00,-1005.00
2024-05-17 16:53:27.001859,0,0,-1,0,0,0,76,79,80,60,76,192.10,39,-17.00,25.00,-1046.00
2024-05-17 16:53:27.083443,0,0,-1,0,0,0,76,79,80,60,76,192.16,39,7.00,8.00,-1099.00
2024-05-17 16:53:27.184897,0,0,-1,0,0,-1,75,78,81,60,76,192.17,39,4.00,26.00,-1109.00
2024-05-17 16:53:27.312303,0,0,-1,0,0,-2,75,78,84,60,76,192.17,39,-18.00,3.00,-1124.00
2024-05-17 16:53:27.337757,0,0,-1,0,0,-3,75,78,87,70,76,192.21,39,-4.00,4.00,-1100.00
2024-05-17 16:53:27.514904,0,0,-1,0,0,-4,75,78,91,70,76,192.25,39,-5.00,35.00,-1081.00
2024-05-17 16:53:27.541992,0,0,-1,0,0,-4,75,78,96,70,76,192.30,39,1.00,23.00,-1023.00
2024-05-17 16:53:27.719104,0,0,-1,0,0,-5,75,78,101,80,76,192.29,39,-2.00,28.00,-1035.00
2024-05-17 16:53:27.745757,0,0,-1,0,0,-5,75,78,106,80,76,192.45,39,-44.00,64.00,-1032.00
2024-05-17 16:53:27.923533,0,0,-1,0,0,-5,75,78,111,90,76,192.51,39,0.00,45.00,-1030.00
2024-05-17 16:53:27.949715,0,-1,-1,0,0,-5,75,78,117,90,76,192.53,40,0.00,18.00,-992.00
2024-05-17 16:53:28.130191,0,-1,-1,0,0,-5,75,78,123,100,76,192.52,40,-7.00,31.00,-991.00
2024-05-17 16:53:28.153684,0,0,-1,0,0,-5,75,78,129,110,76,192.61,40,-20.00,25.00,-979.00
2024-05-17 16:53:28.334871,0,0,-1,0,0,-5,75,78,134,110,76,192.65,40,14.00,-2.00,-974.00
2024-05-17 16:53:28.357748,0,0,-1,0,0,-4,75,78,139,120,76,192.70,40,-8.00,33.00,-982.00
2024-05-17 16:53:28.539533,0,0,-1,0,0,-4,75,78,144,120,76,192.76,40,0.00,18.00,-984.00
2024-05-17 16:53:28.561658,0,0,-1,0,0,-4,75,78,149,130,76,192.79,40,9.00,-11.00,-963.00
2024-05-17 16:53:28.744422,0,0,-1,0,0,-3,75,78,153,130,76,192.81,40,0.00,21.00,-985.00
2024-05-17 16:53:28.765727,0,0,-1,0,0,-3,75,78,157,130,76,192.83,40,0.00,35.00,-979.00
2024-05-17 16:53:28.948933,0,0,-1,0,0,-3,75,78,160,140,76,192.88,40,-12.00,25.00,-969.00
2024-05-17 16:53:28.969687,0,0,-1,0,0,-3,75,78,163,140,76,192.93,41,15.00,17.00,-972.00
2024-05-17 16:53:29.152293,0,0,-1,0,0,-2,75,78,166,140,76,192.91,41,9.00,12.00,-969.00
2024-05-17 16:53:29.173684,0,0,-1,0,0,-2,75,77,170,150,76,192.95,41,8.00,-5.00,-964.00
2024-05-17 16:53:29.358016,0,0,-1,0,0,-2,75,77,172,150,76,193.03,41,39.00,-24.00,-964.00
2024-05-17 16:53:29.377686,0,0,-1,0,0,-1,75,77,174,150,76,193.06,41,-17.00,37.00,-996.00
2024-05-17 16:53:29.561925,0,0,-1,0,0,-1,75,77,176,150,76,193.10,41,-4.00,36.00,-993.00
2024-05-17 16:53:29.590273,0,0,-1,0,0,-1,75,77,178,150,76,193.11,41,11.00,0.00,-975.00
2024-05-17 16:53:29.687115,0,0,-1,0,0,-1,75,77,180,160,76,193.07,41,6.00,19.00,-970.00
2024-05-17 16:53:29.785879,0,0,-1,0,0,0,75,77,180,160,76,193.06,41,21.00,2.00,-952.00
2024-05-17 16:53:29.992645,0,0,-1,0,0,0,75,77,181,160,76,193.08,41,11.00,10.00,-961.00
2024-05-17 16:53:29.998511,0,0,-1,0,0,0,75,77,181,160,76,193.04,42,15.00,10.00,-976.00
2024-05-17 16:53:30.093674,0,0,-1,0,0,0,75,77,181,160,76,193.06,42,-35.00,20.00,-984.00
2024-05-17 16:53:30.194100,0,0,-1,0,0,0,75,77,182,160,76,193.06,42,11.00,2.00,-990.00
2024-05-17 16:53:30.367102,0,0,-1,0,0,0,75,77,182,160,76,193.10,42,0.00,18.00,-981.00
2024-05-17 16:53:30.397711,0,0,-1,0,0,0,75,77,182,160,76,193.07,42,-22.00,53.00,-999.00
2024-05-17 16:53:30.587281,0,0,-1,0,0,0,75,77,182,160,76,193.03,42,7.00,15.00,-1006.00
2024-05-17 16:53:30.602034,0,0,-1,0,0,0,75,77,182,160,76,193.08,42,18.00,14.00,-1009.00
2024-05-17 16:53:30.792215,0,0,-1,0,0,0,75,77,182,160,76,193.05,42,18.00,13.00,-1009.00
2024-05-17 16:53:30.809438,0,0,-1,0,0,0,75,77,182,160,76,193.10,42,15.00,14.00,-1008.00
2024-05-17 16:53:30.909158,0,0,-1,0,0,0,75,77,182,160,76,193.08,42,4.00,11.00,-1006.00
2024-05-17 16:53:30.958840,0,0,-1,0,0,0,75,77,182,160,76,193.06,43,13.00,4.00,-1000.00
2024-05-17 16:53:31.061457,0,0,-1,0,0,0,75,77,182,160,76,193.04,43,23.00,6.00,-992.00
2024-05-17 16:53:31.213780,0,0,-1,0,0,0,75,77,181,160,76,193.03,43,8.00,16.00,-1003.00
2024-05-17 16:53:31.274664,0,0,-1,0,0,0,75,77,182,160,76,193.11,43,22.00,14.00,-981.00
2024-05-17 16:53:31.366742,0,0,-1,0,0,0,75,77,182,160,76,193.04,43,3.00,19.00,-998.00
2024-05-17 16:53:31.470858,0,0,-1,0,0,0,75,77,182,160,76,193.05,43,3.00,17.00,-992.00
2024-05-17 16:53:31.574197,0,-1,-1,0,0,0,75,77,181,160,76,193.04,43,6.00,24.00,-1012.00
2024-05-17 16:53:31.677242,0,-1,-1,0,0,0,75,77,181,160,76,193.08,43,-24.00,40.00,-1009.00
2024-05-17 16:53:31.774551,0,-1,-1,0,0,0,75,77,181,160,76,193.05,43,12.00,10.00,-993.00
2024-05-17 16:53:31.917004,0,0,-1,0,0,0,75,77,181,160,76,193.11,43,2.00,10.00,-981.00
2024-05-17 16:53:31.979278,0,0,-1,0,0,0,75,77,180,160,76,193.02,44,4.00,24.00,-960.00
2024-05-17 16:53:32.121849,0,0,-1,0,0,1,75,77,178,160,76,193.01,44,7.00,31.00,-952.00
2024-05-17 16:53:32.183699,0,0,-1,0,0,1,74,76,176,160,76,193.01,44,5.00,22.00,-970.00
2024-05-17 16:53:32.326597,0,0,-1,0,0,2,74,76,174,150,76,193.02,44,-9.00,31.00,-981.00
2024-05-17 16:53:32.386583,0,0,-1,0,0,2,74,76,172,150,76,192.97,44,14.00,2.00,-979.00
2024-05-17 16:53:32.531470,0,0,-1,0,0,2,74,76,169,150,76,193.05,44,2.00,11.00,-994.00
2024-05-17 16:53:32.590535,0,0,-1,0,0,2,74,76,167,140,76,192.98,44,14.00,3.00,-996.00
2024-05-17 16:53:32.737184,0,0,-1,0,0,2,74,76,164,140,76,192.91,44,8.00,12.00,-1013.00
2024-05-17 16:53:32.795223,0,0,-1,0,0,2,74,76,160,140,76,192.87,44,11.00,22.00,-1004.00
2024-05-17 16:53:32.941016,0,0,-1,0,0,2,74,76,158,140,76,192.86,45,-1.00,10.00,-986.00
2024-05-17 16:53:32.999892,0,0,-1,0,0,2,74,76,155,130,76,192.77,45,6.00,6.00,-1003.00
2024-05-17 16:53:33.147359,0,0,-1,0,0,2,74,76,153,130,76,192.84,45,9.00,6.00,-1009.00
2024-05-17 16:53:33.204542,0,0,-1,0,0,2,75,76,151,130,76,192.81,45,12.00,-4.00,-996.00
2024-05-17 16:53:33.356092,0,0,-1,0,0,2,75,76,149,130,76,192.81,45,18.00,10.00,-1014.00
2024-05-17 16:53:33.409147,0,0,-1,0,0,1,75,76,146,130,76,192.74,45,8.00,-7.00,-997.00
2024-05-17 16:53:33.509647,0,0,-1,0,0,1,75,76,145,120,76,192.72,45,10.00,11.00,-1019.00
2024-05-17 16:53:33.611322,0,0,-1,0,0,1,75,76,143,120,76,192.71,45,8.00,14.00,-1024.00
2024-05-17 16:53:33.713424,0,0,-1,0,0,1,75,76,142,120,76,192.74,45,12.00,-1.00,-1009.00
2024-05-17 16:53:33.862795,0,0,-1,0,0,1,75,76,140,120,76,192.74,45,24.00,-8.00,-992.00
2024-05-17 16:53:33.917754,0,0,-1,0,0,1,75,76,139,120,76,192.72,46,11.00,5.00,-1016.00
2024-05-17 16:53:34.067444,0,0,-1,0,0,1,75,76,138,120,76,192.73,46,6.00,1.00,-995.00
2024-05-17 16:53:34.122506,0,0,-1,0,0,0,75,76,137,120,76,192.69,46,16.00,-6.00,-1004.00
2024-05-17 16:53:34.223755,0,0,-1,0,0,0,73,76,136,120,76,192.67,46,4.00,17.00,-1010.00
2024-05-17 16:53:34.374745,0,0,-1,0,0,0,73,76,135,120,76,192.62,46,16.00,19.00,-1024.00
2024-05-17 16:53:34.429622,0,0,-1,0,0,0,73,76,135,110,76,192.65,46,22.00,9.00,-1013.00
2024-05-17 16:53:34.529575,0,0,-1,0,0,0,73,76,134,110,76,192.61,46,18.00,8.00,-1041.00
2024-05-17 16:53:34.681883,0,0,-1,0,0,0,73,76,133,110,76,192.59,46,29.00,9.00,-1011.00
2024-05-17 16:53:34.682466,0,0,-1,0,0,0,73,76,133,110,76,192.57,46,0.00,9.00,-1004.00
2024-05-17 16:53:34.784676,0,0,-1,0,0,0,73,76,132,110,76,192.57,46,10.00,2.00,-1016.00
2024-05-17 16:53:34.886655,0,0,-1,0,0,0,73,76,132,110,76,192.55,47,19.00,6.00,-991.00
2024-05-17 16:53:34.990434,0,0,-1,0,0,0,73,76,132,110,76,192.62,47,17.00,15.00,-1019.00
2024-05-17 16:53:35.091184,0,0,-1,0,0,0,73,76,132,110,76,192.57,47,44.00,-6.00,-1017.00
2024-05-17 16:53:35.193556,0,0,-1,0,0,0,73,76,132,110,76,192.57,47,9.00,29.00,-1027.00
2024-05-17 16:53:35.296330,0,0,-1,0,0,0,73,76,132,110,76,192.58,47,-17.00,17.00,-1007.00
2024-05-17 16:53:35.396524,0,0,-1,0,0,0,73,76,132,110,76,192.56,47,0.00,28.00,-1010.00
2024-05-17 16:53:35.499497,0,0,-1,0,0,0,73,76,133,110,76,192.65,47,-12.00,11.00,-995.00
2024-05-17 16:53:35.600679,0,-1,-1,0,0,0,73,76,133,110,76,192.57,47,19.00,-2.00,-1008.00
2024-05-17 16:53:35.705941,0,-1,-1,0,0,0,73,76,133,110,76,192.65,47,11.00,5.00,-996.00
2024-05-17 16:53:35.804542,0,-1,-1,0,0,0,73,76,133,110,76,192.60,47,5.00,25.00,-1008.00
2024-05-17 16:53:35.910657,0,0,-1,0,0,0,73,76,134,110,76,192.61,48,7.00,13.00,-1000.00
2024-05-17 16:53:36.010595,0,0,-1,0,0,0,73,76,134,110,76,192.65,48,14.00,4.00,-1002.00
2024-05-17 16:53:36.110467,0,-1,-1,0,0,0,73,76,134,110,76,192.59,48,-4.00,5.00,-992.00
2024-05-17 16:53:36.212483,0,-1,-1,0,0,0,73,75,134,110,76,192.60,48,21.00,-5.00,-990.00
2024-05-17 16:53:36.320461,0,-1,-1,0,0,0,73,75,134,110,76,192.56,48,2.00,14.00,-1002.00
2024-05-17 16:53:36.416730,0,-1,-1,0,0,0,73,75,134,110,76,192.64,48,5.00,14.00,-1004.00
2024-05-17 16:53:36.525206,0,0,-1,0,0,0,73,75,134,110,76,192.62,48,16.00,19.00,-1006.00
2024-05-17 16:53:36.620636,0,0,-1,0,0,0,73,75,135,110,76,192.60,48,4.00,15.00,-991.00
2024-05-17 16:53:36.730529,0,0,-1,0,0,0,73,75,135,110,76,192.64,48,-11.00,30.00,-1010.00
2024-05-17 16:53:36.824435,0,0,-1,0,0,0,73,75,135,110,76,192.60,48,-4.00,8.00,-995.00
2024-05-17 16:53:36.934780,0,0,-1,0,0,0,73,75,135,110,76,192.58,49,7.00,18.00,-995.00
2024-05-17 16:53:37.028538,0,0,-1,0,0,0,73,75,135,110,76,192.58,49,11.00,17.00,-997.00
2024-05-17 16:53:37.139608,0,0,-1,0,0,0,73,75,135,110,76,192.64,49,-8.00,15.00,-991.00
2024-05-17 16:53:37.232466,0,0,-1,0,0,0,73,75,135,110,76,192.65,49,11.00,19.00,-996.00
2024-05-17 16:53:37.344396,0,0,-1,0,0,0,73,75,135,110,76,192.55,49,-10.00,19.00,-1002.00
2024-05-17 16:53:37.437115,0,0,-1,0,0,0,73,75,135,110,76,192.58,49,39.00,-12.00,-1010.00
2024-05-17 16:53:37.538416,0,0,-1,0,0,0,73,75,135,110,76,192.60,49,37.00,-12.00,-968.00
2024-05-17 16:53:37.652417,0,0,-1,0,0,0,73,75,135,110,76,192.66,49,-16.00,19.00,-1011.00
2024-05-17 16:53:37.742373,0,0,-1,0,0,0,73,75,135,110,76,192.67,49,2.00,8.00,-994.00
2024-05-17 16:53:37.856379,0,0,-1,0,0,0,73,75,135,110,76,192.64,49,1.00,20.00,-1009.00
2024-05-17 16:53:37.946445,0,0,-1,0,0,0,73,75,135,110,76,192.63,50,1.00,11.00,-1002.00
2024-05-17 16:53:38.061051,0,0,-1,0,0,0,73,75,135,110,76,192.62,50,11.00,8.00,-1006.00
2024-05-17 16:53:38.150939,0,0,-1,0,0,0,73,75,135,110,76,192.59,50,-3.00,15.00,-997.00
2024-05-17 16:53:38.253420,0,0,-1,0,0,0,73,75,135,110,76,192.60,50,9.00,11.00,-994.00
2024-05-17 16:53:38.368388,0,0,-1,0,0,0,73,75,135,110,76,192.65,50,6.00,0.00,-994.00
2024-05-17 16:53:38.459144,0,0,-1,0,0,0,73,75,136,110,76,192.62,50,28.00,-1.00,-1008.00
2024-05-17 16:53:38.508235,0,0,-1,0,0,0,73,75,136,110,76,192.61,50,8.00,7.00,-1001.00
2024-05-17 16:53:38.675635,3,0,-1,0,0,0,73,75,138,120,76,192.65,50,31.00,24.00,-977.00
2024-05-17 16:53:38.712225,8,0,-1,-1,0,0,73,75,138,120,76,192.67,50,0.00,13.00,-987.00
2024-05-17 16:53:38.880178,8,0,-1,-2,0,0,73,75,138,120,76,192.73,50,-1.00,31.00,-1016.00
2024-05-17 16:53:38.916168,8,0,-1,-3,0,0,73,75,139,120,76,192.68,51,23.00,9.00,-1006.00
2024-05-17 16:53:39.085316,8,0,-1,-4,0,0,73,75,139,120,76,192.58,51,42.00,4.00,-1000.00
2024-05-17 16:53:39.120456,8,0,-1,-5,0,0,73,75,139,120,76,192.59,51,53.00,10.00,-1021.00
2024-05-17 16:53:39.290142,7,0,-1,-6,0,0,72,75,138,120,76,192.59,51,48.00,12.00,-1013.00
2024-05-17 16:53:39.325119,6,0,-1,-7,0,0,72,75,139,120,76,192.56,51,46.00,26.00,-995.00
2024-05-17 16:53:39.494740,5,0,-1,-7,0,0,72,75,139,120,76,192.61,51,61.00,23.00,-1005.00
2024-05-17 16:53:39.529646,3,0,-1,-8,0,0,72,75,139,120,76,192.60,51,68.00,7.00,-988.00
2024-05-17 16:53:39.702891,0,0,-1,-7,0,0,72,75,137,120,76,192.58,51,40.00,27.00,-1018.00
2024-05-17 16:53:39.733167,-2,0,-1,-7,0,0,72,75,138,120,76,192.58,51,49.00,24.00,-1002.00
2024-05-17 16:53:39.904489,-3,0,-1,-6,0,0,72,75,138,120,76,192.50,51,47.00,5.00,-980.00
2024-05-17 16:53:39.937228,-3,0,-1,-5,0,0,72,75,137,120,76,192.60,52,28.00,-9.00,-984.00
2024-05-17 16:53:40.109081,-2,0,-1,-4,0,0,72,75,138,120,76,192.57,52,50.00,-1.00,-1019.00
2024-05-17 16:53:40.141400,-1,0,-1,-3,0,0,72,75,137,120,76,192.58,52,59.00,-16.00,-990.00
2024-05-17 16:53:40.313841,0,0,-1,-3,0,0,73,75,136,120,76,192.58,52,19.00,16.00,-997.00
2024-05-17 16:53:40.345473,0,0,-1,-2,0,0,73,75,136,120,76,192.59,52,38.00,21.00,-1000.00
2024-05-17 16:53:40.447701,1,0,-1,-2,0,0,73,75,136,120,76,192.60,52,15.00,4.00,-1000.00
2024-05-17 16:53:40.622644,1,-1,-1,-2,0,0,73,75,137,120,76,192.57,52,18.00,11.00,-999.00
2024-05-17 16:53:40.651219,1,-1,-1,-2,0,0,73,75,137,120,76,192.60,52,21.00,10.00,-1002.00
2024-05-17 16:53:40.754224,1,-1,-1,-2,0,0,73,75,137,120,76,192.64,52,11.00,8.00,-986.00
2024-05-17 16:53:40.855197,1,-1,-1,-2,0,0,73,75,136,120,76,192.60,52,19.00,10.00,-999.00
2024-05-17 16:53:40.957212,1,-1,-1,-2,0,0,73,75,136,120,76,192.66,53,14.00,28.00,-1001.00
2024-05-17 16:53:41.132993,-1,-1,-1,-2,0,0,73,75,136,110,76,192.60,53,19.00,16.00,-988.00
2024-05-17 16:53:41.162098,-4,0,-1,-1,0,0,73,75,134,110,76,192.61,53,9.00,29.00,-1008.00
2024-05-17 16:53:41.263225,-1,-1,-1,0,0,0,72,75,136,110,76,192.56,53,23.00,23.00,-988.00
2024-05-17 16:53:41.449218,0,-1,-1,0,0,0,72,75,136,110,76,192.57,53,-10.00,9.00,-982.00
2024-05-17 16:53:41.467590,0,-1,-1,0,0,0,72,75,135,110,76,192.56,53,-6.00,17.00,-1001.00
2024-05-17 16:53:41.579663,0,-1,-1,0,0,0,72,75,134,110,76,192.68,53,2.00,18.00,-995.00
2024-05-17 16:53:41.671243,0,-1,-1,0,0,0,72,75,134,110,76,192.62,53,6.00,21.00,-999.00
2024-05-17 16:53:41.850475,0,-1,-1,0,0,0,72,75,134,110,76,192.64,53,-21.00,33.00,-1020.00
2024-05-17 16:53:41.877241,0,-1,-1,0,0,0,72,75,134,110,76,192.60,53,-5.00,4.00,-983.00
2024-05-17 16:53:41.977175,1,-1,-1,0,0,0,72,75,134,110,76,192.60,54,3.00,17.00,-1005.00
2024-05-17 16:53:42.160571,0,-1,-1,0,0,0,72,75,135,110,76,192.65,54,17.00,13.00,-999.00
2024-05-17 16:53:42.181673,0,-1,-1,0,0,0,72,75,135,110,76,192.62,54,13.00,17.00,-994.00
2024-05-17 16:53:42.363885,0,-1,-1,0,0,0,72,74,135,110,76,192.73,54,23.00,0.00,-978.00
2024-05-17 16:53:42.389789,0,-1,-1,0,0,0,72,74,136,110,76,192.62,54,10.00,17.00,-997.00
2024-05-17 16:53:42.487146,1,-1,-1,0,0,0,72,74,136,110,76,192.71,54,11.00,20.00,-991.00
2024-05-17 16:53:42.671168,1,-1,-1,0,0,0,72,74,136,110,76,192.52,54,-18.00,0.00,-978.00
2024-05-17 16:53:42.671385,1,0,-1,0,0,0,72,74,135,110,76,192.63,54,30.00,16.00,-997.00
2024-05-17 16:53:42.744656,1,0,-1,0,0,0,72,74,136,110,76,192.63,54,-12.00,47.00,-1011.00
2024-05-17 16:53:42.844187,1,-1,-1,0,0,0,72,74,136,110,76,192.64,54,51.00,-23.00,-994.00
2024-05-17 16:53:42.978041,1,-1,-1,0,0,0,72,74,136,110,76,192.64,55,-48.00,48.00,-1004.00
2024-05-17 16:53:43.048149,1,-1,-1,0,0,0,72,74,136,110,76,192.66,55,30.00,17.00,-1005.00
2024-05-17 16:53:43.187134,1,-1,-1,0,0,0,72,74,136,110,76,192.58,55,7.00,31.00,-998.00
2024-05-17 16:53:43.253101,0,-1,-1,0,0,0,72,74,136,110,76,192.67,55,-5.00,31.00,-1002.00
2024-05-17 16:53:43.379322,0,-1,-1,0,0,0,72,74,136,110,76,192.64,55,-33.00,35.00,-969.00
2024-05-17 16:53:43.457005,0,-6,-1,0,0,0,72,74,138,110,76,192.62,55,12.00,-2.00,-1014.00
2024-05-17 16:53:43.591882,0,-8,-1,0,-1,0,72,74,137,110,76,192.58,55,-3.00,15.00,-1018.00
2024-05-17 16:53:43.660968,0,-7,-1,0,-2,0,72,74,136,110,76,192.55,55,9.00,24.00,-990.00
2024-05-17 16:53:43.762967,0,-5,-1,0,-3,0,72,74,137,110,76,192.61,55,5.00,34.00,-1007.00
2024-05-17 16:53:43.898768,0,-2,-1,0,-3,0,72,74,136,120,76,192.55,55,12.00,27.00,-989.00
2024-05-17 16:53:43.966954,0,0,-1,0,-3,0,72,74,136,120,76,192.63,56,-10.00,30.00,-995.00
2024-05-17 16:53:44.103504,0,0,-1,0,-3,0,72,74,136,120,76,192.58,56,5.00,26.00,-981.00
2024-05-17 16:53:44.171899,0,0,-1,0,-3,0,72,74,137,120,76,192.59,56,20.00,0.00,-990.00
2024-05-17 16:53:44.310573,0,-1,-1,0,-2,0,71,74,137,120,76,192.58,56,5.00,29.00,-1000.00
2024-05-17 16:53:44.375941,0,-1,-1,0,-2,0,71,74,137,120,76,192.53,56,2.00,25.00,-991.00
2024-05-17 16:53:44.513429,0,-1,-1,0,-2,0,71,74,137,120,76,192.63,56,-6.00,32.00,-996.00
2024-05-17 16:53:44.580246,0,-1,-1,0,-2,0,71,74,137,120,76,192.59,56,-17.00,14.00,-1003.00
2024-05-17 16:53:44.719755,0,-1,-1,0,-2,0,71,74,137,120,76,192.61,56,-39.00,56.00,-1018.00
2024-05-17 16:53:44.783846,0,-1,-1,0,-2,0,71,74,137,120,76,192.65,56,-6.00,10.00,-995.00
2024-05-17 16:53:44.923511,0,0,-1,0,-2,0,71,74,136,120,76,192.57,56,-12.00,19.00,-984.00
2024-05-17 16:53:44.993051,0,0,-1,0,-2,0,71,74,136,120,76,192.62,57,5.00,35.00,-986.00
2024-05-17 16:53:45.090055,2,0,-1,0,-2,0,71,74,138,120,76,192.63,57,-32.00,49.00,-1012.00
2024-05-17 16:53:45.200718,4,0,-1,0,-1,0,71,74,137,120,76,192.65,57,3.00,5.00,-1008.00
2024-05-17 16:53:45.293967,3,2,-1,-1,-1,0,71,74,138,120,76,192.68,57,3.00,25.00,-1018.00
2024-05-17 16:53:45.435533,0,1,-1,-1,0,0,71,74,137,120,76,192.64,57,-12.00,42.00,-1010.00
2024-05-17 16:53:45.499275,-3,0,-1,0,0,0,71,74,138,120,76,192.64,57,-11.00,18.00,-1019.00
2024-05-17 16:53:45.601758,-1,0,-1,0,0,0,71,74,136,120,76,192.58,57,65.00,-33.00,-973.00
2024-05-17 16:53:45.702788,0,0,-1,0,0,0,71,74,136,120,76,192.63,57,-8.00,-2.00,-982.00
2024-05-17 16:53:45.845118,0,0,-1,0,0,0,71,74,136,120,76,192.59,57,7.00,6.00,-1002.00
2024-05-17 16:53:45.905930,0,0,-1,0,0,0,71,74,136,120,76,192.59,57,0.00,0.00,-990.00
2024-05-17 16:53:46.049278,0,0,-1,0,0,0,71,74,136,120,76,192.65,58,0.00,-14.00,-970.00
2024-05-17 16:53:46.110401,0,0,-1,0,0,0,71,74,136,120,76,192.71,58,10.00,29.00,-994.00
2024-05-17 16:53:46.211922,0,0,-1,0,0,0,71,74,136,120,76,192.70,58,16.00,7.00,-1000.00
2024-05-17 16:53:46.357203,1,0,-1,0,0,0,71,74,136,120,76,192.62,58,13.00,-18.00,-982.00
2024-05-17 16:53:46.415956,0,0,-1,0,0,0,71,74,136,120,76,192.63,58,0.00,4.00,-1004.00
2024-05-17 16:53:46.466934,0,0,-1,0,0,0,71,74,136,120,76,192.67,58,-2.00,1.00,-996.00
2024-05-17 16:53:46.663285,0,0,-1,0,0,0,71,74,136,120,76,192.65,58,-8.00,28.00,-1014.00
2024-05-17 16:53:46.671571,0,0,-1,0,0,0,71,74,136,120,76,192.62,58,-2.00,9.00,-993.00
2024-05-17 16:53:46.868369,0,0,-1,0,0,0,71,74,136,120,76,192.62,58,-15.00,25.00,-1007.00
2024-05-17 16:53:46.874845,0,0,-1,0,0,0,71,74,135,120,76,192.57,58,-34.00,54.00,-1025.00
2024-05-17 16:53:47.072522,0,0,-1,0,0,0,71,74,135,120,76,192.62,59,-16.00,30.00,-997.00
2024-05-17 16:53:47.078889,0,0,-1,0,0,0,71,74,135,120,76,192.64,59,6.00,-2.00,-1003.00
2024-05-17 16:53:47.277563,0,0,-1,0,0,0,71,74,135,120,76,192.66,59,9.00,2.00,-988.00
2024-05-17 16:53:47.283051,0,0,-1,0,0,0,71,73,135,110,76,192.62,59,-26.00,33.00,-1004.00
2024-05-17 16:53:47.482434,0,0,-1,0,0,0,71,73,135,110,76,192.55,59,-24.00,40.00,-982.00
2024-05-17 16:53:47.487022,0,0,-1,0,0,0,71,73,135,110,76,192.60,59,26.00,6.00,-1002.00
2024-05-17 16:53:47.588786,0,0,-1,0,0,0,71,73,134,110,76,192.57,59,-5.00,33.00,-1007.00
2024-05-17 16:53:47.789555,0,5,-1,0,0,0,71,73,136,110,76,192.60,59,-21.00,-6.00,-1010.00
2024-05-17 16:53:47.792833,0,7,-1,0,1,0,71,73,137,110,76,192.61,59,0.00,21.00,-984.00
2024-05-17 16:53:47.993700,0,4,-1,0,2,0,71,73,136,110,76,192.59,60,-1.00,-9.00,-994.00
2024-05-17 16:53:47.997874,0,2,-1,0,3,0,71,73,135,110,76,192.56,60,22.00,-31.00,-973.00
2024-05-17 16:53:48.098788,0,0,-1,0,3,0,71,73,135,110,76,192.62,60,-15.00,-9.00,-996.00
2024-05-17 16:53:48.200725,0,-1,-1,0,3,0,71,73,134,110,76,192.57,60,25.00,-26.00,-1007.00
2024-05-17 16:53:48.304622,0,-1,-1,0,3,0,71,74,134,110,76,192.54,60,-3.00,-4.00,-1020.00
2024-05-17 16:53:48.404873,0,-1,-1,0,3,0,71,74,134,110,76,192.66,60,-1.00,-8.00,-1012.00
2024-05-17 16:53:48.608971,0,-1,-1,0,2,0,71,74,135,110,76,192.64,60,-3.00,-4.00,-993.00
2024-05-17 16:53:48.609015,0,0,-1,0,2,0,71,74,135,110,76,192.61,60,-27.00,7.00,-1007.00
2024-05-17 16:53:48.710805,0,0,-1,0,2,0,71,74,136,110,76,192.59,60,-7.00,6.00,-994.00
2024-05-17 16:53:48.812896,0,0,-1,0,2,0,71,74,136,110,76,192.58,60,2.00,-21.00,-992.00
2024-05-17 16:53:48.915352,0,0,-1,0,2,0,71,74,135,110,76,192.63,61,2.00,1.00,-991.00
2024-05-17 16:53:49.018036,0,0,-1,0,2,0,71,74,135,110,76,192.56,61,-8.00,-10.00,-1004.00
2024-05-17 16:53:49.122081,0,0,-1,0,2,0,71,74,135,110,76,192.60,61,-33.00,7.00,-1023.00
2024-05-17 16:53:49.220767,0,0,-1,0,2,0,71,74,135,110,76,192.62,61,-10.00,-1.00,-1016.00
2024-05-17 16:53:49.325459,0,-5,-1,0,2,0,71,74,135,110,76,192.59,61,-22.00,15.00,-986.00
2024-05-17 16:53:49.427442,0,-5,-1,0,1,0,71,74,134,110,76,192.61,61,-12.00,3.00,-1032.00
2024-05-17 16:53:49.527730,0,-3,-1,0,0,0,71,74,136,110,76,192.54,61,0.00,21.00,-1005.00
2024-05-17 16:53:49.632237,0,-2,-1,0,0,0,71,74,134,110,76,192.55,61,-5.00,20.00,-1014.00
2024-05-17 16:53:49.731366,0,-1,-1,0,0,0,71,74,134,110,76,192.62,61,6.00,7.00,-986.00
2024-05-17 16:53:49.837408,0,0,-1,0,0,0,71,74,135,110,76,192.55,61,-1.00,5.00,-1004.00
2024-05-17 16:53:49.885380,0,0,-1,0,0,0,71,74,135,110,76,192.56,62,6.00,2.00,-1008.00
2024-05-17 16:53:49.987769,0,0,-1,0,0,0,71,74,134,110,76,192.56,62,-10.00,22.00,-1022.00
2024-05-17 16:53:50.087928,0,0,-1,0,0,0,71,74,134,110,76,192.60,62,-8.00,6.00,-1006.00
2024-05-17 16:53:50.246684,0,0,-1,0,0,0,71,74,134,110,76,192.65,62,-8.00,6.00,-994.00
2024-05-17 16:53:50.291819,0,0,-1,0,0,0,71,73,134,110,76,192.65,62,-12.00,8.00,-1010.00
2024-05-17 16:53:50.393979,0,0,-1,0,0,0,71,73,134,110,76,192.64,62,-7.00,12.00,-991.00
2024-05-17 16:53:50.556423,0,0,-1,0,0,0,71,73,134,110,76,192.64,62,-14.00,-1.00,-997.00
2024-05-17 16:53:50.597758,0,0,-1,0,0,0,71,73,135,110,76,192.63,62,27.00,-30.00,-976.00
2024-05-17 16:53:50.759540,0,0,-1,0,0,0,71,73,135,110,76,192.61,62,-2.00,10.00,-1005.00
2024-05-17 16:53:50.806520,0,0,-1,0,0,0,71,73,135,110,76,192.60,62,-16.00,30.00,-1020.00
2024-05-17 16:53:50.903777,0,0,-1,0,0,0,71,73,135,110,76,192.58,63,-14.00,3.00,-984.00
2024-05-17 16:53:51.066405,0,0,-1,0,0,0,71,73,136,110,76,192.54,63,-4.00,6.00,-986.00
2024-05-17 16:53:51.107851,0,0,-1,0,0,0,71,73,136,110,76,192.54,63,-6.00,15.00,-1003.00
2024-05-17 16:53:51.209666,0,0,-1,0,0,0,71,73,136,110,76,192.53,63,0.00,14.00,-1002.00
2024-05-17 16:53:51.373162,0,0,-1,0,0,0,72,73,136,110,76,192.55,63,-24.00,-5.00,-974.00
2024-05-17 16:53:51.413661,0,0,-1,0,0,0,72,73,136,110,76,192.57,63,-2.00,10.00,-1002.00
2024-05-17 16:53:51.515692,0,0,-1,0,0,0,72,73,136,110,76,192.58,63,-6.00,13.00,-1001.00
2024-05-17 16:53:51.681574,0,0,1,0,0,0,72,73,136,110,76,192.53,63,41.00,-34.00,-1010.00
2024-05-17 16:53:51.719673,0,0,6,0,0,0,72,73,136,110,76,192.61,63,-3.00,26.00,-1016.00
2024-05-17 16:53:51.884879,0,0,12,0,0,0,72,73,136,110,76,192.60,63,-41.00,55.00,-1008.00
2024-05-17 16:53:51.923779,0,0,18,0,0,0,72,73,136,110,76,192.60,64,12.00,-7.00,-1005.00
2024-05-17 16:53:52.089760,0,0,24,0,0,0,72,73,136,110,76,192.61,64,18.00,-1.00,-995.00
2024-05-17 16:53:52.127633,0,0,30,0,0,0,72,73,136,110,76,192.64,64,-11.00,0.00,-991.00
2024-05-17 16:53:52.230562,0,0,36,0,0,0,72,73,136,110,76,192.57,64,1.00,14.00,-1011.00
2024-05-17 16:53:52.387761,0,0,42,0,0,0,72,73,136,120,75,192.57,64,13.00,10.00,-987.00
2024-05-17 16:53:52.435178,0,0,48,0,0,0,72,73,136,120,75,192.59,64,-2.00,22.00,-999.00
2024-05-17 16:53:52.535622,0,0,54,0,0,0,72,73,135,120,75,192.54,64,21.00,-19.00,-989.00
2024-05-17 16:53:52.704068,0,0,60,0,0,0,72,73,135,120,75,192.58,64,-2.00,17.00,-991.00
2024-05-17 16:53:52.740031,0,0,66,0,0,0,72,73,135,120,75,192.60,64,-12.00,17.00,-1003.00
2024-05-17 16:53:52.908931,0,0,72,0,0,0,72,73,135,120,75,192.51,64,-5.00,19.00,-998.00
2024-05-17 16:53:52.943566,0,0,78,0,0,0,72,73,135,110,75,192.52,65,18.00,18.00,-1014.00
2024-05-17 16:53:53.113725,0,0,84,0,0,0,72,73,135,110,75,192.57,65,-11.00,43.00,-1012.00
2024-05-17 16:53:53.147518,0,0,90,0,0,0,72,73,135,110,75,192.60,65,12.00,-2.00,-999.00
2024-05-17 16:53:53.249568,0,0,97,0,0,0,72,73,135,110,75,192.53,65,10.00,5.00,-1003.00
2024-05-17 16:53:53.351597,0,0,103,0,0,0,71,73,134,110,75,192.54,65,25.00,2.00,-1002.00
2024-05-17 16:53:53.453568,0,0,109,0,0,0,71,73,134,110,75,192.58,65,4.00,-9.00,-995.00
2024-05-17 16:53:53.626565,0,0,115,0,0,0,71,73,134,110,75,192.58,65,14.00,6.00,-997.00
2024-05-17 16:53:53.658301,0,0,121,0,0,0,71,73,134,110,75,192.59,65,-13.00,13.00,-1011.00
2024-05-17 16:53:53.830532,0,0,128,0,0,0,71,73,134,110,75,192.60,65,0.00,0.00,-991.00
2024-05-17 16:53:53.862781,0,0,134,0,0,0,71,73,134,110,75,192.61,65,6.00,-5.00,-998.00
2024-05-17 16:53:54.036165,0,1,140,0,0,0,71,73,135,110,75,192.55,66,0.00,-11.00,-1015.00
2024-05-17 16:53:54.067419,0,1,146,0,0,0,71,73,134,110,75,192.62,66,5.00,-10.00,-1019.00
2024-05-17 16:53:54.116487,0,1,153,0,0,0,71,73,134,110,75,192.54,66,1.00,-1.00,-1019.00
2024-05-17 16:53:54.218511,0,1,159,0,0,0,71,73,134,110,75,192.53,66,6.00,0.00,-1007.00
2024-05-17 16:53:54.371754,0,0,165,0,0,0,70,73,134,110,75,192.59,66,-4.00,10.00,-1005.00
2024-05-17 16:53:54.422646,0,0,171,0,0,0,70,73,134,110,75,192.61,66,10.00,-4.00,-996.00
2024-05-17 16:53:54.547310,0,0,177,0,0,0,70,73,134,110,75,192.56,66,-6.00,12.00,-1003.00
2024-05-17 16:53:54.626479,0,0,-176,0,0,0,70,73,134,110,75,192.45,66,3.00,-14.00,-1007.00
2024-05-17 16:53:54.752136,0,0,-170,0,0,0,70,73,134,110,75,192.53,66,19.00,-8.00,-1003.00
2024-05-17 16:53:54.830444,0,0,-165,0,0,0,70,73,134,110,75,192.54,66,-3.00,-3.00,-995.00
2024-05-17 16:53:54.956909,0,0,-159,0,0,0,70,73,134,110,75,192.57,67,-6.00,1.00,-1003.00
2024-05-17 16:53:55.036831,0,0,-153,0,0,0,70,73,134,110,75,192.52,67,-3.00,6.00,-997.00
2024-05-17 16:53:55.136465,0,0,-147,0,0,0,70,73,134,110,75,192.54,67,5.00,10.00,-995.00
2024-05-17 16:53:55.238659,0,0,-141,0,0,0,70,73,134,110,75,192.63,67,-2.00,1.00,-999.00
2024-05-17 16:53:55.340425,0,0,-135,0,0,0,72,74,134,110,75,192.55,67,17.00,14.00,-1007.00
2024-05-17 16:53:55.442466,0,0,-129,0,0,0,72,74,134,110,75,192.55,67,0.00,11.00,-1008.00
2024-05-17 16:53:55.571486,0,0,-123,0,0,0,72,74,134,110,75,192.60,67,-9.00,13.00,-1008.00
2024-05-17 16:53:55.646459,0,0,-117,0,0,0,72,74,134,110,75,192.52,67,-22.00,19.00,-992.00
2024-05-17 16:53:55.776111,0,0,-111,0,0,0,72,74,134,110,75,192.58,67,-14.00,1.00,-984.00
2024-05-17 16:53:55.850504,0,0,-105,0,0,0,72,74,135,110,75,192.53,67,-3.00,2.00,-988.00
2024-05-17 16:53:55.956789,0,0,-99,0,0,0,72,74,135,110,75,192.54,68,13.00,23.00,-1010.00
2024-05-17 16:53:56.054493,0,0,-93,0,0,0,72,74,135,110,75,192.57,68,14.00,11.00,-994.00
2024-05-17 16:53:56.186555,0,0,-87,0,0,0,72,74,134,110,75,192.54,68,-16.00,11.00,-1002.00
2024-05-17 16:53:56.258709,0,0,-81,0,0,0,72,74,134,110,75,192.50,68,-5.00,11.00,-995.00
2024-05-17 16:53:56.373146,0,0,-75,0,0,0,71,74,134,110,75,192.53,68,6.00,9.00,-1009.00
2024-05-17 16:53:56.462402,0,0,-69,0,0,0,71,74,134,110,75,192.54,68,1.00,-8.00,-969.00
2024-05-17 16:53:56.597231,0,0,-63,0,0,0,71,74,134,110,75,192.53,68,-12.00,26.00,-997.00
2024-05-17 16:53:56.678431,0,0,-57,0,0,0,71,74,134,110,75,192.55,68,-8.00,7.00,-994.00
2024-05-17 16:53:56.768294,0,0,-51,0,0,0,71,74,133,110,75,192.61,68,-3.00,18.00,-1014.00
2024-05-17 16:53:56.902523,0,0,-45,0,0,0,71,74,133,110,75,192.57,68,-9.00,4.00,-1006.00
2024-05-17 16:53:56.974149,0,0,-39,0,0,0,71,74,133,110,75,192.60,69,5.00,10.00,-1012.00
2024-05-17 16:53:57.074466,0,0,-33,0,0,0,71,74,133,110,75,192.52,69,6.00,-4.00,-1002.00
2024-05-17 16:53:57.209696,0,0,-27,0,0,0,71,74,133,110,75,192.59,69,-7.00,23.00,-1003.00
2024-05-17 16:53:57.278308,0,0,-22,0,0,0,71,74,133,110,74,192.53,69,-25.00,17.00,-995.00
2024-05-17 16:53:57.414516,0,0,-17,0,0,0,71,73,133,110,74,192.54,69,9.00,4.00,-1017.00
2024-05-17 16:53:57.482348,0,0,-13,0,0,0,71,73,133,110,74,192.56,69,-23.00,22.00,-1006.00
2024-05-17 16:53:57.584324,0,0,-10,0,0,0,71,73,133,110,74,192.52,69,9.00,5.00,-1021.00
2024-05-17 16:53:57.721751,0,0,-8,0,0,0,71,73,133,110,74,192.54,69,6.00,10.00,-1000.00
2024-05-17 16:53:57.788320,0,0,-6,0,0,0,71,73,133,110,74,192.58,69,4.00,9.00,-1012.00
2024-05-17 16:53:57.926485,0,0,-5,0,0,0,71,73,133,110,74,192.57,69,8.00,-1.00,-1012.00
2024-05-17 16:53:57.941292,0,0,-4,0,0,0,71,73,132,110,74,192.54,70,-11.00,20.00,-1022.00
2024-05-17 16:53:58.131284,0,0,-3,0,0,0,71,73,133,110,74,192.56,70,-3.00,2.00,-994.00
2024-05-17 16:53:58.145561,0,0,-3,0,0,0,71,73,133,110,74,192.55,70,0.00,13.00,-1000.00
2024-05-17 16:53:58.247495,0,0,-2,0,0,0,71,73,133,110,74,192.56,70,-7.00,7.00,-987.00
2024-05-17 16:53:58.394963,0,0,-2,0,0,0,71,72,133,110,74,192.59,70,-20.00,10.00,-1010.00
2024-05-17 16:53:58.451496,0,0,-2,0,0,0,71,72,133,110,74,192.62,70,-7.00,0.00,-995.00
2024-05-17 16:53:58.643372,0,0,-2,0,0,0,71,72,133,110,74,192.59,70,-3.00,9.00,-1009.00
2024-05-17 16:53:58.656022,0,0,-2,0,0,0,71,72,133,110,74,192.56,70,-17.00,18.00,-1001.00
2024-05-17 16:53:58.848439,0,0,-2,0,0,0,71,72,134,110,74,192.59,70,-15.00,10.00,-997.00
2024-05-17 16:53:58.859615,0,0,-2,0,0,0,71,72,134,110,74,192.59,70,2.00,2.00,-1001.00
2024-05-17 16:53:59.053232,0,0,-2,0,0,0,71,72,134,110,74,192.56,71,-3.00,12.00,-1007.00
2024-05-17 16:53:59.065554,0,0,-2,0,0,0,71,72,134,110,74,192.59,71,-19.00,5.00,-1001.00
2024-05-17 16:53:59.166004,0,0,-3,0,0,0,71,72,134,110,74,192.59,71,28.00,-15.00,-998.00
2024-05-17 16:53:59.267863,0,0,-3,0,0,0,71,72,134,110,74,192.57,71,7.00,2.00,-986.00
2024-05-17 16:53:59.462610,0,0,-2,0,0,0,71,72,134,110,74,192.60,71,-7.00,7.00,-1002.00
2024-05-17 16:53:59.471603,0,0,-2,0,0,0,71,72,134,110,74,192.60,71,9.00,0.00,-1017.00
2024-05-17 16:53:59.573631,0,0,-2,0,0,0,71,72,133,110,74,192.58,71,-16.00,26.00,-1036.00
2024-05-17 16:53:59.770459,0,0,-2,0,0,0,71,72,134,110,74,192.60,71,3.00,7.00,-999.00
2024-05-17 16:53:59.777301,0,0,-2,0,0,0,71,72,134,110,74,192.55,71,-2.00,0.00,-995.00
2024-05-17 16:53:59.880559,0,0,-2,0,0,0,71,72,134,110,74,192.57,71,-23.00,17.00,-987.00
2024-05-17 16:53:59.981472,0,0,-2,0,0,0,71,72,133,110,74,192.63,72,-9.00,5.00,-1003.00
2024-05-17 16:54:00.148772,0,0,-2,0,0,0,71,72,134,110,74,192.60,72,2.00,4.00,-1002.00
2024-05-17 16:54:00.185237,0,0,-2,0,0,0,71,72,133,110,74,192.57,72,-2.00,7.00,-1001.00
2024-05-17 16:54:00.384071,0,0,-3,0,0,0,71,72,133,110,74,192.59,72,20.00,-5.00,-982.00
2024-05-17 16:54:00.389625,0,0,-6,0,0,0,71,72,133,110,74,192.52,72,-10.00,-2.00,-985.00
2024-05-17 16:54:00.491150,0,0,-12,0,0,0,71,72,133,110,74,192.54,72,-19.00,30.00,-1004.00
2024-05-17 16:54:00.696571,0,0,-18,0,0,0,71,72,134,110,74,192.57,72,-1.00,2.00,-1004.00
2024-05-17 16:54:00.696613,0,0,-24,0,0,0,71,72,134,110,74,192.62,72,5.00,5.00,-1003.00
2024-05-17 16:54:00.797195,0,0,-30,0,0,0,71,72,134,110,74,192.54,72,-22.00,11.00,-999.00
2024-05-17 16:54:00.899394,0,0,-36,0,0,0,71,72,135,110,74,192.55,72,-1.00,6.00,-997.00
2024-05-17 16:54:01.001164,0,0,-42,0,0,0,71,72,134,110,74,192.58,73,12.00,0.00,-999.00
2024-05-17 16:54:01.103149,0,0,-48,0,0,0,71,72,134,110,74,192.54,73,28.00,3.00,-1000.00
2024-05-17 16:54:01.205273,0,0,-54,0,0,0,71,72,135,110,74,192.59,73,-1.00,12.00,-995.00
2024-05-17 16:54:01.308815,0,0,-60,0,0,0,71,72,134,110,74,192.59,73,-7.00,6.00,-981.00
2024-05-17 16:54:01.409145,0,0,-72,0,0,0,71,73,134,110,74,192.64,73,10.00,4.00,-994.00
2024-05-17 16:54:01.612882,0,0,-78,0,0,0,71,73,135,110,74,192.61,73,11.00,3.00,-999.00
2024-05-17 16:54:01.613125,0,0,-84,0,0,0,71,73,134,110,74,192.47,73,-43.00,38.00,-992.00
2024-05-17 16:54:01.715533,0,0,-91,0,0,0,71,73,134,110,74,192.58,73,-5.00,8.00,-990.00
2024-05-17 16:54:01.817599,0,0,-97,0,0,0,71,73,134,110,74,192.56,73,-7.00,-2.00,-984.00
2024-05-17 16:54:01.921634,0,0,-103,0,0,0,71,73,134,110,74,192.54,74,-32.00,42.00,-1024.00
2024-05-17 16:54:02.022135,0,0,-109,0,0,0,71,73,134,110,74,192.57,74,11.00,-3.00,-959.00
2024-05-17 16:54:02.124723,0,0,-115,0,0,0,71,73,134,110,74,192.58,74,-23.00,22.00,-1010.00
2024-05-17 16:54:02.225193,0,0,-121,0,0,0,71,73,134,110,74,192.57,74,-6.00,11.00,-1014.00
2024-05-17 16:54:02.276016,0,0,-127,0,0,0,71,73,134,110,73,192.57,74,10.00,11.00,-999.00
2024-05-17 16:54:02.432094,0,0,-133,0,0,0,70,72,134,110,73,192.55,74,-3.00,14.00,-995.00
2024-05-17 16:54:02.480189,0,0,-139,0,0,0,70,72,133,110,73,192.52,74,-17.00,15.00,-1001.00
2024-05-17 16:54:02.582159,0,0,-145,0,0,0,70,72,133,110,73,192.60,74,-6.00,9.00,-994.00
2024-05-17 16:54:02.739257,0,0,-151,0,0,0,70,72,133,110,73,192.52,74,-13.00,11.00,-995.00
2024-05-17 16:54:02.790770,0,0,-157,0,0,0,70,72,134,110,73,192.52,74,-25.00,17.00,-979.00
2024-05-17 16:54:02.888989,0,0,-163,0,0,0,70,72,134,110,73,192.52,75,-9.00,14.00,-1007.00
2024-05-17 16:54:02.990319,0,0,-169,0,0,0,70,72,134,110,73,192.56,75,-13.00,12.00,-1004.00
2024-05-17 16:54:03.148824,0,0,-175,0,0,0,70,72,134,110,73,192.57,75,-24.00,14.00,-990.00
2024-05-17 16:54:03.194131,0,0,178,0,0,0,70,72,134,110,73,192.62,75,-33.00,25.00,-1007.00
2024-05-17 16:54:03.353708,0,0,173,0,0,0,70,72,133,110,73,192.55,75,-52.00,32.00,-987.00
2024-05-17 16:54:03.398047,0,0,167,0,0,0,70,73,133,110,73,192.48,75,-9.00,-5.00,-988.00
2024-05-17 16:54:03.558447,0,0,161,0,0,0,70,73,133,110,73,192.61,75,-3.00,2.00,-1001.00
2024-05-17 16:54:03.602434,0,0,155,0,0,0,70,73,133,110,73,192.58,75,-31.00,11.00,-997.00
2024-05-17 16:54:03.763261,0,0,150,0,0,0,70,73,133,110,73,192.54,75,-14.00,0.00,-1004.00
2024-05-17 16:54:03.807132,0,0,144,0,0,0,70,73,133,110,73,192.49,75,-3.00,3.00,-993.00
2024-05-17 16:54:03.968027,0,0,138,0,0,0,70,73,133,110,73,192.60,76,-1.00,4.00,-1001.00
2024-05-17 16:54:04.012723,0,0,133,0,0,0,70,73,133,110,73,192.53,76,-56.00,18.00,-1014.00
2024-05-17 16:54:04.113142,-1,0,127,0,0,0,70,73,133,110,73,192.58,76,-20.00,-3.00,-989.00
2024-05-17 16:54:04.215070,0,0,122,0,0,0,70,73,133,110,73,192.44,76,-11.00,-2.00,-1016.00
2024-05-17 16:54:04.315944,0,0,116,0,0,0,70,73,133,110,73,192.51,76,10.00,-16.00,-991.00
2024-05-17 16:54:04.417998,0,0,111,0,0,0,70,73,133,110,73,192.46,76,29.00,-18.00,-990.00
2024-05-17 16:54:04.583303,0,0,105,0,0,0,70,73,133,110,73,192.54,76,34.00,-25.00,-989.00
2024-05-17 16:54:04.622104,0,0,99,0,0,0,70,73,133,110,73,192.57,76,21.00,-27.00,-991.00
2024-05-17 16:54:04.725081,0,0,94,0,0,0,70,73,134,110,73,192.60,76,26.00,-15.00,-993.00
2024-05-17 16:54:04.825939,0,0,88,0,0,0,70,73,134,110,73,192.54,76,9.00,-6.00,-979.00
2024-05-17 16:54:04.995563,0,0,82,0,0,0,70,73,134,110,73,192.61,77,-14.00,-7.00,-1000.00
2024-05-17 16:54:05.030637,0,1,77,0,0,0,70,73,135,110,73,192.57,77,20.00,-13.00,-984.00
2024-05-17 16:54:05.132879,0,1,71,0,0,0,70,73,135,110,73,192.58,77,-8.00,-12.00,-1009.00
2024-05-17 16:54:05.235561,0,1,65,0,0,0,70,73,135,110,73,192.54,77,4.00,0.00,-1011.00
2024-05-17 16:54:05.337452,0,1,60,0,0,0,70,73,135,110,73,192.60,77,-21.00,3.00,-1008.00
2024-05-17 16:54:05.439556,0,1,54,0,0,0,71,72,135,110,73,192.51,77,1.00,-2.00,-990.00
2024-05-17 16:54:05.540393,0,0,48,0,0,0,71,72,135,110,73,192.53,77,-21.00,8.00,-975.00
2024-05-17 16:54:05.644524,0,0,42,0,0,0,71,72,134,110,73,192.50,77,16.00,-17.00,-984.00
2024-05-17 16:54:05.746529,0,0,37,0,0,0,71,72,134,110,73,192.58,77,-6.00,4.00,-1005.00
2024-05-17 16:54:05.846932,0,0,31,0,0,0,71,72,134,110,73,192.50,77,55.00,-22.00,-980.00
2024-05-17 16:54:06.015914,0,0,26,0,0,0,71,72,135,110,73,192.49,78,27.00,-8.00,-1000.00
2024-05-17 16:54:06.016112,0,0,20,0,0,0,71,72,135,110,73,192.63,78,1.00,-13.00,-1009.00
2024-05-17 16:54:06.101936,1,0,15,0,0,0,71,72,135,110,73,192.65,78,30.00,-6.00,-1006.00
2024-05-17 16:54:06.205976,1,0,11,0,0,0,71,72,134,110,73,192.56,78,20.00,-2.00,-997.00
2024-05-17 16:54:06.307025,1,0,8,0,0,0,71,72,134,110,73,192.54,78,59.00,-19.00,-996.00
2024-05-17 16:54:06.410259,1,0,6,0,0,0,70,72,134,110,73,192.61,78,37.00,-3.00,-993.00
2024-05-17 16:54:06.510583,1,0,4,0,0,0,70,72,133,110,73,192.64,78,14.00,3.00,-978.00
2024-05-17 16:54:06.612549,1,0,3,0,0,0,70,72,133,110,73,192.61,78,-19.00,23.00,-991.00
2024-05-17 16:54:06.716262,1,0,2,0,0,0,70,72,133,110,73,192.53,78,32.00,-23.00,-1019.00
2024-05-17 16:54:06.817687,1,0,1,0,0,0,70,72,134,110,73,192.52,78,37.00,-11.00,-1013.00
2024-05-17 16:54:06.921637,1,0,0,0,0,0,70,72,134,110,73,192.46,79,8.00,12.00,-995.00
2024-05-17 16:54:07.019957,1,0,0,0,0,0,70,72,135,110,73,192.51,79,11.00,2.00,-997.00
2024-05-17 16:54:07.122416,1,0,-1,0,0,0,70,72,135,110,73,192.56,79,39.00,-13.00,-992.00
2024-05-17 16:54:07.245528,1,0,-1,0,0,0,70,72,135,110,73,192.50,79,24.00,-11.00,-980.00
2024-05-17 16:54:07.327468,1,0,-2,0,0,0,70,72,135,110,73,192.44,79,15.00,-12.00,-996.00
2024-05-17 16:54:07.429550,1,1,-2,0,0,0,70,72,136,110,73,192.51,79,45.00,-19.00,-997.00
2024-05-17 16:54:07.552211,1,1,-2,0,0,0,70,72,136,110,73,192.51,79,30.00,-11.00,-1003.00
2024-05-17 16:54:07.632893,1,0,-2,0,0,0,70,72,136,110,73,192.52,79,33.00,-30.00,-1010.00
2024-05-17 16:54:07.756999,1,0,-2,0,0,0,70,72,136,120,73,192.50,79,25.00,-17.00,-1000.00
2024-05-17 16:54:07.836964,1,0,-2,0,0,0,70,72,136,120,73,192.57,79,37.00,-15.00,-1002.00
2024-05-17 16:54:07.961789,1,0,-2,0,0,0,70,72,136,120,73,192.54,80,54.00,-26.00,-984.00
2024-05-17 16:54:08.041318,1,0,-2,0,0,0,70,72,135,120,73,192.47,80,38.00,-21.00,-983.00
2024-05-17 16:54:08.167442,1,0,-2,0,0,0,70,72,136,120,73,192.51,80,15.00,-7.00,-1013.00
2024-05-17 16:54:08.253006,1,1,-2,0,0,0,70,72,136,110,73,192.49,80,18.00,-19.00,-990.00
2024-05-17 16:54:08.347024,0,1,-2,0,0,0,70,72,136,110,72,192.54,80,11.00,-17.00,-999.00
2024-05-17 16:54:08.474146,1,1,-2,0,0,0,69,72,136,110,72,192.60,80,17.00,-19.00,-1001.00
2024-05-17 16:54:08.550991,1,1,-2,0,0,0,69,72,136,110,72,192.53,80,14.00,-18.00,-986.00
2024-05-17 16:54:08.653003,1,1,-2,0,0,0,69,72,136,110,72,192.54,80,23.00,-5.00,-1014.00
2024-05-17 16:54:08.781371,1,1,-2,0,0,0,69,72,136,110,72,192.52,80,35.00,-4.00,-1010.00
2024-05-17 16:54:08.856978,1,0,-2,0,0,0,69,72,135,110,72,192.51,80,29.00,-11.00,-996.00
2024-05-17 16:54:08.985747,1,0,-2,0,0,0,69,72,135,110,72,192.56,81,-5.00,-5.00,-1025.00
2024-05-17 16:54:09.061479,1,0,-2,0,0,0,69,72,134,110,72,192.56,81,3.00,5.00,-1021.00
2024-05-17 16:54:09.162724,1,0,-2,0,0,0,69,72,134,110,72,192.51,81,44.00,-18.00,-1003.00
2024-05-17 16:54:09.264878,0,0,-2,0,0,0,69,72,134,110,72,192.53,81,-2.00,3.00,-1568.00
2024-05-17 16:54:09.398531,0,0,-1,0,0,-6,69,72,140,120,72,192.57,81,10.00,24.00,-1637.00
2024-05-17 16:54:09.468742,0,-30,-1,0,-1,-11,70,73,190,130,72,192.78,81,5.00,425.00,-1083.00
2024-05-17 16:54:09.570721,0,-142,-2,0,-8,-7,70,73,180,140,72,192.88,81,32.00,585.00,-993.00
2024-05-17 16:54:09.703735,1,94,-2,0,-8,7,70,73,354,140,72,192.97,81,-26.00,481.00,-1160.00
2024-05-17 16:54:09.723660,0,2,-4,0,-3,12,70,73,145,130,72,192.52,81,-40.00,-162.00,-1631.00
2024-05-17 16:54:09.907554,0,0,-5,0,-3,9,70,73,135,120,72,192.43,81,-3.00,17.00,-1473.00
2024-05-17 16:54:09.927646,0,3,-5,0,-2,5,70,73,131,110,72,192.42,82,0.00,4.00,-1335.00
2024-05-17 16:54:10.112034,0,1,-3,0,-1,1,70,73,128,100,72,192.41,82,-5.00,4.00,-1209.00
2024-05-17 16:54:10.131615,0,0,-2,0,-1,0,70,73,127,100,72,192.49,82,-5.00,15.00,-1132.00
2024-05-17 16:54:10.316906,0,0,-2,0,-1,0,70,73,129,100,72,192.56,82,0.00,4.00,-1058.00
2024-05-17 16:54:10.335546,0,0,-2,0,-1,-1,70,73,130,100,72,192.52,82,-10.00,0.00,-1001.00
2024-05-17 16:54:10.521573,0,0,-2,0,0,-1,71,73,132,100,72,192.55,82,15.00,0.00,-1000.00
2024-05-17 16:54:10.539660,0,2,-2,0,0,-1,71,73,135,110,72,192.49,82,29.00,12.00,-961.00
2024-05-17 16:54:10.726438,0,0,-2,0,0,0,71,73,135,110,72,192.57,82,10.00,38.00,-988.00
2024-05-17 16:54:10.743548,0,0,-2,0,0,0,71,73,136,110,72,192.46,82,17.00,6.00,-970.00
2024-05-17 16:54:10.931113,0,0,-2,0,0,0,71,73,138,110,72,192.54,82,-28.00,42.00,-990.00
2024-05-17 16:54:10.947658,0,0,-2,0,0,0,71,73,138,110,72,192.58,83,25.00,-9.00,-969.00
2024-05-17 16:54:11.135828,0,0,-2,0,0,0,71,73,138,110,72,192.58,83,6.00,15.00,-984.00
2024-05-17 16:54:11.151586,0,0,-2,0,0,0,71,73,138,110,72,192.51,83,15.00,24.00,-993.00
2024-05-17 16:54:11.340968,0,0,-2,0,0,0,71,73,138,110,71,192.56,83,-9.00,26.00,-976.00
2024-05-17 16:54:11.355649,0,0,-2,0,0,0,71,73,138,110,71,192.58,83,40.00,-4.00,-986.00
2024-05-17 16:54:11.545546,0,0,-2,0,0,0,70,72,138,110,71,192.54,83,22.00,30.00,-1005.00
2024-05-17 16:54:11.560475,0,0,-2,0,0,0,70,72,137,110,71,192.47,83,6.00,16.00,-995.00
2024-05-17 16:54:11.750342,0,0,-2,0,0,0,70,72,138,110,71,192.57,83,-13.00,35.00,-982.00
2024-05-17 16:54:11.764561,0,0,-2,0,0,0,70,72,137,110,71,192.61,83,9.00,33.00,-1008.00
2024-05-17 16:54:11.955158,0,0,-2,0,0,0,70,72,137,110,71,192.57,83,12.00,30.00,-1001.00
2024-05-17 16:54:11.968549,0,0,-2,0,0,0,70,72,138,110,71,192.53,84,-13.00,48.00,-1005.00
2024-05-17 16:54:12.070566,0,0,-2,0,0,0,70,72,138,110,71,192.54,84,-11.00,38.00,-1012.00
2024-05-17 16:54:12.262273,0,0,-2,0,0,0,70,72,138,110,71,192.55,84,13.00,39.00,-1010.00
2024-05-17 16:54:12.274804,0,0,-2,0,0,0,70,72,138,110,71,192.49,84,21.00,0.00,-1008.00
2024-05-17 16:54:12.467144,0,0,-2,0,0,0,70,72,138,110,71,192.58,84,9.00,-10.00,-1000.00
2024-05-17 16:54:12.479183,0,0,-2,0,0,0,69,71,137,110,71,192.54,84,-2.00,26.00,-1008.00
2024-05-17 16:54:12.672291,0,0,-2,0,0,0,69,71,137,110,71,192.49,84,16.00,12.00,-997.00
2024-05-17 16:54:12.685410,0,0,-2,0,0,0,69,71,138,110,71,192.51,84,-10.00,34.00,-1000.00
2024-05-17 16:54:12.784973,0,0,-2,0,0,0,69,71,137,110,71,192.50,84,-4.00,36.00,-996.00
2024-05-17 16:54:12.980795,0,0,-2,0,0,0,69,71,138,110,71,192.54,84,-2.00,32.00,-1003.00
2024-05-17 16:54:12.988728,0,-1,-2,0,0,0,69,71,137,110,71,192.50,85,1.00,31.00,-1000.00
2024-05-17 16:54:13.184102,0,-1,-2,0,0,0,69,71,138,110,71,192.58,85,25.00,16.00,-1001.00
2024-05-17 16:54:13.192599,0,-1,-2,0,0,0,69,71,137,110,71,192.49,85,8.00,28.00,-1002.00
2024-05-17 16:54:13.244493,0,-1,-2,0,0,0,69,71,137,110,71,192.50,85,32.00,17.00,-992.00
2024-05-17 16:54:13.388828,0,-1,-2,0,0,0,69,71,136,110,71,192.58,85,-3.00,30.00,-991.00
2024-05-17 16:54:13.449453,0,-1,-2,0,0,0,69,71,136,110,71,192.51,85,14.00,34.00,-993.00
2024-05-17 16:54:13.594894,0,-1,-2,0,0,0,69,71,136,110,71,192.52,85,26.00,8.00,-1003.00
2024-05-17 16:54:13.652648,0,-1,-2,0,0,0,69,71,136,110,71,192.64,85,18.00,13.00,-997.00
2024-05-17 16:54:13.798548,0,-1,-2,0,0,0,69,71,136,110,71,192.60,85,2.00,35.00,-998.00
2024-05-17 16:54:13.856677,0,-1,-2,0,0,0,69,71,136,110,71,192.64,85,14.00,15.00,-997.00
2024-05-17 16:54:14.006134,0,-1,-2,0,0,0,69,71,136,110,71,192.60,86,29.00,16.00,-1004.00
2024-05-17 16:54:14.062328,0,-1,-2,0,0,0,69,71,136,110,71,192.57,86,-10.00,28.00,-1006.00
2024-05-17 16:54:14.207978,0,-1,-2,0,0,0,69,71,136,110,71,192.54,86,-10.00,37.00,-1001.00
2024-05-17 16:54:14.265951,0,-1,-2,0,0,0,69,71,136,110,71,192.51,86,-11.00,43.00,-978.00
2024-05-17 16:54:14.413290,0,-1,-2,0,0,0,69,71,136,110,71,192.49,86,9.00,20.00,-1009.00
2024-05-17 16:54:14.468564,0,-1,-2,0,0,0,69,72,136,110,71,192.54,86,17.00,18.00,-994.00
2024-05-17 16:54:14.618080,0,-1,-2,0,0,0,69,72,136,110,71,192.57,86,2.00,26.00,-1002.00
2024-05-17 16:54:14.672618,0,-1,-2,0,0,0,69,72,136,110,71,192.63,86,7.00,22.00,-989.00
2024-05-17 16:54:14.822436,0,-1,-2,0,0,0,69,72,135,110,71,192.50,86,34.00,20.00,-988.00
2024-05-17 16:54:14.881349,0,-1,-2,0,0,0,69,72,136,110,71,192.49,86,-12.00,46.00,-995.00
2024-05-17 16:54:14.980466,0,-1,-2,0,0,0,69,72,137,110,71,192.56,87,-8.00,17.00,-1006.00
2024-05-17 16:54:15.080780,0,-1,-2,0,0,0,69,72,137,110,71,192.54,87,6.00,23.00,-1013.00
2024-05-17 16:54:15.232159,0,-1,-2,0,0,0,69,72,138,110,71,192.51,87,16.00,16.00,-1001.00
2024-05-17 16:54:15.287410,0,0,-2,0,0,0,69,72,137,110,71,192.50,87,12.00,20.00,-989.00
2024-05-17 16:54:15.386577,0,0,-2,0,0,0,69,72,138,110,71,192.50,87,5.00,10.00,-983.00
2024-05-17 16:54:15.488707,0,0,-2,0,0,0,70,72,138,110,71,192.54,87,-7.00,35.00,-1011.00
2024-05-17 16:54:15.590576,0,0,-2,0,0,0,70,72,138,110,71,192.51,87,17.00,18.00,-994.00
2024-05-17 16:54:15.692664,0,0,-2,0,0,0,70,72,139,110,71,192.57,87,-7.00,25.00,-986.00
2024-05-17 16:54:15.846307,0,-1,-2,0,0,0,70,72,139,110,71,192.61,87,16.00,24.00,-992.00
2024-05-17 16:54:15.896434,0,0,-2,0,0,0,70,72,141,110,71,192.71,87,23.00,8.00,-976.00
2024-05-17 16:54:16.051123,0,1,-2,0,0,-5,70,72,149,110,71,192.72,88,-2.00,19.00,-1177.00
2024-05-17 16:54:16.100342,0,20,-2,0,1,-11,70,72,336,120,71,192.89,88,-28.00,20.00,-1671.00
2024-05-17 16:54:16.255944,0,125,-3,0,9,-8,70,72,163,130,71,192.97,88,50.00,726.00,-814.00
2024-05-17 16:54:16.319056,2,-112,-2,0,10,6,70,72,219,140,70,193.05,88,12.00,623.00,-1301.00
2024-05-17 16:54:16.406358,0,-9,0,0,4,12,70,72,147,120,70,192.56,88,50.00,726.00,-814.00
2024-05-17 16:54:16.563111,0,-4,-1,0,5,6,70,71,136,100,70,192.42,88,3.00,-14.00,-1438.00
2024-05-17 16:54:16.610320,0,-3,-2,0,4,2,70,71,133,100,70,192.58,88,17.00,2.00,-1375.00
2024-05-17 16:54:16.771306,0,-2,-2,0,3,0,70,71,129,100,70,192.45,88,-15.00,3.00,-1232.00
2024-05-17 16:54:16.814344,0,-1,-2,0,2,-1,70,71,132,100,70,192.41,88,0.00,-1.00,-1118.00
2024-05-17 16:54:16.972625,0,-1,-2,0,2,-1,70,71,134,100,70,192.42,89,-9.00,24.00,-1015.00
2024-05-17 16:54:17.018452,0,-1,-2,0,1,-1,70,71,136,100,70,192.53,89,6.00,4.00,-996.00
2024-05-17 16:54:17.177835,0,0,-2,0,1,-1,70,71,138,100,70,192.51,89,15.00,-15.00,-983.00
2024-05-17 16:54:17.177915,0,0,-2,0,1,-1,70,71,139,110,70,192.50,89,14.00,-21.00,-943.00
2024-05-17 16:54:17.273486,0,0,-2,0,1,0,70,71,140,110,70,192.57,89,1.00,-3.00,-980.00
2024-05-17 16:54:17.375328,0,-3,-2,0,1,0,70,71,142,110,70,192.61,89,18.00,-18.00,-945.00
2024-05-17 16:54:17.484714,0,-3,-2,0,0,0,69,72,144,110,70,192.57,89,-12.00,3.00,-979.00
2024-05-17 16:54:17.580766,0,-2,-2,0,0,0,69,72,143,110,70,192.51,89,-27.00,9.00,-976.00
2024-05-17 16:54:17.681408,0,-2,-2,0,0,0,69,72,143,110,70,192.69,89,38.00,9.00,-1001.00
2024-05-17 16:54:17.792592,0,-1,-2,0,0,0,69,72,143,110,70,192.59,89,-5.00,6.00,-998.00
2024-05-17 16:54:17.885463,0,-1,-2,0,0,0,69,72,144,110,70,192.59,90,-8.00,6.00,-985.00
2024-05-17 16:54:17.996706,0,-1,-2,0,0,0,69,72,144,110,70,192.59,90,-35.00,5.00,-978.00
2024-05-17 16:54:18.089329,0,-1,-2,0,0,0,69,72,144,110,70,192.58,90,-13.00,13.00,-995.00
2024-05-17 16:54:18.201866,0,-1,-2,0,0,0,69,72,145,110,70,192.61,90,17.00,16.00,-999.00
2024-05-17 16:54:18.293258,0,-1,-2,0,0,0,69,72,144,110,70,192.65,90,18.00,-5.00,-991.00
2024-05-17 16:54:18.406294,0,-1,-2,0,0,0,69,72,144,110,70,192.65,90,22.00,-2.00,-1010.00
2024-05-17 16:54:18.497246,0,0,-2,0,0,0,69,71,144,110,70,192.57,90,2.00,4.00,-1011.00
2024-05-17 16:54:18.612672,0,0,-2,0,0,0,69,71,144,110,70,192.57,90,23.00,3.00,-987.00
2024-05-17 16:54:18.701277,0,0,-2,0,0,0,69,71,144,110,70,192.57,90,18.00,3.00,-986.00
2024-05-17 16:54:18.815903,0,0,-2,0,0,0,69,71,144,110,70,192.63,90,25.00,2.00,-981.00
2024-05-17 16:54:18.905259,1,0,-2,0,0,0,69,71,144,110,70,192.63,91,-3.00,5.00,-1001.00
2024-05-17 16:54:19.020710,0,0,-2,0,0,0,69,71,144,110,70,192.61,91,8.00,9.00,-1013.00
2024-05-17 16:54:19.109248,0,0,-2,0,0,0,69,71,144,110,70,192.61,91,-5.00,10.00,-1040.00
2024-05-17 16:54:19.225509,1,0,-2,0,0,0,69,71,144,110,70,192.63,91,-3.00,9.00,-988.00
2024-05-17 16:54:19.317249,1,0,-2,0,0,0,69,71,144,110,70,192.65,91,23.00,-6.00,-999.00
2024-05-17 16:54:19.416846,0,0,-2,0,0,0,69,71,144,110,70,192.67,91,13.00,12.00,-1022.00
2024-05-17 16:54:19.532862,1,0,-2,0,0,0,68,71,144,110,70,192.68,91,10.00,3.00,-990.00
2024-05-17 16:54:19.620363,0,0,-2,0,0,0,68,71,144,110,70,192.60,91,-6.00,26.00,-1017.00
2024-05-17 16:54:19.737688,0,0,-2,0,0,0,68,71,143,110,70,192.61,91,8.00,20.00,-1001.00
2024-05-17 16:54:19.824286,0,0,-2,0,0,0,68,71,143,110,70,192.58,91,0.00,18.00,-1002.00
2024-05-17 16:54:19.926475,0,0,-2,0,0,0,68,71,143,110,70,192.52,92,0.00,10.00,-1005.00
2024-05-17 16:54:20.028964,0,0,-2,0,0,0,68,71,144,110,70,192.61,92,-5.00,19.00,-1011.00
2024-05-17 16:54:20.130682,0,0,-2,0,0,0,68,71,144,110,70,192.62,92,0.00,13.00,-1004.00
2024-05-17 16:54:20.232734,0,0,-2,0,0,0,68,71,144,110,70,192.61,92,-5.00,19.00,-1003.00
2024-05-17 16:54:20.336463,0,0,-2,0,0,0,68,71,144,110,70,192.55,92,-17.00,11.00,-1015.00
2024-05-17 16:54:20.437360,0,0,-2,0,0,0,68,71,144,110,70,192.57,92,2.00,13.00,-998.00
2024-05-17 16:54:20.539084,0,0,-2,0,0,0,69,71,144,110,70,192.56,92,-2.00,28.00,-1009.00
2024-05-17 16:54:20.641355,0,0,-2,0,0,0,69,71,145,110,70,192.57,92,-8.00,25.00,-1002.00
2024-05-17 16:54:20.742318,0,-1,-2,0,0,0,69,71,145,110,70,192.58,92,2.00,17.00,-991.00
2024-05-17 16:54:20.864316,0,-1,-2,0,0,0,69,71,145,110,70,192.61,92,-19.00,20.00,-992.00
2024-05-17 16:54:20.946358,0,0,-2,0,0,0,69,71,145,110,70,192.64,93,1.00,16.00,-997.00
2024-05-17 16:54:21.068872,0,0,-2,0,0,0,69,71,145,110,70,192.59,93,-2.00,24.00,-1004.00
2024-05-17 16:54:21.099512,0,0,-2,0,0,0,69,71,145,110,70,192.56,93,10.00,20.00,-991.00
2024-05-17 16:54:21.273716,0,0,-2,0,0,0,69,71,145,110,70,192.54,93,13.00,13.00,-992.00
2024-05-17 16:54:21.305598,0,0,-2,0,0,0,69,71,145,110,70,192.60,93,5.00,5.00,-995.00
2024-05-17 16:54:21.405476,0,0,-2,0,0,0,69,71,145,110,70,192.59,93,22.00,-16.00,-973.00
2024-05-17 16:54:21.581275,0,0,-2,0,0,0,69,71,145,110,70,192.67,93,-21.00,23.00,-991.00
2024-05-17 16:54:21.609273,0,-1,-2,0,0,0,69,71,145,110,70,192.62,93,3.00,13.00,-982.00
2024-05-17 16:54:21.711649,0,0,-2,0,0,0,69,71,144,110,70,192.62,93,-17.00,15.00,-1000.00
2024-05-17 16:54:21.813642,0,0,-2,0,0,0,69,71,144,110,70,192.59,93,-9.00,24.00,-1001.00
2024-05-17 16:54:21.915679,0,0,-2,0,0,0,69,71,144,110,70,192.63,94,1.00,11.00,-982.00
2024-05-17 16:54:22.019117,0,-1,-2,0,0,0,69,71,144,110,70,192.56,94,-11.00,21.00,-988.00
2024-05-17 16:54:22.121222,0,-1,-2,0,0,0,69,71,143,110,70,192.60,94,-11.00,11.00,-996.00
2024-05-17 16:54:22.224881,0,0,-2,0,0,0,69,71,143,110,70,192.58,94,-4.00,10.00,-1007.00
2024-05-17 16:54:22.326292,0,0,-2,0,0,0,69,71,143,110,70,192.58,94,4.00,-6.00,-992.00
2024-05-17 16:54:22.425091,0,0,-2,0,0,0,69,71,143,110,70,192.58,94,-8.00,24.00,-1024.00
2024-05-17 16:54:22.604667,0,0,-2,0,0,-4,69,71,147,110,70,192.70,94,0.00,9.00,-990.00
2024-05-17 16:54:22.629162,-10,0,-3,0,0,-10,69,71,162,120,70,192.87,94,17.00,13.00,-1365.00
2024-05-17 16:54:22.809890,-85,163,-167,5,0,-11,69,71,388,130,70,192.79,94,-13.00,19.00,-1701.00
2024-05-17 16:54:22.838617,43,177,175,10,0,2,69,71,243,140,70,192.73,94,37.00,15.00,-1654.00
2024-05-17 16:54:22.935067,23,0,0,3,0,13,69,71,165,130,70,192.68,95,728.00,15.00,-1244.00
2024-05-17 16:54:23.116727,-11,0,-1,3,0,11,69,71,149,110,70,192.65,95,719.00,-22.00,-895.00
2024-05-17 16:54:23.139118,3,0,-4,5,0,7,69,71,139,110,70,192.54,95,502.00,7.00,-1090.00
2024-05-17 16:54:23.322078,6,-1,-4,3,0,3,69,71,133,100,70,192.49,95,10.00,12.00,-1334.00
2024-05-17 16:54:23.343248,4,-1,-2,2,0,1,69,71,133,100,70,192.47,95,2.00,13.00,-1428.00
2024-05-17 16:54:23.526676,1,0,-2,1,0,0,69,71,133,100,70,192.49,95,18.00,16.00,-1289.00
2024-05-17 16:54:23.547420,1,0,-2,1,0,-1,69,71,134,100,70,192.56,95,-2.00,31.00,-1029.00
2024-05-17 16:54:23.731125,0,-1,-2,0,0,-1,69,71,135,100,70,192.60,95,-25.00,31.00,-1001.00
2024-05-17 16:54:23.752202,0,0,-2,0,0,-1,69,71,136,100,70,192.56,95,-6.00,5.00,-990.00
2024-05-17 16:54:23.853066,0,0,-2,0,0,-1,69,71,138,100,70,192.59,95,-26.00,39.00,-958.00
2024-05-17 16:54:24.038254,1,0,-2,0,0,-1,69,71,142,100,70,192.57,96,-21.00,-4.00,-954.00
2024-05-17 16:54:24.057036,0,0,-2,0,0,0,69,71,142,100,70,192.58,96,3.00,8.00,-959.00
2024-05-17 16:54:24.243132,0,0,-2,0,0,0,69,71,142,100,70,192.60,96,0.00,5.00,-979.00
