TS,pitch,roll,yaw,vgx,vgy,vgz,templ,temph,tof,h,bat,baro,time,agx,agy,agz
2024-05-19 10:00:33.911951,0,0,3,0,0,0,82,84,10,0,47,129.54,322,10.00,2.00,-1001.00
2024-05-19 10:00:33.994977,0,0,3,0,0,0,82,84,10,0,47,129.59,322,10.00,2.00,-1002.00
2024-05-19 10:00:34.116791,0,0,3,0,0,0,82,85,10,0,47,129.57,322,11.00,3.00,-999.00
2024-05-19 10:00:34.199002,0,0,3,0,0,0,82,85,10,0,47,129.59,322,9.00,2.00,-1003.00
2024-05-19 10:00:34.249826,0,0,3,0,0,0,82,85,10,0,47,129.57,322,13.00,3.00,-999.00
2024-05-19 10:00:34.423754,0,0,3,0,0,0,82,85,10,0,47,129.59,322,11.00,1.00,-998.00
2024-05-19 10:00:34.453767,0,0,3,0,0,0,82,85,10,0,46,129.58,322,13.00,3.00,-1005.00
2024-05-19 10:00:34.555982,0,0,3,0,0,0,82,85,10,0,46,129.59,322,11.00,3.00,-1000.00
2024-05-19 10:00:34.731082,0,0,3,0,0,0,82,85,10,0,46,129.58,322,11.00,3.00,-1002.00
2024-05-19 10:00:34.759740,0,0,3,0,0,0,82,85,10,0,46,129.54,322,11.00,2.00,-999.00
2024-05-19 10:00:34.935858,0,0,3,0,0,0,82,85,10,0,46,129.60,322,13.00,2.00,-1001.00
2024-05-19 10:00:34.963829,0,0,3,0,0,0,82,85,10,0,46,129.55,322,12.00,3.00,-1000.00
2024-05-19 10:00:35.140548,0,0,3,0,0,0,82,84,10,0,46,129.53,322,11.00,3.00,-1000.00
2024-05-19 10:00:35.167806,0,0,3,0,0,0,82,84,10,0,46,129.58,322,11.00,2.00,-999.00
2024-05-19 10:00:35.345514,0,0,3,0,0,0,82,84,10,0,46,129.53,322,11.00,4.00,-999.00
2024-05-19 10:00:35.371763,0,0,3,0,0,0,82,84,10,0,46,129.57,322,9.00,3.00,-1001.00
2024-05-19 10:00:35.550402,0,0,3,0,0,0,82,84,10,0,46,129.57,322,12.00,2.00,-999.00
2024-05-19 10:00:35.575777,0,0,3,0,0,0,82,84,10,0,46,129.61,322,12.00,2.00,-999.00
2024-05-19 10:00:35.754977,0,0,3,0,0,0,82,84,10,0,46,129.63,322,12.00,1.00,-1000.00
2024-05-19 10:00:35.779746,0,0,3,0,0,0,82,84,10,0,46,129.65,322,12.00,2.00,-998.00
2024-05-19 10:00:35.959938,0,0,3,0,0,0,82,84,10,0,46,129.61,322,10.00,3.00,-1002.00
2024-05-19 10:00:35.983830,0,0,3,0,0,0,82,84,10,0,46,129.62,322,11.00,2.00,-1001.00
2024-05-19 10:00:36.085558,0,0,3,0,0,0,82,85,10,0,46,129.62,322,11.00,2.00,-1001.00
2024-05-19 10:00:36.266920,0,0,3,0,0,0,82,85,10,0,46,129.67,322,12.00,3.00,-998.00
2024-05-19 10:00:36.289703,0,0,3,0,0,0,82,85,10,0,46,129.67,322,13.00,-3.00,-1003.00
2024-05-19 10:00:36.471793,0,0,3,0,0,0,82,85,10,0,46,129.67,322,3.00,15.00,-1000.00
2024-05-19 10:00:36.493755,0,0,2,0,0,0,82,85,10,0,46,129.67,322,10.00,0.00,-1001.00
2024-05-19 10:00:36.676615,0,0,3,0,0,0,82,85,10,0,46,129.67,322,-8.00,-15.00,-996.00
2024-05-19 10:00:36.697749,0,0,4,0,0,0,82,85,10,0,46,129.67,322,-43.00,40.00,-940.00
2024-05-19 10:00:36.881412,2,0,4,0,0,0,82,85,10,0,46,129.67,322,-2.00,3.00,-1028.00
2024-05-19 10:00:36.901719,3,0,4,-1,0,-1,82,85,10,0,46,129.67,322,-39.00,28.00,-1226.00
2024-05-19 10:00:37.086204,-2,0,4,-1,0,-4,82,85,10,0,46,129.67,322,-20.00,10.00,-1326.00
2024-05-19 10:00:37.105724,-4,0,4,-1,0,-6,82,85,15,0,46,129.67,323,-34.00,36.00,-1153.00
2024-05-19 10:00:37.291006,-3,0,5,-1,0,-7,82,85,22,0,46,129.83,323,-63.00,10.00,-1112.00
2024-05-19 10:00:37.309679,-5,-1,5,-1,0,-7,82,85,32,10,46,130.01,323,-86.00,46.00,-1060.00
2024-05-19 10:00:37.495808,-6,0,5,-1,0,-7,82,85,41,10,46,130.07,323,-39.00,43.00,-956.00
2024-05-19 10:00:37.513724,-4,-2,5,0,1,-7,82,85,50,20,46,130.34,323,-60.00,70.00,-989.00
2024-05-19 10:00:37.700565,-3,-2,5,0,1,-6,82,85,58,20,46,130.51,323,0.00,65.00,-896.00
2024-05-19 10:00:37.700608,-2,-3,4,0,1,-5,82,85,65,30,46,130.50,323,-30.00,102.00,-879.00
2024-05-19 10:00:37.768709,-1,-4,4,0,1,-4,82,85,69,30,46,130.63,323,20.00,60.00,-925.00
2024-05-19 10:00:37.905301,-1,-5,4,0,1,-3,82,85,75,40,46,130.68,323,-25.00,72.00,-867.00
2024-05-19 10:00:37.972710,-1,-5,4,0,1,-2,82,85,79,40,46,130.70,323,-14.00,74.00,-894.00
2024-05-19 10:00:38.110066,0,-5,4,0,0,-1,82,84,83,40,46,130.64,324,-6.00,56.00,-929.00
2024-05-19 10:00:38.176711,0,-5,4,0,0,0,82,84,86,40,46,130.67,324,12.00,51.00,-883.00
2024-05-19 10:00:38.314995,0,-3,4,1,0,0,82,84,88,50,46,130.83,324,-5.00,46.00,-957.00
2024-05-19 10:00:38.385758,0,-3,3,0,0,0,82,84,90,50,46,130.84,324,-64.00,44.00,-961.00
2024-05-19 10:00:38.482677,0,-3,3,0,0,0,82,84,91,50,46,130.84,324,-37.00,50.00,-1003.00
2024-05-19 10:00:38.584688,0,-3,3,0,0,0,82,84,92,50,46,130.80,324,-64.00,57.00,-943.00
2024-05-19 10:00:38.724594,0,-5,4,0,0,1,82,84,92,50,46,130.77,324,-45.00,73.00,-975.00
2024-05-19 10:00:38.788655,-1,-6,4,0,0,0,82,84,93,50,46,130.74,324,-31.00,113.00,-1006.00
2024-05-19 10:00:38.929396,-1,-6,4,0,0,0,82,84,93,50,46,130.61,324,9.00,36.00,-1024.00
2024-05-19 10:00:38.992563,-1,-5,4,0,0,0,82,84,93,50,46,130.67,324,-26.00,79.00,-1005.00
2024-05-19 10:00:39.136655,-1,-4,4,0,0,0,82,84,93,50,46,130.64,325,-25.00,59.00,-949.00
2024-05-19 10:00:39.197349,0,-3,4,0,0,0,82,84,94,50,46,130.78,325,-24.00,96.00,-945.00
2024-05-19 10:00:39.338972,-1,-4,4,0,0,1,82,84,93,50,46,130.82,325,-53.00,57.00,-1036.00
2024-05-19 10:00:39.400727,0,-3,4,0,0,0,82,84,93,50,46,130.75,325,0.00,119.00,-1025.00
2024-05-19 10:00:39.543725,0,-4,4,0,0,0,82,84,93,50,46,130.96,325,-34.00,110.00,-988.00
2024-05-19 10:00:39.604870,0,-6,4,0,0,0,82,84,92,50,46,130.79,325,14.00,93.00,-995.00
2024-05-19 10:00:39.707231,0,-5,3,0,0,0,82,84,92,50,46,130.78,325,-10.00,104.00,-978.00
2024-05-19 10:00:39.850982,0,-5,4,0,0,0,82,84,91,50,46,130.70,325,-33.00,105.00,-956.00
2024-05-19 10:00:39.912536,0,-6,4,0,0,1,82,84,89,50,46,130.62,325,-12.00,80.00,-990.00
2024-05-19 10:00:40.012991,0,-5,4,0,0,1,82,84,89,50,46,130.67,325,-29.00,82.00,-992.00
2024-05-19 10:00:40.116893,0,-5,4,0,0,0,82,84,88,50,46,130.73,326,-2.00,55.00,-968.00
2024-05-19 10:00:40.216559,0,-4,4,0,0,0,82,84,86,50,46,130.49,326,8.00,55.00,-1006.00
2024-05-19 10:00:40.362980,-1,-3,4,0,0,0,82,84,86,50,46,130.83,326,-3.00,67.00,-985.00
2024-05-19 10:00:40.420640,0,-3,4,0,0,1,82,84,84,50,46,130.48,326,-5.00,89.00,-1015.00
2024-05-19 10:00:40.567725,1,-5,3,0,0,1,82,84,83,50,46,130.57,326,6.00,78.00,-954.00
2024-05-19 10:00:40.624556,1,-4,1,0,0,1,82,84,81,50,46,130.49,326,19.00,97.00,-990.00
2024-05-19 10:00:40.772555,0,-4,-2,0,-1,0,82,84,80,50,46,130.33,326,-67.00,52.00,-999.00
2024-05-19 10:00:40.829554,-1,-4,-5,-1,-1,0,82,84,80,50,46,130.22,326,-27.00,95.00,-1021.00
2024-05-19 10:00:40.977333,-4,-1,-7,-1,-1,0,82,84,78,50,46,130.18,326,-62.00,17.00,-1058.00
2024-05-19 10:00:41.033456,-4,0,-7,-1,-1,0,82,84,78,40,46,130.07,326,-82.00,20.00,-1046.00
2024-05-19 10:00:41.182173,-4,-1,-4,0,-1,0,82,84,78,40,46,130.14,327,3.00,21.00,-975.00
2024-05-19 10:00:41.237536,-3,0,2,0,-1,0,82,84,78,40,46,130.09,327,-54.00,46.00,-988.00
2024-05-19 10:00:41.386996,-3,0,6,0,-1,0,82,84,78,40,46,130.32,327,-29.00,22.00,-1053.00
2024-05-19 10:00:41.441607,-1,0,6,0,-1,0,82,84,79,40,46,130.30,327,-40.00,11.00,-1081.00
2024-05-19 10:00:41.591761,-1,0,6,0,0,0,82,84,79,40,46,130.25,327,-45.00,18.00,-1014.00
2024-05-19 10:00:41.594723,-1,0,6,0,0,0,82,84,80,40,46,130.32,327,-39.00,9.00,-966.00
2024-05-19 10:00:41.696823,-1,0,6,0,0,0,82,84,80,40,46,130.37,327,-15.00,-5.00,-980.00
2024-05-19 10:00:41.798538,-1,0,6,0,0,0,82,84,80,40,46,130.51,327,1.00,7.00,-1012.00
2024-05-19 10:00:42.001350,0,0,6,0,0,0,82,84,81,50,46,130.49,327,-17.00,35.00,-1012.00
2024-05-19 10:00:42.002489,0,0,6,0,0,0,82,84,81,50,46,130.50,327,-27.00,24.00,-1013.00
2024-05-19 10:00:42.104745,0,-1,6,0,0,0,82,84,81,50,46,130.49,328,-39.00,12.00,-1000.00
2024-05-19 10:00:42.206557,0,-1,6,0,0,0,82,84,81,50,46,130.57,328,-13.00,5.00,-1003.00
2024-05-19 10:00:42.308931,-1,0,6,0,0,0,82,84,81,50,46,130.50,328,-52.00,36.00,-1023.00
2024-05-19 10:00:42.410728,0,0,6,0,0,0,82,84,81,50,46,130.49,328,-10.00,32.00,-999.00
2024-05-19 10:00:42.513437,0,0,6,0,0,0,82,84,81,50,46,130.45,328,-11.00,26.00,-984.00
2024-05-19 10:00:42.615646,0,0,6,0,0,0,82,84,81,50,46,130.54,328,-11.00,29.00,-978.00
2024-05-19 10:00:42.718247,0,-2,6,0,0,0,82,84,80,50,46,130.63,328,-36.00,41.00,-985.00
2024-05-19 10:00:42.818530,0,-2,6,0,0,0,82,84,79,40,46,130.57,328,13.00,15.00,-1008.00
2024-05-19 10:00:42.923618,0,-2,6,0,0,0,82,84,79,40,46,130.54,328,31.00,6.00,-993.00
2024-05-19 10:00:43.022532,0,-3,5,0,0,0,82,84,78,40,46,130.58,328,-36.00,8.00,-1047.00
2024-05-19 10:00:43.127813,0,-2,5,0,0,0,81,83,77,40,46,130.58,329,-20.00,14.00,-1017.00
2024-05-19 10:00:43.226526,0,-1,5,0,0,0,81,83,77,40,46,130.45,329,3.00,2.00,-967.00
2024-05-19 10:00:43.332591,0,-1,5,0,0,0,81,83,77,40,46,130.50,329,-22.00,16.00,-1026.00
2024-05-19 10:00:43.430784,0,-1,5,0,0,0,81,83,77,40,46,130.50,329,-7.00,11.00,-977.00
2024-05-19 10:00:43.537563,0,-1,5,0,0,0,81,83,77,40,46,130.47,329,2.00,-4.00,-1003.00
2024-05-19 10:00:43.634734,0,-1,5,0,0,0,81,83,77,40,46,130.43,329,-24.00,-5.00,-1057.00
2024-05-19 10:00:43.742322,0,-1,5,0,0,0,81,83,77,40,46,130.49,329,-28.00,7.00,-1050.00
2024-05-19 10:00:43.838512,0,0,5,0,0,0,81,83,77,40,46,130.50,329,12.00,9.00,-1003.00
2024-05-19 10:00:43.947185,0,0,5,0,0,0,81,83,78,40,46,130.46,329,-19.00,26.00,-1000.00
2024-05-19 10:00:44.042632,0,0,5,0,0,0,81,83,78,40,46,130.49,329,-22.00,4.00,-994.00
2024-05-19 10:00:44.144394,0,0,5,0,0,0,81,84,78,40,46,130.46,330,-15.00,11.00,-1009.00
2024-05-19 10:00:44.254162,0,0,5,0,0,0,81,84,78,40,46,130.40,330,-5.00,35.00,-1027.00
2024-05-19 10:00:44.348365,0,0,5,0,0,0,81,84,79,40,46,130.39,330,-11.00,39.00,-1075.00
2024-05-19 10:00:44.458940,0,0,5,0,0,-1,81,84,80,50,46,130.53,330,-7.00,35.00,-1103.00
2024-05-19 10:00:44.556440,1,-1,4,0,0,-2,81,84,83,50,46,130.48,330,-14.00,45.00,-1112.00
2024-05-19 10:00:44.654353,0,0,4,0,0,-3,81,84,86,50,46,130.60,330,14.00,44.00,-1055.00
2024-05-19 10:00:44.756818,0,-1,4,0,0,-3,81,84,90,50,46,130.68,330,-40.00,29.00,-1031.00
2024-05-19 10:00:44.873464,0,-1,4,0,0,-4,81,84,94,60,46,130.76,330,-18.00,31.00,-1048.00
2024-05-19 10:00:44.961884,0,-2,5,0,0,-4,81,84,100,60,46,130.76,330,-1.00,24.00,-1059.00
2024-05-19 10:00:45.062617,0,-2,5,0,0,-5,81,84,105,70,46,130.81,330,-6.00,15.00,-1038.00
2024-05-19 10:00:45.164570,0,-2,4,0,0,-5,81,83,114,70,46,130.94,331,-2.00,27.00,-989.00
2024-05-19 10:00:45.266295,0,-1,4,0,0,-6,81,83,120,80,46,130.87,331,22.00,37.00,-964.00
2024-05-19 10:00:45.317308,0,-1,4,0,0,-6,81,83,127,90,46,130.89,331,-1.00,20.00,-988.00
2024-05-19 10:00:45.482918,0,-1,5,0,0,-6,81,83,133,90,46,131.03,331,-27.00,29.00,-938.00
2024-05-19 10:00:45.521514,0,-2,5,0,0,-5,81,83,138,100,46,131.19,331,26.00,18.00,-989.00
2024-05-19 10:00:45.687707,1,-1,5,0,0,-5,81,83,143,100,46,131.25,331,8.00,27.00,-918.00
2024-05-19 10:00:45.725426,2,-1,5,0,0,-5,81,83,148,110,46,131.27,331,29.00,2.00,-938.00
2024-05-19 10:00:45.892516,2,0,5,0,0,-4,81,83,153,110,46,131.28,331,11.00,0.00,-1009.00
2024-05-19 10:00:45.930968,3,0,5,0,0,-4,81,83,157,120,46,131.28,331,2.00,17.00,-943.00
2024-05-19 10:00:46.031465,3,0,5,0,0,-3,81,83,160,120,46,131.28,331,-6.00,0.00,-1005.00
2024-05-19 10:00:46.134966,3,0,5,0,0,-3,80,84,162,130,46,131.28,332,20.00,9.00,-966.00
2024-05-19 10:00:46.236054,3,0,5,0,0,-2,80,84,165,130,46,131.30,332,10.00,17.00,-922.00
2024-05-19 10:00:46.338035,3,0,5,0,0,-2,80,84,167,130,46,131.37,332,27.00,8.00,-978.00
2024-05-19 10:00:46.440388,3,0,5,0,0,-1,80,84,169,130,46,131.43,332,19.00,11.00,-949.00
2024-05-19 10:00:46.545113,2,0,4,0,0,-1,80,84,170,130,46,131.46,332,35.00,-5.00,-981.00
2024-05-19 10:00:46.643352,2,0,4,0,0,-1,80,84,172,140,46,131.43,332,14.00,26.00,-973.00
2024-05-19 10:00:46.814195,2,0,5,0,0,-1,80,84,173,140,46,131.44,332,33.00,1.00,-996.00
2024-05-19 10:00:46.847477,3,0,5,0,0,-1,80,84,174,140,46,131.52,332,34.00,2.00,-1006.00
2024-05-19 10:00:47.019069,3,0,5,0,0,0,80,84,174,140,46,131.47,332,1.00,7.00,-977.00
2024-05-19 10:00:47.051257,3,0,5,0,0,0,80,84,176,140,46,131.43,332,67.00,-23.00,-993.00
2024-05-19 10:00:47.155772,3,0,5,0,0,0,81,83,175,140,46,131.55,333,68.00,-30.00,-1010.00
2024-05-19 10:00:47.255332,3,0,5,0,0,0,81,83,176,140,46,131.44,333,58.00,-15.00,-992.00
2024-05-19 10:00:47.428496,3,0,5,0,0,0,81,83,176,140,46,131.46,333,45.00,3.00,-969.00
2024-05-19 10:00:47.459424,3,0,4,0,0,0,81,83,175,140,46,131.43,333,37.00,-2.00,-1004.00
2024-05-19 10:00:47.633487,3,0,4,0,0,0,81,83,176,140,46,131.49,333,34.00,0.00,-1021.00
2024-05-19 10:00:47.665136,3,0,4,0,0,0,81,83,176,140,46,131.42,333,16.00,-6.00,-986.00
2024-05-19 10:00:47.838335,2,0,4,0,0,0,81,83,176,140,46,131.39,333,34.00,-11.00,-957.00
2024-05-19 10:00:47.868211,3,0,4,0,0,0,81,83,176,140,46,131.39,333,34.00,-13.00,-967.00
2024-05-19 10:00:48.042965,3,1,4,0,0,0,81,83,175,140,46,131.48,333,54.00,-9.00,-1005.00
2024-05-19 10:00:48.072246,3,1,4,0,0,0,81,83,175,140,46,131.43,333,66.00,-14.00,-1030.00
2024-05-19 10:00:48.247812,3,1,4,0,0,0,80,83,175,140,46,131.33,334,25.00,-7.00,-1027.00
2024-05-19 10:00:48.276116,3,0,5,0,0,0,80,83,176,140,46,131.36,334,44.00,-27.00,-1011.00
2024-05-19 10:00:48.452744,3,0,4,0,0,0,80,83,176,140,46,131.44,334,35.00,-11.00,-985.00
2024-05-19 10:00:48.480315,3,0,4,-1,0,0,80,83,176,140,46,131.42,334,22.00,-3.00,-972.00
2024-05-19 10:00:48.582305,3,1,4,-1,0,0,80,83,176,140,46,131.48,334,42.00,-8.00,-1003.00
2024-05-19 10:00:48.759784,2,1,4,-1,0,0,80,83,175,140,46,131.44,334,7.00,4.00,-994.00
2024-05-19 10:00:48.786199,2,0,4,-1,0,0,80,83,175,140,46,131.49,334,62.00,3.00,-1017.00
2024-05-19 10:00:48.837146,2,0,4,-1,0,0,80,83,175,140,46,131.43,334,13.00,-14.00,-979.00
2024-05-19 10:00:48.939142,2,0,4,-1,0,0,80,83,174,140,46,131.43,334,-8.00,-2.00,-981.00
2024-05-19 10:00:49.066839,1,0,4,-1,0,0,80,83,174,140,46,131.41,334,-4.00,4.00,-997.00
2024-05-19 10:00:49.194263,1,0,4,-1,0,1,80,83,173,140,46,131.41,335,9.00,-22.00,-928.00
2024-05-19 10:00:49.374025,1,1,4,-1,0,1,80,83,171,140,46,131.44,335,14.00,-11.00,-926.00
2024-05-19 10:00:49.398082,1,1,4,-1,0,1,80,83,171,140,46,131.38,335,4.00,-12.00,-932.00
2024-05-19 10:00:49.578836,1,0,5,-1,0,2,80,83,168,130,46,131.31,335,20.00,-8.00,-984.00
2024-05-19 10:00:49.579146,1,0,5,0,0,2,80,83,166,130,46,131.25,335,33.00,-47.00,-985.00
2024-05-19 10:00:49.653073,1,1,5,0,0,2,80,83,164,130,46,131.39,335,24.00,-24.00,-944.00
2024-05-19 10:00:49.783689,2,1,5,0,0,2,80,83,161,130,46,131.33,335,31.00,-8.00,-936.00
2024-05-19 10:00:49.857051,2,1,5,0,0,2,80,83,158,120,46,131.24,335,27.00,-27.00,-976.00
2024-05-19 10:00:49.988479,2,1,5,0,0,2,80,83,155,120,46,131.20,335,8.00,-29.00,-980.00
2024-05-19 10:00:50.061392,2,1,5,0,0,2,80,83,153,120,46,131.14,336,-10.00,-33.00,-1000.00
2024-05-19 10:00:50.193279,1,2,5,0,0,2,80,83,150,120,46,131.16,336,-9.00,-23.00,-1000.00
2024-05-19 10:00:50.265105,1,2,5,-1,0,2,80,83,146,110,46,131.10,336,-33.00,-21.00,-1027.00
2024-05-19 10:00:50.398105,1,2,5,-1,0,2,80,83,144,110,46,131.08,336,9.00,-31.00,-1046.00
2024-05-19 10:00:50.469083,1,2,5,-1,0,2,80,83,142,110,46,131.10,336,-12.00,-28.00,-1026.00
2024-05-19 10:00:50.571042,1,1,5,0,0,2,80,83,140,110,46,131.06,336,35.00,-40.00,-1013.00
2024-05-19 10:00:50.705262,1,1,5,0,0,1,80,83,138,100,46,131.11,336,33.00,-25.00,-988.00
2024-05-19 10:00:50.775081,1,1,4,0,0,1,80,83,136,100,46,131.07,336,30.00,-36.00,-1038.00
2024-05-19 10:00:50.910028,1,1,5,0,0,1,80,83,134,100,46,130.96,336,7.00,-26.00,-1048.00
2024-05-19 10:00:50.979000,1,1,5,0,0,1,80,83,133,100,46,130.92,336,26.00,-66.00,-1040.00
2024-05-19 10:00:51.114798,1,1,5,0,0,1,80,83,132,100,46,130.94,337,17.00,-66.00,-1018.00
2024-05-19 10:00:51.182970,1,1,4,0,0,0,80,82,130,100,46,131.08,337,60.00,-40.00,-1033.00
2024-05-19 10:00:51.319729,2,2,4,0,0,0,80,82,129,100,46,130.97,337,69.00,-53.00,-1028.00
2024-05-19 10:00:51.387436,3,2,4,0,0,0,80,82,129,90,46,130.99,337,57.00,-43.00,-1056.00
2024-05-19 10:00:51.524592,3,2,4,0,0,0,80,82,128,90,46,131.02,337,20.00,-21.00,-1049.00
2024-05-19 10:00:51.590994,2,1,5,0,0,0,80,82,128,90,46,130.93,337,71.00,-45.00,-1000.00
2024-05-19 10:00:51.729338,3,1,4,0,0,0,80,82,128,90,46,130.97,337,64.00,-56.00,-1040.00
2024-05-19 10:00:51.795105,3,2,4,0,0,0,80,82,127,90,46,130.93,337,50.00,-70.00,-1014.00
2024-05-19 10:00:51.934505,3,3,4,0,0,0,80,82,127,90,46,130.98,337,71.00,-49.00,-1018.00
2024-05-19 10:00:51.999071,4,2,4,0,0,0,80,82,127,90,46,130.96,337,43.00,-50.00,-1026.00
2024-05-19 10:00:52.138937,4,2,4,0,0,0,80,82,127,90,46,131.08,338,83.00,-83.00,-984.00
2024-05-19 10:00:52.203410,4,2,4,0,0,0,80,82,127,90,46,131.05,338,-1.00,-45.00,-993.00
2024-05-19 10:00:52.343671,3,2,4,0,0,0,80,82,128,90,46,131.09,338,36.00,-58.00,-1017.00
2024-05-19 10:00:52.407003,3,2,5,0,0,0,80,82,127,90,46,131.13,338,47.00,-68.00,-1000.00
2024-05-19 10:00:52.548571,3,3,4,0,0,0,80,82,128,90,46,130.91,338,20.00,-65.00,-988.00
2024-05-19 10:00:52.611108,2,3,4,0,0,0,80,82,128,90,46,131.04,338,23.00,-36.00,-1008.00
2024-05-19 10:00:52.753727,2,3,4,0,0,0,80,82,128,90,46,131.01,338,3.00,-31.00,-989.00
2024-05-19 10:00:52.815132,2,3,5,0,0,0,80,82,128,90,46,130.96,338,35.00,-49.00,-1011.00
2024-05-19 10:00:52.958161,3,3,5,0,0,0,80,82,128,90,46,131.06,338,-7.00,-67.00,-978.00
2024-05-19 10:00:53.019444,3,2,5,-1,0,0,80,82,128,90,46,130.97,338,10.00,-70.00,-1006.00
2024-05-19 10:00:53.070078,2,3,5,-1,0,0,80,82,128,90,46,130.94,339,27.00,-83.00,-1027.00
2024-05-19 10:00:53.265329,1,4,5,-1,0,0,80,82,127,90,46,131.02,339,-4.00,-47.00,-1017.00
2024-05-19 10:00:53.273932,0,3,4,-1,0,0,80,82,128,90,46,130.90,339,31.00,-20.00,-1017.00
2024-05-19 10:00:53.375856,0,2,4,-1,0,0,80,82,129,90,46,130.98,339,12.00,-41.00,-984.00
2024-05-19 10:00:53.540545,-1,1,4,-1,0,0,80,82,128,90,46,130.93,339,13.00,-28.00,-997.00
2024-05-19 10:00:53.580216,-8,0,4,0,0,0,80,82,130,90,46,130.93,339,51.00,-68.00,-972.00
2024-05-19 10:00:53.777199,-8,1,4,1,0,0,80,82,130,90,46,131.01,339,16.00,-41.00,-1012.00
2024-05-19 10:00:53.783878,-7,1,4,3,0,0,80,82,130,90,46,130.95,339,1.00,-44.00,-987.00
2024-05-19 10:00:53.981913,-6,1,4,4,0,0,80,82,129,90,46,130.84,339,-8.00,-70.00,-988.00
2024-05-19 10:00:53.987832,-5,2,5,5,0,0,80,82,129,90,46,130.81,339,-49.00,-46.00,-1019.00
2024-05-19 10:00:54.186812,-5,4,5,6,0,0,80,82,129,90,46,130.88,340,-74.00,-28.00,-1002.00
2024-05-19 10:00:54.191815,-4,3,5,7,0,0,81,82,129,90,46,130.96,340,-43.00,-11.00,-1009.00
2024-05-19 10:00:54.391569,-4,2,5,7,0,0,81,82,129,90,46,130.91,340,-35.00,-41.00,-995.00
2024-05-19 10:00:54.395757,-2,1,5,7,1,0,81,82,128,100,46,130.98,340,-62.00,-10.00,-1003.00
2024-05-19 10:00:54.596388,0,0,4,7,1,0,81,82,128,100,46,130.99,340,-64.00,-18.00,-982.00
2024-05-19 10:00:54.599829,2,0,5,6,0,0,81,82,128,100,46,131.02,340,-82.00,-3.00,-992.00
2024-05-19 10:00:54.702261,4,0,5,5,0,0,81,82,128,100,46,131.01,340,-46.00,-9.00,-964.00
2024-05-19 10:00:54.803689,3,0,4,4,0,0,81,82,127,100,46,131.03,340,-49.00,9.00,-996.00
2024-05-19 10:00:54.905776,2,0,5,3,0,0,81,82,127,90,46,130.99,340,-19.00,-1.00,-1029.00
2024-05-19 10:00:55.007772,1,0,5,3,0,0,81,82,126,90,46,131.01,340,-77.00,24.00,-985.00
2024-05-19 10:00:55.110015,0,0,5,2,0,0,81,82,126,90,46,130.95,341,-46.00,36.00,-1052.00
2024-05-19 10:00:55.313195,0,0,4,2,1,0,81,82,125,90,46,130.99,341,-64.00,30.00,-1010.00
2024-05-19 10:00:55.313790,0,-1,4,2,1,0,81,82,126,90,46,130.86,341,-24.00,18.00,-1026.00
2024-05-19 10:00:55.415915,0,-1,4,2,0,0,81,82,125,90,46,130.87,341,-35.00,16.00,-1012.00
2024-05-19 10:00:55.518254,1,-2,4,1,0,0,81,82,125,90,46,131.03,341,-16.00,9.00,-1015.00
2024-05-19 10:00:55.620908,2,-4,4,1,0,0,81,82,125,90,46,131.05,341,-43.00,4.00,-964.00
2024-05-19 10:00:55.723056,3,-4,4,0,0,0,81,82,125,90,46,130.92,341,-16.00,16.00,-1000.00
2024-05-19 10:00:55.824773,1,-3,4,0,0,0,81,82,125,90,46,130.93,341,-78.00,21.00,-1003.00
2024-05-19 10:00:55.927642,0,-1,4,0,-1,0,81,82,125,90,46,130.98,341,0.00,-41.00,-985.00
2024-05-19 10:00:56.027850,0,2,4,0,-1,0,81,82,125,90,46,131.14,341,-1.00,2.00,-997.00
2024-05-19 10:00:56.129892,0,3,4,0,0,0,81,82,124,90,46,130.98,342,-29.00,2.00,-1017.00
2024-05-19 10:00:56.234924,0,1,4,0,0,0,80,83,124,90,46,130.86,342,-52.00,-24.00,-1011.00
2024-05-19 10:00:56.333831,-1,0,4,0,0,0,80,83,124,90,46,130.96,342,-55.00,-22.00,-1004.00
2024-05-19 10:00:56.437020,-1,1,4,0,0,0,80,83,123,90,46,130.91,342,-58.00,-39.00,-975.00
2024-05-19 10:00:56.537828,-1,1,4,0,0,0,80,83,123,90,46,130.93,342,-64.00,-9.00,-985.00
2024-05-19 10:00:56.639793,-1,2,5,0,0,0,80,83,123,90,46,130.89,342,-22.00,-27.00,-1026.00
2024-05-19 10:00:56.746977,-1,2,5,0,0,0,80,83,124,90,46,130.96,342,-26.00,-10.00,-1020.00
2024-05-19 10:00:56.843799,0,2,5,0,0,0,80,83,124,90,46,131.02,342,-26.00,-22.00,-964.00
2024-05-19 10:00:56.895251,0,2,5,0,0,0,80,83,124,90,46,131.01,342,-9.00,-18.00,-1030.00
2024-05-19 10:00:57.054500,0,1,5,0,0,0,80,83,125,90,46,130.92,342,-17.00,0.00,-1008.00
2024-05-19 10:00:57.098720,0,0,4,0,0,0,80,83,125,90,46,130.99,343,7.00,-41.00,-1013.00
2024-05-19 10:00:57.258946,0,0,4,0,0,0,80,83,126,90,46,131.08,343,-54.00,16.00,-942.00
2024-05-19 10:00:57.353786,0,0,4,0,0,0,80,83,127,90,46,131.02,343,-10.00,10.00,-1021.00
2024-05-19 10:00:57.463651,0,0,4,0,0,0,80,83,126,90,46,130.98,343,-24.00,28.00,-967.00
2024-05-19 10:00:57.506814,0,0,4,0,0,0,80,83,126,90,46,130.98,343,-4.00,14.00,-1056.00
2024-05-19 10:00:57.616379,0,0,4,0,0,0,80,83,127,90,46,131.00,343,-30.00,16.00,-1010.00
2024-05-19 10:00:57.710778,0,-1,4,0,0,0,80,83,127,90,46,130.98,343,15.00,-25.00,-982.00
2024-05-19 10:00:57.873822,0,-1,4,0,0,0,80,83,127,90,46,131.02,343,-14.00,3.00,-991.00
2024-05-19 10:00:57.914717,0,0,4,0,0,0,80,83,126,90,46,131.07,343,0.00,-15.00,-983.00
2024-05-19 10:00:58.078166,0,0,4,0,0,0,80,83,126,90,46,131.01,343,-1.00,-19.00,-962.00
2024-05-19 10:00:58.118747,0,0,5,0,0,0,80,83,126,90,46,130.97,344,17.00,-30.00,-1008.00
2024-05-19 10:00:58.220678,0,0,5,0,0,0,80,83,126,90,46,131.02,344,3.00,-31.00,-984.00
2024-05-19 10:00:58.385236,2,0,5,0,0,0,80,83,126,90,46,131.09,344,-21.00,-31.00,-978.00
2024-05-19 10:00:58.424704,7,1,5,0,0,0,80,83,126,90,46,131.02,344,5.00,-1.00,-1034.00
2024-05-19 10:00:58.590050,8,0,5,-1,0,0,80,83,126,90,46,130.92,344,-32.00,-18.00,-1022.00
2024-05-19 10:00:58.628671,8,1,5,-3,0,0,80,83,126,90,46,131.04,344,2.00,16.00,-1018.00
2024-05-19 10:00:58.794841,8,0,4,-4,0,0,80,83,127,90,46,131.13,344,-15.00,-10.00,-1076.00
2024-05-19 10:00:58.832867,7,0,4,-5,0,0,80,83,127,90,46,131.08,344,35.00,12.00,-1073.00
2024-05-19 10:00:58.935168,6,1,4,-6,0,0,80,83,127,90,46,131.03,344,48.00,-24.00,-989.00
2024-05-19 10:00:59.102015,5,0,5,-7,0,0,80,83,128,90,46,131.11,344,91.00,-29.00,-963.00
2024-05-19 10:00:59.138638,5,0,5,-7,0,0,80,83,128,90,46,131.04,345,66.00,0.00,-934.00
2024-05-19 10:00:59.306806,4,0,5,-7,0,0,81,83,129,90,46,131.01,345,59.00,-19.00,-968.00
2024-05-19 10:00:59.344879,1,0,5,-7,0,0,81,83,129,90,46,131.12,345,27.00,-15.00,-981.00
2024-05-19 10:00:59.447367,-1,0,5,-7,0,0,81,83,130,90,46,131.06,345,-15.00,-25.00,-1007.00
2024-05-19 10:00:59.547728,-4,1,5,-6,0,0,81,83,130,90,46,131.11,345,27.00,-28.00,-993.00
2024-05-19 10:00:59.648594,-5,1,5,-5,0,0,81,83,130,90,46,131.03,345,-50.00,-7.00,-994.00
2024-05-19 10:00:59.818697,-4,0,4,-4,0,0,81,83,131,90,46,131.07,345,10.00,-24.00,-1007.00
2024-05-19 10:00:59.852610,-2,0,4,-3,0,0,81,83,131,90,46,131.05,345,28.00,-56.00,-982.00
2024-05-19 10:01:00.023612,-1,1,5,-3,0,0,81,83,131,100,46,131.09,345,8.00,-41.00,-979.00
2024-05-19 10:01:00.056570,0,1,5,-2,0,0,81,83,131,100,46,131.06,345,0.00,-33.00,-989.00
2024-05-19 10:01:00.228400,0,2,5,-2,0,0,81,83,131,100,46,131.09,346,-6.00,-31.00,-992.00
2024-05-19 10:01:00.262172,0,2,5,-2,0,0,81,82,131,100,46,131.08,346,42.00,-32.00,-989.00
2024-05-19 10:01:00.362752,0,2,5,-2,0,0,81,82,131,100,46,131.13,346,17.00,-29.00,-1011.00
2024-05-19 10:01:00.535576,0,1,5,-2,0,0,81,82,131,100,46,131.06,346,-8.00,-24.00,-976.00
2024-05-19 10:01:00.567403,0,1,5,-2,0,0,81,82,130,100,46,131.13,346,-20.00,-37.00,-980.00
2024-05-19 10:01:00.668552,-3,1,5,-2,0,0,81,82,130,100,46,131.04,346,-28.00,-14.00,-997.00
2024-05-19 10:01:00.770481,-5,1,5,-2,0,0,81,82,130,100,46,131.04,346,-56.00,-1.00,-933.00
2024-05-19 10:01:00.872669,-3,0,5,-1,0,0,81,82,129,100,46,131.15,346,-24.00,-28.00,-1013.00
2024-05-19 10:01:00.923629,-2,0,5,-1,0,0,81,82,129,100,46,130.99,346,-46.00,-42.00,-1003.00
2024-05-19 10:01:01.047820,-2,1,5,0,0,0,81,82,129,100,46,131.12,346,-35.00,-32.00,-978.00
2024-05-19 10:01:01.127555,-2,1,5,0,0,0,81,82,128,100,46,131.13,347,-19.00,-28.00,-996.00
2024-05-19 10:01:01.252556,-2,2,5,0,0,0,80,82,128,100,46,131.10,347,-78.00,-18.00,-977.00
2024-05-19 10:01:01.331673,-2,1,5,0,0,0,80,82,127,100,46,131.12,347,-40.00,-28.00,-1010.00
2024-05-19 10:01:01.457522,-2,2,5,0,0,0,80,82,127,90,46,131.19,347,-54.00,-26.00,-976.00
2024-05-19 10:01:01.535697,-2,1,4,0,0,0,80,82,126,90,46,131.04,347,-32.00,-48.00,-963.00
2024-05-19 10:01:01.637616,-3,1,5,0,0,0,80,82,126,90,46,131.23,347,-93.00,-41.00,-1022.00
2024-05-19 10:01:01.739684,-3,1,4,0,0,0,80,82,126,90,46,131.22,347,-71.00,-60.00,-1051.00
2024-05-19 10:01:01.866879,-2,2,4,0,0,0,80,82,125,90,46,131.09,347,-41.00,-61.00,-1018.00
2024-05-19 10:01:01.943715,-2,3,4,0,0,0,80,82,125,90,46,131.16,347,5.00,-68.00,-998.00
2024-05-19 10:01:02.071648,-2,3,4,0,0,0,80,82,126,90,46,131.12,347,-10.00,-69.00,-979.00
2024-05-19 10:01:02.147701,-1,3,4,0,0,0,80,82,125,90,46,131.16,348,-17.00,-63.00,-986.00
2024-05-19 10:01:02.276530,0,4,4,0,0,0,80,82,125,90,46,131.13,348,-18.00,-43.00,-998.00
2024-05-19 10:01:02.351545,0,4,4,0,0,0,80,82,125,90,46,131.15,348,-34.00,-78.00,-990.00
2024-05-19 10:01:02.481256,0,4,4,0,0,0,80,82,125,90,46,131.09,348,-32.00,-54.00,-992.00
2024-05-19 10:01:02.556351,0,4,4,0,0,0,80,82,124,90,46,131.11,348,-21.00,-41.00,-1026.00
2024-05-19 10:01:02.657986,0,3,4,0,0,0,80,82,124,90,46,131.15,348,-4.00,-58.00,-998.00
2024-05-19 10:01:02.759705,0,3,4,0,0,0,80,82,124,90,46,131.20,348,-40.00,-58.00,-1030.00
2024-05-19 10:01:02.861432,0,3,4,0,0,0,80,82,125,90,46,131.18,348,-1.00,-71.00,-1017.00
2024-05-19 10:01:02.995594,0,4,4,0,0,0,80,82,124,90,46,131.18,348,-6.00,-60.00,-991.00
2024-05-19 10:01:03.065426,1,1,4,0,0,0,80,82,125,90,46,131.11,348,10.00,-60.00,-975.00
2024-05-19 10:01:03.197983,1,-6,4,0,0,0,80,82,125,90,46,131.15,349,6.00,-37.00,-956.00
2024-05-19 10:01:03.269466,1,-2,4,0,-3,0,80,82,126,90,46,131.20,349,1.00,-32.00,-1002.00
2024-05-19 10:01:03.371472,0,0,4,0,-4,0,80,82,126,90,46,131.13,349,-6.00,-35.00,-1015.00
2024-05-19 10:01:03.505156,0,3,4,0,-4,0,80,82,126,90,45,131.18,349,0.00,-18.00,-981.00
2024-05-19 10:01:03.575963,0,3,4,0,-3,0,80,82,127,90,45,131.11,349,9.00,-15.00,-1007.00
2024-05-19 10:01:03.709986,0,3,5,0,-3,0,80,82,127,90,45,131.03,349,-3.00,-28.00,-980.00
2024-05-19 10:01:03.779538,0,3,4,0,-3,0,80,82,128,90,45,131.17,349,-3.00,-44.00,-975.00
2024-05-19 10:01:03.914763,0,3,4,0,-3,0,80,82,128,90,45,131.15,349,22.00,-77.00,-1001.00
2024-05-19 10:01:03.983297,0,3,4,0,-3,0,80,82,129,90,45,131.14,349,-7.00,-37.00,-985.00
2024-05-19 10:01:04.119560,1,3,4,0,-3,0,80,82,129,90,45,131.07,350,7.00,-50.00,-1004.00
2024-05-19 10:01:04.187349,2,3,4,0,-2,0,80,82,130,100,45,131.20,350,35.00,-60.00,-999.00
2024-05-19 10:01:04.324398,3,4,5,0,-2,0,80,82,129,100,45,131.17,350,20.00,-69.00,-1028.00
2024-05-19 10:01:04.391370,3,4,5,0,-2,0,80,82,130,90,45,131.14,350,12.00,-52.00,-1000.00
2024-05-19 10:01:04.529161,3,5,5,0,-2,0,80,82,129,90,45,131.20,350,-6.00,-42.00,-992.00
2024-05-19 10:01:04.595555,2,5,5,-1,-2,0,80,82,129,90,45,131.23,350,19.00,-77.00,-1009.00
2024-05-19 10:01:04.733954,0,6,5,-1,-1,0,80,82,130,90,45,131.15,350,12.00,-45.00,-993.00
2024-05-19 10:01:04.799549,-3,5,4,-1,-1,0,80,82,129,90,45,131.14,350,16.00,-82.00,-980.00
2024-05-19 10:01:04.901498,-2,5,4,0,-1,0,80,82,129,90,45,131.16,350,-14.00,-56.00,-986.00
2024-05-19 10:01:04.953487,-1,4,5,0,0,0,80,82,129,90,45,131.17,350,-7.00,-65.00,-995.00
2024-05-19 10:01:05.143681,0,4,5,0,0,0,80,82,129,90,45,131.18,351,-10.00,-58.00,-1016.00
2024-05-19 10:01:05.156429,0,3,4,0,0,0,80,82,129,90,45,131.14,351,-70.00,-48.00,-970.00
2024-05-19 10:01:05.348557,-1,3,4,0,0,0,80,83,130,90,45,131.16,351,-12.00,-52.00,-998.00
2024-05-19 10:01:05.360594,0,3,4,0,0,0,80,83,130,90,45,131.21,351,-49.00,-32.00,-1003.00
2024-05-19 10:01:05.553273,0,3,4,0,0,0,80,83,130,90,45,131.13,351,-17.00,-52.00,-979.00
2024-05-19 10:01:05.564347,0,2,4,0,0,0,80,83,130,90,45,131.10,351,-24.00,-50.00,-992.00
2024-05-19 10:01:05.666419,0,2,4,0,0,0,80,83,130,90,45,131.15,351,-20.00,-37.00,-977.00
2024-05-19 10:01:05.768722,0,2,4,0,0,0,80,83,130,90,45,131.18,351,-6.00,-64.00,-1003.00
2024-05-19 10:01:05.962824,0,2,4,0,0,0,80,83,130,90,45,131.18,351,-36.00,-51.00,-966.00
2024-05-19 10:01:05.972295,0,2,4,0,0,0,80,83,130,90,45,131.24,351,-8.00,-43.00,-1000.00
2024-05-19 10:01:06.167888,0,2,4,0,0,0,80,83,130,90,45,131.17,352,12.00,-72.00,-988.00
2024-05-19 10:01:06.176461,0,2,4,0,0,0,80,83,130,90,45,131.21,352,-5.00,-49.00,-992.00
2024-05-19 10:01:06.372411,0,2,4,0,0,0,80,83,130,90,45,131.21,352,-8.00,-36.00,-1007.00
2024-05-19 10:01:06.380315,0,2,4,0,0,0,80,83,131,90,45,131.16,352,1.00,-39.00,-977.00
2024-05-19 10:01:06.579551,0,2,4,0,0,0,80,83,130,90,44,131.17,352,-14.00,-31.00,-1005.00
2024-05-19 10:01:06.584332,0,2,4,0,0,0,80,83,130,90,44,131.15,352,-13.00,-35.00,-995.00
2024-05-19 10:01:06.782928,1,1,4,0,0,0,80,83,131,90,44,131.09,352,8.00,-47.00,-1002.00
2024-05-19 10:01:06.788317,0,0,4,0,0,0,80,83,131,90,44,131.09,352,0.00,-59.00,-1012.00
2024-05-19 10:01:06.890215,0,0,4,0,0,0,80,83,130,90,44,131.16,352,25.00,-49.00,-985.00
2024-05-19 10:01:07.089127,0,2,4,0,0,0,80,83,131,90,44,131.09,352,-9.00,-22.00,-1017.00
2024-05-19 10:01:07.094222,0,8,4,0,0,0,80,83,133,90,44,131.20,353,36.00,-1.00,-957.00
2024-05-19 10:01:07.293933,0,8,4,0,1,0,80,83,133,90,44,131.11,353,34.00,-33.00,-1032.00
2024-05-19 10:01:07.298222,1,8,5,0,2,0,80,82,132,100,44,131.07,353,0.00,-42.00,-1023.00
2024-05-19 10:01:07.498907,2,6,5,0,3,0,80,82,131,100,44,131.19,353,4.00,-72.00,-995.00
2024-05-19 10:01:07.502227,2,3,4,0,3,0,80,82,132,100,44,131.09,353,10.00,-84.00,-1035.00
2024-05-19 10:01:07.604375,1,2,4,0,3,0,80,82,131,100,44,131.13,353,21.00,-69.00,-999.00
2024-05-19 10:01:07.706221,1,2,4,0,3,0,80,82,131,100,44,131.19,353,-7.00,-63.00,-996.00
2024-05-19 10:01:07.808207,1,2,4,0,3,0,80,82,131,100,44,131.09,353,22.00,-38.00,-979.00
2024-05-19 10:01:07.910285,1,2,4,0,3,0,80,82,131,100,44,131.16,353,11.00,-41.00,-966.00
2024-05-19 10:01:08.113155,1,2,4,0,2,0,80,82,131,100,44,131.07,353,-3.00,-55.00,-982.00
2024-05-19 10:01:08.114157,1,2,4,0,2,0,80,82,131,100,44,131.04,354,28.00,-29.00,-1000.00
2024-05-19 10:01:08.317920,1,2,5,0,2,0,80,82,131,100,44,131.01,354,42.00,-53.00,-1010.00
2024-05-19 10:01:08.318121,1,2,5,0,2,0,80,82,131,100,44,131.09,354,33.00,-50.00,-987.00
2024-05-19 10:01:08.420500,2,1,5,0,2,0,80,82,130,100,44,131.08,354,35.00,-52.00,-975.00
2024-05-19 10:01:08.522607,2,1,5,0,2,0,80,82,130,100,44,131.05,354,36.00,-36.00,-993.00
2024-05-19 10:01:08.625103,2,0,5,-1,2,0,80,82,129,100,44,131.10,354,-15.00,-40.00,-965.00
2024-05-19 10:01:08.675549,-2,-1,5,-1,1,0,80,82,128,90,44,131.00,354,48.00,-37.00,-1032.00
2024-05-19 10:01:08.777886,0,-1,5,0,1,0,80,82,128,90,44,131.03,354,7.00,-61.00,-1029.00
2024-05-19 10:01:08.934483,0,0,5,0,0,0,80,82,128,90,44,131.09,354,20.00,-43.00,-965.00
2024-05-19 10:01:08.982113,0,1,5,0,0,0,80,82,128,90,44,131.04,354,-26.00,-40.00,-994.00
2024-05-19 10:01:09.083866,0,1,5,0,0,0,80,82,128,90,44,130.99,355,-4.00,-36.00,-993.00
2024-05-19 10:01:09.187718,0,1,5,0,0,0,80,82,128,90,44,130.98,355,0.00,-39.00,-957.00
2024-05-19 10:01:09.288486,0,2,5,0,0,0,80,83,128,90,44,130.97,355,-40.00,-17.00,-1000.00
2024-05-19 10:01:09.390633,0,1,5,0,0,0,80,83,128,90,43,130.96,355,-6.00,-29.00,-1017.00
2024-05-19 10:01:09.492939,0,1,5,0,0,0,80,83,128,90,43,131.04,355,-27.00,-28.00,-1015.00
2024-05-19 10:01:09.597170,0,1,5,0,0,0,80,83,128,90,43,131.02,355,-23.00,-26.00,-1007.00
2024-05-19 10:01:09.697849,-1,0,4,0,0,0,80,83,127,90,43,131.05,355,6.00,-35.00,-1003.00
2024-05-19 10:01:09.800038,0,1,4,0,0,0,80,83,128,90,43,131.08,355,-25.00,-23.00,-940.00
2024-05-19 10:01:09.900183,0,1,5,0,0,0,80,83,128,90,43,131.03,355,-35.00,6.00,-960.00
2024-05-19 10:01:10.058823,0,1,5,0,0,0,80,83,128,90,43,131.13,355,-22.00,-15.00,-1021.00
2024-05-19 10:01:10.104018,0,1,5,0,0,0,80,83,127,90,43,131.00,356,-28.00,-18.00,-1021.00
2024-05-19 10:01:10.263676,0,0,5,0,0,0,80,83,127,90,43,131.05,356,-38.00,-17.00,-1006.00
2024-05-19 10:01:10.308168,-1,0,5,0,0,0,81,83,127,90,43,130.97,356,-35.00,-35.00,-1021.00
2024-05-19 10:01:10.468326,-1,0,4,0,0,0,81,83,127,90,43,131.00,356,-22.00,-32.00,-1009.00
2024-05-19 10:01:10.517400,-1,0,4,0,0,0,81,83,128,90,43,130.99,356,-40.00,-24.00,-1030.00
2024-05-19 10:01:10.614372,-1,1,4,0,0,0,81,83,128,90,43,131.03,356,-40.00,-24.00,-1006.00
2024-05-19 10:01:10.716126,-1,2,4,0,0,0,81,83,128,90,43,131.02,356,-57.00,-39.00,-1007.00
2024-05-19 10:01:10.878000,-1,2,4,0,0,0,81,83,128,90,43,131.01,356,-37.00,-24.00,-977.00
2024-05-19 10:01:10.920123,-1,2,5,0,0,0,81,83,128,90,43,131.06,356,-24.00,-46.00,-1024.00
2024-05-19 10:01:11.022033,-1,3,5,0,-1,0,81,83,128,90,43,131.11,356,-13.00,-58.00,-1011.00
2024-05-19 10:01:11.185113,-1,4,7,0,-1,0,81,83,128,90,43,131.11,357,-55.00,-55.00,-988.00
2024-05-19 10:01:11.225960,-1,5,13,0,-1,0,81,83,129,90,43,131.03,357,-36.00,-72.00,-991.00
2024-05-19 10:01:11.389900,-1,5,18,0,-1,0,80,83,129,90,43,130.94,357,-48.00,-39.00,-975.00
2024-05-19 10:01:11.430064,-1,4,24,0,0,0,80,83,129,90,42,131.00,357,-35.00,-60.00,-1003.00
2024-05-19 10:01:11.594815,-1,4,30,0,0,0,80,83,129,90,42,131.01,357,-55.00,-52.00,-980.00
2024-05-19 10:01:11.634301,-2,4,35,0,0,0,80,83,129,90,42,131.07,357,-7.00,-83.00,-1007.00
2024-05-19 10:01:11.799482,-3,4,41,0,0,0,80,83,130,90,42,131.03,357,-36.00,-56.00,-1003.00
2024-05-19 10:01:11.839205,-2,4,47,0,0,0,80,83,129,90,42,130.95,357,-80.00,-29.00,-992.00
2024-05-19 10:01:12.004285,-3,4,53,0,0,0,80,83,129,90,42,130.97,357,-51.00,-46.00,-1000.00
2024-05-19 10:01:12.042978,-3,3,59,0,0,0,80,83,129,90,42,130.91,357,-37.00,-64.00,-965.00
2024-05-19 10:01:12.209104,-4,3,65,0,0,0,80,83,129,90,42,130.90,358,-57.00,-40.00,-1014.00
2024-05-19 10:01:12.209154,-4,3,71,0,0,0,80,83,129,90,42,130.78,358,-86.00,-21.00,-1002.00
2024-05-19 10:01:12.349203,-5,2,77,0,0,0,80,82,128,90,42,130.91,358,-92.00,8.00,-966.00
2024-05-19 10:01:12.516308,-5,1,84,0,0,0,80,82,129,90,42,130.79,358,-81.00,-11.00,-1006.00
2024-05-19 10:01:12.555568,-5,0,90,0,0,0,80,82,128,90,42,130.77,358,-99.00,-2.00,-1006.00
2024-05-19 10:01:12.656591,-5,0,96,0,0,0,80,82,128,90,42,130.76,358,-111.00,10.00,-1021.00
2024-05-19 10:01:12.706228,-5,0,102,0,0,0,80,82,128,90,42,130.79,358,-101.00,32.00,-1029.00
2024-05-19 10:01:12.823537,-5,-1,108,0,0,0,80,82,128,90,42,130.93,358,-137.00,45.00,-940.00
2024-05-19 10:01:12.910303,-6,-2,113,0,0,0,80,82,129,90,42,130.84,358,-138.00,69.00,-993.00
2024-05-19 10:01:13.028524,-6,-3,119,0,0,0,80,82,129,90,42,130.88,358,-85.00,29.00,-1002.00
2024-05-19 10:01:13.114718,-5,-3,124,0,0,0,80,82,129,90,42,130.92,359,-91.00,60.00,-991.00
2024-05-19 10:01:13.235839,-5,-3,129,0,0,0,80,82,129,90,42,130.92,359,-125.00,47.00,-972.00
2024-05-19 10:01:13.319159,-6,-4,135,0,0,0,80,83,130,90,42,130.92,359,-107.00,63.00,-985.00
2024-05-19 10:01:13.437922,-5,-4,140,0,0,0,80,83,128,100,42,130.95,359,-82.00,80.00,-1006.00
2024-05-19 10:01:13.521901,-5,-3,146,0,0,0,80,83,128,90,42,131.06,359,-74.00,117.00,-935.00
2024-05-19 10:01:13.642854,-5,-5,151,0,0,0,80,83,128,90,42,130.98,359,-86.00,97.00,-995.00
2024-05-19 10:01:13.726876,-4,-6,157,0,0,0,80,83,128,90,42,130.95,359,-67.00,109.00,-1008.00
2024-05-19 10:01:13.847475,-3,-7,163,0,0,0,80,83,127,90,42,131.00,359,-59.00,141.00,-1006.00
2024-05-19 10:01:13.930121,-3,-7,169,0,0,0,80,83,127,90,42,131.10,359,-34.00,156.00,-990.00
2024-05-19 10:01:14.052319,-2,-7,175,0,0,0,80,83,127,90,42,131.09,359,-4.00,158.00,-994.00
2024-05-19 10:01:14.134043,0,-8,-178,0,0,0,80,83,127,90,42,131.15,360,31.00,106.00,-1041.00
2024-05-19 10:01:14.257094,1,-8,-173,0,0,0,80,83,126,90,42,131.07,360,-24.00,154.00,-990.00
2024-05-19 10:01:14.337916,2,-8,-167,0,0,0,80,82,126,90,42,131.05,360,-17.00,154.00,-980.00
2024-05-19 10:01:14.461881,1,-8,-161,0,0,0,80,82,127,90,42,131.01,360,23.00,156.00,-968.00
2024-05-19 10:01:14.541885,1,-8,-155,0,0,0,80,82,127,90,42,131.09,360,-22.00,146.00,-971.00
2024-05-19 10:01:14.643835,1,-8,-149,0,0,0,80,82,127,90,42,131.05,360,11.00,176.00,-1002.00
2024-05-19 10:01:14.769206,2,-8,-143,0,0,0,80,82,128,90,42,131.06,360,67.00,108.00,-995.00
2024-05-19 10:01:14.847721,3,-7,-137,0,0,0,80,82,128,90,42,131.14,360,111.00,137.00,-984.00
2024-05-19 10:01:14.973873,3,-7,-130,0,0,0,80,82,129,90,42,130.99,360,121.00,124.00,-987.00
2024-05-19 10:01:15.051756,5,-6,-124,0,0,0,80,82,130,90,42,130.79,360,128.00,109.00,-976.00
2024-05-19 10:01:15.178657,6,-5,-118,0,0,0,80,82,130,100,42,130.88,361,105.00,123.00,-951.00
2024-05-19 10:01:15.255705,7,-4,-111,0,0,0,80,82,132,100,42,130.84,361,152.00,63.00,-947.00
2024-05-19 10:01:15.383728,8,-3,-105,0,0,0,80,82,132,100,42,130.88,361,114.00,95.00,-994.00
2024-05-19 10:01:15.461924,8,-2,-99,0,0,0,80,82,132,100,42,130.80,361,84.00,83.00,-993.00
2024-05-19 10:01:15.561749,8,-2,-92,0,0,0,80,82,133,100,42,130.79,361,158.00,50.00,-927.00
2024-05-19 10:01:15.663749,9,-1,-86,0,0,0,80,82,132,100,42,130.58,361,170.00,38.00,-1016.00
2024-05-19 10:01:15.793053,8,-1,-80,0,0,0,80,82,131,100,42,130.59,361,141.00,-34.00,-967.00
2024-05-19 10:01:15.867776,8,0,-74,0,0,0,80,82,130,100,42,130.59,361,143.00,-48.00,-1008.00
2024-05-19 10:01:15.997897,8,1,-68,0,0,0,80,82,130,100,42,130.53,361,148.00,-27.00,-1015.00
2024-05-19 10:01:16.071729,8,3,-62,0,0,0,80,82,129,100,42,130.72,361,184.00,-72.00,-969.00
2024-05-19 10:01:16.202638,7,3,-57,0,0,0,80,82,130,90,42,130.83,362,112.00,-45.00,-994.00
2024-05-19 10:01:16.224782,7,4,-51,0,0,0,80,82,129,90,42,130.82,362,141.00,-57.00,-975.00
2024-05-19 10:01:16.407444,7,5,-45,0,0,0,80,82,128,90,42,130.83,362,74.00,-29.00,-946.00
2024-05-19 10:01:16.428903,6,5,-40,0,0,1,80,82,126,90,42,130.83,362,144.00,-56.00,-1057.00
2024-05-19 10:01:16.612298,4,4,-34,0,1,0,80,82,125,90,42,130.81,362,123.00,-104.00,-1035.00
2024-05-19 10:01:16.632972,4,4,-28,0,0,0,80,82,125,90,42,130.77,362,131.00,-101.00,-1033.00
2024-05-19 10:01:16.817553,5,5,-22,0,0,0,80,82,124,90,42,130.73,362,100.00,-84.00,-1011.00
2024-05-19 10:01:16.836769,5,5,-16,0,0,0,80,82,125,90,42,130.86,362,93.00,-75.00,-993.00
2024-05-19 10:01:17.021854,5,6,-11,0,0,0,80,82,125,90,42,130.84,362,100.00,-75.00,-1032.00
2024-05-19 10:01:17.040759,5,5,-7,0,1,0,80,82,125,90,42,130.80,362,85.00,-61.00,-1008.00
2024-05-19 10:01:17.226638,5,4,-5,0,1,0,80,82,125,90,42,130.81,363,86.00,-91.00,-1022.00
2024-05-19 10:01:17.244811,5,4,-2,0,1,0,80,82,125,90,42,130.83,363,81.00,-101.00,-987.00
2024-05-19 10:01:17.533937,5,4,-1,0,1,0,79,82,125,90,42,130.87,363,98.00,-106.00,-1014.00
2024-05-19 10:01:17.533990,5,4,0,0,0,0,79,82,126,90,42,130.91,363,12.00,-96.00,-1021.00
2024-05-19 10:01:17.550732,4,5,0,0,0,0,79,82,127,90,42,130.96,363,34.00,-91.00,-998.00
2024-05-19 10:01:17.740156,3,5,1,0,0,0,79,82,127,90,42,130.96,363,35.00,-89.00,-1003.00
2024-05-19 10:01:17.754647,3,6,2,0,0,0,79,82,129,90,42,130.89,363,60.00,-144.00,-973.00
2024-05-19 10:01:17.943591,1,6,2,0,0,0,79,82,129,90,42,130.92,363,3.00,-84.00,-993.00
2024-05-19 10:01:17.958917,1,7,3,0,0,0,79,82,129,90,42,130.86,363,22.00,-124.00,-1001.00
2024-05-19 10:01:18.148761,2,6,3,0,0,0,79,82,129,90,42,130.83,363,47.00,-113.00,-951.00
2024-05-19 10:01:18.162738,1,5,3,-1,0,0,79,82,129,90,42,130.76,364,-2.00,-103.00,-970.00
2024-05-19 10:01:18.353713,0,5,3,-1,0,0,79,82,129,90,42,130.86,364,-55.00,-64.00,-956.00
2024-05-19 10:01:18.366706,-1,4,3,-1,0,0,80,82,129,90,42,130.84,364,-24.00,-70.00,-1004.00
2024-05-19 10:01:18.557976,0,4,3,0,0,0,80,82,129,90,41,130.87,364,-15.00,-68.00,-986.00
2024-05-19 10:01:18.571921,0,3,3,0,0,0,80,82,130,90,41,130.80,364,-13.00,-71.00,-1014.00
2024-05-19 10:01:18.678404,0,4,3,0,0,0,80,82,130,90,41,130.81,364,11.00,-76.00,-1013.00
2024-05-19 10:01:18.774682,0,4,3,0,0,0,80,82,130,90,41,130.69,364,-11.00,-61.00,-1014.00
2024-05-19 10:01:18.967484,0,3,3,0,0,0,80,82,131,90,41,130.87,364,-17.00,-66.00,-976.00
2024-05-19 10:01:18.978785,-1,3,3,0,0,0,80,82,130,90,41,130.76,364,-15.00,-52.00,-990.00
2024-05-19 10:01:19.172284,-1,3,3,0,0,0,80,82,131,100,41,130.85,365,-9.00,-68.00,-1016.00
2024-05-19 10:01:19.182810,0,3,3,0,0,0,80,82,132,100,41,130.80,365,-12.00,-38.00,-1003.00
2024-05-19 10:01:19.377846,-1,2,3,0,0,0,80,82,132,100,41,130.71,365,-2.00,-45.00,-983.00
2024-05-19 10:01:19.387965,0,2,3,0,0,0,80,83,132,100,41,130.77,365,17.00,-77.00,-1019.00
2024-05-19 10:01:19.582535,0,2,3,0,0,0,80,83,133,100,41,130.80,365,2.00,-41.00,-983.00
2024-05-19 10:01:19.591482,0,2,3,0,0,0,80,83,133,100,41,130.86,365,-28.00,-52.00,-1015.00
2024-05-19 10:01:19.692691,0,2,3,0,0,0,80,83,134,100,41,130.90,365,-43.00,-42.00,-1023.00
2024-05-19 10:01:19.889831,-1,2,3,0,0,0,80,83,134,100,41,130.82,365,-7.00,-56.00,-954.00
2024-05-19 10:01:19.897087,-1,2,3,0,0,0,80,83,134,100,41,130.90,365,-46.00,-51.00,-981.00
2024-05-19 10:01:19.999249,-2,2,2,0,0,0,80,83,134,100,41,131.06,365,19.00,-75.00,-986.00
2024-05-19 10:01:20.196358,-2,2,1,0,0,0,80,83,134,100,41,130.90,366,-46.00,-61.00,-994.00
2024-05-19 10:01:20.196423,-1,3,-4,0,0,0,80,83,134,100,41,130.89,366,21.00,-73.00,-978.00
2024-05-19 10:01:20.253559,0,4,-10,0,0,0,80,83,133,100,41,130.99,366,-1.00,-64.00,-987.00
2024-05-19 10:01:20.401045,1,3,-16,0,0,0,81,83,134,100,41,131.01,366,38.00,-76.00,-1022.00
2024-05-19 10:01:20.457546,2,3,-22,0,0,0,81,83,134,100,41,130.97,366,-3.00,-49.00,-1014.00
2024-05-19 10:01:20.605834,2,3,-28,0,0,0,81,83,133,100,41,130.84,366,26.00,-30.00,-1015.00
2024-05-19 10:01:20.662792,2,2,-34,0,0,0,81,83,134,100,41,130.85,366,50.00,-24.00,-1017.00
2024-05-19 10:01:20.763588,3,0,-39,1,0,0,81,83,134,100,41,130.84,366,87.00,-48.00,-1019.00
2024-05-19 10:01:20.913005,3,0,-45,1,0,0,81,83,134,100,41,130.99,366,63.00,-32.00,-978.00
2024-05-19 10:01:20.967527,4,0,-51,0,0,0,81,83,135,100,41,130.80,366,65.00,-11.00,-1008.00
2024-05-19 10:01:21.117788,4,0,-57,0,0,0,81,83,135,100,41,130.89,367,72.00,-12.00,-989.00
2024-05-19 10:01:21.171568,5,0,-63,0,0,0,81,83,135,100,41,130.88,367,80.00,-15.00,-983.00
2024-05-19 10:01:21.322532,5,0,-69,0,0,0,81,83,136,100,41,130.84,367,82.00,-5.00,-1047.00
2024-05-19 10:01:21.375530,4,0,-75,0,0,0,80,83,136,100,41,130.91,367,63.00,0.00,-983.00
2024-05-19 10:01:21.527397,5,-1,-82,0,0,0,80,83,136,100,41,130.84,367,88.00,34.00,-946.00
2024-05-19 10:01:21.579570,4,-1,-88,0,0,0,80,83,136,100,41,131.05,367,14.00,78.00,-976.00
2024-05-19 10:01:21.682935,3,-2,-94,0,0,0,80,83,134,100,41,130.87,367,51.00,59.00,-985.00
2024-05-19 10:01:21.834627,3,-4,-99,0,0,0,80,83,133,100,41,130.99,367,87.00,32.00,-992.00
2024-05-19 10:01:21.885341,2,-4,-105,0,0,0,80,83,133,100,41,130.98,367,38.00,61.00,-993.00
2024-05-19 10:01:22.039403,2,-4,-111,0,0,0,80,83,132,100,41,131.01,367,30.00,61.00,-1010.00
2024-05-19 10:01:22.089761,2,-4,-117,0,0,0,80,83,131,100,41,131.00,368,34.00,72.00,-1022.00
2024-05-19 10:01:22.244211,1,-4,-123,0,0,0,80,83,130,100,41,131.04,368,52.00,66.00,-988.00
2024-05-19 10:01:22.295464,1,-4,-129,0,0,0,80,83,130,100,41,130.78,368,24.00,64.00,-1012.00
2024-05-19 10:01:22.395924,0,-4,-135,0,0,0,80,82,130,100,41,130.83,368,24.00,46.00,-996.00
2024-05-19 10:01:22.497686,0,-3,-141,0,0,0,80,82,129,100,40,130.87,368,8.00,83.00,-1030.00
2024-05-19 10:01:22.599967,0,-3,-146,0,0,0,80,82,128,90,40,130.89,368,3.00,28.00,-1006.00
2024-05-19 10:01:22.704162,-1,-3,-151,0,0,0,80,82,129,90,40,131.07,368,21.00,10.00,-998.00
2024-05-19 10:01:22.805325,0,-2,-156,-1,0,0,80,82,128,90,40,130.96,368,4.00,39.00,-1043.00
2024-05-19 10:01:22.907096,1,0,-160,-1,0,0,80,82,127,90,40,130.90,368,26.00,49.00,-1039.00
2024-05-19 10:01:23.007444,2,0,-166,-1,0,0,80,82,128,90,40,130.89,368,70.00,19.00,-1005.00
2024-05-19 10:01:23.165812,2,0,-172,-1,0,0,80,82,128,90,40,130.97,369,26.00,42.00,-973.00
2024-05-19 10:01:23.211512,2,-1,-178,-1,0,0,80,82,127,90,40,130.89,369,26.00,33.00,-1000.00
2024-05-19 10:01:23.370590,2,-2,174,-1,0,0,80,82,128,90,40,130.96,369,1.00,37.00,-1002.00
2024-05-19 10:01:23.415404,1,-2,168,-1,0,0,80,82,127,90,40,130.90,369,-9.00,48.00,-986.00
2024-05-19 10:01:23.575397,1,-2,161,0,0,0,80,82,127,90,40,130.98,369,0.00,52.00,-1001.00
2024-05-19 10:01:23.619433,0,-2,155,0,0,0,80,82,127,90,40,130.87,369,-14.00,40.00,-1016.00
2024-05-19 10:01:23.721390,0,-2,148,0,0,0,80,82,128,90,40,130.98,369,1.00,49.00,-1019.00
2024-05-19 10:01:23.882549,0,-2,142,0,0,0,80,82,128,90,40,131.04,369,-37.00,52.00,-1007.00
2024-05-19 10:01:23.925421,-1,-2,136,0,0,0,80,82,128,90,40,131.08,369,-3.00,26.00,-1016.00
2024-05-19 10:01:23.976473,-1,-1,129,0,0,0,80,82,129,90,40,130.97,369,-31.00,25.00,-991.00
2024-05-19 10:01:24.087386,-1,-1,123,0,0,0,80,82,130,90,40,130.89,370,-1.00,27.00,-1022.00
2024-05-19 10:01:24.180396,-2,-1,117,0,0,0,80,82,129,90,40,130.91,370,30.00,34.00,-983.00
2024-05-19 10:01:24.292124,-2,0,111,0,0,0,80,82,130,90,40,130.91,370,-41.00,21.00,-995.00
2024-05-19 10:01:24.435376,-2,0,105,0,0,0,80,82,130,100,40,130.83,370,-26.00,14.00,-1026.00
2024-05-19 10:01:24.599378,-2,-1,99,0,0,0,80,82,131,100,40,130.91,370,-50.00,37.00,-1000.00
2024-05-19 10:01:24.599435,-2,-1,93,0,0,0,80,82,131,100,40,130.88,370,-23.00,23.00,-959.00
2024-05-19 10:01:24.690409,-3,0,86,0,0,0,80,82,130,100,40,130.92,370,-52.00,15.00,-1004.00
2024-05-19 10:01:24.792334,-2,0,80,0,0,0,80,82,131,100,40,130.93,370,-29.00,21.00,-983.00
2024-05-19 10:01:24.906595,-3,0,74,0,0,0,80,82,131,100,40,130.85,370,-21.00,-23.00,-1013.00
2024-05-19 10:01:24.996360,-3,0,67,0,0,0,80,82,131,100,40,130.91,370,-41.00,13.00,-990.00
2024-05-19 10:01:25.111367,-3,0,61,0,0,0,80,82,131,90,40,130.97,371,-55.00,0.00,-978.00
2024-05-19 10:01:25.200370,-2,2,55,0,0,0,80,82,130,90,40,130.96,371,-39.00,-19.00,-1008.00
2024-05-19 10:01:25.316194,-1,3,48,0,0,0,80,82,130,90,40,131.01,371,-46.00,-30.00,-979.00
2024-05-19 10:01:25.404295,0,3,42,0,0,0,80,82,130,90,40,131.06,371,-2.00,-49.00,-1019.00
2024-05-19 10:01:25.521436,0,2,36,0,0,0,80,82,130,90,40,131.02,371,-8.00,-27.00,-993.00
2024-05-19 10:01:25.608284,0,2,29,0,0,0,80,82,130,90,40,131.04,371,14.00,-49.00,-1061.00
2024-05-19 10:01:25.710426,0,2,23,0,0,0,80,82,130,90,40,131.03,371,-6.00,-30.00,-999.00
2024-05-19 10:01:25.828162,0,1,18,0,0,0,80,82,130,90,40,131.05,371,-15.00,-31.00,-999.00
2024-05-19 10:01:25.914440,0,1,14,0,0,0,80,82,130,90,40,131.04,371,-64.00,-46.00,-1018.00
2024-05-19 10:01:26.032978,0,1,11,0,0,0,80,82,130,90,40,131.07,371,-23.00,-43.00,-998.00
2024-05-19 10:01:26.119268,0,2,9,0,0,0,80,82,130,90,40,131.00,372,-17.00,-42.00,-1015.00
2024-05-19 10:01:26.237785,0,2,7,0,0,0,80,82,130,90,40,131.10,372,7.00,-43.00,-973.00
2024-05-19 10:01:26.327391,0,2,5,0,0,0,80,82,129,100,40,131.20,372,-9.00,-33.00,-956.00
2024-05-19 10:01:26.424232,0,3,3,0,0,0,80,82,129,90,40,131.09,372,44.00,-49.00,-1002.00
2024-05-19 10:01:26.545083,0,2,2,0,0,0,80,82,130,90,40,131.08,372,19.00,-36.00,-996.00
2024-05-19 10:01:26.628379,0,1,2,0,0,0,80,82,129,90,40,131.08,372,65.00,-41.00,-986.00
2024-05-19 10:01:26.730661,1,1,2,0,0,0,80,82,129,90,40,131.09,372,31.00,-29.00,-1015.00
2024-05-19 10:01:26.852253,2,1,2,0,0,0,80,82,130,90,40,131.01,372,23.00,0.00,-1030.00
2024-05-19 10:01:26.934432,1,0,2,0,0,0,80,82,130,90,40,130.99,372,33.00,-6.00,-1016.00
2024-05-19 10:01:27.057002,1,0,2,0,0,0,80,82,130,90,40,130.96,372,54.00,-33.00,-1005.00
2024-05-19 10:01:27.138474,1,0,2,0,0,0,80,82,131,90,40,131.08,373,52.00,-36.00,-996.00
2024-05-19 10:01:27.262033,1,1,2,0,0,0,80,82,131,90,40,131.07,373,-1.00,-12.00,-1000.00
2024-05-19 10:01:27.342276,1,1,2,0,0,0,80,82,132,100,40,131.10,373,-15.00,4.00,-967.00
2024-05-19 10:01:27.466677,1,0,2,0,0,0,80,82,131,100,40,131.00,373,25.00,-54.00,-986.00
2024-05-19 10:01:27.546430,0,0,2,0,0,0,80,82,132,100,40,131.09,373,18.00,-50.00,-966.00
2024-05-19 10:01:27.673455,0,2,2,0,0,0,80,82,131,100,40,131.19,373,-16.00,-26.00,-1017.00
2024-05-19 10:01:27.750285,0,3,1,0,0,0,80,82,131,100,40,130.99,373,77.00,-44.00,-1001.00
2024-05-19 10:01:27.876274,0,3,1,0,0,0,80,82,131,100,40,130.97,373,61.00,-43.00,-1013.00
2024-05-19 10:01:27.954524,0,2,2,0,0,0,80,82,131,100,40,131.04,373,25.00,-48.00,-1023.00
2024-05-19 10:01:28.005182,1,2,2,0,0,0,80,82,131,100,40,131.05,373,-28.00,-36.00,-982.00
2024-05-19 10:01:28.183693,0,2,2,0,0,0,80,82,130,100,40,131.04,374,14.00,-58.00,-1027.00
2024-05-19 10:01:28.209317,0,3,2,0,0,0,80,82,130,100,40,130.98,374,-7.00,-24.00,-996.00
2024-05-19 10:01:28.329974,0,3,2,0,0,0,80,82,129,90,40,131.03,374,-11.00,-41.00,-1007.00
2024-05-19 10:01:28.413115,0,2,2,0,0,0,80,82,128,90,39,130.97,374,-58.00,-33.00,-1007.00
2024-05-19 10:01:28.593028,0,2,2,0,0,0,80,82,128,90,39,130.91,374,-32.00,-34.00,-979.00
2024-05-19 10:01:28.617311,-1,2,2,0,0,0,80,82,128,90,39,131.01,374,-18.00,-39.00,-966.00
2024-05-19 10:01:28.719445,-1,2,2,0,0,0,80,82,128,90,39,131.07,374,0.00,-41.00,-1009.00
2024-05-19 10:01:28.900261,-1,2,2,0,0,0,80,82,128,90,39,131.04,374,-40.00,-20.00,-968.00
2024-05-19 10:01:28.923198,-1,2,2,0,0,0,80,82,127,90,39,131.14,374,-81.00,-8.00,-1034.00
2024-05-19 10:01:29.105011,-1,1,2,0,0,0,80,82,128,90,39,130.95,374,-11.00,-48.00,-1015.00
2024-05-19 10:01:29.127258,-2,1,2,0,0,0,80,82,128,90,39,131.01,375,-20.00,-41.00,-995.00
2024-05-19 10:01:29.309877,-2,2,2,0,0,0,80,82,128,90,39,131.01,375,-16.00,-43.00,-967.00
2024-05-19 10:01:29.331425,-1,2,2,0,0,0,80,82,129,90,39,131.02,375,2.00,-81.00,-1023.00
2024-05-19 10:01:29.514568,-2,2,2,0,0,0,80,82,129,90,39,131.06,375,-38.00,-75.00,-982.00
2024-05-19 10:01:29.535233,-2,3,2,0,0,0,80,82,128,90,39,131.06,375,-31.00,-64.00,-973.00
2024-05-19 10:01:29.719794,-2,3,2,0,0,0,80,82,128,90,39,131.10,375,-24.00,-66.00,-975.00
2024-05-19 10:01:29.739174,-2,3,2,0,0,0,80,82,128,90,39,131.11,375,-5.00,-86.00,-977.00
2024-05-19 10:01:29.924197,-2,4,2,0,0,0,80,82,128,90,39,131.06,375,-19.00,-69.00,-1002.00
2024-05-19 10:01:29.943143,-1,4,2,0,0,0,80,82,127,90,39,131.09,375,-29.00,-70.00,-987.00
2024-05-19 10:01:30.129078,-1,4,2,0,0,0,80,82,127,90,39,131.07,375,-11.00,-80.00,-1013.00
2024-05-19 10:01:30.147149,-1,4,2,0,0,0,80,82,127,90,39,131.02,376,4.00,-89.00,-1005.00
2024-05-19 10:01:30.333817,-1,5,2,0,0,0,80,82,126,90,39,131.06,376,-64.00,-51.00,-1018.00
2024-05-19 10:01:30.351132,-1,5,2,0,0,0,80,82,125,90,39,130.98,376,-15.00,-55.00,-969.00
2024-05-19 10:01:30.538712,-1,3,2,0,0,0,80,82,126,90,39,130.96,376,-70.00,-58.00,-1006.00
2024-05-19 10:01:30.555107,-2,3,2,0,0,0,80,82,125,90,39,130.97,376,-55.00,-63.00,-1037.00
2024-05-19 10:01:30.743399,-2,3,2,0,0,0,80,82,126,90,39,130.85,376,-54.00,-53.00,-1049.00
2024-05-19 10:01:30.759259,-3,3,2,0,0,0,80,82,126,90,39,130.92,376,-28.00,-74.00,-1044.00
2024-05-19 10:01:30.948126,-3,3,2,0,0,0,80,82,126,90,39,130.84,376,-35.00,-62.00,-958.00
2024-05-19 10:01:30.963129,-3,3,2,0,0,0,80,82,127,90,39,130.98,376,-23.00,-72.00,-1036.00
2024-05-19 10:01:31.153606,-2,3,2,0,0,0,80,82,128,90,39,130.87,376,-21.00,-59.00,-1001.00
2024-05-19 10:01:31.170604,-2,3,2,0,0,0,80,82,128,90,39,131.02,377,-49.00,-32.00,-989.00
2024-05-19 10:01:31.270762,-2,2,2,0,0,0,80,82,128,90,39,131.01,377,-32.00,-45.00,-975.00
2024-05-19 10:01:31.371099,-2,1,2,0,0,0,80,82,129,90,39,131.01,377,-11.00,-56.00,-1022.00
2024-05-19 10:01:31.562667,-1,1,2,0,0,0,80,82,130,90,39,131.09,377,-34.00,-61.00,-991.00
2024-05-19 10:01:31.578498,-1,1,2,0,0,0,80,82,130,90,39,131.08,377,-19.00,-74.00,-993.00
2024-05-19 10:01:31.677231,-1,2,2,0,0,0,80,82,130,90,39,131.13,377,4.00,-81.00,-994.00
2024-05-19 10:01:31.869831,-1,3,1,0,0,0,80,82,130,100,39,131.05,377,0.00,-95.00,-952.00
2024-05-19 10:01:31.870042,0,4,2,1,0,0,80,82,130,100,39,131.03,377,6.00,-76.00,-1028.00
2024-05-19 10:01:31.932078,0,5,2,0,0,0,80,82,130,100,39,131.06,377,-26.00,-81.00,-980.00
2024-05-19 10:01:32.074744,0,5,2,0,0,0,80,82,130,100,39,131.13,377,-43.00,-76.00,-946.00
2024-05-19 10:01:32.136804,-1,4,2,0,0,0,80,82,130,100,39,131.04,378,-56.00,-80.00,-989.00
2024-05-19 10:01:32.239091,-1,5,2,0,0,0,80,82,130,100,39,131.06,378,-26.00,-69.00,-1005.00
2024-05-19 10:01:32.381775,0,5,2,0,0,0,80,82,129,100,39,131.13,378,-19.00,-65.00,-961.00
2024-05-19 10:01:32.443692,0,5,2,0,0,0,80,82,128,90,38,131.16,378,-31.00,-80.00,-965.00
2024-05-19 10:01:32.544240,0,5,2,0,0,0,80,82,128,90,38,131.11,378,-5.00,-100.00,-992.00
2024-05-19 10:01:32.646610,0,5,2,0,0,0,80,82,128,90,38,131.00,378,-6.00,-91.00,-990.00
2024-05-19 10:01:32.748084,0,6,2,0,0,0,80,82,128,90,38,131.07,378,-9.00,-71.00,-995.00
2024-05-19 10:01:32.893827,0,5,2,0,0,0,80,82,127,90,38,130.96,378,46.00,-74.00,-1034.00
2024-05-19 10:01:32.951958,0,4,2,1,0,0,80,82,128,90,38,131.06,378,40.00,-89.00,-982.00
2024-05-19 10:01:33.098738,1,3,2,1,0,0,80,82,127,90,38,130.95,378,31.00,-70.00,-1017.00
2024-05-19 10:01:33.156027,2,4,2,1,0,0,80,82,127,90,38,131.08,379,23.00,-70.00,-954.00
2024-05-19 10:01:33.303821,2,4,2,0,0,0,80,82,127,90,38,131.03,379,12.00,-78.00,-1013.00
2024-05-19 10:01:33.359927,2,4,2,0,0,0,80,82,128,90,38,130.97,379,57.00,-79.00,-1012.00
2024-05-19 10:01:33.513623,2,3,2,1,0,0,80,82,127,90,38,131.10,379,61.00,-65.00,-994.00
2024-05-19 10:01:33.564015,3,3,2,0,0,0,80,82,128,90,38,131.01,379,21.00,-74.00,-998.00
2024-05-19 10:01:33.815433,2,3,2,0,0,0,80,82,127,90,38,131.05,379,4.00,-79.00,-992.00
2024-05-19 10:01:33.816949,2,3,2,0,0,0,80,82,128,90,38,131.09,379,25.00,-66.00,-989.00
2024-05-19 10:01:33.870317,2,3,2,0,0,0,80,82,128,90,38,131.09,379,37.00,-54.00,-1016.00
2024-05-19 10:01:34.020170,2,3,2,0,0,0,80,82,128,90,38,131.08,379,5.00,-50.00,-979.00
2024-05-19 10:01:34.074046,1,3,2,0,0,0,80,82,127,90,38,131.02,380,-23.00,-32.00,-976.00
2024-05-19 10:01:34.225061,1,3,2,0,0,0,80,82,127,90,38,131.02,380,-15.00,-62.00,-1037.00
2024-05-19 10:01:34.278423,0,2,2,0,0,0,80,82,127,90,38,130.85,380,13.00,-47.00,-1025.00
2024-05-19 10:01:34.380161,0,2,2,0,0,0,80,82,127,90,38,130.96,380,15.00,-44.00,-1012.00
2024-05-19 10:01:34.534745,0,2,2,0,0,0,80,82,127,90,38,130.94,380,21.00,-56.00,-1054.00
2024-05-19 10:01:34.583916,0,3,2,0,0,0,80,82,127,90,38,131.02,380,-32.00,-31.00,-967.00
2024-05-19 10:01:34.737608,0,3,2,0,0,0,80,82,128,90,38,130.93,380,8.00,-72.00,-1017.00
2024-05-19 10:01:34.787802,0,2,2,0,0,0,80,82,129,90,38,131.02,380,20.00,-72.00,-987.00
2024-05-19 10:01:34.941720,-1,3,2,0,0,0,80,82,129,90,38,131.06,380,18.00,-62.00,-960.00
2024-05-19 10:01:34.992304,-1,2,2,0,0,0,80,82,129,90,38,130.96,380,-16.00,-60.00,-965.00
2024-05-19 10:01:35.146786,-1,3,2,0,0,0,80,82,130,90,38,131.09,381,6.00,-73.00,-1008.00
2024-05-19 10:01:35.196973,-1,3,2,0,0,0,80,82,130,90,38,131.03,381,10.00,-53.00,-1017.00
2024-05-19 10:01:35.351450,0,2,2,0,0,0,80,82,130,100,38,131.05,381,8.00,-65.00,-981.00
2024-05-19 10:01:35.401792,0,3,2,0,0,0,80,82,130,100,38,130.99,381,-8.00,-71.00,-969.00
2024-05-19 10:01:35.502557,0,3,2,0,0,0,79,82,130,100,38,131.00,381,-10.00,-68.00,-1001.00
2024-05-19 10:01:35.604774,0,3,2,0,0,0,79,82,130,100,38,130.98,381,-5.00,-57.00,-992.00
2024-05-19 10:01:35.709652,0,4,2,0,0,0,79,82,130,90,38,131.05,381,-25.00,-49.00,-1013.00
2024-05-19 10:01:35.810031,-1,4,2,0,0,0,79,82,130,90,38,131.00,381,-5.00,-58.00,-999.00
2024-05-19 10:01:35.911993,-1,3,2,0,0,0,79,82,130,90,38,131.04,381,-15.00,-61.00,-1039.00
2024-05-19 10:01:36.011924,-1,3,2,0,0,0,79,82,130,90,38,130.96,381,40.00,-62.00,-989.00
2024-05-19 10:01:36.170506,-1,3,2,0,0,0,79,82,130,90,38,130.99,382,-10.00,-74.00,-966.00
2024-05-19 10:01:36.171910,0,3,2,0,0,0,79,82,130,90,38,131.04,382,-1.00,-57.00,-970.00
2024-05-19 10:01:36.267200,0,3,2,0,0,0,79,82,130,90,38,131.08,382,-31.00,-32.00,-968.00
2024-05-19 10:01:36.375429,0,3,2,0,0,0,79,82,131,100,38,131.17,382,-26.00,-39.00,-1001.00
2024-05-19 10:01:36.470823,0,3,2,0,0,0,80,82,131,100,38,131.10,382,-22.00,-36.00,-961.00
2024-05-19 10:01:36.580025,0,2,2,0,0,0,80,82,131,100,38,131.12,382,-13.00,-50.00,-1011.00
2024-05-19 10:01:36.675155,0,2,2,0,0,0,80,82,131,100,38,131.08,382,-5.00,-41.00,-993.00
2024-05-19 10:01:36.776822,0,2,2,0,0,0,80,82,132,100,38,131.07,382,16.00,-74.00,-979.00
2024-05-19 10:01:36.878880,0,2,2,0,0,0,80,82,132,100,38,131.12,382,-5.00,-51.00,-1005.00
2024-05-19 10:01:36.989789,0,3,2,0,0,0,80,82,133,100,38,131.12,382,37.00,-59.00,-1001.00
2024-05-19 10:01:37.082871,1,3,2,0,0,0,80,82,133,100,38,131.11,383,0.00,-52.00,-944.00
2024-05-19 10:01:37.194568,1,3,2,0,0,0,80,82,133,100,38,131.13,383,32.00,-105.00,-1006.00
2024-05-19 10:01:37.286843,1,3,2,0,0,0,80,82,133,100,38,131.17,383,13.00,-95.00,-991.00
2024-05-19 10:01:37.389118,1,4,2,0,0,0,80,82,132,100,38,131.20,383,37.00,-80.00,-990.00
2024-05-19 10:01:37.501755,1,4,2,0,0,0,80,83,133,100,37,131.19,383,24.00,-61.00,-986.00
2024-05-19 10:01:37.595826,1,4,2,0,0,0,80,83,133,100,37,131.20,383,12.00,-53.00,-960.00
2024-05-19 10:01:37.697714,1,4,2,0,0,0,80,83,132,100,37,131.15,383,69.00,-86.00,-953.00
2024-05-19 10:01:37.798719,2,4,2,0,0,0,80,83,131,100,37,131.19,383,38.00,-90.00,-1005.00
2024-05-19 10:01:37.899769,3,4,2,0,0,0,80,83,131,100,37,131.08,383,35.00,-67.00,-999.00
2024-05-19 10:01:38.001990,3,4,2,0,0,0,80,83,131,100,37,131.19,383,40.00,-66.00,-997.00
2024-05-19 10:01:38.116805,3,4,2,0,0,0,80,83,131,100,37,131.18,384,33.00,-83.00,-1014.00
2024-05-19 10:01:38.207532,3,4,2,0,0,0,80,83,130,90,37,131.23,384,17.00,-60.00,-1003.00
2024-05-19 10:01:38.320967,3,4,2,0,0,0,80,83,131,90,37,131.04,384,58.00,-57.00,-1012.00
2024-05-19 10:01:38.409889,3,4,2,0,0,0,80,83,130,90,37,131.16,384,7.00,-51.00,-1053.00
2024-05-19 10:01:38.525805,2,4,2,0,0,0,80,83,130,90,37,131.07,384,48.00,-53.00,-1010.00
2024-05-19 10:01:38.613807,2,4,2,0,0,0,80,83,131,90,37,131.13,384,28.00,-64.00,-1004.00
2024-05-19 10:01:38.730686,2,4,2,0,0,0,80,83,131,90,37,131.10,384,33.00,-52.00,-1026.00
2024-05-19 10:01:38.817786,3,3,2,0,0,0,80,83,131,90,37,131.17,384,36.00,-84.00,-981.00
2024-05-19 10:01:38.935718,3,3,2,0,0,0,80,83,132,100,37,131.18,384,35.00,-56.00,-999.00
2024-05-19 10:01:39.021665,3,4,2,0,0,0,80,83,132,100,37,131.17,384,48.00,-54.00,-994.00
2024-05-19 10:01:39.140090,3,3,2,0,0,0,80,83,132,100,37,131.16,385,20.00,-55.00,-1037.00
2024-05-19 10:01:39.225833,3,3,2,0,0,0,80,83,132,100,37,131.09,385,33.00,-84.00,-989.00
2024-05-19 10:01:39.345001,2,3,2,0,0,0,80,83,133,100,37,131.12,385,24.00,-74.00,-993.00
2024-05-19 10:01:39.429744,2,4,2,0,0,0,80,83,133,100,37,131.10,385,33.00,-61.00,-1004.00
2024-05-19 10:01:39.550615,2,4,2,0,0,0,80,82,133,100,37,131.07,385,28.00,-62.00,-996.00
2024-05-19 10:01:39.633756,1,4,2,0,0,0,80,82,132,100,37,131.10,385,54.00,-56.00,-1016.00
2024-05-19 10:01:39.735696,1,4,2,0,0,0,80,82,133,100,37,131.16,385,21.00,-74.00,-1006.00
2024-05-19 10:01:39.857027,1,4,2,0,0,0,80,82,132,100,37,131.08,385,21.00,-54.00,-952.00
2024-05-19 10:01:39.940502,1,4,2,0,0,0,80,82,132,100,37,131.08,385,37.00,-64.00,-1006.00
2024-05-19 10:01:39.990762,2,3,2,0,0,0,80,82,132,100,37,131.05,385,50.00,-54.00,-1015.00
2024-05-19 10:01:40.164144,2,3,2,0,0,0,80,82,132,100,37,131.17,386,51.00,-62.00,-1008.00
2024-05-19 10:01:40.194706,2,3,2,0,0,0,80,82,132,100,37,131.13,386,65.00,-83.00,-1016.00
2024-05-19 10:01:40.369111,2,3,2,0,0,0,80,82,131,100,37,131.06,386,23.00,-46.00,-981.00
2024-05-19 10:01:40.398639,2,3,2,0,0,0,80,82,132,100,37,131.11,386,22.00,-72.00,-998.00
2024-05-19 10:01:40.573639,1,3,2,0,0,0,80,83,132,100,37,131.03,386,47.00,-58.00,-998.00
2024-05-19 10:01:40.602594,1,3,2,0,0,0,80,83,132,100,37,130.98,386,16.00,-66.00,-1001.00
2024-05-19 10:01:40.778997,1,3,2,0,0,0,80,83,132,100,37,131.01,386,10.00,-65.00,-993.00
2024-05-19 10:01:40.807586,1,3,2,0,0,0,80,83,132,100,37,130.98,386,40.00,-77.00,-1030.00
2024-05-19 10:01:40.983246,1,3,2,0,0,0,80,83,132,100,37,131.06,386,32.00,-96.00,-949.00
2024-05-19 10:01:41.011463,1,3,2,0,0,0,80,83,132,100,37,130.92,386,0.00,-54.00,-940.00
2024-05-19 10:01:41.188056,1,3,2,0,0,0,80,83,131,100,37,130.92,387,25.00,-55.00,-934.00
