TS,pitch,roll,yaw,vgx,vgy,vgz,templ,temph,tof,h,bat,baro,time,agx,agy,agz
2024-06-07 00:57:12.560373,0,0,19,0,0,0,67,70,10,0,65,118.90,0,10.00,11.00,-1000.00
2024-06-07 00:57:12.596766,0,0,19,0,0,0,67,70,10,0,65,118.81,0,12.00,11.00,-999.00
2024-06-07 00:57:12.690089,0,0,19,0,0,0,67,70,10,0,65,118.89,0,10.00,11.00,-997.00
2024-06-07 00:57:12.870012,0,0,19,0,0,0,67,70,10,0,65,118.89,0,12.00,10.00,-998.00
2024-06-07 00:57:12.893858,0,0,19,0,0,0,67,70,10,0,65,118.90,0,12.00,11.00,-1003.00
2024-06-07 00:57:13.075089,0,0,19,0,0,0,67,70,10,0,65,118.85,0,12.00,11.00,-1001.00
2024-06-07 00:57:13.097897,0,0,19,0,0,0,67,70,10,0,65,118.89,0,12.00,11.00,-1000.00
2024-06-07 00:57:13.280110,0,0,19,0,0,0,67,70,10,0,65,118.87,0,11.00,11.00,-1000.00
2024-06-07 00:57:13.302032,0,0,19,0,0,0,67,70,10,0,65,118.89,0,11.00,11.00,-1000.00
2024-06-07 00:57:13.482669,0,0,19,0,0,0,67,70,10,0,65,118.85,0,11.00,11.00,-999.00
2024-06-07 00:57:13.505573,0,0,19,0,0,0,68,70,10,0,65,118.86,0,11.00,12.00,-999.00
2024-06-07 00:57:13.687049,0,0,19,0,0,0,68,70,10,0,65,118.85,0,12.00,11.00,-999.00
2024-06-07 00:57:13.709818,0,0,19,0,0,0,68,70,10,0,65,118.91,0,12.00,10.00,-997.00
2024-06-07 00:57:13.892726,0,0,19,0,0,0,68,70,10,0,65,118.89,0,10.00,11.00,-1000.00
2024-06-07 00:57:13.893132,0,0,19,0,0,0,68,70,10,0,65,118.83,0,13.00,9.00,-1000.00
2024-06-07 00:57:13.964779,0,0,19,0,0,0,68,70,10,0,65,118.88,0,11.00,12.00,-998.00
2024-06-07 00:57:14.097134,0,0,19,0,0,0,68,70,10,0,65,118.89,0,12.00,11.00,-999.00
2024-06-07 00:57:14.168722,0,0,19,0,0,0,68,70,10,0,65,118.90,0,11.00,12.00,-1000.00
2024-06-07 00:57:14.306730,0,0,19,0,0,0,68,70,10,0,65,118.91,0,11.00,11.00,-1000.00
2024-06-07 00:57:14.372728,0,0,19,0,0,0,68,70,10,0,65,118.91,0,11.00,11.00,-1000.00
2024-06-07 00:57:14.508685,0,0,19,0,0,0,68,70,10,0,65,118.91,0,11.00,11.00,-999.00
2024-06-07 00:57:14.576623,0,0,19,0,0,0,68,70,10,0,65,118.91,0,11.00,11.00,-998.00
2024-06-07 00:57:14.713176,0,0,19,0,0,0,68,70,10,0,65,118.91,0,13.00,13.00,-1001.00
2024-06-07 00:57:14.780496,0,0,19,0,0,0,68,70,10,0,65,118.91,0,18.00,7.00,-1004.00
2024-06-07 00:57:14.917833,0,0,19,0,0,0,68,70,10,0,65,118.91,0,15.00,5.00,-999.00
2024-06-07 00:57:14.984639,0,0,19,0,0,0,68,70,10,0,65,118.91,0,-11.00,-6.00,-989.00
2024-06-07 00:57:15.120929,0,0,21,0,0,0,68,70,10,0,65,118.91,0,-11.00,28.00,-979.00
2024-06-07 00:57:15.188603,0,0,21,0,0,0,68,70,10,0,65,118.91,0,-13.00,26.00,-1039.00
2024-06-07 00:57:15.302160,0,0,22,0,0,-1,68,70,10,0,65,118.91,0,23.00,-7.00,-1144.00
2024-06-07 00:57:15.392525,0,0,22,0,0,-3,68,70,10,0,65,118.91,0,-5.00,13.00,-1309.00
2024-06-07 00:57:15.532881,0,0,22,0,0,-6,67,70,12,10,65,118.91,0,30.00,-6.00,-1233.00
2024-06-07 00:57:15.596538,0,0,22,0,0,-8,67,70,20,10,65,119.13,0,-20.00,-6.00,-1086.00
2024-06-07 00:57:15.735202,0,0,22,0,0,-8,67,70,28,20,65,119.22,1,4.00,17.00,-1040.00
2024-06-07 00:57:15.800856,0,0,22,0,0,-8,67,70,36,30,65,119.34,1,2.00,11.00,-981.00
2024-06-07 00:57:15.944643,0,0,22,0,0,-8,67,70,44,40,65,119.40,1,2.00,7.00,-942.00
2024-06-07 00:57:16.004598,0,0,22,0,0,-7,67,70,51,50,65,119.55,1,-2.00,24.00,-895.00
2024-06-07 00:57:16.144040,0,0,22,0,0,-6,67,70,57,50,65,119.59,1,-4.00,0.00,-883.00
2024-06-07 00:57:16.208419,-1,0,22,0,0,-5,67,70,61,60,65,119.71,1,5.00,0.00,-875.00
2024-06-07 00:57:16.351645,-1,0,22,0,0,-3,67,70,65,60,65,119.67,1,-6.00,-1.00,-867.00
2024-06-07 00:57:16.412456,0,0,22,0,0,-2,67,70,68,70,65,119.76,1,-30.00,8.00,-888.00
2024-06-07 00:57:16.514396,0,0,22,0,0,-1,68,71,70,70,65,119.78,1,0.00,5.00,-915.00
2024-06-07 00:57:16.657337,0,0,22,0,0,-1,68,71,71,70,65,119.76,1,24.00,-13.00,-946.00
2024-06-07 00:57:16.718517,0,0,22,0,0,0,68,71,71,70,65,119.74,2,0.00,-3.00,-965.00
2024-06-07 00:57:16.820457,0,0,22,0,0,0,68,71,71,70,65,119.82,2,2.00,-7.00,-985.00
2024-06-07 00:57:16.966427,0,0,22,0,0,0,68,71,72,70,65,119.84,2,-2.00,7.00,-1003.00
2024-06-07 00:57:17.118461,0,0,22,0,0,0,68,71,72,70,65,119.81,2,-11.00,8.00,-1015.00
2024-06-07 00:57:17.126507,0,0,22,0,0,0,68,71,72,70,65,119.87,2,-1.00,5.00,-1020.00
2024-06-07 00:57:17.270411,0,0,22,0,0,0,68,71,73,70,65,119.82,2,14.00,4.00,-1035.00
2024-06-07 00:57:17.279685,0,0,22,0,0,0,68,71,73,70,65,119.84,2,6.00,-5.00,-1003.00
2024-06-07 00:57:17.420448,0,0,22,0,0,0,68,71,74,70,65,119.84,2,-5.00,-4.00,-1015.00
2024-06-07 00:57:17.577948,0,0,22,0,0,-1,67,70,75,70,65,119.79,2,-15.00,5.00,-1016.00
2024-06-07 00:57:17.674746,0,0,22,0,0,-1,67,70,76,70,65,119.90,2,-15.00,14.00,-1011.00
2024-06-07 00:57:17.687539,0,0,22,0,0,-1,67,70,77,70,65,119.83,3,-24.00,28.00,-1033.00
2024-06-07 00:57:17.885696,0,0,22,0,0,0,67,70,78,70,65,119.83,3,4.00,6.00,-1054.00
2024-06-07 00:57:17.988824,0,0,22,0,0,0,67,70,79,80,65,119.86,3,8.00,8.00,-1003.00
2024-06-07 00:57:17.993427,0,0,22,0,0,0,67,70,79,80,65,119.93,3,6.00,-2.00,-979.00
2024-06-07 00:57:18.095505,0,0,22,0,0,0,67,70,80,80,65,119.90,3,-42.00,19.00,-964.00
2024-06-07 00:57:18.257728,0,0,22,0,0,0,67,70,80,80,65,119.93,3,27.00,3.00,-982.00
2024-06-07 00:57:18.401671,0,0,22,0,0,0,67,70,81,80,65,119.96,3,-26.00,24.00,-1004.00
2024-06-07 00:57:18.401736,0,0,22,0,0,0,67,70,81,80,65,119.98,3,4.00,0.00,-1006.00
2024-06-07 00:57:18.614072,0,0,22,0,0,0,67,70,81,80,65,119.87,3,-7.00,12.00,-985.00
2024-06-07 00:57:18.614136,0,0,22,0,0,0,67,70,81,80,65,119.90,3,-2.00,-1.00,-1002.00
2024-06-07 00:57:18.757258,0,0,22,0,0,0,67,70,81,80,65,119.85,4,9.00,-10.00,-986.00
2024-06-07 00:57:18.919605,0,0,22,0,0,0,67,70,80,80,65,119.83,4,1.00,2.00,-994.00
2024-06-07 00:57:18.919706,0,0,22,0,0,0,67,70,80,80,65,119.88,4,-22.00,7.00,-1013.00
2024-06-07 00:57:19.062983,0,0,22,0,0,0,67,70,80,80,65,119.88,4,0.00,4.00,-1004.00
2024-06-07 00:57:19.228556,0,0,22,0,0,0,67,70,79,80,65,119.88,4,-6.00,6.00,-1008.00
2024-06-07 00:57:19.228617,0,0,22,0,0,0,67,70,79,80,65,119.94,4,-6.00,3.00,-948.00
2024-06-07 00:57:19.370441,0,0,22,0,0,0,67,70,79,80,65,119.91,4,-7.00,1.00,-998.00
2024-06-07 00:57:19.421577,0,0,22,0,0,0,67,70,79,80,65,119.90,4,13.00,-8.00,-1012.00
2024-06-07 00:57:19.535792,0,0,22,0,0,0,67,70,79,80,64,119.91,4,-3.00,9.00,-994.00
2024-06-07 00:57:19.625745,0,0,22,0,0,0,67,70,78,80,64,119.91,4,4.00,-5.00,-1003.00
2024-06-07 00:57:19.730189,0,0,22,0,0,0,67,70,78,80,64,119.94,5,3.00,-5.00,-982.00
2024-06-07 00:57:19.831284,0,0,22,0,0,0,67,70,79,80,64,119.90,5,-14.00,6.00,-1014.00
2024-06-07 00:57:19.934039,0,0,22,0,0,0,67,70,79,80,64,119.88,5,0.00,14.00,-1021.00
2024-06-07 00:57:20.033337,0,0,22,0,0,0,67,70,79,80,64,119.94,5,-23.00,12.00,-1011.00
2024-06-07 00:57:20.137581,0,0,22,0,0,0,67,70,80,80,64,119.94,5,8.00,4.00,-1002.00
2024-06-07 00:57:20.237164,0,0,22,0,0,0,67,70,80,80,64,119.90,5,20.00,1.00,-1008.00
2024-06-07 00:57:20.345232,0,0,22,0,0,0,67,70,80,80,64,119.93,5,-36.00,28.00,-986.00
2024-06-07 00:57:20.441226,0,0,22,0,0,0,67,70,81,80,64,119.96,5,1.00,13.00,-1043.00
2024-06-07 00:57:20.549858,0,0,22,0,0,0,67,70,81,80,64,119.95,5,16.00,-3.00,-1018.00
2024-06-07 00:57:20.645167,0,0,22,0,0,0,67,70,81,80,64,119.91,5,-7.00,19.00,-986.00
2024-06-07 00:57:20.754812,0,0,22,0,0,0,67,70,82,80,64,119.91,6,-7.00,7.00,-999.00
2024-06-07 00:57:20.849599,0,0,22,0,0,0,67,70,82,80,64,120.00,6,1.00,8.00,-991.00
2024-06-07 00:57:20.959519,0,0,22,0,0,0,67,70,82,80,64,119.94,6,8.00,-3.00,-1023.00
2024-06-07 00:57:21.053275,0,0,22,0,0,0,67,70,82,80,64,119.97,6,-18.00,28.00,-1010.00
2024-06-07 00:57:21.155679,0,0,22,0,0,0,67,70,82,80,64,119.88,6,4.00,-2.00,-1014.00
2024-06-07 00:57:21.264272,0,0,22,0,0,0,67,70,83,80,64,119.92,6,-31.00,30.00,-1002.00
2024-06-07 00:57:21.360526,0,0,22,0,0,0,67,70,83,80,64,119.92,6,4.00,2.00,-995.00
2024-06-07 00:57:21.461776,0,0,22,0,0,0,67,70,83,80,64,119.86,6,-9.00,6.00,-984.00
2024-06-07 00:57:21.571406,0,0,22,0,0,0,67,69,83,80,63,119.96,6,-1.00,6.00,-1020.00
2024-06-07 00:57:21.666143,0,0,22,0,0,0,67,69,83,80,63,119.95,6,23.00,-3.00,-1100.00
2024-06-07 00:57:21.776505,0,0,22,0,0,-1,67,69,84,80,63,119.98,7,23.00,1.00,-1098.00
2024-06-07 00:57:21.818857,0,0,22,0,0,-2,67,69,87,80,63,119.96,7,-4.00,24.00,-1124.00
2024-06-07 00:57:21.981594,0,0,22,0,0,-3,67,69,90,80,63,120.04,7,-5.00,11.00,-1085.00
2024-06-07 00:57:22.021795,0,0,22,0,0,-3,67,69,94,90,63,120.05,7,2.00,5.00,-1025.00
2024-06-07 00:57:22.185793,0,0,22,0,0,-4,67,69,99,90,63,120.02,7,-7.00,7.00,-1060.00
2024-06-07 00:57:22.226039,0,0,22,0,0,-4,67,69,104,100,63,120.16,7,-2.00,1.00,-1028.00
2024-06-07 00:57:22.390376,0,0,22,0,0,-5,67,69,109,100,63,120.22,7,7.00,8.00,-993.00
2024-06-07 00:57:22.429949,0,0,22,0,0,-5,67,69,114,110,63,120.30,7,-8.00,10.00,-1016.00
2024-06-07 00:57:22.595592,0,0,22,0,0,-5,67,70,121,110,63,120.32,7,5.00,0.00,-992.00
2024-06-07 00:57:22.633939,0,0,22,0,0,-5,67,70,126,120,63,120.42,7,0.00,5.00,-982.00
2024-06-07 00:57:22.802840,0,0,22,0,0,-5,67,70,132,120,63,120.43,8,-20.00,19.00,-994.00
2024-06-07 00:57:22.838148,0,0,22,0,0,-5,67,70,137,130,63,120.44,8,-6.00,6.00,-973.00
2024-06-07 00:57:23.007567,0,0,22,0,0,-5,67,70,142,130,63,120.55,8,-7.00,20.00,-986.00
2024-06-07 00:57:23.041941,0,0,22,0,0,-4,67,70,147,140,63,120.58,8,-13.00,18.00,-961.00
2024-06-07 00:57:23.209472,0,0,22,0,0,-4,67,70,152,140,63,120.61,8,3.00,24.00,-1012.00
2024-06-07 00:57:23.245908,0,0,22,0,0,-4,67,70,156,150,63,120.61,8,-18.00,4.00,-929.00
2024-06-07 00:57:23.414472,0,0,22,0,0,-3,67,70,159,150,63,120.65,8,-11.00,38.00,-1037.00
2024-06-07 00:57:23.449790,0,0,22,0,0,-3,67,70,164,160,63,120.74,8,10.00,-3.00,-932.00
2024-06-07 00:57:23.619305,0,0,22,0,0,-2,68,69,167,160,62,120.78,8,14.00,-6.00,-954.00
2024-06-07 00:57:23.653814,0,0,22,0,0,-2,68,69,170,170,62,120.80,9,1.00,2.00,-950.00
2024-06-07 00:57:23.829146,0,0,22,0,0,-2,68,69,173,170,62,120.81,9,-5.00,14.00,-975.00
2024-06-07 00:57:23.857877,0,0,22,0,0,-1,68,69,176,170,62,120.86,9,-10.00,24.00,-951.00
2024-06-07 00:57:24.028534,0,0,22,0,0,-1,68,69,177,170,62,120.82,9,2.00,10.00,-988.00
2024-06-07 00:57:24.061800,0,0,22,0,0,-1,68,69,180,170,62,120.91,9,7.00,1.00,-1035.00
2024-06-07 00:57:24.163955,0,0,22,0,0,-1,68,69,180,170,62,120.91,9,-9.00,9.00,-970.00
2024-06-07 00:57:24.311458,0,0,22,0,0,0,68,69,182,180,62,120.88,9,-2.00,0.00,-948.00
2024-06-07 00:57:24.367858,0,0,22,0,0,0,68,69,183,180,62,120.90,9,17.00,-6.00,-953.00
2024-06-07 00:57:24.544573,0,0,22,0,0,0,68,69,182,180,62,120.93,9,-11.00,-8.00,-952.00
2024-06-07 00:57:24.571777,0,0,22,0,0,0,66,69,184,180,62,120.89,9,3.00,-3.00,-971.00
2024-06-07 00:57:24.748373,0,0,22,0,0,0,66,69,184,180,62,120.89,10,12.00,3.00,-977.00
2024-06-07 00:57:24.775851,0,0,22,0,0,0,66,69,186,180,62,120.94,10,7.00,8.00,-998.00
2024-06-07 00:57:24.953321,0,0,22,0,0,0,66,69,185,180,62,120.90,10,-19.00,-8.00,-953.00
2024-06-07 00:57:24.979817,0,0,22,0,0,0,66,69,185,180,62,120.96,10,-12.00,9.00,-986.00
2024-06-07 00:57:25.157912,0,0,22,0,0,0,66,69,185,180,62,120.88,10,8.00,17.00,-995.00
2024-06-07 00:57:25.184017,0,0,22,0,0,0,66,69,185,180,62,120.92,10,-2.00,15.00,-966.00
2024-06-07 00:57:25.360208,0,0,22,0,0,0,66,69,185,180,62,120.92,10,-32.00,26.00,-1013.00
2024-06-07 00:57:25.387771,0,0,22,0,0,0,66,69,184,180,62,120.87,10,7.00,10.00,-1035.00
2024-06-07 00:57:25.568085,0,0,22,0,0,0,66,69,184,180,62,120.87,10,3.00,-3.00,-1000.00
2024-06-07 00:57:25.591594,0,0,22,0,0,0,66,68,184,180,61,120.87,10,-1.00,0.00,-1021.00
2024-06-07 00:57:25.770079,0,0,22,0,0,0,66,68,184,180,61,120.91,11,17.00,-9.00,-1030.00
2024-06-07 00:57:25.795804,0,0,22,0,0,0,66,68,184,180,61,120.86,11,-19.00,10.00,-1014.00
2024-06-07 00:57:25.974075,0,0,22,0,0,0,66,68,185,180,61,120.92,11,-4.00,-3.00,-1029.00
2024-06-07 00:57:25.999643,0,0,22,0,0,0,66,68,185,180,61,120.88,11,-16.00,15.00,-984.00
2024-06-07 00:57:26.119103,0,0,22,0,0,0,66,68,186,180,61,120.90,11,-4.00,0.00,-986.00
2024-06-07 00:57:26.152916,0,0,22,0,0,0,66,68,185,180,61,120.90,11,5.00,1.00,-1002.00
2024-06-07 00:57:26.281338,0,0,22,0,0,0,66,68,185,180,61,120.92,11,-1.00,19.00,-992.00
2024-06-07 00:57:26.357066,0,0,22,0,0,0,66,68,185,180,61,120.80,11,7.00,7.00,-971.00
2024-06-07 00:57:26.489516,0,0,22,0,0,0,66,68,185,180,61,120.83,11,-1.00,10.00,-941.00
2024-06-07 00:57:26.561801,0,0,22,0,0,1,67,69,184,180,61,120.77,11,10.00,3.00,-901.00
2024-06-07 00:57:26.694243,0,0,22,0,0,1,67,69,182,180,61,120.87,12,-12.00,5.00,-965.00
2024-06-07 00:57:26.765736,0,0,22,0,0,2,67,69,180,170,61,120.81,12,-12.00,19.00,-966.00
2024-06-07 00:57:26.896926,0,0,22,0,0,2,67,69,177,170,61,120.82,12,-24.00,6.00,-944.00
2024-06-07 00:57:26.970971,0,0,22,0,0,2,67,69,175,170,61,120.79,12,10.00,-11.00,-984.00
2024-06-07 00:57:27.103385,0,0,22,0,0,2,67,69,172,170,61,120.71,12,2.00,-1.00,-940.00
2024-06-07 00:57:27.173593,0,0,22,0,0,2,67,69,170,160,61,120.71,12,-6.00,4.00,-1002.00
2024-06-07 00:57:27.312181,0,0,22,0,0,2,67,69,167,160,61,120.65,12,-3.00,0.00,-1003.00
2024-06-07 00:57:27.377546,0,0,22,0,0,2,67,69,164,160,61,120.68,12,7.00,-5.00,-968.00
2024-06-07 00:57:27.513015,0,0,22,0,0,2,67,69,162,160,61,120.65,12,1.00,-4.00,-1005.00
2024-06-07 00:57:27.581599,0,0,22,0,0,2,67,69,159,150,60,120.63,12,10.00,-8.00,-999.00
2024-06-07 00:57:27.717560,0,0,22,0,0,2,67,69,156,150,60,120.58,13,-8.00,1.00,-1019.00
2024-06-07 00:57:27.785594,0,0,22,0,0,2,67,69,155,150,60,120.59,13,-12.00,-6.00,-1006.00
2024-06-07 00:57:27.919592,0,0,22,0,0,2,67,69,153,150,60,120.60,13,8.00,-3.00,-1015.00
2024-06-07 00:57:27.989441,0,0,22,0,0,1,67,69,151,150,60,120.55,13,-17.00,5.00,-1011.00
2024-06-07 00:57:28.124366,0,0,22,0,0,1,67,69,149,140,60,120.53,13,9.00,-19.00,-1013.00
2024-06-07 00:57:28.193435,0,0,22,0,0,1,67,69,147,140,60,120.49,13,3.00,14.00,-1007.00
2024-06-07 00:57:28.329180,0,0,22,0,0,1,67,69,146,140,60,120.50,13,2.00,13.00,-1037.00
2024-06-07 00:57:28.397352,0,0,22,0,0,1,67,69,144,140,60,120.50,13,14.00,-8.00,-1004.00
2024-06-07 00:57:28.533923,0,0,22,0,0,1,67,69,143,140,60,120.47,13,-2.00,0.00,-1010.00
2024-06-07 00:57:28.601318,0,0,22,0,0,1,66,70,142,140,60,120.45,13,20.00,4.00,-1000.00
2024-06-07 00:57:28.703427,0,0,22,0,0,1,66,70,141,140,60,120.41,14,-2.00,1.00,-1041.00
2024-06-07 00:57:28.842390,0,0,22,0,0,0,66,70,139,140,60,120.39,14,5.00,1.00,-968.00
2024-06-07 00:57:28.907402,0,0,22,0,0,0,66,70,139,130,60,120.46,14,3.00,3.00,-1004.00
2024-06-07 00:57:29.046746,0,0,22,0,0,0,66,70,138,130,60,120.46,14,14.00,-3.00,-1005.00
2024-06-07 00:57:29.111476,0,0,22,0,0,0,66,70,137,130,60,120.43,14,-3.00,7.00,-993.00
2024-06-07 00:57:29.253731,0,0,22,0,0,0,66,70,136,130,60,120.44,14,-8.00,0.00,-1028.00
2024-06-07 00:57:29.315460,0,0,22,0,0,0,66,70,136,130,60,120.39,14,0.00,15.00,-1001.00
2024-06-07 00:57:29.417508,0,0,22,0,0,0,66,70,135,130,60,120.45,14,-4.00,19.00,-1004.00
2024-06-07 00:57:29.561435,0,0,22,0,0,0,66,70,135,130,59,120.39,14,-6.00,-19.00,-1018.00
2024-06-07 00:57:29.621482,0,0,22,0,0,0,67,69,135,130,59,120.43,14,4.00,-5.00,-1022.00
2024-06-07 00:57:29.724143,0,0,22,0,0,0,67,69,135,130,59,120.42,15,-19.00,0.00,-1000.00
2024-06-07 00:57:29.826556,0,0,22,0,0,0,67,69,134,130,59,120.41,15,12.00,-11.00,-1019.00
2024-06-07 00:57:29.876341,0,0,22,0,0,0,67,69,135,130,59,120.42,15,12.00,-9.00,-1006.00
2024-06-07 00:57:30.072702,0,0,22,0,0,0,67,69,135,130,59,120.35,15,-11.00,10.00,-1018.00
2024-06-07 00:57:30.080340,0,0,22,0,0,0,67,69,135,130,59,120.39,15,5.00,1.00,-999.00
2024-06-07 00:57:30.279138,0,0,22,0,0,0,67,69,135,130,59,120.40,15,-18.00,-5.00,-977.00
2024-06-07 00:57:30.284488,0,0,22,0,0,0,67,69,135,130,59,120.42,15,3.00,11.00,-1023.00
2024-06-07 00:57:30.386384,0,0,22,0,0,0,67,69,136,130,59,120.38,15,-15.00,1.00,-1018.00
2024-06-07 00:57:30.582297,0,0,22,0,0,0,67,69,136,130,59,120.43,15,4.00,9.00,-976.00
2024-06-07 00:57:30.591312,0,0,22,0,0,0,67,69,137,130,59,120.42,15,-6.00,4.00,-1038.00
2024-06-07 00:57:30.787794,0,0,22,0,0,0,67,69,137,130,59,120.42,16,-28.00,12.00,-990.00
2024-06-07 00:57:30.794240,0,0,22,0,0,0,67,69,138,130,59,120.43,16,-1.00,7.00,-1012.00
2024-06-07 00:57:30.896774,0,0,22,0,0,0,67,69,137,130,59,120.45,16,0.00,12.00,-991.00
2024-06-07 00:57:31.065458,0,0,22,0,0,0,67,69,137,130,59,120.41,16,0.00,5.00,-991.00
2024-06-07 00:57:31.100192,0,0,22,0,0,0,67,69,137,130,59,120.35,16,12.00,2.00,-985.00
2024-06-07 00:57:31.302644,0,0,22,0,0,0,67,69,137,130,59,120.41,16,5.00,1.00,-984.00
2024-06-07 00:57:31.304213,-4,0,22,0,0,0,67,69,137,130,59,120.35,16,-8.00,-2.00,-1015.00
2024-06-07 00:57:31.406474,-8,0,22,1,0,0,67,69,139,130,59,120.35,16,18.00,-5.00,-1067.00
2024-06-07 00:57:31.508005,-8,0,22,2,0,0,67,69,139,130,58,120.33,16,6.00,-9.00,-986.00
2024-06-07 00:57:31.610007,-8,0,22,3,1,0,66,69,138,130,58,120.35,16,-36.00,0.00,-1029.00
2024-06-07 00:57:31.810535,-7,0,22,4,1,0,66,69,137,130,58,120.37,17,-36.00,4.00,-1014.00
2024-06-07 00:57:31.814928,-6,0,22,5,2,0,66,69,138,130,58,120.35,17,-44.00,-3.00,-990.00
2024-06-07 00:57:31.917603,-6,0,22,6,2,0,66,69,137,130,58,120.35,17,-51.00,9.00,-1014.00
2024-06-07 00:57:32.134501,-5,0,22,6,2,0,66,69,136,130,58,120.32,17,-55.00,9.00,-1004.00
2024-06-07 00:57:32.134567,-4,0,22,7,3,0,66,69,136,130,58,120.34,17,-64.00,8.00,-989.00
2024-06-07 00:57:32.277001,-1,0,22,7,3,0,66,69,135,130,58,120.36,17,-19.00,-3.00,-1010.00
2024-06-07 00:57:32.447850,1,0,22,6,2,0,66,69,135,130,58,120.30,17,-47.00,4.00,-1004.00
2024-06-07 00:57:32.448135,3,0,22,5,2,0,66,69,135,130,58,120.31,17,-43.00,20.00,-981.00
2024-06-07 00:57:32.553592,4,0,22,4,2,0,66,69,135,130,58,120.33,17,-41.00,6.00,-1019.00
2024-06-07 00:57:32.631059,3,0,22,3,1,0,68,69,134,130,58,120.31,17,-71.00,15.00,-974.00
2024-06-07 00:57:32.733065,1,0,22,3,1,0,68,69,134,130,58,120.39,18,-2.00,0.00,-1023.00
2024-06-07 00:57:32.911538,0,0,22,3,1,0,68,69,134,130,58,120.37,18,-31.00,6.00,-991.00
2024-06-07 00:57:32.936971,0,0,22,2,1,0,68,69,134,130,58,120.35,18,5.00,10.00,-1054.00
2024-06-07 00:57:33.052314,0,0,22,2,1,0,68,69,134,130,58,120.40,18,-22.00,7.00,-1002.00
2024-06-07 00:57:33.141468,0,-1,22,2,1,0,68,69,133,130,58,120.33,18,-18.00,8.00,-998.00
2024-06-07 00:57:33.371628,0,-2,22,2,0,0,68,69,134,130,58,120.38,18,-2.00,-1.00,-990.00
2024-06-07 00:57:33.371822,0,-1,22,2,0,0,68,69,134,130,58,120.32,18,-19.00,15.00,-997.00
2024-06-07 00:57:33.514835,0,-1,22,2,0,0,68,69,134,130,58,120.36,18,-3.00,6.00,-994.00
2024-06-07 00:57:33.549117,0,0,22,2,0,0,68,69,134,130,57,120.32,18,-8.00,12.00,-1003.00
2024-06-07 00:57:33.717469,4,0,22,1,0,0,67,70,134,130,57,120.26,18,-28.00,26.00,-1000.00
2024-06-07 00:57:33.973748,3,0,22,0,0,0,67,70,134,130,57,120.26,19,10.00,2.00,-1011.00
2024-06-07 00:57:33.973950,1,0,22,0,0,0,67,70,133,130,57,120.32,19,-10.00,27.00,-1032.00
2024-06-07 00:57:33.974029,0,0,22,0,0,0,67,70,134,130,57,120.39,19,1.00,-4.00,-977.00
2024-06-07 00:57:34.059068,0,0,22,0,0,0,67,70,133,130,57,120.38,19,-2.00,14.00,-1032.00
2024-06-07 00:57:34.109796,0,0,22,0,0,0,67,70,133,130,57,120.38,19,-12.00,27.00,-1021.00
2024-06-07 00:57:34.269189,0,0,22,0,0,0,67,70,133,130,57,120.39,19,-4.00,20.00,-988.00
2024-06-07 00:57:34.317615,0,0,22,0,0,0,67,70,134,130,57,120.33,19,3.00,10.00,-1082.00
2024-06-07 00:57:34.416001,0,0,22,0,0,0,67,70,134,130,57,120.39,19,-1.00,14.00,-995.00
2024-06-07 00:57:34.578373,0,0,22,0,0,0,67,70,133,130,57,120.30,19,-43.00,25.00,-1041.00
2024-06-07 00:57:34.620016,0,0,22,0,0,0,67,69,134,130,57,120.37,19,9.00,26.00,-1027.00
2024-06-07 00:57:34.780149,0,0,22,0,0,0,67,69,133,130,57,120.45,20,-7.00,13.00,-1006.00
2024-06-07 00:57:34.824439,0,0,22,0,0,0,67,69,133,130,57,120.34,20,9.00,11.00,-993.00
2024-06-07 00:57:34.987685,0,0,22,0,0,0,67,69,133,130,57,120.38,20,6.00,17.00,-1013.00
2024-06-07 00:57:35.028071,0,0,22,0,0,0,67,69,133,130,57,120.45,20,6.00,8.00,-971.00
2024-06-07 00:57:35.192556,0,0,22,0,0,0,67,69,134,130,57,120.41,20,-7.00,14.00,-998.00
2024-06-07 00:57:35.233896,0,0,22,0,0,0,67,69,133,130,57,120.37,20,-34.00,25.00,-1007.00
2024-06-07 00:57:35.333859,0,0,22,0,0,0,67,69,133,130,57,120.32,20,9.00,10.00,-928.00
2024-06-07 00:57:35.435894,0,0,22,0,0,0,67,69,133,130,57,120.39,20,8.00,0.00,-979.00
2024-06-07 00:57:35.600315,0,0,22,0,0,0,67,69,133,130,56,120.31,20,-2.00,12.00,-1016.00
2024-06-07 00:57:35.639956,0,0,22,0,0,0,67,69,133,130,56,120.34,20,-1.00,14.00,-1022.00
2024-06-07 00:57:35.807753,0,0,22,0,0,0,67,69,133,130,56,120.33,21,26.00,-14.00,-999.00
2024-06-07 00:57:35.843859,0,0,22,0,0,0,67,69,133,130,56,120.28,21,-23.00,17.00,-999.00
2024-06-07 00:57:35.946000,0,0,22,0,0,0,67,69,133,130,56,120.36,21,1.00,8.00,-997.00
2024-06-07 00:57:36.111321,0,0,22,0,0,0,67,69,134,130,56,120.39,21,28.00,3.00,-938.00
2024-06-07 00:57:36.149702,4,0,22,0,0,0,67,69,135,130,56,120.34,21,-19.00,16.00,-981.00
2024-06-07 00:57:36.324145,8,0,22,-1,0,0,67,69,135,130,56,120.36,21,-1.00,21.00,-1028.00
2024-06-07 00:57:36.353672,8,0,22,-2,0,0,67,69,136,130,56,120.37,21,-2.00,13.00,-1038.00
2024-06-07 00:57:36.524144,8,0,22,-3,-1,0,67,69,137,130,56,120.30,21,19.00,-1.00,-1007.00
2024-06-07 00:57:36.557688,7,0,22,-4,-2,0,67,69,136,130,56,120.31,21,55.00,7.00,-1022.00
2024-06-07 00:57:36.725608,6,0,22,-6,-2,0,68,69,135,130,56,120.33,22,47.00,9.00,-1020.00
2024-06-07 00:57:36.761721,5,0,21,-6,-2,0,68,69,135,130,56,120.38,22,61.00,1.00,-1010.00
2024-06-07 00:57:36.930513,3,0,22,-7,-3,0,68,69,136,130,56,120.24,22,44.00,4.00,-1008.00
2024-06-07 00:57:36.965681,0,0,21,-7,-2,0,68,69,135,130,56,120.30,22,44.00,10.00,-992.00
2024-06-07 00:57:37.135146,-2,0,21,-6,-2,0,68,69,134,130,56,120.30,22,68.00,-11.00,-966.00
2024-06-07 00:57:37.169603,-3,0,21,-5,-2,0,68,69,135,130,56,120.27,22,44.00,11.00,-978.00
2024-06-07 00:57:37.340070,-4,0,21,-4,-1,0,68,69,135,130,56,120.37,22,29.00,1.00,-1028.00
2024-06-07 00:57:37.373547,-2,0,21,-3,-1,0,68,69,134,130,56,120.30,22,51.00,-23.00,-954.00
2024-06-07 00:57:37.553011,-1,0,21,-3,-1,0,68,69,133,130,56,120.30,22,18.00,16.00,-1004.00
2024-06-07 00:57:37.580314,0,0,21,-2,-1,0,68,69,134,130,55,120.25,22,22.00,0.00,-980.00
2024-06-07 00:57:37.679633,0,1,21,-2,0,0,67,70,133,130,55,120.32,23,18.00,-5.00,-1040.00
2024-06-07 00:57:37.855381,0,1,21,-2,0,0,67,70,133,130,55,120.28,23,19.00,7.00,-1044.00
2024-06-07 00:57:37.884372,0,0,21,-2,0,0,67,70,134,130,55,120.31,23,13.00,19.00,-1001.00
2024-06-07 00:57:38.056817,0,0,21,-2,0,0,67,70,133,130,55,120.32,23,8.00,-10.00,-991.00
2024-06-07 00:57:38.093667,-1,0,21,-2,0,0,67,70,133,130,55,120.29,23,-2.00,2.00,-1065.00
2024-06-07 00:57:38.138477,-2,-1,22,-2,0,0,67,70,133,130,55,120.37,23,11.00,12.00,-1002.00
2024-06-07 00:57:38.261565,-3,-2,22,-1,0,0,67,70,133,130,55,120.27,23,21.00,-2.00,-1020.00
2024-06-07 00:57:38.342600,-1,-1,22,0,0,0,67,70,133,130,55,120.30,23,1.00,5.00,-1021.00
2024-06-07 00:57:38.445237,-1,0,22,0,0,0,67,70,133,130,55,120.31,23,0.00,4.00,-1031.00
2024-06-07 00:57:38.571945,0,0,22,0,0,0,67,70,133,130,55,120.38,23,2.00,12.00,-1038.00
2024-06-07 00:57:38.774737,0,0,22,0,0,0,66,69,134,130,55,120.34,24,-16.00,32.00,-1000.00
2024-06-07 00:57:38.774876,0,0,22,0,0,0,66,69,135,130,55,120.32,24,-7.00,-3.00,-1007.00
2024-06-07 00:57:38.852628,0,0,22,0,0,0,66,69,136,130,55,120.30,24,5.00,18.00,-1023.00
2024-06-07 00:57:38.981425,0,0,22,0,0,0,66,69,136,130,55,120.27,24,14.00,3.00,-999.00
2024-06-07 00:57:39.060290,0,0,22,0,0,0,66,69,136,130,55,120.22,24,13.00,6.00,-1012.00
2024-06-07 00:57:39.158611,0,0,22,0,0,0,66,69,137,130,55,120.33,24,14.00,6.00,-983.00
2024-06-07 00:57:39.286111,0,0,22,0,0,0,66,69,137,130,55,120.37,24,3.00,7.00,-999.00
2024-06-07 00:57:39.364116,0,0,22,0,0,0,66,69,138,130,55,120.39,24,9.00,10.00,-1030.00
2024-06-07 00:57:39.464864,0,0,22,0,0,0,66,69,138,130,55,120.36,24,-3.00,26.00,-993.00
2024-06-07 00:57:39.566525,0,0,22,0,0,0,66,69,139,130,54,120.41,24,13.00,5.00,-985.00
2024-06-07 00:57:39.697611,0,0,22,0,0,0,67,70,139,130,54,120.37,25,4.00,21.00,-988.00
2024-06-07 00:57:39.770523,0,0,22,0,0,0,67,70,139,130,54,120.31,25,32.00,-13.00,-1035.00
2024-06-07 00:57:39.872543,0,0,22,0,0,0,67,70,140,130,54,120.36,25,-12.00,11.00,-994.00
2024-06-07 00:57:39.974744,0,0,22,0,0,0,67,70,139,130,54,120.40,25,12.00,-3.00,-980.00
2024-06-07 00:57:40.077254,0,0,22,0,0,0,67,70,140,130,54,120.34,25,-3.00,19.00,-986.00
2024-06-07 00:57:40.208017,0,0,22,0,0,0,67,70,139,130,54,120.38,25,-1.00,8.00,-994.00
2024-06-07 00:57:40.280553,0,0,22,0,0,0,67,70,139,130,54,120.35,25,12.00,-5.00,-993.00
2024-06-07 00:57:40.397426,0,0,22,0,0,0,67,70,139,130,54,120.32,25,12.00,5.00,-1012.00
2024-06-07 00:57:40.485475,0,0,22,0,0,0,67,70,138,130,54,120.35,25,-4.00,5.00,-1000.00
2024-06-07 00:57:40.617576,0,-3,22,0,0,0,67,70,138,130,54,120.31,25,23.00,8.00,-1000.00
2024-06-07 00:57:40.689435,0,-8,22,0,0,0,67,70,139,130,54,120.39,26,8.00,3.00,-1056.00
2024-06-07 00:57:40.825760,0,-7,22,0,-2,0,67,70,138,130,54,120.33,26,16.00,16.00,-984.00
2024-06-07 00:57:40.893368,0,-5,22,1,-3,0,67,70,138,130,54,120.39,26,-8.00,40.00,-1017.00
2024-06-07 00:57:41.029258,0,-2,22,1,-3,0,67,70,137,130,54,120.36,26,23.00,10.00,-1030.00
2024-06-07 00:57:41.097351,0,0,22,1,-3,0,67,70,137,130,54,120.38,26,3.00,33.00,-1001.00
2024-06-07 00:57:41.234221,0,0,22,1,-3,0,67,70,137,130,54,120.32,26,14.00,20.00,-1000.00
2024-06-07 00:57:41.301356,0,0,22,1,-2,0,67,70,136,130,54,120.27,26,3.00,27.00,-994.00
2024-06-07 00:57:41.436075,0,0,22,1,-2,0,67,70,136,130,54,120.33,26,-5.00,32.00,-984.00
2024-06-07 00:57:41.505378,0,-1,22,1,-2,0,67,70,135,130,54,120.32,26,-1.00,27.00,-1067.00
2024-06-07 00:57:41.643993,0,-1,22,1,-2,0,67,70,135,130,53,120.34,26,0.00,13.00,-996.00
2024-06-07 00:57:41.709289,0,-1,22,0,-2,0,67,70,135,130,53,120.30,27,13.00,24.00,-1014.00
2024-06-07 00:57:41.849184,0,-1,22,0,-2,0,67,70,135,130,53,120.32,27,-3.00,32.00,-1025.00
2024-06-07 00:57:41.913298,0,-1,22,0,-2,0,67,70,135,130,53,120.34,27,10.00,28.00,-1050.00
2024-06-07 00:57:42.053108,1,0,22,1,-2,0,67,70,136,130,53,120.31,27,36.00,15.00,-970.00
2024-06-07 00:57:42.117292,2,0,22,0,-2,0,67,70,136,130,53,120.29,27,-16.00,19.00,-1018.00
2024-06-07 00:57:42.219190,0,0,22,0,-2,0,67,70,137,130,53,120.37,27,-4.00,24.00,-978.00
2024-06-07 00:57:42.270536,-1,4,21,0,-1,0,67,70,137,130,53,120.33,27,4.00,29.00,-975.00
2024-06-07 00:57:42.459814,0,2,22,0,0,0,67,70,138,130,53,120.33,27,27.00,17.00,-982.00
2024-06-07 00:57:42.474175,0,0,22,0,0,0,67,70,138,130,53,120.32,27,0.00,8.00,-964.00
2024-06-07 00:57:42.576647,0,0,22,0,0,0,67,70,138,130,53,120.29,27,-15.00,1.00,-993.00
2024-06-07 00:57:42.678311,0,0,22,0,0,0,67,70,138,130,53,120.38,28,-11.00,27.00,-978.00
2024-06-07 00:57:42.780365,0,0,22,0,0,0,67,70,139,130,53,120.42,28,-3.00,12.00,-977.00
2024-06-07 00:57:42.972710,0,0,22,0,0,0,67,70,139,130,53,120.37,28,-26.00,14.00,-1007.00
2024-06-07 00:57:42.984252,0,0,22,0,0,0,67,70,139,130,53,120.35,28,-16.00,24.00,-1012.00
2024-06-07 00:57:43.086621,0,0,22,0,0,0,67,70,139,130,53,120.37,28,7.00,15.00,-981.00
2024-06-07 00:57:43.188739,0,0,22,0,0,0,67,70,139,130,53,120.37,28,-3.00,18.00,-998.00
2024-06-07 00:57:43.381497,0,0,21,0,0,0,67,70,139,130,53,120.37,28,6.00,0.00,-992.00
2024-06-07 00:57:43.392492,0,0,22,0,0,0,67,70,139,130,53,120.36,28,0.00,23.00,-991.00
2024-06-07 00:57:43.494203,0,0,21,0,0,0,67,70,139,130,52,120.31,28,-15.00,21.00,-982.00
2024-06-07 00:57:43.596220,0,0,22,0,0,0,67,70,138,130,52,120.36,28,1.00,9.00,-1010.00
2024-06-07 00:57:43.796122,0,0,21,0,0,0,67,70,139,130,52,120.39,29,-1.00,16.00,-1079.00
2024-06-07 00:57:43.803464,0,0,21,0,0,0,67,70,139,130,52,120.36,29,-23.00,11.00,-1050.00
2024-06-07 00:57:43.903129,0,0,22,0,0,0,67,70,139,130,52,120.38,29,17.00,-10.00,-1000.00
2024-06-07 00:57:44.098194,0,0,22,0,0,0,67,70,139,130,52,120.42,29,0.00,9.00,-970.00
2024-06-07 00:57:44.107243,0,0,22,0,0,0,67,70,138,130,52,120.33,29,17.00,-13.00,-977.00
2024-06-07 00:57:44.306173,0,0,21,0,0,0,67,70,138,130,52,120.42,29,-20.00,38.00,-1002.00
2024-06-07 00:57:44.311107,0,0,22,0,0,0,67,70,138,130,52,120.39,29,-7.00,14.00,-997.00
2024-06-07 00:57:44.469416,0,0,22,0,0,0,67,70,138,130,52,120.40,29,-18.00,-9.00,-1006.00
2024-06-07 00:57:44.516059,0,0,22,0,0,0,67,70,138,130,52,120.44,29,-19.00,4.00,-981.00
2024-06-07 00:57:44.712517,0,0,22,0,0,0,67,70,138,130,52,120.37,29,2.00,7.00,-999.00
2024-06-07 00:57:44.720036,0,4,22,0,0,0,68,70,138,130,52,120.33,30,20.00,22.00,-987.00
2024-06-07 00:57:44.917353,0,8,21,0,1,0,68,70,139,130,52,120.30,30,-3.00,-5.00,-1002.00
2024-06-07 00:57:44.924122,0,5,21,-1,2,0,68,70,138,130,52,120.41,30,23.00,-9.00,-986.00
2024-06-07 00:57:45.122021,0,3,22,-1,3,0,68,70,137,130,52,120.37,30,3.00,-5.00,-1008.00
2024-06-07 00:57:45.127826,0,0,22,-1,3,0,68,70,137,130,52,120.27,30,14.00,-17.00,-1017.00
2024-06-07 00:57:45.329307,0,-1,22,-1,3,0,68,70,137,130,52,120.26,30,9.00,-36.00,-1028.00
2024-06-07 00:57:45.333569,0,-1,22,-1,3,0,68,70,137,130,52,120.38,30,4.00,3.00,-999.00
2024-06-07 00:57:45.433803,0,-1,22,-1,2,0,68,70,137,130,52,120.39,30,4.00,-26.00,-1018.00
2024-06-07 00:57:45.537944,0,0,22,-1,2,0,68,70,137,130,51,120.36,30,7.00,2.00,-979.00
2024-06-07 00:57:45.637871,0,0,22,0,2,0,68,70,137,130,51,120.36,30,4.00,-2.00,-998.00
2024-06-07 00:57:45.838933,0,0,22,0,2,0,69,71,137,130,51,120.37,31,5.00,-19.00,-1002.00
2024-06-07 00:57:45.841881,0,0,22,0,2,0,69,71,136,130,51,120.41,31,2.00,-4.00,-991.00
2024-06-07 00:57:45.944095,1,0,22,0,2,0,69,71,137,130,51,120.35,31,-4.00,11.00,-989.00
2024-06-07 00:57:46.047541,1,0,22,-1,2,0,69,71,136,130,51,120.34,31,-9.00,-1.00,-1012.00
2024-06-07 00:57:46.147976,0,0,22,-1,2,0,69,71,136,130,51,120.34,31,-3.00,8.00,-1016.00
2024-06-07 00:57:46.198866,-2,0,22,0,2,0,69,71,136,130,51,120.28,31,6.00,-14.00,-991.00
2024-06-07 00:57:46.354344,0,-1,22,0,2,0,69,71,136,130,51,120.31,31,-7.00,-5.00,-973.00
2024-06-07 00:57:46.403961,1,-5,21,0,1,0,69,71,136,130,51,120.34,31,5.00,5.00,-1029.00
2024-06-07 00:57:46.556100,0,-3,22,0,0,0,69,71,135,130,51,120.29,31,-8.00,12.00,-1022.00
2024-06-07 00:57:46.609839,0,-1,22,0,0,0,69,71,135,130,51,120.34,31,-12.00,9.00,-1042.00
2024-06-07 00:57:46.709979,0,-1,22,0,0,0,68,71,135,130,51,120.28,32,21.00,-19.00,-977.00
2024-06-07 00:57:46.863100,0,0,22,0,0,0,68,71,135,130,51,120.27,32,17.00,0.00,-980.00
2024-06-07 00:57:46.913989,0,0,22,0,0,0,68,71,135,130,51,120.32,32,6.00,13.00,-1025.00
2024-06-07 00:57:47.068500,0,0,22,0,0,0,68,71,136,130,51,120.36,32,6.00,3.00,-1001.00
2024-06-07 00:57:47.171398,0,0,22,0,0,0,68,71,135,130,51,120.28,32,0.00,-8.00,-1010.00
2024-06-07 00:57:47.278903,0,0,22,0,0,0,68,71,135,130,51,120.27,32,38.00,-9.00,-1018.00
2024-06-07 00:57:47.350615,0,0,22,0,0,0,68,71,135,130,51,120.34,32,9.00,4.00,-1018.00
2024-06-07 00:57:47.458717,0,0,22,0,0,0,68,71,135,130,51,120.34,32,3.00,0.00,-979.00
2024-06-07 00:57:47.525860,0,0,22,0,0,0,68,71,136,130,50,120.37,32,12.00,-11.00,-979.00
2024-06-07 00:57:47.647682,0,0,22,0,0,0,68,71,136,130,50,120.35,32,-7.00,30.00,-998.00
2024-06-07 00:57:47.771373,0,0,22,0,0,0,67,70,136,130,50,120.36,33,9.00,-4.00,-996.00
2024-06-07 00:57:47.859637,0,0,22,0,0,0,67,70,137,130,50,120.39,33,-6.00,2.00,-982.00
2024-06-07 00:57:47.933864,0,0,22,0,0,0,67,70,136,130,50,120.42,33,8.00,10.00,-987.00
2024-06-07 00:57:48.104353,0,0,22,0,0,0,67,70,136,130,50,120.40,33,-26.00,30.00,-1010.00
2024-06-07 00:57:48.143401,0,0,22,0,0,0,67,70,137,130,50,120.37,33,8.00,-10.00,-1013.00
2024-06-07 00:57:48.286830,0,0,22,0,0,0,67,70,137,130,50,120.34,33,4.00,-2.00,-1007.00
2024-06-07 00:57:48.430387,0,0,22,0,0,0,67,70,137,130,50,120.36,33,1.00,4.00,-986.00
2024-06-07 00:57:48.443864,0,0,22,0,0,0,67,70,137,130,50,120.38,33,3.00,-2.00,-994.00
2024-06-07 00:57:48.573965,0,0,22,0,0,0,67,70,137,130,50,120.34,33,27.00,-4.00,-990.00
2024-06-07 00:57:48.718627,0,0,22,0,0,0,67,70,138,130,50,120.37,33,-7.00,19.00,-975.00
2024-06-07 00:57:48.860309,0,0,22,0,0,0,67,69,138,130,50,120.33,34,-8.00,14.00,-1000.00
2024-06-07 00:57:48.860371,0,0,26,0,0,0,67,69,138,130,50,120.38,34,55.00,-47.00,-967.00
2024-06-07 00:57:49.025717,0,0,32,0,0,0,67,69,138,130,50,120.34,34,-34.00,16.00,-993.00
2024-06-07 00:57:49.167285,0,0,38,0,0,0,67,69,139,130,50,120.37,34,-16.00,26.00,-997.00
2024-06-07 00:57:49.167388,0,0,44,0,0,0,67,69,139,130,50,120.41,34,3.00,-8.00,-982.00
2024-06-07 00:57:49.338175,0,0,50,0,0,0,67,69,139,130,50,120.37,34,15.00,-13.00,-977.00
2024-06-07 00:57:49.526233,0,0,57,0,0,0,67,69,138,130,50,120.38,34,22.00,-15.00,-966.00
2024-06-07 00:57:49.640283,0,0,63,0,0,0,67,69,139,130,50,120.41,34,9.00,8.00,-974.00
2024-06-07 00:57:49.640526,0,0,69,0,0,0,67,69,138,130,49,120.37,34,-2.00,14.00,-987.00
2024-06-07 00:57:49.640667,0,0,75,0,0,0,67,69,138,130,49,120.38,34,3.00,8.00,-989.00
2024-06-07 00:57:49.781937,0,0,81,0,0,0,68,70,138,130,49,120.34,35,0.00,10.00,-994.00
2024-06-07 00:57:49.827293,0,0,87,0,0,0,68,70,137,130,49,120.36,35,-1.00,18.00,-971.00
2024-06-07 00:57:49.947346,0,0,93,0,0,0,68,70,136,130,49,120.37,35,-20.00,26.00,-995.00
2024-06-07 00:57:50.024652,0,0,100,0,0,0,68,70,137,130,49,120.32,35,-16.00,-4.00,-990.00
2024-06-07 00:57:50.141387,0,0,106,0,0,0,68,70,136,130,49,120.37,35,2.00,4.00,-967.00
2024-06-07 00:57:50.229170,0,0,112,0,0,0,68,70,136,130,49,120.37,35,-4.00,21.00,-1031.00
2024-06-07 00:57:50.345169,0,0,118,0,0,0,68,70,135,130,49,120.41,35,-9.00,22.00,-1003.00
2024-06-07 00:57:50.433818,0,0,124,0,0,0,68,70,135,130,49,120.40,35,-35.00,-3.00,-1007.00
2024-06-07 00:57:50.549845,0,0,130,0,0,0,68,70,135,130,49,120.34,35,-17.00,34.00,-1025.00
2024-06-07 00:57:50.639570,0,0,136,0,0,0,68,70,134,130,49,120.33,35,-15.00,20.00,-981.00
2024-06-07 00:57:50.738805,0,0,148,0,0,0,68,71,135,130,49,120.36,36,0.00,15.00,-963.00
2024-06-07 00:57:50.856308,0,0,154,0,0,0,68,71,134,130,49,120.33,36,-22.00,2.00,-1006.00
2024-06-07 00:57:50.942487,0,0,160,0,0,0,68,71,134,130,49,120.35,36,-22.00,25.00,-993.00
2024-06-07 00:57:51.061216,0,0,166,0,0,0,68,71,134,130,49,120.32,36,-11.00,11.00,-1019.00
2024-06-07 00:57:51.146485,0,0,172,0,0,0,68,71,134,130,49,120.35,36,-16.00,20.00,-1036.00
2024-06-07 00:57:51.268102,0,0,178,0,0,0,68,71,134,130,49,120.39,36,-10.00,6.00,-1002.00
2024-06-07 00:57:51.350539,0,0,-175,0,0,0,68,71,134,130,49,120.30,36,3.00,-3.00,-985.00
2024-06-07 00:57:51.453712,0,0,-169,0,0,0,68,71,134,130,49,120.35,36,0.00,-6.00,-999.00
2024-06-07 00:57:51.573084,0,0,-163,0,0,0,68,71,134,130,48,120.34,36,13.00,-3.00,-985.00
2024-06-07 00:57:51.656514,0,0,-157,0,0,0,68,71,134,130,48,120.44,37,39.00,-26.00,-931.00
2024-06-07 00:57:51.758406,0,0,-150,0,0,0,68,71,134,130,48,120.31,37,-6.00,-4.00,-998.00
2024-06-07 00:57:51.860494,0,0,-144,0,0,0,68,71,134,130,48,120.35,37,-1.00,19.00,-1077.00
2024-06-07 00:57:51.983754,0,0,-138,0,0,0,68,71,135,130,48,120.33,37,18.00,-8.00,-970.00
2024-06-07 00:57:52.064424,0,0,-132,0,0,0,68,71,135,130,48,120.31,37,22.00,-3.00,-981.00
2024-06-07 00:57:52.188983,0,0,-127,0,0,0,68,71,135,130,48,120.38,37,18.00,0.00,-983.00
2024-06-07 00:57:52.268320,0,0,-121,0,0,0,68,71,136,130,48,120.31,37,-12.00,16.00,-992.00
2024-06-07 00:57:52.395751,0,0,-115,0,0,0,68,71,136,130,48,120.32,37,-23.00,11.00,-1020.00
2024-06-07 00:57:52.472365,0,0,-109,0,0,0,68,71,136,130,48,120.39,37,-10.00,7.00,-971.00
2024-06-07 00:57:52.597812,0,0,-103,0,0,0,68,71,136,130,48,120.44,37,-1.00,24.00,-999.00
2024-06-07 00:57:52.676611,0,0,-97,0,0,0,68,71,136,130,48,120.38,38,-2.00,-16.00,-971.00
2024-06-07 00:57:52.801780,0,0,-91,0,0,0,68,71,136,130,48,120.37,38,8.00,31.00,-987.00
2024-06-07 00:57:52.881967,0,0,-85,0,0,0,68,71,137,130,48,120.41,38,-39.00,31.00,-1041.00
2024-06-07 00:57:52.982350,0,0,-79,0,0,0,68,71,136,130,48,120.35,38,1.00,-2.00,-1002.00
2024-06-07 00:57:53.110876,0,0,-73,0,0,0,68,71,135,130,48,120.37,38,36.00,-17.00,-943.00
2024-06-07 00:57:53.186339,0,0,-67,0,0,0,68,71,136,130,48,120.39,38,-13.00,13.00,-978.00
2024-06-07 00:57:53.317253,0,0,-61,0,0,0,68,71,136,130,48,120.41,38,-8.00,19.00,-1007.00
2024-06-07 00:57:53.390371,0,0,-55,0,0,0,68,71,136,130,48,120.37,38,11.00,16.00,-991.00
2024-06-07 00:57:53.492660,0,0,-49,0,0,0,68,71,136,130,48,120.38,38,6.00,5.00,-987.00
2024-06-07 00:57:53.620861,0,0,-43,0,0,0,68,71,136,130,47,120.36,38,10.00,-15.00,-975.00
2024-06-07 00:57:53.697014,0,0,-37,0,0,0,68,71,135,130,47,120.37,39,21.00,-8.00,-969.00
2024-06-07 00:57:53.826869,0,0,-31,0,0,0,68,70,136,130,47,120.37,39,23.00,-9.00,-985.00
2024-06-07 00:57:53.900476,0,0,-25,0,0,0,68,70,136,130,47,120.35,39,11.00,-6.00,-971.00
2024-06-07 00:57:54.030764,0,0,-19,0,0,0,68,70,136,130,47,120.38,39,-7.00,32.00,-1014.00
2024-06-07 00:57:54.104188,0,0,-13,0,0,0,68,70,136,130,47,120.41,39,-2.00,22.00,-970.00
2024-06-07 00:57:54.235548,0,0,-6,0,0,0,68,70,135,130,47,120.41,39,-6.00,22.00,-1010.00
2024-06-07 00:57:54.308179,0,0,0,0,0,0,68,70,136,130,47,120.32,39,37.00,-18.00,-968.00
2024-06-07 00:57:54.359071,0,0,4,0,0,0,68,70,136,130,47,120.38,39,-8.00,3.00,-972.00
2024-06-07 00:57:54.461176,0,0,8,0,0,0,68,70,136,130,47,120.38,39,-13.00,10.00,-976.00
2024-06-07 00:57:54.644914,0,0,11,0,0,0,68,70,136,130,47,120.40,39,6.00,1.00,-964.00
2024-06-07 00:57:54.665210,0,0,14,0,0,0,68,70,137,130,47,120.39,40,-13.00,13.00,-1020.00
2024-06-07 00:57:54.849675,0,0,15,0,0,0,69,71,137,130,47,120.37,40,-3.00,18.00,-989.00
2024-06-07 00:57:54.869168,0,0,17,0,0,0,69,71,136,130,47,120.39,40,-1.00,7.00,-1008.00
2024-06-07 00:57:55.057415,0,0,18,0,0,0,69,71,136,130,47,120.36,40,1.00,27.00,-1016.00
2024-06-07 00:57:55.073097,0,0,18,0,0,0,69,71,136,130,47,120.37,40,0.00,17.00,-1030.00
2024-06-07 00:57:55.259405,0,0,19,0,0,0,69,71,135,130,47,120.44,40,-11.00,13.00,-995.00
2024-06-07 00:57:55.277189,0,0,20,0,0,0,69,71,136,130,47,120.39,40,-11.00,11.00,-978.00
2024-06-07 00:57:55.379357,0,0,20,0,0,0,69,71,135,130,47,120.41,40,3.00,14.00,-984.00
2024-06-07 00:57:55.481102,0,0,20,0,0,0,69,71,134,130,46,120.41,40,-7.00,25.00,-971.00
2024-06-07 00:57:55.672295,0,0,20,0,0,0,69,71,134,130,46,120.36,40,0.00,9.00,-1024.00
2024-06-07 00:57:55.685143,0,0,20,0,0,0,69,71,134,130,46,120.39,41,-1.00,2.00,-1018.00
2024-06-07 00:57:55.876819,0,0,20,0,0,0,68,70,133,130,46,120.41,41,-5.00,8.00,-1066.00
2024-06-07 00:57:55.889059,0,0,20,0,0,0,68,70,133,130,46,120.37,41,-4.00,-2.00,-938.00
2024-06-07 00:57:56.080186,0,0,20,0,0,0,68,70,133,130,46,120.34,41,0.00,19.00,-1030.00
2024-06-07 00:57:56.093124,0,0,20,0,0,0,68,70,133,130,46,120.34,41,24.00,-9.00,-1009.00
2024-06-07 00:57:56.283437,0,0,20,0,0,0,68,70,133,130,46,120.37,41,21.00,15.00,-1004.00
2024-06-07 00:57:56.297131,0,0,20,0,0,0,68,70,133,130,46,120.37,41,6.00,20.00,-1001.00
2024-06-07 00:57:56.488309,0,0,20,0,0,0,68,70,134,130,46,120.36,41,0.00,7.00,-1016.00
2024-06-07 00:57:56.501088,0,0,20,0,0,0,68,70,133,130,46,120.37,41,-6.00,-4.00,-985.00
2024-06-07 00:57:56.603330,0,0,20,0,0,0,68,70,134,130,46,120.38,41,24.00,-17.00,-975.00
2024-06-07 00:57:56.705956,0,0,20,0,0,0,68,70,134,130,46,120.37,42,-13.00,26.00,-1017.00
2024-06-07 00:57:56.808263,0,0,20,0,0,0,68,70,135,130,46,120.28,42,1.00,12.00,-1004.00
2024-06-07 00:57:56.909183,0,0,20,0,0,0,68,70,135,130,46,120.38,42,7.00,-4.00,-971.00
2024-06-07 00:57:57.011438,0,0,20,0,0,0,68,70,135,130,46,120.36,42,6.00,21.00,-931.00
2024-06-07 00:57:57.208559,0,0,20,0,0,0,68,70,135,130,46,120.39,42,2.00,5.00,-1026.00
2024-06-07 00:57:57.215139,0,0,20,0,0,0,68,70,135,130,46,120.43,42,-8.00,21.00,-979.00
2024-06-07 00:57:57.331835,0,0,20,0,0,0,68,70,135,130,46,120.47,42,-15.00,4.00,-1014.00
2024-06-07 00:57:57.420171,0,0,20,0,0,0,68,70,134,130,46,120.38,42,-10.00,11.00,-1015.00
2024-06-07 00:57:57.521018,0,0,19,0,0,0,68,70,135,130,45,120.44,42,-47.00,44.00,-999.00
2024-06-07 00:57:57.716765,0,0,13,0,0,0,68,70,134,130,45,120.49,42,0.00,11.00,-1000.00
2024-06-07 00:57:57.725502,0,-1,7,0,0,0,68,70,135,130,45,120.41,43,1.00,15.00,-1018.00
2024-06-07 00:57:57.922729,0,0,1,0,0,0,67,71,134,130,45,120.42,43,1.00,31.00,-1012.00
2024-06-07 00:57:57.928932,0,0,-5,0,0,0,67,71,135,130,45,120.36,43,7.00,9.00,-1003.00
2024-06-07 00:57:58.129649,0,0,-11,0,0,0,67,71,135,130,45,120.43,43,-11.00,6.00,-1027.00
2024-06-07 00:57:58.132880,0,0,-17,0,0,0,67,71,136,130,45,120.38,43,-1.00,8.00,-1007.00
2024-06-07 00:57:58.235137,0,0,-23,0,0,0,67,71,136,130,45,120.40,43,-10.00,3.00,-947.00
2024-06-07 00:57:58.437310,0,0,-29,0,0,0,67,71,136,130,45,120.34,43,-50.00,41.00,-984.00
2024-06-07 00:57:58.442425,0,0,-35,0,0,0,67,71,137,130,45,120.33,43,-15.00,30.00,-1012.00
2024-06-07 00:57:58.541814,0,0,-41,0,0,0,67,71,136,130,45,120.41,43,-19.00,-9.00,-985.00
2024-06-07 00:57:58.643826,0,0,-47,0,0,0,67,71,136,130,45,120.41,43,16.00,3.00,-956.00
2024-06-07 00:57:58.694943,0,0,-53,0,0,0,67,71,136,130,45,120.42,44,-12.00,9.00,-1005.00
2024-06-07 00:57:58.846375,0,0,-59,0,0,0,69,71,136,130,45,120.41,44,-20.00,4.00,-965.00
2024-06-07 00:57:58.899156,0,0,-65,0,0,0,69,71,136,130,45,120.48,44,-12.00,34.00,-986.00
2024-06-07 00:57:59.048204,0,0,-71,0,0,0,69,71,136,130,45,120.41,44,-1.00,1.00,-1036.00
2024-06-07 00:57:59.104138,0,0,-77,0,0,0,69,71,135,130,45,120.44,44,-3.00,-2.00,-1005.00
2024-06-07 00:57:59.255750,0,0,-83,0,0,0,69,71,134,130,45,120.41,44,0.00,4.00,-993.00
2024-06-07 00:57:59.306858,0,0,-89,0,0,0,69,71,134,130,45,120.35,44,7.00,-2.00,-980.00
2024-06-07 00:57:59.459258,0,0,-95,0,0,0,69,71,134,130,45,120.41,44,-4.00,13.00,-1036.00
2024-06-07 00:57:59.510723,0,0,-101,0,0,0,69,71,134,130,44,120.38,44,5.00,1.00,-1020.00
2024-06-07 00:57:59.662335,0,0,-107,0,0,0,69,71,134,130,44,120.42,44,-1.00,-17.00,-989.00
2024-06-07 00:57:59.714755,0,0,-113,0,0,0,69,71,134,130,44,120.41,45,-18.00,0.00,-1034.00
2024-06-07 00:57:59.867254,0,0,-119,0,0,0,69,70,134,130,44,120.39,45,4.00,15.00,-1018.00
2024-06-07 00:57:59.918745,0,0,-125,0,0,0,69,70,134,130,44,120.40,45,3.00,-5.00,-995.00
2024-06-07 00:58:00.076388,0,0,-131,0,0,0,69,70,134,130,44,120.36,45,3.00,5.00,-1017.00
2024-06-07 00:58:00.122980,0,0,-137,0,0,0,69,70,135,130,44,120.41,45,-2.00,21.00,-988.00
2024-06-07 00:58:00.279778,0,0,-143,0,0,0,69,70,135,130,44,120.43,45,-4.00,-7.00,-1026.00
2024-06-07 00:58:00.326691,0,0,-149,0,0,0,69,70,135,130,44,120.41,45,10.00,0.00,-1003.00
2024-06-07 00:58:00.481598,0,0,-155,0,0,0,69,70,135,130,44,120.45,45,-5.00,7.00,-955.00
2024-06-07 00:58:00.530730,0,0,-161,0,0,0,69,70,136,130,44,120.40,45,13.00,-3.00,-1055.00
2024-06-07 00:58:00.632664,0,0,-166,0,0,0,69,70,136,130,44,120.39,45,-2.00,11.00,-1013.00
2024-06-07 00:58:00.789726,0,0,-172,0,0,0,69,70,136,130,44,120.43,46,-3.00,9.00,-996.00
2024-06-07 00:58:00.836658,0,0,-178,0,0,0,68,71,137,130,44,120.39,46,9.00,8.00,-985.00
2024-06-07 00:58:00.993463,0,0,175,0,0,0,68,71,137,130,44,120.40,46,-10.00,2.00,-970.00
2024-06-07 00:58:01.042543,0,0,169,0,0,0,68,71,137,130,44,120.39,46,8.00,16.00,-967.00
2024-06-07 00:58:01.143081,0,0,163,0,0,0,68,71,137,130,44,120.45,46,-2.00,9.00,-1001.00
2024-06-07 00:58:01.300941,0,0,157,0,0,0,68,71,137,130,44,120.41,46,18.00,4.00,-955.00
2024-06-07 00:58:01.346641,0,0,151,0,0,0,68,71,137,130,44,120.37,46,-16.00,26.00,-965.00
2024-06-07 00:58:01.508587,0,0,146,0,0,0,68,71,137,130,44,120.41,46,1.00,13.00,-985.00
2024-06-07 00:58:01.554455,0,0,140,0,0,0,68,71,137,130,43,120.44,46,3.00,7.00,-1021.00
2024-06-07 00:58:01.652627,0,0,134,0,0,0,68,71,136,130,43,120.45,46,4.00,14.00,-1012.00
2024-06-07 00:58:01.754781,0,0,128,0,0,0,68,71,136,130,43,120.40,47,31.00,30.00,-1088.00
2024-06-07 00:58:01.857119,0,0,122,0,0,0,68,70,136,130,43,120.36,47,-15.00,23.00,-1034.00
2024-06-07 00:58:02.122727,0,0,116,0,0,0,68,70,136,130,43,120.37,47,4.00,12.00,-1011.00
2024-06-07 00:58:02.122779,0,0,110,0,0,0,68,70,135,130,43,120.40,47,4.00,11.00,-1000.00
2024-06-07 00:58:02.253890,0,0,104,0,0,0,68,70,135,130,43,120.33,47,1.00,18.00,-993.00
2024-06-07 00:58:02.254242,0,0,99,0,0,0,68,70,135,130,43,120.39,47,-10.00,21.00,-1007.00
2024-06-07 00:58:02.404649,0,0,93,0,0,0,68,70,135,130,43,120.37,47,22.00,-8.00,-991.00
2024-06-07 00:58:02.417526,0,0,87,0,0,0,68,70,134,130,43,120.37,47,0.00,21.00,-999.00
2024-06-07 00:58:02.519537,0,0,81,0,0,0,68,70,135,130,43,120.36,47,37.00,8.00,-984.00
2024-06-07 00:58:02.691398,0,0,75,0,0,0,68,70,134,130,43,120.38,47,16.00,16.00,-1021.00
2024-06-07 00:58:02.723623,0,0,69,0,0,0,68,70,135,130,43,120.40,48,-3.00,19.00,-1001.00
2024-06-07 00:58:02.895083,0,0,63,0,0,0,68,70,135,130,43,120.44,48,14.00,19.00,-1008.00
2024-06-07 00:58:02.936158,0,0,57,0,0,0,68,70,135,130,43,120.36,48,41.00,-5.00,-1029.00
2024-06-07 00:58:03.029460,0,0,51,0,0,0,68,70,135,130,43,120.41,48,0.00,13.00,-1008.00
2024-06-07 00:58:03.160491,0,0,45,0,0,0,68,70,136,130,43,120.38,48,-4.00,13.00,-995.00
2024-06-07 00:58:03.303717,0,0,39,0,0,0,68,70,136,130,43,120.39,48,4.00,12.00,-986.00
2024-06-07 00:58:03.335408,0,0,35,0,0,0,68,70,136,130,43,120.36,48,11.00,-1.00,-981.00
2024-06-07 00:58:03.463530,0,0,31,0,0,0,68,70,136,130,43,120.39,48,-1.00,13.00,-1004.00
2024-06-07 00:58:03.605121,0,0,29,0,0,0,68,70,136,130,42,120.36,48,-42.00,27.00,-1044.00
2024-06-07 00:58:03.641513,0,0,27,0,0,0,68,70,136,130,42,120.39,48,-12.00,8.00,-990.00
2024-06-07 00:58:03.770816,-1,0,25,0,0,0,68,70,136,130,42,120.42,49,-3.00,10.00,-991.00
2024-06-07 00:58:03.926249,-1,0,23,0,0,0,68,70,137,130,42,120.37,49,-30.00,-10.00,-905.00
2024-06-07 00:58:03.947620,-1,0,22,0,0,0,68,70,136,130,42,120.46,49,-28.00,32.00,-1053.00
2024-06-07 00:58:04.065477,-1,0,22,0,0,0,68,70,136,130,42,120.39,49,-21.00,25.00,-1037.00
2024-06-07 00:58:04.151431,-1,0,22,0,0,0,68,70,136,130,42,120.41,49,-2.00,-5.00,-990.00
2024-06-07 00:58:04.271424,0,0,22,0,0,0,68,70,137,130,42,120.42,49,-4.00,-7.00,-1028.00
2024-06-07 00:58:04.355761,0,0,22,0,0,0,68,70,137,130,42,120.39,49,-18.00,7.00,-984.00
2024-06-07 00:58:04.457804,0,0,22,0,0,0,68,70,137,130,42,120.42,49,-33.00,24.00,-1017.00
2024-06-07 00:58:04.560490,0,0,22,0,0,0,68,70,137,130,42,120.42,49,-16.00,13.00,-999.00
2024-06-07 00:58:04.662632,0,0,22,0,0,0,68,70,137,130,42,120.39,50,7.00,-4.00,-994.00
2024-06-07 00:58:04.782136,0,0,22,0,0,0,68,70,137,130,42,120.42,50,5.00,-8.00,-982.00
2024-06-07 00:58:04.866488,0,0,22,0,0,0,68,71,138,130,42,120.42,50,17.00,17.00,-1085.00
2024-06-07 00:58:04.968455,0,0,22,0,0,0,68,71,138,130,42,120.44,50,-10.00,12.00,-1013.00
2024-06-07 00:58:05.089526,0,0,22,0,0,0,68,71,139,130,42,120.39,50,-14.00,-8.00,-1036.00
2024-06-07 00:58:05.177763,0,0,22,0,0,0,68,71,139,130,42,120.42,50,-2.00,3.00,-968.00
2024-06-07 00:58:05.274423,0,0,22,0,0,0,68,71,140,130,42,120.40,50,-24.00,18.00,-1004.00
2024-06-07 00:58:05.396441,0,0,22,0,0,0,68,71,139,130,42,120.47,50,-12.00,10.00,-986.00
2024-06-07 00:58:05.478544,0,0,22,0,0,0,68,71,139,130,42,120.43,50,16.00,2.00,-997.00
2024-06-07 00:58:05.601784,-1,0,22,0,0,0,68,71,140,130,42,120.36,50,-40.00,42.00,-1040.00
2024-06-07 00:58:05.682519,-1,0,22,0,0,0,68,71,140,130,42,120.43,51,-8.00,11.00,-1026.00
2024-06-07 00:58:05.733717,-1,0,22,0,0,0,68,71,140,130,42,120.41,51,-34.00,33.00,-1007.00
2024-06-07 00:58:05.908459,-1,0,22,0,0,0,68,71,140,130,42,120.37,51,-20.00,2.00,-953.00
2024-06-07 00:58:05.937867,-1,0,21,0,0,0,68,71,140,130,42,120.40,51,-33.00,17.00,-1016.00
2024-06-07 00:58:06.040119,-1,0,21,0,0,0,68,71,139,130,42,120.44,51,-12.00,7.00,-1000.00
2024-06-07 00:58:06.141574,-1,0,21,0,0,0,68,71,139,130,42,120.37,51,-51.00,43.00,-1011.00
2024-06-07 00:58:06.320886,0,0,22,0,0,0,68,71,139,130,42,120.38,51,-17.00,21.00,-1017.00
2024-06-07 00:58:06.345240,0,0,22,0,0,0,68,71,138,130,42,120.36,51,-37.00,23.00,-987.00
2024-06-07 00:58:06.523337,0,0,22,0,0,0,68,71,138,130,42,120.40,51,-28.00,-5.00,-984.00
2024-06-07 00:58:06.549206,0,0,21,0,0,0,68,71,138,130,42,120.42,51,3.00,-3.00,-1002.00
2024-06-07 00:58:06.728155,0,0,21,0,0,0,68,71,138,130,42,120.39,52,7.00,0.00,-1007.00
2024-06-07 00:58:06.754450,0,0,22,0,0,0,68,71,138,130,42,120.43,52,0.00,25.00,-997.00
2024-06-07 00:58:06.932562,0,0,22,0,0,0,68,71,138,130,42,120.37,52,-54.00,42.00,-989.00
2024-06-07 00:58:06.958030,0,0,22,0,0,0,68,71,137,130,42,120.38,52,-22.00,2.00,-1026.00
2024-06-07 00:58:07.059464,0,0,22,0,0,0,68,71,137,130,42,120.43,52,-13.00,4.00,-1003.00
2024-06-07 00:58:07.163921,-1,0,22,0,0,0,68,71,137,130,42,120.44,52,-27.00,32.00,-989.00
2024-06-07 00:58:07.263398,-1,0,22,0,0,0,68,71,137,130,42,120.30,52,-42.00,-7.00,-1008.00
2024-06-07 00:58:07.444468,-1,0,22,0,0,0,68,71,135,130,42,120.44,52,6.00,-6.00,-1003.00
2024-06-07 00:58:07.467653,-1,0,22,0,0,0,68,71,136,130,42,120.46,52,-14.00,29.00,-938.00
2024-06-07 00:58:07.592954,0,0,22,0,0,0,68,71,136,130,42,120.30,52,-1.00,-2.00,-990.00
2024-06-07 00:58:07.671158,0,0,22,0,0,0,68,71,136,130,42,120.41,53,-47.00,32.00,-1010.00
2024-06-07 00:58:07.775206,0,0,22,0,0,0,68,71,136,130,42,120.39,53,10.00,14.00,-1039.00
2024-06-07 00:58:07.875133,0,0,22,0,0,0,68,72,136,130,42,120.38,53,-23.00,-2.00,-969.00
2024-06-07 00:58:08.059212,0,0,22,0,0,0,68,72,136,130,42,120.41,53,-20.00,14.00,-985.00
2024-06-07 00:58:08.079071,0,0,22,0,0,0,68,72,136,130,42,120.47,53,-14.00,16.00,-974.00
2024-06-07 00:58:08.181736,0,0,22,0,0,0,68,72,136,130,42,120.42,53,-6.00,6.00,-987.00
2024-06-07 00:58:08.283104,0,0,22,0,0,0,68,72,136,130,42,120.43,53,-25.00,6.00,-964.00
2024-06-07 00:58:08.468841,0,0,22,0,0,0,68,72,137,130,42,120.39,53,-16.00,-22.00,-977.00
2024-06-07 00:58:08.487786,0,0,22,0,0,0,68,72,137,130,42,120.42,53,-25.00,21.00,-974.00
2024-06-07 00:58:08.673562,-1,0,22,0,0,0,68,72,136,130,42,120.46,53,-14.00,28.00,-1004.00
2024-06-07 00:58:08.694005,-1,0,22,0,0,0,68,72,137,130,42,120.39,54,-26.00,12.00,-995.00
2024-06-07 00:58:08.793242,-1,0,22,0,0,0,68,72,136,130,42,120.40,54,-23.00,-8.00,-973.00
2024-06-07 00:58:08.983434,-1,0,22,0,0,0,69,72,137,130,42,120.37,54,23.00,13.00,-1018.00
2024-06-07 00:58:08.996894,-1,0,22,0,0,0,69,72,137,130,42,120.33,54,-26.00,28.00,-1008.00
2024-06-07 00:58:09.147098,0,0,22,0,0,0,69,72,136,130,42,120.36,54,7.00,3.00,-1042.00
2024-06-07 00:58:09.200994,0,0,22,0,0,0,69,72,136,130,42,120.35,54,-5.00,35.00,-1009.00
2024-06-07 00:58:09.389876,0,0,22,0,0,0,69,72,136,130,42,120.43,54,-2.00,4.00,-1031.00
2024-06-07 00:58:09.404870,0,0,22,0,0,0,69,72,136,130,42,120.38,54,-8.00,9.00,-1013.00
2024-06-07 00:58:09.506925,0,0,22,0,0,0,69,72,135,130,42,120.39,54,-24.00,10.00,-1070.00
2024-06-07 00:58:09.557913,0,0,22,0,0,0,69,72,135,130,42,120.42,54,-29.00,11.00,-1017.00
2024-06-07 00:58:09.698953,-1,0,22,0,0,0,69,72,135,130,42,120.38,55,-7.00,-12.00,-977.00
2024-06-07 00:58:09.762007,-1,0,22,0,0,0,69,72,135,130,42,120.35,55,-24.00,17.00,-985.00
2024-06-07 00:58:10.004566,-1,0,22,0,0,0,69,71,135,130,42,120.35,55,-17.00,16.00,-973.00
2024-06-07 00:58:10.016995,-1,0,22,0,0,0,69,71,136,130,42,120.39,55,-16.00,0.00,-1024.00
2024-06-07 00:58:10.068166,-1,0,22,0,0,0,69,71,137,130,42,120.39,55,6.00,-21.00,-957.00
2024-06-07 00:58:10.209635,0,0,22,0,0,0,69,71,136,130,42,120.39,55,-6.00,11.00,-981.00
2024-06-07 00:58:10.271920,0,0,22,0,0,0,69,71,137,130,42,120.44,55,-32.00,28.00,-984.00
2024-06-07 00:58:10.375093,0,0,22,0,0,0,69,71,137,130,42,120.46,55,-23.00,-8.00,-1001.00
2024-06-07 00:58:10.478744,0,0,22,0,0,0,69,71,136,130,42,120.43,55,31.00,-3.00,-1004.00
2024-06-07 00:58:10.579785,0,0,22,0,0,0,69,71,137,130,42,120.47,55,-20.00,-1.00,-958.00
2024-06-07 00:58:10.680020,0,0,22,0,0,0,69,71,137,130,42,120.44,56,-44.00,0.00,-989.00
2024-06-07 00:58:10.782500,0,0,22,0,0,0,69,71,137,130,42,120.47,56,-38.00,24.00,-1057.00
2024-06-07 00:58:10.883897,0,0,22,0,0,0,69,70,137,130,42,120.44,56,-13.00,15.00,-1016.00
2024-06-07 00:58:11.028324,0,0,22,0,0,0,69,70,137,130,42,120.47,56,6.00,-6.00,-978.00
2024-06-07 00:58:11.087903,0,0,22,0,0,0,69,70,137,130,42,120.44,56,12.00,9.00,-957.00
2024-06-07 00:58:11.189920,0,0,22,0,0,0,69,70,137,130,42,120.43,56,2.00,9.00,-997.00
2024-06-07 00:58:11.291910,0,0,22,0,0,0,69,70,137,130,42,120.44,56,-6.00,13.00,-989.00
2024-06-07 00:58:11.393865,0,0,22,0,0,0,69,70,136,130,42,120.52,56,-31.00,-6.00,-989.00
2024-06-07 00:58:11.496722,0,0,22,0,0,0,69,70,136,130,42,120.38,56,-11.00,13.00,-997.00
2024-06-07 00:58:11.648149,0,0,22,0,0,0,69,70,136,130,42,120.48,56,-5.00,6.00,-1016.00
2024-06-07 00:58:11.699828,0,0,22,0,0,0,69,70,137,130,42,120.46,57,-2.00,-4.00,-1017.00
2024-06-07 00:58:11.852111,0,0,22,0,0,0,69,70,137,130,42,120.43,57,-20.00,23.00,-1032.00
2024-06-07 00:58:11.903814,0,0,22,0,0,0,69,71,137,130,42,120.41,57,-24.00,10.00,-992.00
2024-06-07 00:58:12.053514,0,0,22,0,0,0,69,71,137,130,42,120.44,57,-7.00,12.00,-984.00
2024-06-07 00:58:12.108146,0,0,22,0,0,0,69,71,137,130,42,120.40,57,-19.00,10.00,-1034.00
2024-06-07 00:58:12.210267,0,0,22,0,0,0,69,71,137,130,42,120.41,57,-16.00,4.00,-1048.00
2024-06-07 00:58:12.359743,0,0,22,0,0,0,69,71,138,130,42,120.43,57,-4.00,3.00,-1036.00
2024-06-07 00:58:12.413717,0,0,22,0,0,0,69,71,138,130,42,120.43,57,-14.00,-17.00,-1003.00
2024-06-07 00:58:12.515991,0,0,22,0,0,0,69,71,139,130,42,120.45,57,-15.00,-1.00,-1010.00
2024-06-07 00:58:12.669752,0,0,22,0,0,0,69,71,139,130,42,120.44,57,1.00,-18.00,-975.00
2024-06-07 00:58:12.720085,0,0,22,0,0,0,69,71,138,130,42,120.34,58,-13.00,6.00,-946.00
2024-06-07 00:58:12.874902,0,0,22,0,0,0,69,71,138,130,42,120.42,58,-1.00,4.00,-981.00
2024-06-07 00:58:12.923674,0,0,22,0,0,0,68,71,138,130,42,120.37,58,12.00,0.00,-972.00
2024-06-07 00:58:13.077394,0,0,22,0,0,0,68,71,137,130,42,120.37,58,17.00,0.00,-979.00
2024-06-07 00:58:13.127664,0,0,22,0,0,0,68,71,136,130,42,120.36,58,-5.00,15.00,-969.00
2024-06-07 00:58:13.284156,0,0,22,0,0,0,68,71,135,130,42,120.36,58,-50.00,19.00,-1054.00
2024-06-07 00:58:13.284321,0,0,22,0,0,0,68,71,134,130,42,120.48,58,-17.00,28.00,-976.00
2024-06-07 00:58:13.383488,0,0,22,0,0,0,68,71,133,130,42,120.43,58,-26.00,21.00,-1019.00
2024-06-07 00:58:13.589131,0,0,22,0,0,0,68,71,132,130,42,120.32,58,17.00,9.00,-1010.00
2024-06-07 00:58:13.589578,0,0,22,0,0,0,68,71,131,130,42,120.32,58,-9.00,16.00,-1059.00
2024-06-07 00:58:13.688698,0,0,22,0,0,0,68,71,129,130,42,120.35,59,0.00,-13.00,-960.00
2024-06-07 00:58:13.796598,0,0,22,0,0,0,68,71,128,130,42,120.31,59,-4.00,10.00,-993.00
2024-06-07 00:58:13.997930,0,0,22,0,0,0,70,71,128,130,42,120.31,59,2.00,4.00,-1029.00
2024-06-07 00:58:14.045671,0,0,22,0,0,0,70,71,127,130,42,120.31,59,-15.00,6.00,-1008.00
2024-06-07 00:58:14.096490,0,0,22,0,0,0,70,71,127,130,42,120.30,59,-29.00,15.00,-1010.00
2024-06-07 00:58:14.205711,0,0,22,0,0,0,70,71,126,130,42,120.37,59,6.00,-7.00,-1006.00
2024-06-07 00:58:14.300653,0,0,22,0,0,0,70,71,127,130,42,120.27,59,-15.00,20.00,-1035.00
2024-06-07 00:58:14.407467,0,0,22,0,0,0,70,71,126,130,42,120.27,59,-10.00,4.00,-1025.00
2024-06-07 00:58:14.504753,0,0,22,0,0,0,70,71,126,130,42,120.37,59,0.00,9.00,-1001.00
2024-06-07 00:58:14.615613,0,0,22,0,0,0,70,71,127,130,42,120.33,59,-18.00,29.00,-1032.00
2024-06-07 00:58:14.709086,0,0,22,0,0,0,70,71,128,130,42,120.30,60,-8.00,4.00,-943.00
2024-06-07 00:58:14.818888,0,0,22,0,0,0,70,71,128,130,42,120.36,60,19.00,7.00,-995.00
2024-06-07 00:58:14.912890,0,0,22,0,0,0,69,71,128,130,42,120.37,60,-13.00,9.00,-965.00
2024-06-07 00:58:15.021681,0,0,22,0,0,0,69,71,129,130,42,120.37,60,15.00,-2.00,-998.00
2024-06-07 00:58:15.116931,0,0,22,0,0,0,69,71,129,130,42,120.35,60,-21.00,18.00,-1051.00
2024-06-07 00:58:15.221021,0,0,22,0,0,0,69,71,130,130,42,120.40,60,13.00,30.00,-1023.00
2024-06-07 00:58:15.320563,0,0,22,0,0,0,69,71,130,130,42,120.38,60,-8.00,20.00,-978.00
2024-06-07 00:58:15.431424,0,0,22,0,0,0,69,71,131,130,42,120.42,60,-4.00,26.00,-989.00
2024-06-07 00:58:15.524596,0,0,22,0,0,0,69,71,131,130,42,120.41,60,7.00,28.00,-993.00
2024-06-07 00:58:15.637689,0,0,22,0,0,0,69,71,132,130,42,120.33,60,8.00,7.00,-984.00
2024-06-07 00:58:15.728507,0,0,22,0,0,0,69,71,132,130,42,120.37,61,-8.00,-2.00,-985.00
2024-06-07 00:58:15.830464,0,0,22,0,0,0,69,71,132,130,42,120.41,61,-5.00,17.00,-1053.00
2024-06-07 00:58:15.934723,0,0,22,0,0,0,69,71,133,130,42,120.33,61,-2.00,18.00,-1010.00
2024-06-07 00:58:16.034438,0,0,22,0,0,0,69,71,133,130,42,120.35,61,-8.00,10.00,-968.00
2024-06-07 00:58:16.148129,0,0,22,0,0,0,69,71,133,130,42,120.35,61,8.00,3.00,-999.00
2024-06-07 00:58:16.238337,0,0,22,0,0,0,69,71,133,130,42,120.30,61,-14.00,30.00,-1017.00
2024-06-07 00:58:16.353709,0,0,22,0,0,0,69,71,133,130,42,120.37,61,2.00,10.00,-969.00
2024-06-07 00:58:16.442338,0,0,22,0,0,0,69,71,133,130,42,120.39,61,-5.00,16.00,-1000.00
2024-06-07 00:58:16.545735,0,0,22,0,0,0,69,71,134,130,41,120.32,61,0.00,12.00,-999.00
2024-06-07 00:58:16.646472,0,0,22,0,0,0,69,71,133,130,41,120.37,61,-25.00,15.00,-1007.00
2024-06-07 00:58:16.762530,0,0,22,0,0,0,69,71,134,130,41,120.45,62,42.00,1.00,-968.00
2024-06-07 00:58:16.851544,0,0,22,0,0,0,69,71,133,130,41,120.35,62,-3.00,5.00,-999.00
2024-06-07 00:58:16.967156,0,0,22,0,0,0,69,71,134,130,41,120.43,62,8.00,3.00,-1011.00
2024-06-07 00:58:17.115569,0,0,22,0,0,0,69,71,134,130,41,120.35,62,-1.00,8.00,-1002.00
2024-06-07 00:58:17.163960,0,0,22,0,0,0,69,71,134,130,41,120.38,62,3.00,3.00,-990.00
2024-06-07 00:58:17.288431,0,0,22,0,0,0,69,71,135,130,41,120.43,62,13.00,2.00,-984.00
2024-06-07 00:58:17.442244,0,0,22,0,0,0,69,71,135,130,41,120.41,62,-7.00,16.00,-1032.00
2024-06-07 00:58:17.462299,0,0,22,0,0,0,69,71,135,130,41,120.31,62,-21.00,7.00,-968.00
2024-06-07 00:58:17.560487,0,0,22,0,0,0,69,71,135,130,41,120.33,62,8.00,15.00,-1015.00
2024-06-07 00:58:17.627385,0,0,22,0,0,0,69,71,136,130,41,120.36,62,-8.00,7.00,-984.00
2024-06-07 00:58:17.735433,0,0,22,0,0,0,69,71,136,130,41,120.28,63,-9.00,14.00,-1004.00
2024-06-07 00:58:17.888429,0,0,22,0,0,0,69,71,136,130,41,120.35,63,13.00,-5.00,-961.00
2024-06-07 00:58:17.966878,0,0,22,0,0,0,69,70,137,130,41,120.33,63,0.00,15.00,-973.00
2024-06-07 00:58:18.023310,0,0,22,0,0,0,69,70,137,130,41,120.34,63,-5.00,6.00,-1022.00
2024-06-07 00:58:18.196552,0,0,22,0,0,0,69,70,137,130,41,120.42,63,-15.00,6.00,-981.00
2024-06-07 00:58:18.249845,0,0,22,0,0,0,69,70,137,130,41,120.35,63,-18.00,17.00,-1016.00
2024-06-07 00:58:18.339406,0,0,22,0,0,0,69,70,137,130,41,120.38,63,16.00,-8.00,-996.00
2024-06-07 00:58:18.519315,0,0,22,0,0,0,69,70,138,130,41,120.36,63,0.00,9.00,-1015.00
2024-06-07 00:58:18.533231,0,0,22,0,0,0,69,70,138,130,41,120.28,63,28.00,-8.00,-957.00
2024-06-07 00:58:18.662714,0,0,22,0,0,0,69,70,138,130,41,120.29,63,-20.00,-7.00,-1032.00
2024-06-07 00:58:18.821076,0,0,22,0,0,0,69,70,138,130,41,120.35,64,0.00,10.00,-1001.00
2024-06-07 00:58:18.839086,0,0,22,0,0,0,69,70,138,130,41,120.35,64,12.00,18.00,-965.00
2024-06-07 00:58:18.964785,0,0,22,0,0,0,69,71,137,130,41,120.35,64,-40.00,25.00,-941.00
2024-06-07 00:58:19.133183,0,0,22,0,0,1,69,71,136,130,41,120.36,64,2.00,0.00,-913.00
2024-06-07 00:58:19.145037,0,0,22,0,0,2,69,71,134,130,41,120.36,64,2.00,-10.00,-898.00
2024-06-07 00:58:19.289749,0,0,22,0,0,3,69,71,132,130,41,120.32,64,-9.00,-12.00,-887.00
2024-06-07 00:58:19.359356,0,0,22,0,0,4,69,71,129,120,41,120.29,64,-34.00,30.00,-909.00
2024-06-07 00:58:19.451003,0,0,22,0,0,5,69,71,124,120,41,120.18,64,-15.00,19.00,-901.00
2024-06-07 00:58:19.553064,0,0,21,0,0,6,69,71,118,110,41,120.16,64,-17.00,-10.00,-886.00
2024-06-07 00:58:19.655078,0,0,22,0,0,7,69,71,111,110,41,120.06,65,-20.00,23.00,-887.00
2024-06-07 00:58:19.834137,0,0,22,0,0,7,69,71,104,100,41,119.98,65,-6.00,-3.00,-958.00
2024-06-07 00:58:19.859046,0,0,22,0,0,7,69,71,96,90,41,119.95,65,-38.00,13.00,-979.00
2024-06-07 00:58:19.961236,0,0,22,0,0,7,69,71,88,80,41,119.88,65,2.00,-5.00,-1021.00
2024-06-07 00:58:20.141435,0,0,22,0,0,7,69,71,81,80,41,119.76,65,-37.00,30.00,-1059.00
2024-06-07 00:58:20.164993,0,0,22,0,0,6,69,71,74,70,41,119.67,65,-21.00,12.00,-1039.00
2024-06-07 00:58:20.346451,0,0,22,0,0,6,69,71,68,60,41,119.59,65,-34.00,18.00,-1076.00
2024-06-07 00:58:20.369007,0,0,22,0,0,5,69,71,62,60,41,119.59,65,-12.00,0.00,-1041.00
2024-06-07 00:58:20.470968,0,0,22,0,0,5,69,71,56,50,41,119.52,65,25.00,4.00,-1005.00
2024-06-07 00:58:20.573025,0,0,22,0,0,4,69,71,51,50,41,119.37,65,-2.00,1.00,-1037.00
2024-06-07 00:58:20.755729,0,0,22,0,0,4,69,71,46,40,41,119.42,66,-15.00,0.00,-1008.00
2024-06-07 00:58:20.777024,0,0,22,0,0,4,69,71,42,40,41,119.33,66,-9.00,-3.00,-1025.00
