TS,pitch,roll,yaw,vgx,vgy,vgz,templ,temph,tof,h,bat,baro,time,agx,agy,agz
2024-06-07 00:58:54.231451,0,0,11,0,0,0,73,76,10,0,41,118.85,67,10.00,11.00,-999.00
2024-06-07 00:58:54.341642,0,0,11,0,0,0,73,76,10,0,41,118.84,67,10.00,12.00,-1001.00
2024-06-07 00:58:54.437967,0,0,11,0,0,0,73,76,10,0,41,118.86,67,10.00,10.00,-999.00
2024-06-07 00:58:54.537211,0,0,11,0,0,0,73,76,10,0,41,118.92,67,11.00,12.00,-999.00
2024-06-07 00:58:54.639089,0,0,11,0,0,0,73,76,10,0,41,118.85,67,9.00,10.00,-1001.00
2024-06-07 00:58:54.751090,0,0,11,0,0,0,73,76,10,0,41,118.86,67,11.00,11.00,-1003.00
2024-06-07 00:58:54.843201,0,0,11,0,0,0,73,76,10,0,41,118.91,67,8.00,11.00,-1002.00
2024-06-07 00:58:54.955946,0,0,11,0,0,0,73,76,10,0,41,118.88,67,9.00,12.00,-1001.00
2024-06-07 00:58:55.047056,0,0,11,0,0,0,73,76,10,0,41,118.85,67,9.00,10.00,-1001.00
2024-06-07 00:58:55.160685,0,0,11,0,0,0,73,76,10,0,41,118.86,67,9.00,10.00,-1000.00
2024-06-07 00:58:55.251080,0,0,11,0,0,0,73,76,10,0,41,118.85,67,9.00,10.00,-1000.00
2024-06-07 00:58:55.365497,0,0,11,0,0,0,73,76,10,0,41,118.85,67,10.00,13.00,-1000.00
2024-06-07 00:58:55.455112,0,0,11,0,0,0,73,76,10,0,41,118.89,67,9.00,12.00,-1002.00
2024-06-07 00:58:55.570384,0,0,11,0,0,0,73,76,10,0,41,118.88,67,10.00,13.00,-1001.00
2024-06-07 00:58:55.658907,0,0,11,0,0,0,73,76,10,0,41,118.83,67,9.00,10.00,-997.00
2024-06-07 00:58:55.709824,0,0,11,0,0,0,73,76,10,0,41,118.88,67,10.00,10.00,-998.00
2024-06-07 00:58:55.877689,0,0,11,0,0,0,73,76,10,0,41,118.89,67,10.00,10.00,-1002.00
2024-06-07 00:58:55.914000,0,0,11,0,0,0,73,76,10,0,41,118.88,67,10.00,11.00,-1000.00
2024-06-07 00:58:56.082352,0,0,11,0,0,0,73,76,10,0,41,118.89,67,9.00,11.00,-999.00
2024-06-07 00:58:56.118026,0,0,11,0,0,0,73,76,10,0,41,118.87,67,10.00,12.00,-1000.00
2024-06-07 00:58:56.220099,0,0,11,0,0,0,73,76,10,0,41,118.90,67,10.00,11.00,-1003.00
2024-06-07 00:58:56.321897,0,0,11,0,0,0,73,76,10,0,41,118.91,67,9.00,13.00,-1000.00
2024-06-07 00:58:56.492544,0,0,11,0,0,0,73,76,10,0,41,118.91,67,3.00,6.00,-997.00
2024-06-07 00:58:56.525885,0,0,11,0,0,0,73,76,10,0,41,118.91,67,11.00,6.00,-1002.00
2024-06-07 00:58:56.697234,0,0,11,0,0,0,73,76,10,0,41,118.91,67,-8.00,16.00,-998.00
2024-06-07 00:58:56.729801,0,0,12,0,0,0,73,76,10,0,41,118.91,67,70.00,11.00,-987.00
2024-06-07 00:58:56.901320,0,0,13,0,0,0,73,76,10,0,41,118.91,67,8.00,0.00,-1042.00
2024-06-07 00:58:56.933648,0,0,14,0,0,0,73,76,10,0,41,118.91,67,14.00,-9.00,-1070.00
2024-06-07 00:58:57.106045,0,0,14,0,0,0,73,76,10,0,41,118.91,67,8.00,5.00,-1158.00
2024-06-07 00:58:57.137860,0,1,14,0,0,-4,75,77,10,0,41,118.91,67,-38.00,25.00,-1306.00
2024-06-07 00:58:57.311576,-1,0,14,0,0,-6,75,77,13,0,41,118.91,68,19.00,3.00,-1201.00
2024-06-07 00:58:57.341676,-1,0,14,0,0,-7,75,77,20,10,41,119.22,68,-39.00,17.00,-1086.00
2024-06-07 00:58:57.516001,-1,0,14,0,0,-7,75,77,29,20,41,119.23,68,-3.00,8.00,-1025.00
2024-06-07 00:58:57.545817,-1,0,14,0,0,-7,75,77,37,20,41,119.40,68,-13.00,0.00,-987.00
2024-06-07 00:58:57.647730,-1,0,14,0,0,-7,75,77,45,30,41,119.50,68,-2.00,-26.00,-953.00
2024-06-07 00:58:57.822810,0,0,14,0,0,-6,75,77,52,40,41,119.52,68,-24.00,4.00,-950.00
2024-06-07 00:58:57.851793,0,0,14,0,0,-5,75,77,58,40,41,119.56,68,3.00,11.00,-910.00
2024-06-07 00:58:58.029396,0,0,14,0,0,-4,75,77,63,50,41,119.65,68,-25.00,42.00,-910.00
2024-06-07 00:58:58.055763,0,0,14,0,0,-3,75,77,68,50,41,119.71,68,14.00,-16.00,-906.00
2024-06-07 00:58:58.232453,0,0,14,0,0,-2,74,76,72,50,41,119.78,68,2.00,-13.00,-866.00
2024-06-07 00:58:58.259650,0,0,14,0,0,-1,74,76,74,60,41,119.77,69,8.00,0.00,-897.00
2024-06-07 00:58:58.437215,0,0,14,0,0,0,74,76,76,60,41,119.77,69,-14.00,3.00,-938.00
2024-06-07 00:58:58.463654,0,0,14,0,0,0,74,76,78,60,41,119.78,69,-23.00,23.00,-962.00
2024-06-07 00:58:58.642375,0,0,14,0,0,0,74,76,78,60,41,119.79,69,3.00,7.00,-972.00
2024-06-07 00:58:58.667582,0,0,14,0,0,0,74,76,79,60,41,119.81,69,-15.00,8.00,-981.00
2024-06-07 00:58:58.847239,0,0,14,0,0,0,74,76,80,60,41,119.93,69,-16.00,7.00,-1033.00
2024-06-07 00:58:58.871701,0,0,14,0,0,0,74,76,81,60,41,119.77,69,-15.00,0.00,-1004.00
2024-06-07 00:58:59.051627,0,0,14,0,0,0,74,76,82,60,41,119.89,69,-13.00,-5.00,-927.00
2024-06-07 00:58:59.075645,0,0,14,0,0,0,74,76,83,60,41,119.88,69,5.00,-3.00,-1009.00
2024-06-07 00:58:59.192611,0,0,14,0,0,0,73,76,84,60,41,119.88,69,-6.00,0.00,-994.00
2024-06-07 00:58:59.279644,0,0,14,0,0,0,73,76,85,60,41,119.88,70,-42.00,-4.00,-1018.00
2024-06-07 00:58:59.458843,0,0,14,0,0,0,73,76,86,60,41,119.84,70,-7.00,14.00,-976.00
2024-06-07 00:58:59.483579,0,0,14,0,0,0,73,76,86,60,41,119.83,70,0.00,-4.00,-962.00
2024-06-07 00:58:59.534529,0,0,14,0,0,0,73,76,87,70,41,119.87,70,-28.00,15.00,-982.00
2024-06-07 00:58:59.637076,0,0,14,0,0,0,73,76,87,70,41,119.88,70,15.00,1.00,-981.00
2024-06-07 00:58:59.768967,0,0,14,0,0,0,73,76,87,70,41,119.95,70,-12.00,6.00,-996.00
2024-06-07 00:58:59.842511,0,0,14,0,0,0,73,76,87,70,41,119.91,70,1.00,9.00,-979.00
2024-06-07 00:58:59.942590,0,0,14,0,0,0,73,76,87,70,41,119.80,70,8.00,-11.00,-977.00
2024-06-07 00:59:00.075645,0,0,14,0,0,0,73,76,87,70,41,119.85,70,-3.00,7.00,-990.00
2024-06-07 00:59:00.147050,0,0,14,0,0,0,74,76,86,70,41,119.87,70,-14.00,4.00,-984.00
2024-06-07 00:59:00.283238,0,0,14,0,0,0,74,76,85,70,41,119.87,71,-22.00,15.00,-993.00
2024-06-07 00:59:00.350621,0,0,14,0,0,0,74,76,85,70,41,119.84,71,-32.00,0.00,-997.00
2024-06-07 00:59:00.485172,0,0,14,0,0,0,74,76,85,70,41,119.77,71,14.00,-4.00,-1000.00
2024-06-07 00:59:00.554849,0,0,14,0,0,0,74,76,84,70,41,119.80,71,3.00,5.00,-989.00
2024-06-07 00:59:00.656672,0,0,14,0,0,0,74,76,83,60,41,119.80,71,-17.00,13.00,-1014.00
2024-06-07 00:59:00.792335,0,0,14,0,0,0,74,76,82,60,41,119.77,71,-4.00,8.00,-1002.00
2024-06-07 00:59:00.860515,0,0,14,0,0,0,74,76,81,60,41,119.78,71,1.00,-12.00,-978.00
2024-06-07 00:59:00.997318,0,0,14,0,0,0,74,76,81,60,41,119.89,71,-5.00,7.00,-1040.00
2024-06-07 00:59:01.064511,0,0,14,0,0,0,74,76,80,60,41,119.82,71,-7.00,4.00,-1006.00
2024-06-07 00:59:01.202326,0,0,14,0,0,0,73,76,79,60,41,119.80,71,-5.00,4.00,-1027.00
2024-06-07 00:59:01.268418,0,0,14,0,0,0,73,76,79,60,41,119.84,72,5.00,-4.00,-910.00
2024-06-07 00:59:01.407317,0,0,14,0,0,0,73,76,79,60,41,119.80,72,-7.00,6.00,-1024.00
2024-06-07 00:59:01.475564,0,0,14,0,0,0,73,76,78,60,41,119.81,72,-7.00,13.00,-1027.00
2024-06-07 00:59:01.574532,0,0,14,0,0,0,73,76,78,60,41,119.81,72,-4.00,-5.00,-978.00
2024-06-07 00:59:01.676370,0,0,14,0,0,0,73,76,78,60,41,119.80,72,-6.00,11.00,-982.00
2024-06-07 00:59:01.816781,0,0,14,0,0,0,73,76,77,60,41,119.78,72,15.00,-6.00,-972.00
2024-06-07 00:59:01.881467,0,0,14,0,0,0,73,76,77,60,41,119.76,72,-5.00,3.00,-995.00
2024-06-07 00:59:02.103037,0,0,14,0,0,0,73,76,76,60,41,119.73,72,-5.00,9.00,-998.00
2024-06-07 00:59:02.103758,0,0,14,0,0,0,73,76,76,60,41,119.75,72,-17.00,10.00,-1037.00
2024-06-07 00:59:02.278450,0,0,14,0,0,0,74,76,76,60,41,119.79,72,-23.00,0.00,-1015.00
2024-06-07 00:59:02.292582,0,0,14,0,0,0,74,76,76,60,41,119.82,73,-16.00,5.00,-1001.00
2024-06-07 00:59:02.449985,0,0,14,0,0,0,74,76,76,60,41,119.87,73,-49.00,11.00,-1043.00
2024-06-07 00:59:02.496580,0,0,14,0,0,0,74,76,76,60,41,119.81,73,-4.00,1.00,-993.00
2024-06-07 00:59:02.596197,0,0,14,0,0,0,74,76,77,60,41,119.87,73,5.00,5.00,-996.00
2024-06-07 00:59:02.780394,0,0,14,0,0,0,74,76,77,60,41,119.81,73,-12.00,1.00,-992.00
2024-06-07 00:59:02.799447,0,0,14,0,0,0,74,76,77,60,41,119.86,73,-2.00,5.00,-1005.00
2024-06-07 00:59:02.901507,0,0,14,0,0,0,74,76,77,60,41,119.86,73,-8.00,0.00,-992.00
2024-06-07 00:59:03.058336,0,0,14,0,0,0,74,76,78,60,41,119.86,73,-2.00,2.00,-978.00
2024-06-07 00:59:03.058558,0,0,14,0,0,0,74,76,78,60,41,119.86,73,15.00,-9.00,-956.00
2024-06-07 00:59:03.240774,0,0,14,0,0,0,73,76,78,60,41,119.80,73,0.00,0.00,-990.00
2024-06-07 00:59:03.384227,0,0,14,0,0,0,73,76,78,60,41,119.90,74,-16.00,7.00,-1004.00
2024-06-07 00:59:03.527564,0,0,14,0,0,0,73,76,79,60,41,119.79,74,7.00,0.00,-991.00
2024-06-07 00:59:03.527779,0,0,14,0,0,0,73,76,78,60,41,119.84,74,-36.00,22.00,-992.00
2024-06-07 00:59:03.672854,0,0,14,0,0,0,73,76,79,60,41,119.83,74,-2.00,-8.00,-1008.00
2024-06-07 00:59:03.673097,0,0,14,0,0,0,73,76,79,60,41,119.85,74,0.00,-12.00,-1008.00
2024-06-07 00:59:03.814384,0,0,14,0,0,0,73,76,79,60,41,119.83,74,-7.00,0.00,-1002.00
2024-06-07 00:59:03.982640,0,0,14,0,0,0,73,76,79,60,41,119.86,74,0.00,-11.00,-996.00
2024-06-07 00:59:03.982846,0,0,14,0,0,0,73,76,80,60,41,119.83,74,-21.00,11.00,-998.00
2024-06-07 00:59:04.121540,0,0,14,0,0,0,73,76,80,60,41,119.91,74,-6.00,0.00,-1000.00
2024-06-07 00:59:04.286911,0,0,14,0,0,0,73,75,80,60,41,119.88,74,2.00,-7.00,-1002.00
2024-06-07 00:59:04.287115,0,0,14,0,0,0,73,75,80,60,41,119.82,75,-8.00,0.00,-991.00
2024-06-07 00:59:04.429018,0,0,14,0,0,0,73,75,80,60,41,119.88,75,5.00,-5.00,-959.00
2024-06-07 00:59:04.594136,0,0,14,0,0,0,73,75,80,60,41,119.89,75,-38.00,31.00,-999.00
2024-06-07 00:59:04.594292,0,0,14,0,0,0,73,75,80,60,41,119.89,75,-14.00,0.00,-997.00
2024-06-07 00:59:04.735363,0,0,14,0,0,0,73,75,80,60,41,119.88,75,11.00,-11.00,-976.00
2024-06-07 00:59:04.901277,0,0,14,0,0,0,73,75,80,60,41,119.85,75,0.00,-6.00,-1015.00
2024-06-07 00:59:04.901779,0,0,14,0,0,0,73,75,80,60,41,119.85,75,44.00,4.00,-1102.00
2024-06-07 00:59:04.992217,0,0,14,0,0,-1,73,75,82,60,41,119.91,75,-3.00,-2.00,-1107.00
2024-06-07 00:59:05.195454,0,0,14,0,0,-2,73,75,84,60,41,119.95,75,-20.00,5.00,-1117.00
2024-06-07 00:59:05.196030,0,0,14,0,0,-3,72,75,87,70,41,119.90,75,-2.00,1.00,-1074.00
2024-06-07 00:59:05.298246,0,0,14,0,0,-4,72,75,91,70,41,119.99,76,-14.00,-9.00,-1064.00
2024-06-07 00:59:05.400750,0,0,14,0,0,-4,72,75,96,80,41,120.09,76,-18.00,-1.00,-1048.00
2024-06-07 00:59:05.503710,0,0,14,0,0,-5,72,75,101,80,41,120.13,76,-5.00,0.00,-1039.00
2024-06-07 00:59:05.605030,0,0,14,0,0,-5,72,75,107,90,41,120.19,76,0.00,4.00,-1035.00
2024-06-07 00:59:05.707018,0,0,14,0,0,-5,72,75,112,90,41,120.24,76,49.00,-3.00,-1061.00
2024-06-07 00:59:05.811215,0,0,14,0,0,-5,72,75,117,100,41,120.19,76,3.00,7.00,-1031.00
2024-06-07 00:59:05.909971,0,0,14,0,0,-5,72,75,123,100,41,120.29,76,0.00,3.00,-982.00
2024-06-07 00:59:06.014636,0,0,14,0,0,-5,72,75,128,110,41,120.35,76,0.00,-3.00,-979.00
2024-06-07 00:59:06.114004,0,0,14,0,0,-5,72,75,133,110,41,120.41,76,-17.00,2.00,-988.00
2024-06-07 00:59:06.216101,0,0,14,0,0,-4,72,74,138,120,41,120.47,76,-6.00,-8.00,-965.00
2024-06-07 00:59:06.317945,0,0,14,0,0,-4,72,74,143,120,41,120.46,77,-17.00,17.00,-988.00
2024-06-07 00:59:06.424165,0,0,14,0,0,-4,72,74,148,130,41,120.52,77,-12.00,13.00,-982.00
2024-06-07 00:59:06.522032,0,0,14,0,0,-3,72,74,152,130,41,120.51,77,4.00,-2.00,-992.00
2024-06-07 00:59:06.624222,0,0,14,0,0,-3,72,74,156,130,41,120.59,77,9.00,0.00,-981.00
2024-06-07 00:59:06.731357,0,0,14,0,0,-3,72,74,159,140,41,120.65,77,10.00,5.00,-983.00
2024-06-07 00:59:06.828437,0,0,14,0,0,-3,72,74,163,140,41,120.63,77,-6.00,0.00,-942.00
2024-06-07 00:59:06.936097,0,0,14,0,0,-2,72,74,165,140,41,120.66,77,-5.00,0.00,-963.00
2024-06-07 00:59:07.033308,0,0,14,0,0,-2,72,74,168,150,41,120.68,77,22.00,8.00,-1004.00
2024-06-07 00:59:07.141623,0,0,14,0,0,-2,72,74,171,150,41,120.75,77,-6.00,-6.00,-960.00
2024-06-07 00:59:07.238527,0,0,14,0,0,-1,72,75,174,150,41,120.72,77,3.00,7.00,-972.00
2024-06-07 00:59:07.337923,0,0,14,0,0,-1,72,75,175,150,41,120.74,78,-8.00,16.00,-977.00
2024-06-07 00:59:07.440158,0,0,14,0,0,-1,72,75,178,160,41,120.85,78,-4.00,0.00,-955.00
2024-06-07 00:59:07.542109,0,0,14,0,0,-1,72,75,179,160,41,120.82,78,-23.00,6.00,-924.00
2024-06-07 00:59:07.597152,0,0,14,0,0,-1,72,75,180,160,41,120.79,78,0.00,14.00,-965.00
2024-06-07 00:59:07.695028,0,0,14,0,0,0,72,75,181,160,41,120.83,78,3.00,-10.00,-970.00
2024-06-07 00:59:07.797345,0,0,14,0,0,0,72,75,181,160,41,120.82,78,1.00,18.00,-1014.00
2024-06-07 00:59:07.960289,0,0,14,0,0,0,72,75,182,160,41,120.86,78,-15.00,0.00,-908.00
2024-06-07 00:59:08.001252,0,0,14,0,0,0,72,75,181,160,41,120.85,78,20.00,-2.00,-973.00
2024-06-07 00:59:08.165232,0,0,14,0,0,0,72,75,181,160,41,120.82,78,-32.00,37.00,-999.00
2024-06-07 00:59:08.205082,0,0,14,0,0,0,73,75,182,160,41,120.83,78,16.00,-3.00,-961.00
2024-06-07 00:59:08.369784,0,0,14,0,0,0,73,75,183,160,41,120.80,79,-2.00,14.00,-974.00
2024-06-07 00:59:08.409022,0,0,14,0,0,0,73,75,182,160,41,120.82,79,17.00,-3.00,-988.00
2024-06-07 00:59:08.574492,0,0,14,0,0,0,73,75,181,160,41,120.82,79,-7.00,24.00,-1042.00
2024-06-07 00:59:08.612962,0,0,14,0,0,0,73,75,182,160,41,120.83,79,-26.00,19.00,-1011.00
2024-06-07 00:59:08.715259,0,0,14,0,0,0,73,75,182,160,41,120.77,79,-7.00,15.00,-1008.00
2024-06-07 00:59:08.881838,0,0,14,0,0,0,73,75,182,160,41,120.85,79,5.00,7.00,-994.00
2024-06-07 00:59:08.918954,0,0,14,0,0,0,73,75,182,160,41,120.76,79,-5.00,19.00,-1016.00
2024-06-07 00:59:09.086609,0,0,14,0,0,0,73,75,181,160,41,120.78,79,-18.00,17.00,-1020.00
2024-06-07 00:59:09.123025,0,0,14,0,0,0,73,75,182,160,41,120.84,79,-14.00,3.00,-999.00
2024-06-07 00:59:09.291256,0,0,14,0,0,0,71,74,182,160,41,120.85,79,3.00,12.00,-1010.00
2024-06-07 00:59:09.326904,0,0,14,0,0,0,71,74,182,160,41,120.79,80,-3.00,15.00,-966.00
2024-06-07 00:59:09.429989,0,0,14,0,0,0,71,74,181,160,41,120.80,80,7.00,-3.00,-1038.00
2024-06-07 00:59:09.611618,0,0,14,0,0,0,71,74,182,160,41,120.78,80,3.00,0.00,-973.00
2024-06-07 00:59:09.632740,0,0,14,0,0,0,71,74,181,160,41,120.84,80,43.00,-26.00,-927.00
2024-06-07 00:59:09.803199,0,0,14,0,0,0,71,74,181,160,41,120.82,80,-7.00,23.00,-951.00
2024-06-07 00:59:09.837795,0,0,14,0,0,0,71,74,180,160,41,120.83,80,-24.00,6.00,-958.00
2024-06-07 00:59:10.007988,0,0,14,0,0,1,71,74,178,160,41,120.71,80,7.00,-3.00,-957.00
2024-06-07 00:59:10.040734,0,0,14,0,0,1,71,74,176,160,41,120.71,80,-3.00,22.00,-968.00
2024-06-07 00:59:10.212825,0,0,14,0,0,2,71,74,174,160,41,120.80,80,-22.00,29.00,-996.00
2024-06-07 00:59:10.244777,0,0,14,0,0,2,71,74,171,150,41,120.68,80,21.00,-9.00,-962.00
2024-06-07 00:59:10.418292,0,0,14,0,0,2,71,74,168,150,41,120.64,81,4.00,0.00,-977.00
2024-06-07 00:59:10.448672,0,0,14,0,0,2,71,74,165,150,41,120.62,81,-10.00,12.00,-967.00
2024-06-07 00:59:10.622416,0,0,14,0,0,2,71,74,163,140,41,120.60,81,24.00,11.00,-1000.00
2024-06-07 00:59:10.653296,0,0,14,0,0,2,71,74,159,140,41,120.54,81,10.00,15.00,-1004.00
2024-06-07 00:59:10.827132,0,0,14,0,0,2,71,74,157,140,41,120.60,81,16.00,11.00,-981.00
2024-06-07 00:59:10.856953,0,0,14,0,0,2,71,74,153,140,41,120.60,81,0.00,0.00,-1014.00
2024-06-07 00:59:11.032061,0,0,14,0,0,2,71,74,150,130,41,120.52,81,13.00,1.00,-1007.00
2024-06-07 00:59:11.060625,0,0,14,0,0,2,71,74,148,130,41,120.41,81,18.00,-3.00,-1001.00
2024-06-07 00:59:11.111699,0,0,14,0,0,2,71,74,146,130,41,120.46,81,-27.00,16.00,-989.00
2024-06-07 00:59:11.274769,0,0,14,0,0,2,72,75,143,120,41,120.46,82,-25.00,4.00,-1014.00
2024-06-07 00:59:11.366664,0,0,14,0,0,1,72,75,142,120,41,120.44,82,-17.00,-8.00,-1012.00
2024-06-07 00:59:11.543967,0,0,14,0,0,1,72,75,139,120,41,120.41,82,9.00,0.00,-1026.00
2024-06-07 00:59:11.570660,0,0,14,0,0,1,72,75,138,120,41,120.39,82,-21.00,18.00,-1043.00
2024-06-07 00:59:11.748760,0,0,14,0,0,1,72,75,136,120,41,120.35,82,-18.00,35.00,-1043.00
2024-06-07 00:59:11.748919,0,0,14,0,0,1,72,75,136,120,41,120.39,82,0.00,7.00,-1011.00
2024-06-07 00:59:11.826168,0,0,14,0,0,0,72,75,135,120,41,120.39,82,26.00,7.00,-1040.00
2024-06-07 00:59:11.956949,0,0,14,0,0,0,72,75,134,110,41,120.41,82,5.00,-3.00,-984.00
2024-06-07 00:59:12.031119,0,0,14,0,0,0,72,75,133,110,41,120.32,82,-18.00,-18.00,-1005.00
2024-06-07 00:59:12.131708,0,0,14,0,0,0,72,75,133,110,41,120.37,82,-10.00,16.00,-1000.00
2024-06-07 00:59:12.260835,0,0,14,0,0,0,72,75,132,110,41,120.32,83,-1.00,5.00,-1014.00
2024-06-07 00:59:12.336528,0,0,14,0,0,0,72,75,132,110,41,120.29,83,-18.00,7.00,-1007.00
2024-06-07 00:59:12.465577,0,0,14,0,0,0,72,75,132,110,41,120.32,83,-5.00,1.00,-1005.00
2024-06-07 00:59:12.539825,0,0,14,0,0,0,72,75,133,110,41,120.31,83,-16.00,10.00,-1007.00
2024-06-07 00:59:12.670522,0,0,14,0,0,0,72,75,132,110,41,120.37,83,-2.00,8.00,-1019.00
2024-06-07 00:59:12.743676,0,0,14,0,0,0,72,75,133,110,41,120.43,83,-4.00,16.00,-1019.00
2024-06-07 00:59:12.875912,0,0,14,0,0,0,72,75,132,110,41,120.39,83,-30.00,18.00,-977.00
2024-06-07 00:59:12.947630,0,0,14,0,0,0,72,75,133,110,41,120.31,83,-1.00,11.00,-1007.00
2024-06-07 00:59:13.080370,0,0,14,0,0,0,72,75,132,110,41,120.36,83,-9.00,-2.00,-1045.00
2024-06-07 00:59:13.151628,0,0,14,0,0,0,72,75,132,110,41,120.31,83,-4.00,-12.00,-997.00
2024-06-07 00:59:13.285178,0,0,14,0,0,0,71,74,132,110,41,120.30,84,8.00,4.00,-997.00
2024-06-07 00:59:13.355727,0,0,14,0,0,0,71,74,132,110,41,120.31,84,-13.00,15.00,-1005.00
2024-06-07 00:59:13.489502,0,0,14,0,0,0,71,74,133,110,41,120.32,84,-27.00,3.00,-981.00
2024-06-07 00:59:13.559535,0,0,14,0,0,0,71,74,133,110,41,120.37,84,-6.00,-4.00,-977.00
2024-06-07 00:59:13.695196,0,0,14,0,0,0,71,74,133,110,41,120.28,84,-11.00,20.00,-1062.00
2024-06-07 00:59:13.763527,0,0,14,0,0,0,71,74,133,110,41,120.28,84,-16.00,17.00,-985.00
2024-06-07 00:59:13.865432,0,0,14,0,0,0,71,74,133,110,41,120.34,84,27.00,-24.00,-988.00
2024-06-07 00:59:13.967359,-2,0,14,0,0,0,71,74,133,110,41,120.31,84,-23.00,20.00,-1016.00
2024-06-07 00:59:14.103891,-8,0,14,0,0,0,71,74,135,110,41,120.33,84,0.00,6.00,-1009.00
2024-06-07 00:59:14.171516,-8,0,14,2,0,0,71,74,135,110,41,120.38,84,-5.00,6.00,-1014.00
2024-06-07 00:59:14.273358,-8,0,14,3,0,0,72,73,136,110,41,120.25,85,-41.00,-12.00,-953.00
2024-06-07 00:59:14.411062,-8,0,14,4,1,0,72,73,137,110,41,120.31,85,-17.00,-10.00,-937.00
2024-06-07 00:59:14.477346,-8,0,14,5,1,0,72,73,137,110,41,120.33,85,-10.00,-13.00,-1014.00
2024-06-07 00:59:14.615790,-7,0,14,6,1,0,72,73,137,110,41,120.29,85,-55.00,19.00,-1004.00
2024-06-07 00:59:14.681692,-6,0,14,7,2,0,72,73,136,120,41,120.34,85,-73.00,25.00,-1040.00
2024-06-07 00:59:14.820630,-5,0,14,7,2,0,72,73,137,120,41,120.33,85,-96.00,18.00,-1004.00
2024-06-07 00:59:14.886295,-3,-1,14,7,2,0,72,73,137,120,41,120.29,85,-46.00,4.00,-985.00
2024-06-07 00:59:15.025458,0,-1,14,7,2,0,72,73,136,120,41,120.24,85,-32.00,-2.00,-1006.00
2024-06-07 00:59:15.090410,2,-1,14,6,1,0,72,73,138,120,41,120.20,85,-38.00,-1.00,-984.00
2024-06-07 00:59:15.192310,4,0,14,5,1,0,72,73,138,120,41,120.29,85,-42.00,18.00,-1013.00
2024-06-07 00:59:15.294246,3,0,14,4,1,0,71,73,138,120,41,120.30,86,-34.00,14.00,-1010.00
2024-06-07 00:59:15.396492,1,0,14,3,0,0,71,73,137,120,41,120.36,86,-35.00,15.00,-1009.00
2024-06-07 00:59:15.447282,0,0,14,3,0,0,71,73,137,120,41,120.33,86,-6.00,-2.00,-969.00
2024-06-07 00:59:15.639835,0,0,14,2,0,0,71,73,137,120,41,120.37,86,-31.00,27.00,-971.00
2024-06-07 00:59:15.651533,0,-2,14,2,0,0,71,73,137,120,41,120.39,86,-1.00,-2.00,-976.00
2024-06-07 00:59:15.753378,0,-1,14,2,0,0,71,73,136,120,41,120.27,86,-8.00,11.00,-1030.00
2024-06-07 00:59:15.855334,0,0,14,2,0,0,71,73,135,120,41,120.42,86,-18.00,15.00,-963.00
2024-06-07 00:59:16.050666,0,0,14,2,0,0,71,73,135,120,41,120.32,86,-21.00,15.00,-999.00
2024-06-07 00:59:16.059175,0,0,14,2,0,0,71,73,134,120,41,120.33,86,-13.00,7.00,-1006.00
2024-06-07 00:59:16.254966,1,0,14,1,0,0,71,73,134,120,41,120.30,86,-17.00,10.00,-979.00
2024-06-07 00:59:16.263217,3,0,14,1,0,0,72,74,134,120,41,120.36,87,-9.00,7.00,-1039.00
2024-06-07 00:59:16.458964,1,0,14,0,0,0,72,74,133,110,41,120.37,87,-11.00,16.00,-1009.00
2024-06-07 00:59:16.467366,0,0,14,0,0,0,72,74,133,110,41,120.31,87,-19.00,9.00,-999.00
2024-06-07 00:59:16.664888,0,0,14,0,0,0,72,74,132,110,41,120.34,87,-15.00,11.00,-1012.00
2024-06-07 00:59:16.671605,0,0,14,0,0,0,72,74,132,110,41,120.32,87,-43.00,23.00,-1028.00
2024-06-07 00:59:16.868722,0,0,14,0,0,0,72,74,133,110,41,120.27,87,-5.00,15.00,-1010.00
2024-06-07 00:59:16.875853,0,0,14,0,0,0,72,74,133,110,41,120.37,87,6.00,14.00,-1006.00
2024-06-07 00:59:17.073902,0,0,14,0,0,0,72,74,133,110,41,120.32,87,-1.00,20.00,-1011.00
2024-06-07 00:59:17.189397,0,0,14,0,0,0,72,74,133,110,41,120.36,87,0.00,9.00,-1000.00
2024-06-07 00:59:17.189544,0,0,14,0,0,0,72,74,133,110,41,120.26,87,-5.00,10.00,-996.00
2024-06-07 00:59:17.342520,0,0,14,0,0,0,72,75,133,110,41,120.33,88,-9.00,8.00,-977.00
2024-06-07 00:59:17.451523,0,0,14,0,0,0,72,75,133,110,41,120.35,88,-14.00,9.00,-991.00
2024-06-07 00:59:17.505980,0,0,14,0,0,0,72,75,133,110,41,120.34,88,-7.00,4.00,-998.00
2024-06-07 00:59:17.635833,0,0,14,0,0,0,72,75,133,110,41,120.35,88,-32.00,16.00,-1013.00
2024-06-07 00:59:17.691425,0,0,14,0,0,0,72,75,133,110,41,120.37,88,-22.00,7.00,-997.00
2024-06-07 00:59:17.820329,0,0,14,0,0,0,72,75,134,110,41,120.34,88,1.00,3.00,-999.00
2024-06-07 00:59:17.963291,0,0,14,0,0,0,72,75,134,110,41,120.31,88,-25.00,19.00,-1018.00
2024-06-07 00:59:17.997241,0,0,14,0,0,0,72,75,134,110,41,120.37,88,12.00,2.00,-995.00
2024-06-07 00:59:18.141553,0,0,14,0,0,0,72,75,134,110,41,120.34,88,-11.00,10.00,-988.00
2024-06-07 00:59:18.302488,0,0,14,0,0,0,72,75,134,110,41,120.39,88,2.00,3.00,-980.00
2024-06-07 00:59:18.418170,0,0,14,0,0,0,71,73,134,110,41,120.31,89,-11.00,8.00,-993.00
2024-06-07 00:59:18.418368,0,0,14,0,0,0,71,73,133,110,41,120.34,89,-36.00,17.00,-1027.00
2024-06-07 00:59:18.560437,0,0,14,0,0,0,71,73,133,110,41,120.33,89,-6.00,9.00,-983.00
2024-06-07 00:59:18.609246,0,0,14,0,0,0,71,73,133,110,41,120.25,89,-29.00,20.00,-1011.00
2024-06-07 00:59:18.725368,0,0,14,0,0,0,71,73,133,110,41,120.36,89,1.00,0.00,-975.00
2024-06-07 00:59:18.865827,4,0,14,0,0,0,71,73,134,110,41,120.32,89,-8.00,11.00,-973.00
2024-06-07 00:59:18.916097,8,0,14,0,0,0,71,73,135,110,41,120.35,89,-14.00,14.00,-1032.00
2024-06-07 00:59:19.032098,8,0,14,-2,0,0,71,73,135,110,41,120.34,89,-11.00,15.00,-1014.00
2024-06-07 00:59:19.096929,8,0,14,-3,-1,0,71,73,134,110,41,120.37,89,-17.00,7.00,-1055.00
2024-06-07 00:59:19.169794,7,0,14,-5,-1,0,71,73,134,110,41,120.29,89,-4.00,26.00,-1026.00
2024-06-07 00:59:19.326043,6,0,14,-6,-1,0,71,73,136,110,41,120.38,90,38.00,2.00,-1013.00
2024-06-07 00:59:19.373897,5,0,14,-6,-2,0,71,73,135,110,41,120.42,90,24.00,15.00,-1021.00
2024-06-07 00:59:19.530750,4,0,14,-7,-2,0,71,73,136,110,41,120.28,90,33.00,3.00,-996.00
2024-06-07 00:59:19.577979,3,0,14,-7,-2,0,71,73,135,110,41,120.29,90,22.00,9.00,-990.00
2024-06-07 00:59:19.735799,0,0,14,-7,-2,0,71,73,136,110,41,120.32,90,61.00,1.00,-1037.00
2024-06-07 00:59:19.781950,-2,0,14,-6,-1,0,71,73,136,120,41,120.32,90,39.00,10.00,-1027.00
2024-06-07 00:59:19.940394,-4,0,14,-5,-1,0,71,73,136,120,41,120.31,90,24.00,4.00,-1056.00
2024-06-07 00:59:19.985911,-4,0,14,-4,-1,0,71,73,137,120,41,120.28,90,50.00,-14.00,-980.00
2024-06-07 00:59:20.145196,-3,0,14,-3,-1,0,71,73,136,120,41,120.32,90,22.00,-3.00,-980.00
2024-06-07 00:59:20.190603,-1,0,14,-3,0,0,71,73,136,120,41,120.34,90,29.00,-12.00,-1012.00
2024-06-07 00:59:20.295258,0,1,14,-2,0,0,71,73,136,120,41,120.31,91,-3.00,8.00,-976.00
2024-06-07 00:59:20.395654,0,0,14,-2,0,0,71,73,136,120,41,120.33,91,-3.00,13.00,-1000.00
2024-06-07 00:59:20.497888,0,0,14,-2,0,0,71,73,136,110,41,120.33,91,3.00,19.00,-1040.00
2024-06-07 00:59:20.599229,0,0,14,-2,0,0,71,73,136,110,41,120.33,91,25.00,-1.00,-998.00
2024-06-07 00:59:20.699964,0,0,14,-2,0,0,71,73,136,110,41,120.28,91,14.00,-3.00,-1001.00
2024-06-07 00:59:20.802010,-1,0,14,-2,0,0,71,73,137,110,41,120.37,91,22.00,2.00,-984.00
2024-06-07 00:59:20.904075,-3,-1,14,-2,0,0,71,73,136,120,41,120.33,91,19.00,0.00,-1015.00
2024-06-07 00:59:21.067478,-4,-1,14,-1,0,0,71,73,137,120,41,120.31,91,0.00,7.00,-1003.00
2024-06-07 00:59:21.107860,-2,-1,14,0,0,0,71,73,138,120,41,120.31,91,-6.00,12.00,-968.00
2024-06-07 00:59:21.272052,-1,0,14,0,0,0,71,73,138,120,41,120.41,91,-19.00,12.00,-979.00
2024-06-07 00:59:21.312500,0,0,14,0,0,0,71,74,138,120,41,120.36,92,10.00,-6.00,-985.00
2024-06-07 00:59:21.476540,0,0,14,0,0,0,71,74,138,120,41,120.36,92,2.00,7.00,-994.00
2024-06-07 00:59:21.516720,0,0,14,0,0,0,71,74,138,120,41,120.43,92,0.00,1.00,-993.00
2024-06-07 00:59:21.681272,0,0,14,0,0,0,71,74,138,120,41,120.38,92,-10.00,4.00,-987.00
2024-06-07 00:59:21.719955,0,0,14,0,0,0,71,74,138,120,41,120.33,92,-12.00,0.00,-992.00
2024-06-07 00:59:21.886116,0,0,14,0,0,0,71,74,139,120,41,120.33,92,-21.00,12.00,-974.00
2024-06-07 00:59:21.926421,0,0,14,0,0,0,71,74,138,120,41,120.33,92,-19.00,24.00,-988.00
2024-06-07 00:59:22.027117,0,0,14,0,0,0,71,74,138,120,41,120.38,92,-15.00,23.00,-1011.00
2024-06-07 00:59:22.128991,0,0,14,0,0,0,71,74,137,120,41,120.35,92,14.00,-2.00,-1005.00
2024-06-07 00:59:22.230813,0,0,14,0,0,0,71,74,137,120,41,120.27,92,6.00,2.00,-1006.00
2024-06-07 00:59:22.398031,0,0,14,0,0,0,71,73,138,120,41,120.32,93,26.00,-4.00,-978.00
2024-06-07 00:59:22.435129,0,0,14,0,0,0,71,73,138,120,41,120.36,93,0.00,4.00,-991.00
2024-06-07 00:59:22.602808,0,0,14,0,0,0,71,73,138,120,41,120.37,93,13.00,-2.00,-990.00
2024-06-07 00:59:22.638772,0,0,14,0,0,0,71,73,137,120,41,120.31,93,-7.00,11.00,-935.00
2024-06-07 00:59:22.740817,0,0,14,0,0,0,71,73,137,120,41,120.34,93,-14.00,0.00,-1001.00
2024-06-07 00:59:22.910125,0,0,14,0,0,0,71,73,138,120,41,120.30,93,-9.00,19.00,-1034.00
2024-06-07 00:59:22.944749,0,0,14,0,0,0,71,73,137,120,41,120.33,93,-24.00,16.00,-1021.00
2024-06-07 00:59:23.071008,0,0,14,0,0,0,71,73,137,120,41,120.34,93,4.00,11.00,-1023.00
2024-06-07 00:59:23.148670,0,0,14,0,0,0,71,73,137,120,41,120.36,93,3.00,11.00,-996.00
2024-06-07 00:59:23.250679,0,0,14,0,0,0,71,73,136,120,41,120.33,93,1.00,19.00,-969.00
2024-06-07 00:59:23.421807,0,-3,14,0,0,0,70,74,137,120,41,120.24,94,-20.00,15.00,-1059.00
2024-06-07 00:59:23.458620,0,-8,14,0,-1,0,70,74,137,120,41,120.24,94,22.00,0.00,-950.00
2024-06-07 00:59:23.505625,0,-7,14,0,-2,0,70,74,136,120,41,120.30,94,28.00,10.00,-1008.00
2024-06-07 00:59:23.626642,0,-5,14,0,-3,0,70,74,135,120,41,120.29,94,-2.00,34.00,-1023.00
2024-06-07 00:59:23.709882,0,-2,14,1,-4,0,70,74,135,120,41,120.32,94,3.00,31.00,-1000.00
2024-06-07 00:59:23.811841,0,0,14,1,-4,0,70,74,136,120,41,120.31,94,6.00,35.00,-1011.00
2024-06-07 00:59:23.937617,0,1,14,1,-3,0,70,74,135,120,41,120.38,94,-8.00,28.00,-1013.00
2024-06-07 00:59:24.015758,0,0,14,0,-2,0,70,74,135,120,41,120.36,94,-1.00,11.00,-1016.00
2024-06-07 00:59:24.138885,0,0,14,0,-2,0,70,74,135,110,41,120.33,94,16.00,13.00,-1004.00
2024-06-07 00:59:24.220703,0,0,14,0,-2,0,70,74,135,110,41,120.28,94,-5.00,15.00,-969.00
2024-06-07 00:59:24.346868,0,-1,14,0,-2,0,70,74,135,110,41,120.32,95,-14.00,27.00,-1029.00
2024-06-07 00:59:24.423649,1,0,14,0,-2,0,70,74,135,110,41,120.19,95,-33.00,23.00,-988.00
2024-06-07 00:59:24.548842,1,0,14,0,-2,0,70,74,134,110,41,120.34,95,0.00,8.00,-997.00
2024-06-07 00:59:24.627523,0,0,14,0,-2,0,70,74,134,110,41,120.30,95,5.00,25.00,-1001.00
2024-06-07 00:59:24.731120,0,0,14,0,-2,0,70,74,134,110,41,120.25,95,23.00,19.00,-1044.00
2024-06-07 00:59:24.831519,0,0,14,0,-2,0,70,74,134,110,41,120.30,95,21.00,10.00,-991.00
2024-06-07 00:59:24.957800,0,1,14,0,-2,0,70,74,134,110,41,120.29,95,11.00,20.00,-1003.00
2024-06-07 00:59:25.035697,0,3,14,0,-1,0,70,74,134,110,41,120.26,95,9.00,27.00,-923.00
2024-06-07 00:59:25.137553,0,2,14,0,0,0,70,74,134,110,41,120.27,95,15.00,-4.00,-1005.00
2024-06-07 00:59:25.265138,0,0,14,0,0,0,70,74,134,110,41,120.23,95,3.00,5.00,-1006.00
2024-06-07 00:59:25.341810,0,0,14,0,0,0,71,74,133,110,41,120.30,96,-10.00,11.00,-1041.00
2024-06-07 00:59:25.469857,0,0,14,0,0,0,71,74,133,110,41,120.29,96,1.00,4.00,-1000.00
2024-06-07 00:59:25.545516,0,0,14,0,0,0,71,74,133,110,41,120.35,96,22.00,0.00,-1009.00
2024-06-07 00:59:25.674675,0,0,14,0,0,0,71,74,133,110,41,120.38,96,-4.00,9.00,-1000.00
2024-06-07 00:59:25.749565,0,0,14,0,0,0,71,74,133,110,41,120.26,96,-15.00,0.00,-996.00
2024-06-07 00:59:25.851402,0,0,14,0,0,0,71,74,133,110,41,120.24,96,-3.00,6.00,-955.00
2024-06-07 00:59:25.982538,0,0,14,0,0,0,71,74,132,110,41,120.22,96,-10.00,6.00,-998.00
2024-06-07 00:59:26.055672,0,0,14,0,0,0,71,74,133,110,41,120.23,96,7.00,16.00,-1011.00
2024-06-07 00:59:26.186725,0,0,14,0,0,0,71,74,133,110,41,120.27,96,-14.00,15.00,-1001.00
2024-06-07 00:59:26.259520,0,0,14,0,0,0,71,74,133,110,41,120.34,97,3.00,1.00,-987.00
2024-06-07 00:59:26.391479,0,0,14,0,0,0,71,73,133,110,41,120.28,97,25.00,-5.00,-1031.00
2024-06-07 00:59:26.463368,0,0,14,0,0,0,71,73,134,110,41,120.32,97,5.00,0.00,-1011.00
2024-06-07 00:59:26.596157,0,0,14,0,0,0,71,73,134,110,41,120.30,97,-1.00,-10.00,-985.00
2024-06-07 00:59:26.667495,0,0,14,0,0,0,71,73,134,110,41,120.25,97,4.00,10.00,-1003.00
2024-06-07 00:59:26.801005,0,0,14,0,0,0,71,73,134,110,41,120.26,97,-3.00,-1.00,-963.00
2024-06-07 00:59:26.871777,0,0,14,0,0,0,71,73,134,110,41,120.27,97,15.00,3.00,-990.00
2024-06-07 00:59:27.005874,0,0,14,0,0,0,71,73,134,110,41,120.30,97,-5.00,7.00,-983.00
2024-06-07 00:59:27.075580,0,0,14,0,0,0,71,73,135,110,41,120.25,97,14.00,-3.00,-986.00
2024-06-07 00:59:27.126153,0,0,14,0,0,0,71,73,135,110,41,120.27,97,24.00,9.00,-1057.00
2024-06-07 00:59:27.230341,0,2,14,0,0,0,71,73,135,110,41,120.29,98,-12.00,-21.00,-1040.00
2024-06-07 00:59:27.415258,0,8,14,0,0,0,71,74,135,110,41,120.29,98,-5.00,21.00,-992.00
2024-06-07 00:59:27.432190,0,6,14,0,2,0,71,74,136,110,41,120.29,98,5.00,0.00,-996.00
2024-06-07 00:59:27.620733,0,4,14,0,3,0,71,74,134,110,41,120.23,98,6.00,-17.00,-1010.00
2024-06-07 00:59:27.636379,0,1,14,0,3,0,71,74,134,110,41,120.22,98,10.00,-16.00,-984.00
2024-06-07 00:59:27.738199,0,0,14,0,3,0,71,74,135,110,41,120.22,98,15.00,-25.00,-1020.00
2024-06-07 00:59:27.840162,0,-1,14,-1,3,0,71,74,134,110,41,120.19,98,24.00,-26.00,-1010.00
2024-06-07 00:59:28.029593,0,0,14,0,3,0,71,74,134,110,41,120.25,98,3.00,-13.00,-983.00
2024-06-07 00:59:28.044128,0,0,14,0,2,0,71,74,133,110,41,120.25,98,15.00,-21.00,-1003.00
2024-06-07 00:59:28.234390,0,0,14,0,2,0,71,74,134,110,41,120.20,98,9.00,-31.00,-949.00
2024-06-07 00:59:28.248131,0,0,14,0,2,0,71,74,133,110,41,120.26,99,5.00,-15.00,-1001.00
2024-06-07 00:59:28.350158,-1,0,14,0,2,0,71,73,133,110,41,120.26,99,1.00,-21.00,-992.00
2024-06-07 00:59:28.452137,0,0,14,0,2,0,71,73,134,110,41,120.28,99,-25.00,3.00,-993.00
2024-06-07 00:59:28.554090,0,0,14,0,2,0,71,73,134,110,41,120.23,99,-11.00,5.00,-994.00
2024-06-07 00:59:28.656068,0,0,14,0,2,0,71,73,134,110,41,120.19,99,-6.00,-7.00,-1008.00
2024-06-07 00:59:28.758044,0,0,14,0,2,0,71,73,134,110,41,120.25,99,-8.00,0.00,-992.00
2024-06-07 00:59:28.951165,0,-1,14,0,2,0,71,73,134,110,41,120.26,99,-14.00,-6.00,-984.00
2024-06-07 00:59:28.964430,0,-3,14,0,1,0,71,73,134,110,41,120.24,99,-9.00,-23.00,-991.00
2024-06-07 00:59:29.064039,0,-3,14,0,1,0,71,73,135,110,41,120.25,99,1.00,-17.00,-986.00
2024-06-07 00:59:29.166645,0,-1,14,0,0,0,71,73,134,110,41,120.23,99,-3.00,-4.00,-988.00
2024-06-07 00:59:29.268207,0,-1,14,0,0,0,71,73,134,120,41,120.22,100,-21.00,5.00,-1018.00
2024-06-07 00:59:29.463354,0,0,14,0,0,0,71,73,134,120,41,120.19,100,-5.00,-3.00,-982.00
2024-06-07 00:59:29.473635,0,0,14,0,0,0,71,73,134,120,41,120.18,100,-22.00,-4.00,-980.00
2024-06-07 00:59:29.574229,0,0,14,0,0,0,71,73,134,120,41,120.26,100,-34.00,5.00,-970.00
2024-06-07 00:59:29.770532,0,0,14,0,0,0,71,73,134,120,41,120.28,100,-8.00,7.00,-990.00
2024-06-07 00:59:29.778125,0,0,14,0,0,0,71,73,134,120,41,120.24,100,16.00,-6.00,-1008.00
2024-06-07 00:59:29.975175,0,0,14,0,0,0,71,73,134,110,41,120.30,100,-31.00,7.00,-1030.00
2024-06-07 00:59:29.982020,0,0,14,0,0,0,71,73,134,110,41,120.23,100,29.00,-12.00,-1036.00
2024-06-07 00:59:30.180189,0,0,14,0,0,0,71,73,134,110,41,120.22,100,-2.00,4.00,-1009.00
2024-06-07 00:59:30.186093,0,0,14,0,0,0,71,73,134,110,41,120.33,100,8.00,-4.00,-984.00
2024-06-07 00:59:30.386264,0,0,14,0,0,0,71,73,133,110,41,120.25,101,22.00,-7.00,-1010.00
2024-06-07 00:59:30.390139,0,0,14,0,0,0,71,73,134,110,41,120.34,101,-13.00,13.00,-1002.00
2024-06-07 00:59:30.589738,0,0,14,0,0,0,71,73,134,110,41,120.26,101,-5.00,2.00,-1013.00
2024-06-07 00:59:30.594035,0,0,14,0,0,0,71,73,133,110,41,120.21,101,1.00,3.00,-993.00
2024-06-07 00:59:30.794351,0,0,14,0,0,0,71,73,133,110,41,120.25,101,17.00,-10.00,-973.00
2024-06-07 00:59:30.798825,0,0,14,0,0,0,71,73,134,110,41,120.28,101,-9.00,-4.00,-1025.00
2024-06-07 00:59:30.900030,0,0,14,0,0,0,71,73,134,110,41,120.31,101,-17.00,10.00,-998.00
2024-06-07 00:59:30.951017,0,0,14,0,0,0,71,73,134,110,41,120.29,101,8.00,14.00,-1032.00
2024-06-07 00:59:31.053110,0,0,14,0,0,0,71,73,134,110,41,120.27,101,1.00,2.00,-1015.00
2024-06-07 00:59:31.155113,0,0,14,0,0,0,71,73,134,110,41,120.25,101,2.00,0.00,-969.00
2024-06-07 00:59:31.307894,0,0,16,0,0,0,71,73,134,110,41,120.20,102,14.00,-7.00,-996.00
2024-06-07 00:59:31.511094,0,0,22,0,0,0,72,73,135,110,41,120.23,102,23.00,-20.00,-1002.00
2024-06-07 00:59:31.511145,0,0,28,0,0,0,72,73,134,110,41,120.25,102,24.00,0.00,-994.00
2024-06-07 00:59:31.562930,0,0,34,0,0,0,72,73,135,120,41,120.17,102,-3.00,-6.00,-1009.00
2024-06-07 00:59:31.716652,0,0,40,0,0,0,72,73,135,120,41,120.21,102,-4.00,-4.00,-976.00
2024-06-07 00:59:31.766788,0,0,46,0,0,0,72,73,135,120,41,120.23,102,21.00,-8.00,-977.00
2024-06-07 00:59:31.868897,0,0,52,0,0,0,72,73,136,120,41,120.20,102,-20.00,3.00,-993.00
2024-06-07 00:59:32.125514,0,0,58,0,0,0,72,73,136,120,41,120.20,102,-8.00,0.00,-983.00
2024-06-07 00:59:32.125567,0,0,64,0,0,0,72,73,136,120,41,120.23,102,0.00,-3.00,-1007.00
2024-06-07 00:59:32.254017,0,0,70,0,0,0,72,73,135,120,41,120.20,102,-8.00,0.00,-1037.00
2024-06-07 00:59:32.276888,0,0,76,0,0,0,72,73,136,120,41,120.27,103,-9.00,1.00,-978.00
2024-06-07 00:59:32.433082,0,0,82,0,0,0,71,73,136,120,41,120.24,103,-11.00,-7.00,-953.00
2024-06-07 00:59:32.517194,0,0,88,0,0,0,71,73,135,120,41,120.19,103,-36.00,6.00,-985.00
2024-06-07 00:59:32.583432,0,0,94,0,0,0,71,73,135,120,41,120.23,103,-32.00,9.00,-986.00
2024-06-07 00:59:32.693909,0,0,100,0,0,0,71,73,134,120,41,120.20,103,1.00,5.00,-986.00
2024-06-07 00:59:32.856849,0,0,106,0,0,0,71,73,134,120,41,120.21,103,-32.00,12.00,-983.00
2024-06-07 00:59:32.897797,0,0,112,0,0,0,71,73,133,120,41,120.22,103,-16.00,8.00,-1012.00
2024-06-07 00:59:33.043197,0,0,119,0,0,0,71,73,134,120,41,120.16,103,-26.00,13.00,-1003.00
2024-06-07 00:59:33.129220,0,0,125,0,0,0,71,73,134,120,41,120.20,103,-19.00,18.00,-1022.00
2024-06-07 00:59:33.272557,0,0,131,0,0,0,71,73,133,110,41,120.22,103,-26.00,25.00,-1084.00
2024-06-07 00:59:33.297591,0,0,137,0,0,0,71,73,133,110,41,120.18,104,-7.00,4.00,-998.00
2024-06-07 00:59:33.469611,0,0,143,0,0,0,71,74,133,110,41,120.19,104,23.00,-5.00,-987.00
2024-06-07 00:59:33.610841,0,0,149,0,0,0,71,74,133,110,41,120.23,104,17.00,1.00,-1026.00
2024-06-07 00:59:33.610887,0,0,155,0,0,0,71,74,133,110,41,120.20,104,-8.00,21.00,-1010.00
2024-06-07 00:59:33.776997,0,0,161,0,0,0,71,74,133,110,41,120.23,104,-23.00,19.00,-985.00
2024-06-07 00:59:33.917983,0,0,167,0,0,0,71,74,133,110,41,120.23,104,-12.00,15.00,-1014.00
2024-06-07 00:59:33.918327,0,0,173,0,0,0,71,74,133,110,41,120.22,104,0.00,0.00,-963.00
2024-06-07 00:59:34.085621,0,0,179,0,0,0,71,74,133,110,41,120.26,104,-10.00,15.00,-1009.00
2024-06-07 00:59:34.112693,0,0,-174,0,0,0,71,74,133,110,41,120.21,104,-11.00,14.00,-1007.00
2024-06-07 00:59:34.227321,0,0,-168,0,0,0,71,74,133,110,41,120.20,104,3.00,11.00,-1007.00
2024-06-07 00:59:34.391455,0,0,-162,0,0,0,71,74,133,110,41,120.19,105,13.00,-2.00,-1014.00
2024-06-07 00:59:34.456239,0,0,-156,0,0,0,71,74,133,110,41,120.21,105,0.00,11.00,-992.00
2024-06-07 00:59:34.520686,0,0,-151,0,0,0,71,74,133,110,41,120.31,105,0.00,17.00,-1010.00
2024-06-07 00:59:34.685260,0,0,-145,0,0,0,71,74,133,110,41,120.24,105,8.00,8.00,-995.00
2024-06-07 00:59:34.724757,0,0,-139,0,0,0,71,74,133,110,41,120.27,105,5.00,10.00,-1018.00
2024-06-07 00:59:34.827635,0,0,-132,0,0,0,71,74,133,110,41,120.20,105,12.00,2.00,-990.00
2024-06-07 00:59:34.992614,0,0,-126,0,0,0,71,74,133,110,41,120.32,105,23.00,4.00,-1029.00
2024-06-07 00:59:35.031625,0,0,-120,0,0,0,71,74,133,110,41,120.20,105,8.00,16.00,-1000.00
2024-06-07 00:59:35.197585,0,0,-114,0,0,0,71,74,133,110,41,120.17,105,10.00,18.00,-1010.00
2024-06-07 00:59:35.197664,0,0,-108,0,0,0,71,74,133,110,41,120.14,105,-7.00,7.00,-990.00
2024-06-07 00:59:35.290830,0,0,-102,0,0,0,71,74,133,110,41,120.25,106,6.00,15.00,-1010.00
2024-06-07 00:59:35.388561,0,0,-96,0,0,0,72,73,132,110,41,120.17,106,-4.00,29.00,-1006.00
2024-06-07 00:59:35.504630,0,0,-90,0,0,0,72,73,133,110,41,120.22,106,-8.00,16.00,-1016.00
2024-06-07 00:59:35.593077,0,0,-84,0,0,0,72,73,133,110,41,120.24,106,26.00,1.00,-988.00
2024-06-07 00:59:35.710469,0,0,-78,0,0,0,72,73,133,110,41,120.22,106,43.00,-2.00,-992.00
2024-06-07 00:59:35.797822,0,0,-72,0,0,0,72,73,132,110,41,120.18,106,-29.00,24.00,-1030.00
2024-06-07 00:59:35.898537,0,0,-66,0,0,0,72,73,133,110,41,120.23,106,-11.00,11.00,-1037.00
2024-06-07 00:59:36.020086,0,0,-60,0,0,0,72,73,133,110,41,120.25,106,-6.00,20.00,-1012.00
2024-06-07 00:59:36.102536,0,0,-54,0,0,0,72,73,133,110,41,120.29,106,8.00,11.00,-1048.00
2024-06-07 00:59:36.221960,0,0,-48,0,0,0,72,73,133,110,41,120.21,106,5.00,0.00,-1012.00
2024-06-07 00:59:36.307478,0,0,-42,0,0,0,72,73,133,110,41,120.17,107,10.00,-8.00,-969.00
2024-06-07 00:59:36.427535,0,0,-36,0,0,0,70,73,133,110,41,120.16,107,30.00,-11.00,-941.00
2024-06-07 00:59:36.511731,0,0,-31,0,0,0,70,73,134,110,41,120.25,107,-15.00,22.00,-1021.00
2024-06-07 00:59:36.630903,0,0,-25,0,0,0,70,73,134,110,41,120.23,107,-35.00,-6.00,-974.00
2024-06-07 00:59:36.714613,0,0,-19,0,0,0,70,73,135,120,41,120.20,107,-8.00,-3.00,-1002.00
2024-06-07 00:59:36.835632,0,0,-13,0,0,0,70,73,135,120,41,120.20,107,6.00,-6.00,-983.00
2024-06-07 00:59:36.918482,0,0,-7,0,0,0,70,73,135,120,41,120.12,107,-3.00,6.00,-999.00
2024-06-07 00:59:37.040488,0,0,-2,0,0,0,70,73,135,120,41,120.12,107,-6.00,-6.00,-989.00
2024-06-07 00:59:37.122460,0,0,1,0,0,0,70,73,134,120,41,120.22,107,-1.00,-2.00,-1000.00
2024-06-07 00:59:37.245229,0,0,4,0,0,0,70,73,134,120,41,120.26,107,-14.00,10.00,-999.00
2024-06-07 00:59:37.326430,0,0,6,0,0,0,70,73,135,120,41,120.16,108,4.00,-13.00,-1016.00
2024-06-07 00:59:37.451020,0,0,8,0,0,0,71,73,135,120,41,120.22,108,-31.00,10.00,-983.00
2024-06-07 00:59:37.534350,0,0,9,0,0,0,71,73,135,120,41,120.19,108,-7.00,-13.00,-983.00
2024-06-07 00:59:37.632421,0,0,11,0,0,0,71,73,134,120,41,120.24,108,-9.00,6.00,-1000.00
2024-06-07 00:59:37.757539,0,0,11,0,0,0,71,73,134,120,41,120.19,108,-5.00,13.00,-1011.00
2024-06-07 00:59:37.836417,0,0,12,0,0,0,71,73,134,120,41,120.18,108,0.00,-7.00,-1006.00
2024-06-07 00:59:37.962546,0,0,12,0,0,0,71,73,134,120,41,120.21,108,-2.00,-7.00,-1024.00
2024-06-07 00:59:38.041027,0,0,12,0,0,0,71,73,134,120,41,120.18,108,-1.00,0.00,-1006.00
2024-06-07 00:59:38.167130,0,0,12,0,0,0,71,73,134,120,41,120.20,108,-25.00,-5.00,-997.00
2024-06-07 00:59:38.244509,0,0,12,0,0,0,71,73,135,120,41,120.20,108,-20.00,0.00,-971.00
2024-06-07 00:59:38.371711,0,0,12,0,0,0,71,73,134,120,41,120.16,109,-7.00,-6.00,-987.00
2024-06-07 00:59:38.448646,0,0,12,0,0,0,70,73,134,120,41,120.19,109,-16.00,7.00,-1025.00
2024-06-07 00:59:38.576604,0,0,12,0,0,0,70,73,134,110,41,120.18,109,-21.00,0.00,-985.00
2024-06-07 00:59:38.652397,0,0,12,0,0,0,70,73,134,110,41,120.19,109,6.00,-20.00,-985.00
2024-06-07 00:59:38.781611,0,0,12,0,0,0,70,73,133,110,41,120.16,109,-27.00,15.00,-1020.00
2024-06-07 00:59:38.856524,0,0,12,0,0,0,70,73,133,110,41,120.21,109,9.00,2.00,-1006.00
2024-06-07 00:59:38.986086,0,0,12,0,0,0,70,73,133,110,41,120.16,109,2.00,2.00,-1007.00
2024-06-07 00:59:39.009418,0,0,12,0,0,0,70,73,132,110,41,120.13,109,2.00,-1.00,-1016.00
2024-06-07 00:59:39.194674,0,0,12,0,0,0,70,73,133,110,41,120.11,109,-27.00,13.00,-1075.00
2024-06-07 00:59:39.214730,0,0,12,0,0,0,70,73,132,110,41,120.13,109,-43.00,13.00,-1024.00
2024-06-07 00:59:39.395644,0,0,12,0,0,0,70,73,132,110,41,120.18,110,-20.00,9.00,-1016.00
2024-06-07 00:59:39.468489,0,0,12,0,0,0,71,73,132,110,41,120.20,110,-18.00,-10.00,-992.00
2024-06-07 00:59:39.600413,0,0,12,0,0,0,71,73,132,110,40,120.20,110,-20.00,-4.00,-966.00
2024-06-07 00:59:39.621187,0,0,12,0,0,0,71,73,131,110,40,120.16,110,16.00,4.00,-978.00
2024-06-07 00:59:39.805506,0,0,12,0,0,0,71,73,132,110,40,120.13,110,28.00,-8.00,-1002.00
2024-06-07 00:59:39.825265,0,0,12,0,0,0,71,73,131,110,40,120.11,110,-13.00,-3.00,-1017.00
2024-06-07 00:59:39.927147,0,0,12,0,0,0,71,73,132,110,40,120.14,110,-9.00,-1.00,-1003.00
2024-06-07 00:59:40.112283,0,0,6,0,0,0,71,73,132,110,40,120.21,110,0.00,-20.00,-1006.00
2024-06-07 00:59:40.131133,0,0,0,0,0,0,71,73,132,110,40,120.19,110,-17.00,5.00,-1043.00
2024-06-07 00:59:40.317054,0,0,-5,0,0,0,71,73,132,110,40,120.23,111,-18.00,16.00,-999.00
2024-06-07 00:59:40.335363,0,0,-11,0,0,0,71,73,133,110,40,120.24,111,2.00,2.00,-987.00
2024-06-07 00:59:40.523516,0,0,-17,0,0,0,72,73,132,110,40,120.15,111,1.00,1.00,-997.00
2024-06-07 00:59:40.539203,0,0,-23,0,0,0,72,73,133,110,40,120.14,111,12.00,-10.00,-1001.00
2024-06-07 00:59:40.726692,0,0,-29,0,0,0,72,73,133,110,40,120.19,111,-3.00,2.00,-1002.00
2024-06-07 00:59:40.746568,0,0,-35,0,0,0,72,73,133,110,40,120.14,111,-6.00,-9.00,-987.00
2024-06-07 00:59:40.845087,0,0,-41,0,0,0,72,73,133,110,40,120.24,111,-11.00,9.00,-995.00
2024-06-07 00:59:41.034122,0,0,-47,0,0,0,72,73,134,110,40,120.21,111,-10.00,6.00,-990.00
2024-06-07 00:59:41.049096,0,0,-53,0,0,0,72,73,134,110,40,120.19,111,23.00,2.00,-986.00
2024-06-07 00:59:41.240371,0,0,-59,0,0,0,72,73,134,110,40,120.23,111,0.00,8.00,-998.00
2024-06-07 00:59:41.253072,0,0,-65,0,0,0,72,73,134,110,40,120.16,112,6.00,8.00,-1005.00
2024-06-07 00:59:41.443440,0,0,-71,0,0,0,72,73,134,110,40,120.19,112,12.00,2.00,-956.00
2024-06-07 00:59:41.457094,0,0,-77,0,0,0,71,73,134,110,40,120.15,112,-6.00,2.00,-983.00
2024-06-07 00:59:41.559015,0,0,-83,0,0,0,71,73,134,120,40,120.10,112,-14.00,1.00,-986.00
2024-06-07 00:59:41.660958,0,0,-89,0,0,0,71,73,134,120,40,120.21,112,-15.00,12.00,-1007.00
2024-06-07 00:59:41.763300,0,0,-95,0,0,0,71,73,134,120,40,120.23,112,-6.00,15.00,-1043.00
2024-06-07 00:59:41.864980,0,0,-101,0,0,0,71,73,134,120,40,120.16,112,19.00,6.00,-1029.00
2024-06-07 00:59:42.057799,0,0,-107,0,0,0,71,73,134,120,40,120.17,112,5.00,15.00,-1004.00
2024-06-07 00:59:42.068975,0,0,-113,0,0,0,71,73,134,110,40,120.16,112,46.00,-2.00,-1050.00
2024-06-07 00:59:42.262542,0,0,-119,0,0,0,71,73,134,110,40,120.19,112,0.00,13.00,-992.00
2024-06-07 00:59:42.273075,0,0,-125,0,0,0,71,73,134,110,40,120.17,113,14.00,8.00,-999.00
2024-06-07 00:59:42.468133,0,0,-131,0,0,0,71,73,135,110,40,120.13,113,7.00,8.00,-995.00
2024-06-07 00:59:42.476928,0,0,-137,0,0,0,71,73,134,110,40,120.18,113,2.00,3.00,-990.00
2024-06-07 00:59:42.673073,0,0,-143,0,0,0,71,73,134,110,40,120.13,113,-14.00,18.00,-978.00
2024-06-07 00:59:42.681137,0,0,-149,0,0,0,71,73,134,110,40,120.14,113,9.00,10.00,-995.00
2024-06-07 00:59:42.782956,0,0,-155,0,0,0,71,73,134,110,40,120.17,113,-6.00,18.00,-1006.00
2024-06-07 00:59:42.979330,0,0,-161,0,0,0,71,73,134,110,40,120.14,113,15.00,8.00,-969.00
2024-06-07 00:59:42.989869,0,0,-167,0,0,0,71,73,134,110,40,120.16,113,0.00,21.00,-1002.00
2024-06-07 00:59:43.088944,0,0,-174,0,0,0,71,73,134,110,40,120.25,113,11.00,9.00,-990.00
2024-06-07 00:59:43.287292,0,0,179,0,0,0,71,73,133,110,40,120.22,113,-39.00,27.00,-1007.00
2024-06-07 00:59:43.292927,0,0,173,0,0,0,71,73,134,110,40,120.07,114,20.00,19.00,-1062.00
2024-06-07 00:59:43.343955,0,0,167,0,0,0,71,73,133,110,40,120.13,114,5.00,14.00,-983.00
2024-06-07 00:59:43.491453,0,0,161,0,0,0,71,73,133,110,40,120.14,114,18.00,1.00,-980.00
2024-06-07 00:59:43.547930,0,0,155,0,0,0,71,73,133,110,40,120.10,114,-1.00,9.00,-991.00
2024-06-07 00:59:43.696162,0,0,149,0,0,0,71,73,132,110,40,120.11,114,-3.00,15.00,-999.00
2024-06-07 00:59:43.752182,0,0,143,0,0,0,71,73,132,110,40,120.14,114,5.00,12.00,-1015.00
2024-06-07 00:59:43.853987,0,0,137,0,0,0,71,73,133,110,40,120.15,114,-11.00,14.00,-999.00
2024-06-07 00:59:44.004501,0,0,131,0,0,0,71,73,132,110,40,120.09,114,-5.00,4.00,-1026.00
2024-06-07 00:59:44.059875,0,0,125,0,0,0,71,73,132,110,40,120.14,114,-18.00,17.00,-1008.00
2024-06-07 00:59:44.159893,0,0,119,0,0,0,71,73,132,110,40,120.15,114,-48.00,19.00,-1003.00
2024-06-07 00:59:44.261804,0,0,113,0,0,0,71,73,133,110,40,120.17,115,-2.00,8.00,-999.00
2024-06-07 00:59:44.412831,0,0,107,0,0,0,71,73,133,110,40,120.13,115,-4.00,20.00,-1028.00
2024-06-07 00:59:44.465790,0,0,101,0,0,0,72,74,133,110,40,120.17,115,-19.00,7.00,-984.00
2024-06-07 00:59:44.617664,0,0,95,0,0,0,72,74,133,110,40,120.14,115,6.00,-9.00,-982.00
2024-06-07 00:59:44.670079,0,0,89,0,0,0,72,74,134,110,40,120.14,115,19.00,11.00,-1000.00
2024-06-07 00:59:44.824836,0,0,83,0,0,0,72,74,135,120,40,120.12,115,0.00,1.00,-992.00
2024-06-07 00:59:44.873937,0,0,77,0,0,0,72,74,134,120,40,120.10,115,0.00,0.00,-991.00
2024-06-07 00:59:45.027670,0,0,71,0,0,0,72,74,134,120,40,120.14,115,4.00,-2.00,-994.00
2024-06-07 00:59:45.077776,0,0,65,0,0,0,72,74,134,120,40,120.10,115,-2.00,9.00,-1011.00
2024-06-07 00:59:45.232064,0,0,59,0,0,0,72,74,135,120,40,120.14,115,0.00,2.00,-993.00
2024-06-07 00:59:45.283880,0,0,53,0,0,0,72,74,134,120,40,120.14,116,-15.00,14.00,-984.00
2024-06-07 00:59:45.383713,0,0,47,0,0,0,72,74,134,120,40,120.09,116,11.00,4.00,-1056.00
2024-06-07 00:59:45.539337,0,0,41,0,0,0,71,74,134,110,40,120.17,116,-7.00,24.00,-1007.00
2024-06-07 00:59:45.587741,0,0,35,0,0,0,71,74,133,110,40,120.19,116,-13.00,0.00,-990.00
2024-06-07 00:59:45.744110,0,0,30,0,0,0,71,74,133,110,40,120.10,116,-24.00,18.00,-1009.00
2024-06-07 00:59:45.791826,0,0,26,0,0,0,71,74,133,110,40,120.07,116,48.00,-18.00,-948.00
2024-06-07 00:59:45.948961,0,0,22,0,0,0,71,74,133,110,40,120.13,116,3.00,-11.00,-976.00
2024-06-07 00:59:45.996699,0,0,20,0,0,0,71,74,133,110,40,120.11,116,-6.00,14.00,-1001.00
2024-06-07 00:59:46.153677,0,0,18,0,0,0,71,74,133,110,40,120.08,116,-19.00,2.00,-993.00
2024-06-07 00:59:46.202177,0,0,17,0,0,0,71,74,133,110,40,120.12,116,11.00,-11.00,-1018.00
2024-06-07 00:59:46.358443,0,0,16,0,0,0,71,74,133,110,40,120.13,117,-19.00,14.00,-993.00
2024-06-07 00:59:46.405684,0,0,15,0,0,0,71,74,133,110,40,120.07,117,10.00,0.00,-973.00
2024-06-07 00:59:46.508034,0,0,15,0,0,0,71,73,133,110,40,120.08,117,-2.00,0.00,-1009.00
2024-06-07 00:59:46.665787,0,0,14,0,0,0,71,73,133,110,40,120.09,117,2.00,-2.00,-1001.00
2024-06-07 00:59:46.711186,0,0,14,0,0,0,71,73,133,110,40,120.09,117,-22.00,0.00,-978.00
2024-06-07 00:59:46.812886,0,0,14,0,0,0,71,73,133,110,40,120.05,117,54.00,-12.00,-999.00
2024-06-07 00:59:46.972920,0,0,14,0,0,0,71,73,133,110,40,120.09,117,5.00,-8.00,-1017.00
2024-06-07 00:59:47.116667,0,0,14,0,0,0,71,73,134,110,40,120.06,117,-5.00,-8.00,-1039.00
2024-06-07 00:59:47.116850,0,0,14,0,0,0,71,73,134,110,40,120.10,117,-2.00,-6.00,-1007.00
2024-06-07 00:59:47.169839,0,0,14,0,0,0,71,73,135,110,40,120.07,117,12.00,-6.00,-987.00
2024-06-07 00:59:47.484979,0,0,14,0,0,0,71,73,134,110,40,120.07,118,-36.00,4.00,-1087.00
2024-06-07 00:59:47.485242,0,0,14,0,0,0,71,73,135,120,40,120.13,118,-7.00,-13.00,-987.00
2024-06-07 00:59:47.583269,0,0,14,0,0,0,70,72,134,120,40,120.12,118,9.00,-9.00,-970.00
2024-06-07 00:59:47.583624,0,0,14,0,0,0,70,72,135,120,40,120.15,118,-6.00,-16.00,-971.00
2024-06-07 00:59:47.764217,0,0,14,0,0,0,70,72,135,110,40,120.15,118,11.00,-3.00,-1051.00
2024-06-07 00:59:47.781787,0,0,14,0,0,0,70,72,135,110,40,120.16,118,1.00,-5.00,-935.00
2024-06-07 00:59:47.909070,0,0,14,0,0,0,70,72,135,120,40,120.09,118,-12.00,-9.00,-988.00
2024-06-07 00:59:48.096393,0,0,14,0,0,0,70,72,134,120,40,120.10,118,-16.00,5.00,-1028.00
2024-06-07 00:59:48.096590,0,0,14,0,0,0,70,72,134,110,40,120.15,118,8.00,-23.00,-981.00
2024-06-07 00:59:48.201763,0,0,14,0,0,0,70,72,134,110,40,120.12,118,2.00,-5.00,-985.00
2024-06-07 00:59:48.325411,0,0,14,0,0,0,70,72,134,110,40,120.13,119,6.00,-1.00,-1040.00
2024-06-07 00:59:48.393687,0,0,14,0,0,0,70,72,134,110,40,120.09,119,5.00,-5.00,-981.00
2024-06-07 00:59:48.519594,0,0,14,0,0,0,72,73,134,110,40,120.09,119,-19.00,-9.00,-988.00
2024-06-07 00:59:48.663058,0,0,14,0,0,0,72,73,133,110,40,120.12,119,-22.00,4.00,-1005.00
2024-06-07 00:59:48.699393,0,0,14,0,0,0,72,73,133,110,40,120.07,119,-4.00,-5.00,-1003.00
2024-06-07 00:59:48.830779,0,0,14,0,0,0,72,73,133,110,40,120.07,119,2.00,-14.00,-1005.00
2024-06-07 00:59:48.973807,0,0,14,0,0,0,72,73,133,110,40,120.09,119,-8.00,5.00,-1005.00
2024-06-07 00:59:49.006168,0,0,14,0,0,0,72,73,134,110,40,120.06,119,-16.00,8.00,-1022.00
2024-06-07 00:59:49.133975,0,0,14,0,0,0,72,73,134,110,40,120.05,119,17.00,-4.00,-1000.00
2024-06-07 00:59:49.291472,0,0,14,0,0,0,72,73,134,110,40,120.09,119,-11.00,1.00,-1021.00
2024-06-07 00:59:49.311451,0,0,14,0,0,0,72,73,134,110,40,120.11,120,7.00,1.00,-995.00
2024-06-07 00:59:49.431095,0,0,14,0,0,0,72,73,134,110,40,120.09,120,-39.00,-3.00,-970.00
2024-06-07 00:59:49.517135,0,0,14,0,0,0,71,73,134,110,40,120.14,120,-10.00,0.00,-1009.00
2024-06-07 00:59:49.635487,0,0,14,0,0,0,71,73,135,120,40,120.04,120,-39.00,21.00,-1035.00
2024-06-07 00:59:49.719526,0,0,14,0,0,0,71,73,135,120,40,120.09,120,9.00,-1.00,-985.00
2024-06-07 00:59:49.822584,0,0,14,0,0,0,71,73,135,120,40,120.11,120,2.00,-12.00,-1007.00
2024-06-07 00:59:49.942343,0,0,14,0,0,0,71,73,135,120,40,120.06,120,0.00,-11.00,-1011.00
2024-06-07 00:59:50.026135,0,0,14,0,0,0,71,73,135,120,40,120.15,120,2.00,-5.00,-977.00
2024-06-07 00:59:50.147080,0,0,14,0,0,0,71,73,135,120,40,120.09,120,23.00,-24.00,-974.00
2024-06-07 00:59:50.229774,0,0,14,0,0,0,71,73,135,120,40,120.07,120,-23.00,3.00,-1018.00
2024-06-07 00:59:50.351963,0,0,14,0,0,0,71,73,135,120,40,120.08,121,32.00,-5.00,-970.00
2024-06-07 00:59:50.433553,0,0,14,0,0,0,71,73,135,120,40,120.08,121,-45.00,5.00,-941.00
2024-06-07 00:59:50.557610,0,0,14,0,0,0,71,73,135,120,40,120.12,121,-19.00,0.00,-1036.00
2024-06-07 00:59:50.637614,0,0,14,0,0,0,71,73,134,120,40,120.12,121,-19.00,11.00,-1001.00
2024-06-07 00:59:50.761931,0,0,14,0,0,0,71,73,135,120,40,120.10,121,-16.00,-12.00,-969.00
2024-06-07 00:59:50.841392,0,0,14,0,0,0,71,73,135,120,40,120.09,121,-9.00,0.00,-1025.00
2024-06-07 00:59:50.966516,0,0,14,0,0,0,71,73,135,120,40,120.08,121,-5.00,2.00,-967.00
2024-06-07 00:59:51.045425,0,0,14,0,0,0,71,73,135,120,40,120.07,121,-11.00,10.00,-995.00
2024-06-07 00:59:51.171179,0,0,14,0,0,0,71,73,135,120,40,120.05,121,6.00,-4.00,-1002.00
2024-06-07 00:59:51.198308,0,0,14,0,0,0,71,73,135,120,40,120.09,121,-20.00,1.00,-964.00
2024-06-07 00:59:51.376850,0,0,14,0,0,0,71,73,134,120,40,120.09,122,-11.00,-3.00,-1004.00
2024-06-07 00:59:51.402252,0,0,14,0,0,0,71,73,135,120,40,120.11,122,-13.00,14.00,-1018.00
2024-06-07 00:59:51.583127,0,0,14,0,0,0,71,74,135,120,40,120.19,122,-9.00,-18.00,-978.00
2024-06-07 00:59:51.608129,0,0,14,0,0,0,71,74,134,120,40,120.10,122,-35.00,12.00,-991.00
2024-06-07 00:59:51.708739,0,0,14,0,0,0,71,74,135,120,40,120.08,122,23.00,3.00,-994.00
2024-06-07 00:59:51.811558,0,0,14,0,0,0,71,74,134,120,40,120.11,122,-13.00,-3.00,-978.00
2024-06-07 00:59:51.990126,0,0,14,0,0,0,71,74,135,120,40,120.04,122,-14.00,-7.00,-981.00
2024-06-07 00:59:52.014095,0,0,14,0,0,0,71,74,135,120,40,120.12,122,-15.00,-3.00,-999.00
2024-06-07 00:59:52.196151,0,0,14,0,0,0,71,74,134,120,40,120.13,122,-17.00,23.00,-1004.00
2024-06-07 00:59:52.219188,0,0,14,0,0,0,71,74,134,120,40,120.07,122,5.00,-5.00,-1025.00
2024-06-07 00:59:52.399902,0,0,14,0,0,0,71,74,133,110,40,120.09,123,-8.00,8.00,-983.00
2024-06-07 00:59:52.422373,0,0,14,0,0,0,71,74,133,110,40,120.07,123,4.00,-7.00,-1014.00
2024-06-07 00:59:52.604711,0,0,14,0,0,0,71,74,133,110,40,120.10,123,12.00,0.00,-1012.00
2024-06-07 00:59:52.625971,0,0,14,0,0,0,71,74,132,110,40,120.05,123,-19.00,-19.00,-937.00
2024-06-07 00:59:52.811626,0,0,14,0,0,0,71,74,132,110,40,120.03,123,-61.00,15.00,-1058.00
2024-06-07 00:59:52.830121,0,0,14,0,0,0,71,74,132,110,40,120.12,123,4.00,-9.00,-1013.00
2024-06-07 00:59:53.017311,0,0,14,0,0,0,71,74,132,110,40,120.14,123,1.00,16.00,-1028.00
2024-06-07 00:59:53.034132,0,0,14,0,0,0,71,74,132,110,40,120.12,123,11.00,-7.00,-955.00
2024-06-07 00:59:53.219053,0,0,14,0,0,0,71,74,132,110,40,120.09,123,-7.00,2.00,-1009.00
2024-06-07 00:59:53.238141,0,0,14,0,0,0,71,74,133,110,40,120.09,124,-13.00,-4.00,-1003.00
2024-06-07 00:59:53.423910,0,0,14,0,0,0,71,74,133,110,40,120.13,124,4.00,-15.00,-964.00
2024-06-07 00:59:53.442110,0,0,14,0,0,0,71,74,133,110,40,120.11,124,8.00,-7.00,-1004.00
2024-06-07 00:59:53.628816,0,0,14,0,0,0,71,73,134,110,40,120.17,124,-2.00,7.00,-1019.00
2024-06-07 00:59:53.646003,0,0,14,0,0,0,71,73,134,110,40,120.14,124,-11.00,10.00,-951.00
2024-06-07 00:59:53.834661,0,0,14,0,0,0,71,73,135,110,40,120.10,124,-7.00,-6.00,-982.00
2024-06-07 00:59:53.850167,0,0,14,0,0,0,71,73,135,110,40,120.12,124,-40.00,6.00,-988.00
2024-06-07 00:59:54.038814,0,0,14,0,0,0,71,73,135,120,40,120.08,124,11.00,-4.00,-1000.00
2024-06-07 00:59:54.053904,0,0,14,0,0,0,71,73,135,120,40,120.04,124,-12.00,9.00,-1001.00
2024-06-07 00:59:54.243176,0,0,14,0,0,0,71,73,135,120,40,120.08,124,-9.00,9.00,-1014.00
2024-06-07 00:59:54.258712,0,0,14,0,0,0,71,73,135,120,40,120.12,125,-5.00,1.00,-1059.00
2024-06-07 00:59:54.447793,0,0,14,0,0,0,71,73,135,120,40,120.07,125,-6.00,19.00,-999.00
2024-06-07 00:59:54.461995,0,0,14,0,0,0,71,73,135,120,40,120.15,125,-16.00,23.00,-1014.00
2024-06-07 00:59:54.564082,0,0,14,0,0,0,71,74,135,120,40,120.17,125,-27.00,-2.00,-1015.00
2024-06-07 00:59:54.666049,0,0,14,0,0,0,71,74,135,120,40,120.04,125,-17.00,-5.00,-1013.00
2024-06-07 00:59:54.768375,0,0,14,0,0,0,71,74,135,120,40,120.10,125,-16.00,3.00,-998.00
2024-06-07 00:59:54.869989,0,0,14,0,0,0,71,74,135,120,40,120.12,125,-11.00,5.00,-972.00
2024-06-07 00:59:54.972020,0,0,14,0,0,0,71,74,135,120,40,120.13,125,-36.00,39.00,-1048.00
2024-06-07 00:59:55.165016,0,0,14,0,0,0,71,74,134,120,40,120.11,125,-38.00,-7.00,-998.00
2024-06-07 00:59:55.165225,0,0,14,0,0,0,71,74,134,110,40,120.15,125,-21.00,1.00,-967.00
2024-06-07 00:59:55.226954,0,0,14,0,0,0,71,74,134,110,40,120.12,126,3.00,14.00,-986.00
2024-06-07 00:59:55.331777,0,0,14,0,0,0,71,74,134,110,40,120.10,126,-35.00,11.00,-1058.00
2024-06-07 00:59:55.430999,0,0,14,0,0,0,71,74,133,110,40,120.08,126,-6.00,-1.00,-1018.00
2024-06-07 00:59:55.533116,0,0,14,0,0,0,71,73,133,110,40,120.04,126,-7.00,-9.00,-988.00
2024-06-07 00:59:55.635064,0,0,14,0,0,0,71,73,133,110,40,120.18,126,-5.00,19.00,-998.00
2024-06-07 00:59:55.778932,0,0,14,0,0,0,71,73,133,110,40,120.10,126,8.00,-4.00,-1015.00
2024-06-07 00:59:55.838929,0,0,14,0,0,0,71,73,133,110,40,120.11,126,-6.00,0.00,-988.00
2024-06-07 00:59:55.940986,0,0,14,0,0,0,71,73,133,110,40,120.15,126,20.00,4.00,-1021.00
2024-06-07 00:59:56.042939,0,0,14,0,0,0,71,73,133,110,40,120.12,126,-2.00,-10.00,-1000.00
2024-06-07 00:59:56.188944,0,0,14,0,0,0,71,73,133,110,40,120.05,126,-25.00,26.00,-947.00
2024-06-07 00:59:56.246849,0,0,14,0,0,0,71,73,133,110,40,120.15,127,-10.00,1.00,-1028.00
2024-06-07 00:59:56.348907,0,0,14,0,0,0,71,73,133,110,40,120.16,127,8.00,24.00,-972.00
2024-06-07 00:59:56.495832,0,0,14,0,0,0,71,73,134,110,40,120.11,127,12.00,-14.00,-989.00
2024-06-07 00:59:56.554977,0,0,14,0,0,0,70,73,133,110,40,120.09,127,24.00,-17.00,-991.00
2024-06-07 00:59:56.654875,0,0,14,0,0,0,70,73,134,110,40,120.11,127,-18.00,12.00,-969.00
2024-06-07 00:59:56.803058,0,0,14,0,0,0,70,73,133,110,40,120.12,127,2.00,-5.00,-1011.00
2024-06-07 00:59:56.858825,0,0,14,0,0,0,70,73,134,110,40,120.06,127,-23.00,33.00,-1002.00
2024-06-07 00:59:57.007655,0,0,14,0,0,0,70,73,134,110,40,120.11,127,-20.00,2.00,-985.00
2024-06-07 00:59:57.062790,0,0,14,0,0,0,70,73,133,110,40,120.15,127,-26.00,20.00,-1033.00
2024-06-07 00:59:57.212554,0,0,14,0,0,0,70,73,133,110,40,120.07,127,-1.00,-14.00,-1022.00
2024-06-07 00:59:57.266857,0,0,14,0,0,0,70,73,133,110,40,120.13,128,-3.00,14.00,-997.00
2024-06-07 00:59:57.417751,0,0,14,0,0,0,70,73,134,110,40,120.09,128,9.00,-48.00,-967.00
2024-06-07 00:59:57.470827,0,0,14,0,0,0,70,73,133,110,40,120.13,128,-5.00,0.00,-1029.00
2024-06-07 00:59:57.622096,0,0,14,0,0,0,71,74,134,110,40,120.04,128,-15.00,4.00,-994.00
2024-06-07 00:59:57.674881,0,0,14,0,0,0,71,74,134,110,40,120.03,128,14.00,-13.00,-971.00
2024-06-07 00:59:57.776830,0,0,14,0,0,0,71,74,134,110,40,120.10,128,0.00,2.00,-1011.00
2024-06-07 00:59:57.930219,0,0,14,0,0,0,71,74,134,110,40,120.08,128,-3.00,-10.00,-1000.00
2024-06-07 00:59:57.980798,0,0,14,0,0,0,71,74,134,110,40,120.07,128,8.00,0.00,-1074.00
2024-06-07 00:59:58.134387,0,0,14,0,0,0,71,74,133,110,40,120.09,128,-2.00,-11.00,-1001.00
2024-06-07 00:59:58.184828,0,0,14,0,0,0,71,74,133,110,40,120.15,128,5.00,13.00,-977.00
2024-06-07 00:59:58.286788,0,0,14,0,0,0,71,74,133,110,40,120.01,129,-1.00,15.00,-1002.00
2024-06-07 00:59:58.388788,0,0,14,0,0,0,71,74,133,110,40,120.09,129,6.00,-1.00,-1015.00
2024-06-07 00:59:58.491453,0,0,14,0,0,0,71,74,132,110,40,120.07,129,-25.00,2.00,-1004.00
2024-06-07 00:59:58.659368,0,0,14,0,0,0,71,73,133,110,40,120.08,129,-19.00,5.00,-1014.00
2024-06-07 00:59:58.696573,0,0,14,0,0,0,71,73,133,110,40,120.11,129,7.00,-12.00,-996.00
2024-06-07 00:59:58.796687,0,0,14,0,0,0,71,73,132,110,40,120.16,129,-16.00,-8.00,-1048.00
2024-06-07 00:59:58.898776,0,0,14,0,0,0,71,73,133,110,40,120.10,129,19.00,-12.00,-1002.00
2024-06-07 00:59:58.949641,0,0,14,0,0,0,71,73,133,110,40,120.11,129,-20.00,9.00,-1012.00
2024-06-07 00:59:59.051747,0,0,14,0,0,0,71,73,133,110,40,120.09,129,-12.00,5.00,-994.00
2024-06-07 00:59:59.153548,0,0,14,0,0,0,71,73,134,110,40,120.11,129,-21.00,8.00,-1006.00
2024-06-07 00:59:59.255634,0,0,14,0,0,0,71,73,133,110,40,120.12,130,-10.00,-1.00,-1011.00
2024-06-07 00:59:59.357728,0,0,14,0,0,0,71,73,133,110,40,120.12,130,-8.00,-14.00,-965.00
2024-06-07 00:59:59.461772,0,0,14,0,0,0,71,73,133,110,40,120.09,130,-5.00,1.00,-966.00
2024-06-07 00:59:59.561594,0,0,14,0,0,0,71,73,133,110,40,120.17,130,-1.00,2.00,-993.00
2024-06-07 00:59:59.670073,0,0,14,0,0,0,71,73,134,110,40,120.08,130,12.00,-15.00,-979.00
2024-06-07 00:59:59.765646,0,0,14,0,0,0,71,73,134,110,40,120.14,130,5.00,-5.00,-997.00
2024-06-07 00:59:59.869811,0,0,14,0,0,0,71,73,134,110,40,120.10,130,-36.00,11.00,-1017.00
2024-06-07 00:59:59.977247,0,0,14,0,0,0,71,73,134,110,40,120.08,130,-25.00,15.00,-1009.00
2024-06-07 01:00:00.074090,0,0,14,0,0,0,71,73,134,110,40,120.12,130,-4.00,-3.00,-998.00
2024-06-07 01:00:00.181980,0,0,14,0,0,0,71,73,134,110,40,120.07,130,-13.00,-1.00,-993.00
2024-06-07 01:00:00.276864,0,0,14,0,0,0,71,73,135,110,40,120.10,131,-1.00,-8.00,-1050.00
2024-06-07 01:00:00.378630,0,0,14,0,0,0,71,73,135,110,40,120.09,131,-2.00,10.00,-975.00
2024-06-07 01:00:00.480860,0,0,14,0,0,0,71,73,135,110,40,120.16,131,-11.00,-7.00,-989.00
2024-06-07 01:00:00.591609,0,0,14,0,0,0,71,73,135,120,40,120.15,131,-6.00,-7.00,-977.00
2024-06-07 01:00:00.684711,0,0,14,0,0,0,71,73,136,120,40,120.13,131,21.00,-4.00,-1011.00
2024-06-07 01:00:00.786345,0,0,14,0,0,0,71,73,135,120,40,120.15,131,-1.00,1.00,-1002.00
2024-06-07 01:00:00.898625,0,0,14,0,0,0,71,73,136,120,40,120.23,131,-2.00,-10.00,-987.00
2024-06-07 01:00:00.990438,0,0,14,0,0,0,71,73,135,120,40,120.16,131,-10.00,7.00,-889.00
2024-06-07 01:00:01.104363,0,0,14,0,0,0,71,73,136,120,40,120.21,131,-24.00,15.00,-1000.00
2024-06-07 01:00:01.194365,0,0,14,0,0,0,71,73,136,120,40,120.16,131,-14.00,9.00,-991.00
2024-06-07 01:00:01.308080,0,0,14,0,0,0,71,73,136,120,40,120.23,132,-1.00,3.00,-983.00
2024-06-07 01:00:01.398401,0,0,14,0,0,0,71,73,135,120,40,120.12,132,-37.00,21.00,-958.00
2024-06-07 01:00:01.512939,0,0,14,0,0,1,71,73,134,110,39,120.15,132,-18.00,2.00,-912.00
2024-06-07 01:00:01.602493,0,0,14,0,0,1,70,73,132,110,39,120.13,132,-5.00,-7.00,-917.00
2024-06-07 01:00:01.718119,0,0,14,0,0,2,70,73,130,110,39,120.09,132,-9.00,-5.00,-895.00
2024-06-07 01:00:01.807162,0,0,14,0,0,3,70,73,126,110,39,119.99,132,-29.00,19.00,-893.00
2024-06-07 01:00:01.912980,0,0,14,0,0,4,70,73,121,100,39,119.91,132,-17.00,-5.00,-892.00
2024-06-07 01:00:02.113425,0,0,14,0,0,5,70,73,116,100,39,119.86,132,-36.00,26.00,-918.00
