TS,pitch,roll,yaw,vgx,vgy,vgz,templ,temph,tof,h,bat,baro,time,agx,agy,agz
2024-06-07 01:00:30.696987,0,0,11,0,0,0,75,77,10,0,38,119.12,136,8.00,11.00,-998.00
2024-06-07 01:00:30.725190,0,0,11,0,0,0,75,77,10,0,38,119.13,136,9.00,12.00,-998.00
2024-06-07 01:00:30.900701,0,0,11,0,0,0,75,77,10,0,38,119.12,136,8.00,11.00,-999.00
2024-06-07 01:00:30.928860,0,0,11,0,0,0,75,77,10,0,38,119.14,136,9.00,11.00,-1000.00
2024-06-07 01:00:31.105533,0,0,11,0,0,0,75,77,10,0,38,119.16,136,11.00,11.00,-999.00
2024-06-07 01:00:31.132738,0,0,11,0,0,0,75,77,10,0,38,119.17,136,9.00,12.00,-999.00
2024-06-07 01:00:31.310156,0,0,11,0,0,0,75,77,10,0,38,119.14,136,9.00,11.00,-998.00
2024-06-07 01:00:31.337009,0,0,11,0,0,0,75,77,10,0,38,119.09,136,10.00,11.00,-998.00
2024-06-07 01:00:31.515639,0,0,11,0,0,0,75,77,10,0,38,119.10,136,9.00,10.00,-1000.00
2024-06-07 01:00:31.541745,0,0,11,0,0,0,75,77,10,0,38,119.09,136,10.00,12.00,-998.00
2024-06-07 01:00:31.719768,0,0,11,0,0,0,75,77,10,0,38,119.09,136,10.00,10.00,-1002.00
2024-06-07 01:00:31.746047,0,0,11,0,0,0,75,77,10,0,38,119.12,136,10.00,11.00,-1000.00
2024-06-07 01:00:31.847067,0,0,11,0,0,0,75,77,10,0,38,119.17,136,9.00,11.00,-997.00
2024-06-07 01:00:31.948765,0,0,11,0,0,0,75,77,10,0,38,119.15,136,9.00,11.00,-1000.00
2024-06-07 01:00:32.142847,0,0,11,0,0,0,75,77,10,0,38,119.09,136,8.00,11.00,-1002.00
2024-06-07 01:00:32.152718,0,0,11,0,0,0,75,77,10,0,38,119.12,136,9.00,11.00,-1001.00
2024-06-07 01:00:32.286675,0,0,11,0,0,0,75,77,10,0,38,119.15,136,9.00,9.00,-1001.00
2024-06-07 01:00:32.409146,0,0,11,0,0,0,75,77,10,0,38,119.14,136,10.00,13.00,-997.00
2024-06-07 01:00:32.489090,0,0,11,0,0,0,75,77,10,0,38,119.11,136,10.00,11.00,-999.00
2024-06-07 01:00:32.593545,0,0,11,0,0,0,75,77,10,0,38,119.19,136,10.00,11.00,-999.00
2024-06-07 01:00:32.678736,0,0,11,0,0,0,75,77,10,0,38,119.14,136,8.00,12.00,-997.00
2024-06-07 01:00:32.788255,0,0,11,0,0,0,75,77,10,0,38,119.13,136,9.00,12.00,-1000.00
2024-06-07 01:00:32.866889,0,0,11,0,0,0,75,77,10,0,38,119.14,136,8.00,12.00,-1000.00
2024-06-07 01:00:33.077763,0,0,11,0,0,0,75,77,10,0,38,119.11,136,10.00,11.00,-1000.00
2024-06-07 01:00:33.077943,0,0,11,0,0,0,75,77,10,0,38,119.16,136,9.00,11.00,-998.00
2024-06-07 01:00:33.129332,0,0,11,0,0,0,75,77,10,0,38,119.13,136,9.00,11.00,-1000.00
2024-06-07 01:00:33.247423,0,0,11,0,0,0,75,77,10,0,38,119.12,136,7.00,11.00,-999.00
2024-06-07 01:00:33.368864,0,0,11,0,0,0,75,77,10,0,38,119.12,136,10.00,10.00,-995.00
2024-06-07 01:00:33.427768,0,0,11,0,0,0,75,77,10,0,38,119.12,136,7.00,3.00,-994.00
2024-06-07 01:00:33.553214,0,0,11,0,0,0,75,77,10,0,38,119.12,136,8.00,9.00,-1000.00
2024-06-07 01:00:33.696628,0,0,13,0,0,0,75,77,10,0,38,119.12,136,-21.00,-16.00,-995.00
2024-06-07 01:00:33.839951,0,0,14,0,0,0,75,77,10,0,38,119.12,136,34.00,-12.00,-913.00
2024-06-07 01:00:33.840190,1,0,14,0,0,0,75,77,10,-10,38,119.12,136,-23.00,5.00,-1046.00
2024-06-07 01:00:33.983517,1,0,14,0,0,0,75,77,10,-10,38,119.12,136,2.00,10.00,-1126.00
2024-06-07 01:00:34.126675,0,0,14,0,0,-2,75,77,10,-10,38,119.12,136,-31.00,18.00,-1301.00
2024-06-07 01:00:34.141650,0,0,14,0,0,-4,75,77,11,-10,38,119.12,136,-5.00,25.00,-1235.00
2024-06-07 01:00:34.290469,-1,0,14,0,0,-5,75,77,19,-10,38,119.35,137,1.00,12.00,-1094.00
2024-06-07 01:00:34.433772,0,0,14,0,0,-5,75,77,27,-10,38,119.49,137,-9.00,8.00,-1083.00
2024-06-07 01:00:34.447575,0,0,14,0,0,-5,75,77,36,0,38,119.53,137,-21.00,6.00,-1038.00
2024-06-07 01:00:34.597746,0,0,14,0,0,-5,75,77,45,0,38,119.67,137,16.00,-7.00,-998.00
2024-06-07 01:00:34.754950,0,0,14,0,0,-5,75,77,55,0,38,119.72,137,8.00,-4.00,-934.00
2024-06-07 01:00:34.755003,-1,0,14,0,0,-4,75,78,67,0,38,119.80,137,5.00,-11.00,-969.00
2024-06-07 01:00:34.855722,0,0,14,0,0,-4,75,78,76,0,38,119.95,137,20.00,-4.00,-958.00
2024-06-07 01:00:34.958396,0,0,14,0,0,-3,75,78,84,10,38,120.05,137,2.00,-15.00,-897.00
2024-06-07 01:00:35.059552,0,0,14,0,0,-2,75,78,91,10,38,120.11,137,14.00,3.00,-907.00
2024-06-07 01:00:35.201161,0,0,14,0,0,-1,75,78,96,20,38,120.14,137,-1.00,-2.00,-900.00
2024-06-07 01:00:35.265723,0,0,14,0,0,0,75,78,101,20,38,120.15,138,13.00,-10.00,-883.00
2024-06-07 01:00:35.365594,0,0,14,0,0,0,75,78,104,30,38,120.28,138,-5.00,-2.00,-872.00
2024-06-07 01:00:35.508229,0,0,14,0,0,0,75,78,107,30,38,120.26,138,11.00,-1.00,-881.00
2024-06-07 01:00:35.569741,0,0,14,0,0,1,75,78,109,30,38,120.32,138,1.00,8.00,-935.00
2024-06-07 01:00:35.713114,0,0,14,0,0,1,75,78,110,30,38,120.36,138,14.00,-20.00,-903.00
2024-06-07 01:00:35.773416,0,0,14,0,0,1,75,77,111,30,38,120.33,138,-31.00,0.00,-964.00
2024-06-07 01:00:35.875606,0,0,14,0,0,2,75,77,111,30,38,120.31,138,30.00,-2.00,-962.00
2024-06-07 01:00:35.977619,0,0,14,0,0,2,75,77,111,30,38,120.24,138,-1.00,21.00,-965.00
2024-06-07 01:00:36.122899,0,0,14,0,0,2,75,77,110,30,38,120.26,138,-13.00,3.00,-978.00
2024-06-07 01:00:36.181508,0,0,14,0,0,2,75,77,109,30,38,120.32,138,38.00,-6.00,-963.00
2024-06-07 01:00:36.328336,0,0,14,0,0,2,75,77,108,30,38,120.30,139,3.00,7.00,-981.00
2024-06-07 01:00:36.385435,0,0,14,0,0,2,75,77,106,30,38,120.30,139,-11.00,16.00,-1065.00
2024-06-07 01:00:36.532307,0,0,14,0,0,2,75,77,105,30,38,120.29,139,5.00,18.00,-1011.00
2024-06-07 01:00:36.589486,0,0,14,0,0,2,75,77,103,30,38,120.19,139,18.00,5.00,-964.00
2024-06-07 01:00:36.737064,0,0,14,0,0,2,75,77,101,30,38,120.29,139,0.00,7.00,-991.00
2024-06-07 01:00:36.793371,0,0,14,0,0,2,75,78,98,30,38,120.29,139,19.00,-1.00,-1002.00
2024-06-07 01:00:36.941852,0,0,14,0,0,2,75,78,96,30,38,120.17,139,0.00,10.00,-987.00
2024-06-07 01:00:36.997477,0,0,14,0,0,2,75,78,93,30,38,120.11,139,42.00,-14.00,-983.00
2024-06-07 01:00:37.146672,0,0,14,0,0,2,75,78,91,30,38,120.20,139,3.00,12.00,-1045.00
2024-06-07 01:00:37.202853,0,0,14,0,0,2,75,78,89,20,38,120.21,139,1.00,3.00,-1019.00
2024-06-07 01:00:37.351427,0,0,14,0,0,2,75,78,86,20,38,120.12,140,65.00,-19.00,-1034.00
2024-06-07 01:00:37.354227,0,0,14,0,0,1,75,78,84,20,38,120.10,140,-10.00,9.00,-1032.00
2024-06-07 01:00:37.456331,0,0,14,0,0,1,75,78,82,20,38,120.16,140,-7.00,15.00,-1013.00
2024-06-07 01:00:37.558268,0,0,14,0,0,1,75,78,80,20,38,120.13,140,-2.00,17.00,-1024.00
2024-06-07 01:00:37.660459,0,0,14,0,0,1,75,78,78,20,38,120.11,140,9.00,3.00,-1026.00
2024-06-07 01:00:37.863421,0,0,14,0,0,1,75,77,76,10,38,120.08,140,1.00,2.00,-1020.00
2024-06-07 01:00:37.864095,0,0,14,0,0,1,75,77,75,10,38,120.09,140,-9.00,2.00,-1032.00
2024-06-07 01:00:37.966203,0,0,14,0,0,0,75,77,74,10,38,120.08,140,-6.00,8.00,-1008.00
2024-06-07 01:00:38.068646,0,0,14,0,0,0,75,77,72,10,38,120.04,140,0.00,-7.00,-981.00
2024-06-07 01:00:38.170752,0,0,14,0,0,0,75,77,71,10,38,120.07,140,0.00,14.00,-1030.00
2024-06-07 01:00:38.276942,0,0,14,0,0,0,75,77,70,10,38,120.01,141,9.00,3.00,-1031.00
2024-06-07 01:00:38.375187,0,0,14,0,0,0,75,77,69,10,38,120.04,141,0.00,6.00,-1016.00
2024-06-07 01:00:38.477673,0,0,14,0,0,0,75,77,68,10,38,119.98,141,21.00,0.00,-1006.00
2024-06-07 01:00:38.580484,0,0,14,0,0,0,75,77,67,10,38,119.97,141,14.00,-5.00,-997.00
2024-06-07 01:00:38.680269,0,0,14,0,0,0,75,77,66,10,38,119.95,141,32.00,-10.00,-1032.00
2024-06-07 01:00:38.782422,0,0,14,0,0,0,74,78,66,0,38,120.01,141,-3.00,3.00,-1022.00
2024-06-07 01:00:38.885296,0,0,14,0,0,0,74,78,65,0,38,119.89,141,-9.00,10.00,-1005.00
2024-06-07 01:00:38.986163,0,0,14,0,0,0,74,78,65,0,38,119.86,141,14.00,-1.00,-966.00
2024-06-07 01:00:39.088186,0,0,14,0,0,0,74,78,64,0,38,119.94,141,-16.00,7.00,-1008.00
2024-06-07 01:00:39.190022,0,0,14,0,0,0,74,78,64,0,38,119.94,141,-5.00,-3.00,-1020.00
2024-06-07 01:00:39.292212,0,0,14,0,0,0,74,78,64,0,38,119.91,142,17.00,-2.00,-985.00
2024-06-07 01:00:39.394227,0,0,14,0,0,0,74,78,65,0,38,119.95,142,-2.00,0.00,-1017.00
2024-06-07 01:00:39.497175,0,0,14,0,0,0,74,78,65,0,38,120.00,142,-11.00,0.00,-998.00
2024-06-07 01:00:39.598154,0,0,14,0,0,0,74,78,65,0,38,119.89,142,18.00,-6.00,-991.00
2024-06-07 01:00:39.707699,0,0,14,0,0,0,74,78,65,0,38,119.99,142,16.00,2.00,-1039.00
2024-06-07 01:00:39.804859,0,0,14,0,0,0,74,77,66,0,38,119.89,142,-8.00,25.00,-1053.00
2024-06-07 01:00:39.904210,0,0,14,0,0,0,74,77,66,0,38,119.89,142,-1.00,-1.00,-1006.00
2024-06-07 01:00:40.014000,0,0,14,0,0,0,74,77,66,0,38,119.97,142,-7.00,3.00,-988.00
2024-06-07 01:00:40.110564,0,0,14,0,0,0,74,77,67,0,38,119.96,142,23.00,-1.00,-1021.00
2024-06-07 01:00:40.210136,0,0,14,0,0,0,74,77,67,0,38,119.97,142,7.00,6.00,-945.00
2024-06-07 01:00:40.323892,0,0,14,0,0,0,74,77,68,10,38,119.96,143,1.00,0.00,-1010.00
2024-06-07 01:00:40.414076,0,0,14,0,0,0,74,77,68,10,38,119.96,143,-7.00,-6.00,-987.00
2024-06-07 01:00:40.526125,0,0,14,0,0,0,74,77,68,10,38,119.88,143,-24.00,2.00,-993.00
2024-06-07 01:00:40.618005,0,0,14,0,0,0,74,77,69,10,38,120.00,143,-4.00,5.00,-1021.00
2024-06-07 01:00:40.731411,0,0,14,0,0,0,74,77,69,10,38,120.02,143,0.00,3.00,-1015.00
2024-06-07 01:00:40.823601,0,0,14,0,0,0,75,77,70,10,38,119.93,143,68.00,-15.00,-1036.00
2024-06-07 01:00:40.924423,0,0,14,0,0,0,75,77,71,10,38,119.96,143,8.00,-13.00,-1008.00
2024-06-07 01:00:41.026001,0,0,14,0,0,0,75,77,71,10,38,119.90,143,14.00,-8.00,-1019.00
2024-06-07 01:00:41.140015,0,0,14,0,0,0,75,77,72,10,38,120.03,143,-21.00,1.00,-953.00
2024-06-07 01:00:41.179133,0,0,14,0,0,0,75,77,72,10,38,119.99,143,2.00,4.00,-984.00
2024-06-07 01:00:41.345325,0,0,14,0,0,0,75,77,72,10,38,119.97,144,6.00,-11.00,-980.00
2024-06-07 01:00:41.382993,0,0,14,0,0,0,75,77,73,10,38,120.02,144,-18.00,1.00,-987.00
2024-06-07 01:00:41.549645,0,0,14,0,0,0,75,77,73,10,38,119.97,144,-4.00,6.00,-1023.00
2024-06-07 01:00:41.586949,0,0,14,0,0,0,75,77,73,10,38,120.00,144,-4.00,10.00,-1002.00
2024-06-07 01:00:41.765183,0,0,14,0,0,0,75,77,73,10,38,120.01,144,7.00,-4.00,-999.00
2024-06-07 01:00:41.791196,0,0,14,0,0,0,75,76,73,10,38,120.01,144,24.00,-6.00,-1017.00
2024-06-07 01:00:41.961681,0,0,14,0,0,0,75,76,73,10,38,119.99,144,-10.00,8.00,-1001.00
2024-06-07 01:00:41.994886,0,0,14,0,0,0,75,76,73,10,38,120.06,144,1.00,7.00,-960.00
2024-06-07 01:00:42.164806,0,0,14,0,0,0,75,76,73,10,38,120.04,144,-15.00,0.00,-994.00
2024-06-07 01:00:42.199098,0,0,14,0,0,0,75,76,73,10,38,120.01,144,-38.00,24.00,-1004.00
2024-06-07 01:00:42.368917,0,0,14,0,0,0,75,76,73,10,38,119.98,145,0.00,2.00,-1000.00
2024-06-07 01:00:42.403095,0,0,14,0,0,0,75,76,72,10,38,119.97,145,7.00,2.00,-1001.00
2024-06-07 01:00:42.574617,0,0,14,0,0,0,75,76,72,10,38,119.98,145,-2.00,0.00,-1031.00
2024-06-07 01:00:42.606931,0,0,14,0,0,0,75,76,72,10,38,120.06,145,-4.00,4.00,-1004.00
2024-06-07 01:00:42.778519,0,0,14,0,0,0,75,76,72,10,38,119.94,145,-7.00,8.00,-991.00
2024-06-07 01:00:42.814071,0,0,14,0,0,0,74,76,72,10,38,120.02,145,0.00,0.00,-994.00
2024-06-07 01:00:42.913327,0,0,14,0,0,0,74,76,72,10,38,120.01,145,-17.00,-7.00,-1001.00
2024-06-07 01:00:43.085748,0,0,14,0,0,0,74,76,72,10,38,119.96,145,-11.00,18.00,-998.00
2024-06-07 01:00:43.116965,0,0,14,0,0,0,74,76,72,10,38,120.04,145,-20.00,0.00,-1012.00
2024-06-07 01:00:43.290649,0,0,14,0,0,0,74,76,72,10,38,119.94,145,8.00,-7.00,-1010.00
2024-06-07 01:00:43.320911,0,0,14,0,0,0,74,76,72,10,38,119.98,146,-2.00,3.00,-1016.00
2024-06-07 01:00:43.495223,0,0,14,0,0,0,74,76,72,10,38,119.97,146,-13.00,16.00,-1021.00
2024-06-07 01:00:43.524843,0,0,14,0,0,0,74,76,72,10,38,120.00,146,-15.00,19.00,-1042.00
2024-06-07 01:00:43.700099,0,0,14,0,0,0,74,76,72,10,38,119.96,146,6.00,-6.00,-995.00
2024-06-07 01:00:43.729088,0,0,14,0,0,0,74,76,72,10,38,119.98,146,-11.00,9.00,-964.00
2024-06-07 01:00:43.830945,0,0,14,0,0,0,73,76,72,10,38,120.00,146,-1.00,12.00,-985.00
2024-06-07 01:00:43.968119,0,0,14,0,0,0,73,76,72,10,38,119.94,146,0.00,-1.00,-993.00
2024-06-07 01:00:44.034816,0,0,14,0,0,0,73,76,72,10,38,120.03,146,5.00,12.00,-1001.00
2024-06-07 01:00:44.212491,0,0,14,0,0,0,73,76,72,10,38,120.05,146,-4.00,4.00,-1039.00
2024-06-07 01:00:44.238869,0,0,14,0,0,0,73,76,73,10,38,119.98,146,-23.00,15.00,-1033.00
2024-06-07 01:00:44.416830,0,0,14,0,0,0,73,76,74,10,38,120.04,147,8.00,17.00,-1062.00
2024-06-07 01:00:44.442795,0,0,14,0,0,-1,73,76,76,10,38,120.08,147,-2.00,15.00,-1108.00
2024-06-07 01:00:44.622010,0,0,14,0,0,-3,73,76,79,10,38,120.12,147,2.00,11.00,-1086.00
2024-06-07 01:00:44.646841,0,0,14,0,0,-3,73,76,84,20,38,120.21,147,-39.00,28.00,-1098.00
2024-06-07 01:00:44.826327,0,0,14,0,0,-4,73,76,89,20,38,120.22,147,-1.00,16.00,-1065.00
2024-06-07 01:00:44.854553,0,0,14,0,0,-5,73,76,94,30,38,120.26,147,-6.00,17.00,-1068.00
2024-06-07 01:00:44.953279,0,0,14,0,0,-5,73,76,99,30,38,120.29,147,-16.00,12.00,-1010.00
2024-06-07 01:00:45.133593,0,0,14,0,0,-5,73,76,104,40,38,120.39,147,5.00,-4.00,-1012.00
2024-06-07 01:00:45.133684,0,0,14,0,0,-5,73,76,111,40,38,120.44,147,-14.00,3.00,-996.00
2024-06-07 01:00:45.207703,0,0,14,0,0,-5,73,76,116,50,38,120.47,147,-7.00,0.00,-1001.00
2024-06-07 01:00:45.338226,0,0,14,0,0,-5,73,76,121,50,38,120.54,148,-22.00,5.00,-932.00
2024-06-07 01:00:45.411756,0,0,14,0,0,-5,73,76,127,60,38,120.56,148,-17.00,0.00,-972.00
2024-06-07 01:00:45.543283,0,0,14,0,0,-5,73,76,133,60,38,120.66,148,-14.00,0.00,-849.00
2024-06-07 01:00:45.616007,0,0,14,0,0,-4,73,76,137,70,38,120.68,148,-8.00,2.00,-955.00
2024-06-07 01:00:45.747819,0,0,14,0,0,-4,73,76,141,70,38,120.77,148,-12.00,13.00,-964.00
2024-06-07 01:00:45.819605,0,0,14,0,0,-3,74,76,146,80,38,120.74,148,-2.00,12.00,-985.00
2024-06-07 01:00:45.923094,0,0,14,0,0,-3,74,76,149,90,38,120.81,148,3.00,2.00,-963.00
2024-06-07 01:00:46.023630,0,0,14,0,0,-3,74,76,153,90,38,120.89,148,12.00,7.00,-985.00
2024-06-07 01:00:46.157578,0,0,14,0,0,-2,74,76,156,90,38,120.91,148,-23.00,7.00,-989.00
2024-06-07 01:00:46.227725,0,0,14,0,0,-2,74,76,159,90,38,120.93,149,13.00,-7.00,-956.00
2024-06-07 01:00:46.362409,0,0,14,0,0,-2,74,76,162,100,38,120.88,149,-22.00,8.00,-966.00
2024-06-07 01:00:46.431600,0,0,14,0,0,-1,74,76,164,100,38,120.94,149,13.00,-6.00,-918.00
2024-06-07 01:00:46.567020,0,0,14,0,0,-1,74,76,166,100,38,120.95,149,-7.00,15.00,-1012.00
2024-06-07 01:00:46.635565,0,0,14,0,0,-1,74,76,168,100,38,120.98,149,-13.00,-1.00,-976.00
2024-06-07 01:00:46.737644,0,0,14,0,0,-1,74,76,169,100,38,120.94,149,-11.00,16.00,-971.00
2024-06-07 01:00:46.874309,0,0,14,0,0,0,73,75,170,100,38,121.01,149,4.00,-12.00,-992.00
2024-06-07 01:00:46.941852,0,0,14,0,0,0,73,75,170,110,38,121.09,149,-32.00,8.00,-947.00
2024-06-07 01:00:47.195142,0,0,14,0,0,0,73,75,172,110,38,121.00,149,-22.00,19.00,-956.00
2024-06-07 01:00:47.195323,0,0,14,0,0,0,73,75,172,110,38,121.06,149,-3.00,0.00,-996.00
2024-06-07 01:00:47.338364,0,-1,14,0,0,0,73,75,172,110,38,120.97,150,0.00,0.00,-989.00
2024-06-07 01:00:47.349494,0,0,14,0,0,0,73,75,172,110,38,120.99,150,25.00,5.00,-1010.00
2024-06-07 01:00:47.479877,0,0,14,0,0,0,73,75,172,110,38,120.95,150,6.00,18.00,-981.00
2024-06-07 01:00:47.553476,0,0,14,0,0,0,73,75,174,110,38,120.96,150,6.00,8.00,-872.00
2024-06-07 01:00:47.693943,0,0,14,0,0,0,73,75,173,110,38,120.96,150,-38.00,4.00,-978.00
2024-06-07 01:00:47.820975,0,0,14,0,0,0,73,75,172,110,38,120.99,150,-25.00,24.00,-1016.00
2024-06-07 01:00:47.861784,0,0,14,0,0,0,73,75,173,110,38,121.04,150,2.00,-8.00,-962.00
2024-06-07 01:00:47.964328,0,0,14,0,0,0,73,75,172,110,38,121.03,150,0.00,0.00,-1010.00
2024-06-07 01:00:48.145732,0,0,14,0,0,0,73,75,172,110,38,121.02,150,5.00,4.00,-1017.00
2024-06-07 01:00:48.166995,0,0,14,0,0,0,73,75,173,110,38,120.97,150,1.00,13.00,-1023.00
2024-06-07 01:00:48.271139,0,0,14,0,0,0,73,75,173,110,38,121.03,151,11.00,-2.00,-979.00
2024-06-07 01:00:48.424130,0,0,14,0,0,0,73,75,172,110,38,121.00,151,0.00,4.00,-986.00
2024-06-07 01:00:48.564500,0,0,14,0,0,0,73,75,172,110,38,121.06,151,26.00,5.00,-1028.00
2024-06-07 01:00:48.574570,0,0,14,0,0,0,73,75,172,110,38,120.99,151,-6.00,16.00,-1002.00
2024-06-07 01:00:48.728274,0,0,14,0,0,0,73,75,171,110,38,120.97,151,2.00,10.00,-994.00
2024-06-07 01:00:48.728334,0,0,14,0,0,0,73,75,171,110,38,121.00,151,-25.00,23.00,-995.00
2024-06-07 01:00:48.922480,0,0,14,0,0,0,73,75,170,110,38,121.09,151,25.00,-2.00,-970.00
2024-06-07 01:00:49.035623,0,0,14,0,0,0,73,75,170,110,38,121.00,151,12.00,5.00,-1012.00
2024-06-07 01:00:49.178807,0,0,14,0,0,0,73,75,170,110,38,120.92,151,0.00,16.00,-1035.00
2024-06-07 01:00:49.186351,0,0,14,0,0,1,73,75,168,100,38,120.94,151,-3.00,19.00,-988.00
2024-06-07 01:00:49.342545,0,0,14,0,0,1,73,75,166,100,38,120.87,152,-9.00,6.00,-919.00
2024-06-07 01:00:49.342610,0,0,14,0,0,2,73,75,164,100,38,120.90,152,4.00,-16.00,-860.00
2024-06-07 01:00:49.499930,0,0,14,0,0,2,73,75,162,100,38,120.95,152,4.00,9.00,-957.00
2024-06-07 01:00:49.573644,0,0,14,0,0,2,73,75,159,100,38,120.82,152,16.00,-4.00,-932.00
2024-06-07 01:00:49.646438,0,0,14,0,0,2,73,75,157,90,38,120.87,152,0.00,10.00,-964.00
2024-06-07 01:00:49.843710,0,0,14,0,0,2,73,75,154,90,38,120.80,152,-20.00,17.00,-1022.00
2024-06-07 01:00:49.849245,0,0,14,0,0,2,73,76,151,90,38,120.82,152,-23.00,26.00,-1040.00
2024-06-07 01:00:50.048644,0,0,14,0,0,2,73,76,148,80,38,120.85,152,-1.00,10.00,-1023.00
2024-06-07 01:00:50.053236,0,0,14,0,0,2,73,76,146,80,38,120.80,152,-7.00,17.00,-1009.00
2024-06-07 01:00:50.253382,0,0,14,0,0,2,73,76,144,80,38,120.68,152,-9.00,13.00,-1023.00
2024-06-07 01:00:50.257602,0,0,14,0,0,2,73,76,141,80,38,120.71,153,-39.00,27.00,-950.00
2024-06-07 01:00:50.458137,0,0,14,0,0,2,73,76,140,80,38,120.69,153,-35.00,28.00,-1013.00
2024-06-07 01:00:50.461170,0,0,14,0,0,2,73,76,137,70,38,120.69,153,9.00,10.00,-1019.00
2024-06-07 01:00:50.563316,0,0,14,0,0,1,73,76,134,70,38,120.58,153,13.00,5.00,-1027.00
2024-06-07 01:00:50.665223,0,0,14,0,0,1,73,76,133,70,38,120.62,153,12.00,0.00,-1021.00
2024-06-07 01:00:50.767312,0,0,14,0,0,1,73,76,131,70,38,120.60,153,-1.00,15.00,-1008.00
2024-06-07 01:00:50.869246,0,0,14,0,0,1,73,76,131,70,38,120.55,153,14.00,9.00,-1009.00
2024-06-07 01:00:51.072589,0,0,14,0,0,1,73,76,129,70,38,120.57,153,-4.00,14.00,-948.00
2024-06-07 01:00:51.073121,0,0,14,0,0,1,73,76,127,60,38,120.56,153,19.00,6.00,-1005.00
2024-06-07 01:00:51.175301,0,0,14,0,0,1,73,76,126,60,38,120.50,153,9.00,2.00,-1014.00
2024-06-07 01:00:51.278502,0,0,14,0,0,0,73,76,125,60,38,120.54,154,0.00,19.00,-1008.00
2024-06-07 01:00:51.379499,0,0,14,0,0,0,73,76,124,60,38,120.51,154,-8.00,18.00,-1055.00
2024-06-07 01:00:51.482460,0,0,14,0,0,0,73,76,124,60,38,120.52,154,-10.00,16.00,-1013.00
2024-06-07 01:00:51.585022,0,0,14,0,0,0,73,76,123,60,38,120.48,154,-15.00,15.00,-1034.00
2024-06-07 01:00:51.687547,0,0,14,0,0,0,73,76,123,60,38,120.49,154,-4.00,11.00,-1000.00
2024-06-07 01:00:51.787428,0,0,14,0,0,0,73,76,122,60,38,120.49,154,19.00,1.00,-1000.00
2024-06-07 01:00:51.892888,0,0,14,0,0,0,73,75,122,60,38,120.54,154,6.00,11.00,-1033.00
2024-06-07 01:00:51.991044,0,0,14,0,0,0,73,75,121,60,38,120.48,154,-14.00,24.00,-1028.00
2024-06-07 01:00:52.093200,0,0,14,0,0,0,73,75,121,60,38,120.53,154,-50.00,46.00,-1014.00
2024-06-07 01:00:52.195263,0,0,14,0,0,0,73,75,121,60,38,120.38,154,-2.00,8.00,-1016.00
2024-06-07 01:00:52.297002,0,0,14,0,0,0,73,75,121,60,38,120.41,155,-7.00,-4.00,-1022.00
2024-06-07 01:00:52.399182,0,0,14,0,0,0,73,75,121,60,38,120.45,155,26.00,9.00,-1005.00
2024-06-07 01:00:52.501787,0,0,14,0,0,0,73,75,120,60,38,120.42,155,-29.00,28.00,-1035.00
2024-06-07 01:00:52.603244,0,0,14,0,0,0,73,75,121,60,38,120.43,155,-15.00,14.00,-978.00
2024-06-07 01:00:52.705707,0,0,14,0,0,0,73,75,121,60,38,120.45,155,-39.00,19.00,-1011.00
2024-06-07 01:00:52.807196,0,0,14,0,0,0,73,75,121,60,38,120.44,155,-20.00,31.00,-1033.00
2024-06-07 01:00:52.916064,0,0,14,0,0,0,72,75,121,60,38,120.42,155,3.00,8.00,-997.00
2024-06-07 01:00:53.014650,0,0,14,0,0,0,72,75,121,60,38,120.45,155,-6.00,16.00,-1004.00
2024-06-07 01:00:53.113360,0,0,14,0,0,0,72,75,121,60,38,120.46,155,-16.00,20.00,-999.00
2024-06-07 01:00:53.164272,0,0,14,0,0,0,72,75,121,60,38,120.43,155,-5.00,16.00,-1020.00
2024-06-07 01:00:53.284146,0,0,14,0,0,0,72,75,122,60,38,120.53,156,-1.00,20.00,-1006.00
2024-06-07 01:00:53.370802,0,0,14,0,0,0,72,75,122,60,38,120.55,156,-10.00,13.00,-1007.00
2024-06-07 01:00:53.470040,-2,0,14,0,0,0,72,75,122,60,38,120.47,156,-1.00,4.00,-1029.00
2024-06-07 01:00:53.632719,-8,0,14,0,0,0,72,75,125,60,38,120.53,156,8.00,-4.00,-960.00
2024-06-07 01:00:53.674571,-8,0,14,2,0,0,72,75,125,60,38,120.55,156,-33.00,5.00,-1008.00
2024-06-07 01:00:53.837440,-8,0,14,3,0,0,72,75,124,60,38,120.54,156,-28.00,9.00,-1025.00
2024-06-07 01:00:53.877939,-8,0,14,4,1,0,72,75,124,60,38,120.49,156,-51.00,7.00,-991.00
2024-06-07 01:00:54.043207,-7,0,14,5,1,0,72,75,125,60,38,120.43,156,-25.00,-13.00,-952.00
2024-06-07 01:00:54.084273,-7,0,14,6,1,0,72,75,125,60,38,120.47,156,-40.00,0.00,-988.00
2024-06-07 01:00:54.185050,-5,0,14,7,1,0,72,75,124,60,38,120.45,156,-90.00,0.00,-1013.00
2024-06-07 01:00:54.288495,-5,0,14,7,1,0,72,75,125,60,38,120.45,157,-31.00,14.00,-1019.00
2024-06-07 01:00:54.388895,-3,0,14,7,1,0,72,75,125,60,38,120.44,157,-59.00,-2.00,-969.00
2024-06-07 01:00:54.553795,0,0,14,7,1,0,72,75,125,60,38,120.44,157,-40.00,-6.00,-1010.00
2024-06-07 01:00:54.592944,2,0,14,6,1,0,72,75,126,60,38,120.38,157,-54.00,14.00,-975.00
2024-06-07 01:00:54.758678,4,0,14,5,1,0,72,75,127,60,38,120.39,157,-46.00,1.00,-989.00
2024-06-07 01:00:54.796815,3,0,14,4,1,0,72,75,127,60,38,120.50,157,-41.00,2.00,-1017.00
2024-06-07 01:00:54.963444,1,0,14,3,0,0,73,75,126,60,38,120.52,157,-22.00,-1.00,-1014.00
2024-06-07 01:00:55.000835,0,0,14,3,0,0,73,75,127,60,38,120.51,157,-43.00,6.00,-1038.00
2024-06-07 01:00:55.102862,0,0,14,3,0,0,73,75,126,60,38,120.51,157,-41.00,9.00,-1022.00
2024-06-07 01:00:55.204794,0,0,14,2,0,0,73,75,127,60,38,120.43,157,-31.00,6.00,-1007.00
2024-06-07 01:00:55.373068,0,0,14,2,0,0,73,75,127,60,38,120.48,158,-45.00,22.00,-977.00
2024-06-07 01:00:55.408831,0,-2,14,2,0,0,73,75,127,60,38,120.53,158,-24.00,-1.00,-1003.00
2024-06-07 01:00:55.577846,0,-1,14,2,0,0,73,75,127,60,38,120.50,158,-18.00,9.00,-954.00
2024-06-07 01:00:55.612850,0,0,14,2,0,0,73,75,127,60,38,120.51,158,-22.00,17.00,-1023.00
2024-06-07 01:00:55.783443,3,0,14,1,0,0,73,75,127,60,38,120.52,158,-34.00,15.00,-1004.00
2024-06-07 01:00:55.817012,2,0,14,0,0,0,73,75,127,60,38,120.53,158,-9.00,6.00,-980.00
2024-06-07 01:00:55.987611,0,0,14,0,0,0,73,75,126,60,38,120.58,158,14.00,3.00,-1043.00
2024-06-07 01:00:56.020872,0,0,14,0,0,0,73,75,126,60,38,120.54,158,-14.00,5.00,-990.00
2024-06-07 01:00:56.192317,0,0,14,0,0,0,73,75,125,60,38,120.54,158,-4.00,5.00,-1022.00
2024-06-07 01:00:56.224763,0,0,14,0,0,0,73,75,125,60,38,120.53,158,-31.00,29.00,-1006.00
2024-06-07 01:00:56.397172,0,0,14,0,0,0,73,75,125,60,38,120.55,159,-15.00,7.00,-1038.00
2024-06-07 01:00:56.428787,0,0,14,0,0,0,73,75,126,60,38,120.54,159,-9.00,5.00,-975.00
2024-06-07 01:00:56.604712,0,0,14,0,0,0,73,75,125,60,38,120.49,159,-10.00,4.00,-983.00
2024-06-07 01:00:56.632768,0,0,14,0,0,0,73,75,125,60,38,120.58,159,0.00,8.00,-1025.00
2024-06-07 01:00:56.687737,0,0,14,0,0,0,73,75,125,60,38,120.52,159,-40.00,21.00,-997.00
2024-06-07 01:00:56.785832,0,0,14,0,0,0,73,75,125,60,38,120.56,159,-23.00,16.00,-1000.00
2024-06-07 01:00:56.938782,0,0,14,0,0,0,72,75,125,60,38,120.51,159,-5.00,5.00,-934.00
2024-06-07 01:00:57.040586,0,0,14,0,0,0,72,75,124,60,38,120.45,159,23.00,-1.00,-1011.00
2024-06-07 01:00:57.217557,0,0,14,0,0,0,72,75,123,60,38,120.53,159,10.00,10.00,-974.00
2024-06-07 01:00:57.217724,0,0,14,0,0,0,72,75,123,60,38,120.56,159,3.00,2.00,-1004.00
2024-06-07 01:00:57.295855,0,0,14,0,0,0,72,75,123,60,38,120.51,160,18.00,11.00,-1031.00
2024-06-07 01:00:57.421129,0,0,14,0,0,0,72,75,123,60,38,120.48,160,-24.00,18.00,-996.00
2024-06-07 01:00:57.499914,0,0,14,0,0,0,72,75,123,60,38,120.53,160,-58.00,26.00,-968.00
2024-06-07 01:00:57.625862,0,0,14,0,0,0,72,75,122,60,38,120.48,160,-31.00,20.00,-1008.00
2024-06-07 01:00:57.703873,0,0,14,0,0,0,72,75,122,60,38,120.49,160,1.00,8.00,-1024.00
2024-06-07 01:00:57.820307,-1,0,14,0,0,0,72,75,122,60,38,120.52,160,-13.00,10.00,-1004.00
2024-06-07 01:00:57.907794,-1,0,14,0,0,0,72,75,122,60,38,120.48,160,5.00,1.00,-990.00
2024-06-07 01:00:58.009754,0,0,14,0,0,0,72,75,122,60,38,120.47,160,-16.00,21.00,-1009.00
2024-06-07 01:00:58.115803,6,0,14,0,0,0,72,75,122,60,38,120.49,160,10.00,-12.00,-1001.00
2024-06-07 01:00:58.214113,8,0,14,-1,0,0,72,75,122,60,38,120.53,160,-13.00,25.00,-1021.00
2024-06-07 01:00:58.342452,8,0,14,-3,0,0,72,75,121,60,38,120.57,161,18.00,19.00,-996.00
2024-06-07 01:00:58.417702,8,0,14,-4,-1,0,72,75,121,60,38,120.52,161,55.00,-8.00,-1041.00
2024-06-07 01:00:58.547872,6,0,14,-5,-1,0,72,75,121,60,38,120.46,161,29.00,0.00,-1013.00
2024-06-07 01:00:58.621576,6,0,14,-6,-2,0,72,75,121,60,38,120.49,161,30.00,-4.00,-979.00
2024-06-07 01:00:58.752140,5,0,14,-7,-2,0,72,75,121,60,38,120.46,161,30.00,14.00,-1005.00
2024-06-07 01:00:58.825554,4,0,14,-7,-2,0,72,75,122,60,38,120.48,161,25.00,8.00,-1044.00
2024-06-07 01:00:58.956916,2,0,14,-7,-2,0,72,75,121,60,38,120.46,161,20.00,9.00,-985.00
2024-06-07 01:00:59.029611,0,0,14,-7,-1,0,72,75,122,60,38,120.48,161,71.00,7.00,-964.00
2024-06-07 01:00:59.161711,-2,0,14,-6,-1,0,72,75,121,60,38,120.55,161,34.00,7.00,-1013.00
2024-06-07 01:00:59.233634,-4,0,14,-5,-1,0,72,75,122,60,38,120.41,161,51.00,6.00,-998.00
2024-06-07 01:00:59.366979,-4,0,14,-4,0,0,72,75,121,60,38,120.50,162,19.00,4.00,-1007.00
2024-06-07 01:00:59.438343,-2,0,14,-4,0,0,72,75,121,60,38,120.54,162,16.00,25.00,-1033.00
2024-06-07 01:00:59.539541,-1,0,14,-3,0,0,72,75,121,60,38,120.53,162,-13.00,25.00,-1052.00
2024-06-07 01:00:59.673661,-1,0,14,-3,0,0,72,75,121,60,38,120.56,162,-30.00,16.00,-988.00
2024-06-07 01:00:59.743526,-1,0,14,-3,0,0,72,75,121,60,38,120.55,162,-12.00,15.00,-1031.00
2024-06-07 01:00:59.847312,0,0,14,-2,0,0,72,75,121,60,38,120.49,162,-3.00,7.00,-1016.00
2024-06-07 01:00:59.947788,-1,0,14,-2,0,0,73,75,121,60,38,120.51,162,20.00,5.00,-1061.00
2024-06-07 01:01:00.049436,-2,-1,14,-2,0,0,73,75,121,60,38,120.54,162,3.00,19.00,-1010.00
2024-06-07 01:01:00.151465,-4,-1,14,-1,0,0,73,75,122,60,38,120.51,162,-4.00,17.00,-978.00
2024-06-07 01:01:00.288046,-3,-1,14,0,0,0,73,75,121,60,38,120.54,163,23.00,-11.00,-968.00
2024-06-07 01:01:00.355590,-1,-1,14,0,0,0,73,75,123,60,38,120.55,163,-17.00,7.00,-994.00
2024-06-07 01:01:00.493002,-1,0,14,0,0,0,73,75,122,60,38,120.50,163,-7.00,18.00,-1013.00
2024-06-07 01:01:00.559431,0,0,14,0,0,0,73,75,122,60,38,120.50,163,-1.00,15.00,-938.00
2024-06-07 01:01:00.697732,0,0,14,0,0,0,73,75,123,60,38,120.48,163,0.00,5.00,-967.00
2024-06-07 01:01:00.763538,0,0,14,0,0,0,73,75,123,60,38,120.47,163,-13.00,17.00,-1012.00
2024-06-07 01:01:00.814607,0,-1,14,0,0,0,73,75,123,60,38,120.55,163,-3.00,9.00,-969.00
2024-06-07 01:01:01.005429,0,-1,14,0,0,0,72,74,124,60,38,120.56,163,-4.00,4.00,-1012.00
2024-06-07 01:01:01.069771,0,-1,14,0,0,0,72,74,124,60,38,120.45,163,-5.00,15.00,-1010.00
2024-06-07 01:01:01.120275,0,0,14,0,0,0,72,74,124,60,38,120.57,163,-15.00,15.00,-1010.00
2024-06-07 01:01:01.223683,0,0,14,0,0,0,72,74,125,60,38,120.57,164,6.00,13.00,-1037.00
2024-06-07 01:01:01.325850,0,0,14,0,0,0,72,74,126,60,38,120.58,164,-9.00,28.00,-1018.00
2024-06-07 01:01:01.428396,0,0,14,0,0,0,72,74,127,60,38,120.57,164,-8.00,16.00,-979.00
2024-06-07 01:01:01.528650,0,0,14,0,0,0,72,74,127,60,38,120.65,164,-42.00,33.00,-1027.00
2024-06-07 01:01:01.721725,0,0,14,0,0,0,72,74,127,60,38,120.63,164,4.00,13.00,-992.00
2024-06-07 01:01:01.732572,0,0,14,0,0,0,72,74,127,60,38,120.58,164,1.00,9.00,-986.00
2024-06-07 01:01:01.834343,0,0,14,0,0,0,72,74,128,60,38,120.58,164,8.00,15.00,-1012.00
2024-06-07 01:01:02.131494,0,0,14,0,0,0,72,75,128,60,38,120.54,164,-22.00,31.00,-1034.00
2024-06-07 01:01:02.131655,0,0,14,0,0,0,72,75,128,60,38,120.59,164,-11.00,16.00,-978.00
2024-06-07 01:01:02.140551,0,0,14,0,0,0,72,75,128,60,38,120.65,164,-11.00,21.00,-994.00
2024-06-07 01:01:02.261552,0,0,14,0,0,0,72,75,128,60,38,120.59,165,-14.00,22.00,-1045.00
2024-06-07 01:01:02.383377,0,0,14,0,0,0,72,75,127,60,38,120.60,165,-24.00,27.00,-1005.00
2024-06-07 01:01:02.468372,0,0,14,0,0,0,72,75,127,60,38,120.59,165,-10.00,9.00,-1005.00
2024-06-07 01:01:02.579090,0,-3,14,0,0,0,72,75,127,60,38,120.61,165,-20.00,46.00,-946.00
2024-06-07 01:01:02.651114,0,-9,14,0,0,0,72,75,128,60,38,120.60,165,27.00,-16.00,-1022.00
2024-06-07 01:01:02.763982,0,-7,14,0,-2,0,72,75,127,60,38,120.63,165,-9.00,18.00,-1035.00
2024-06-07 01:01:02.864575,0,-5,14,0,-3,0,72,75,127,60,38,120.55,165,-14.00,31.00,-1027.00
2024-06-07 01:01:03.044121,0,-2,14,1,-3,0,72,74,126,60,38,120.61,165,-8.00,29.00,-1028.00
2024-06-07 01:01:03.057940,0,0,14,1,-3,0,72,74,127,60,38,120.65,165,3.00,32.00,-977.00
2024-06-07 01:01:03.169263,0,0,14,1,-3,0,72,74,128,60,38,120.63,165,-23.00,61.00,-1046.00
2024-06-07 01:01:03.311028,0,0,14,0,-2,0,72,74,127,60,38,120.66,166,6.00,27.00,-991.00
2024-06-07 01:01:03.473165,0,0,14,0,-2,0,72,74,128,60,38,120.60,166,-21.00,34.00,-988.00
2024-06-07 01:01:03.473225,0,-1,14,0,-2,0,72,74,127,60,38,120.62,166,-7.00,40.00,-1029.00
2024-06-07 01:01:03.616506,0,-1,14,0,-2,0,72,74,128,60,38,120.64,166,2.00,26.00,-989.00
2024-06-07 01:01:03.780309,0,-1,14,0,-2,0,72,74,128,60,38,120.60,166,-11.00,31.00,-1021.00
2024-06-07 01:01:03.780365,0,-1,14,0,-2,0,72,74,127,60,38,120.59,166,23.00,20.00,-981.00
2024-06-07 01:01:03.923736,0,0,14,0,-2,0,72,74,128,60,38,120.59,166,-16.00,27.00,-981.00
2024-06-07 01:01:04.095266,0,0,14,0,-2,0,73,75,127,60,38,120.51,166,-10.00,20.00,-1009.00
2024-06-07 01:01:04.095642,0,0,14,0,-2,0,73,75,127,60,38,120.60,166,-1.00,10.00,-997.00
2024-06-07 01:01:04.230888,0,0,14,0,-2,0,73,75,127,60,38,120.61,166,2.00,25.00,-985.00
2024-06-07 01:01:04.281996,0,0,14,0,-2,0,73,75,127,60,38,120.60,167,1.00,32.00,-989.00
2024-06-07 01:01:04.394670,-1,3,14,0,-1,0,73,75,127,60,38,120.62,167,-2.00,42.00,-1031.00
2024-06-07 01:01:04.589032,0,2,14,0,0,0,73,75,127,60,38,120.55,167,0.00,25.00,-1045.00
2024-06-07 01:01:04.625810,0,0,14,0,0,0,73,75,127,60,37,120.52,167,-19.00,21.00,-928.00
2024-06-07 01:01:04.690672,0,0,14,0,0,0,73,75,126,60,37,120.63,167,8.00,6.00,-1018.00
2024-06-07 01:01:04.793491,0,0,14,0,0,0,73,75,126,60,37,120.60,167,-16.00,12.00,-1001.00
2024-06-07 01:01:04.843495,0,0,14,0,0,0,73,75,127,60,37,120.63,167,-9.00,14.00,-1015.00
2024-06-07 01:01:04.998274,0,0,14,0,0,0,73,74,126,60,37,120.58,167,-3.00,9.00,-1001.00
2024-06-07 01:01:05.047477,0,0,14,0,0,0,73,74,127,60,37,120.63,167,-6.00,20.00,-986.00
2024-06-07 01:01:05.203153,0,0,14,0,0,0,73,74,127,60,37,120.63,167,1.00,3.00,-967.00
2024-06-07 01:01:05.251042,0,0,14,0,0,0,73,74,126,60,37,120.65,168,0.00,-2.00,-917.00
2024-06-07 01:01:05.407697,0,0,14,0,0,0,73,74,127,60,37,120.59,168,3.00,-2.00,-989.00
2024-06-07 01:01:05.455129,0,0,14,0,0,0,73,74,126,60,37,120.57,168,32.00,-8.00,-968.00
2024-06-07 01:01:05.612649,0,0,14,0,0,0,73,74,127,60,37,120.61,168,-4.00,16.00,-991.00
2024-06-07 01:01:05.660596,0,0,14,0,0,0,73,74,126,60,37,120.62,168,-9.00,2.00,-992.00
2024-06-07 01:01:05.761060,0,0,14,0,0,0,73,74,126,60,37,120.61,168,1.00,13.00,-1008.00
2024-06-07 01:01:05.863395,0,0,14,0,0,0,73,74,126,60,37,120.61,168,-22.00,13.00,-1017.00
2024-06-07 01:01:05.966472,0,0,14,0,0,0,73,75,126,60,37,120.64,168,-14.00,18.00,-1006.00
2024-06-07 01:01:06.068558,0,0,14,0,0,0,73,75,126,60,37,120.56,168,11.00,7.00,-974.00
2024-06-07 01:01:06.169139,0,0,14,0,0,0,73,75,126,60,37,120.65,168,-20.00,23.00,-1016.00
2024-06-07 01:01:06.431995,0,0,14,0,0,0,73,75,127,60,37,120.50,169,38.00,-15.00,-1025.00
2024-06-07 01:01:06.432158,0,0,14,0,0,0,73,75,126,60,37,120.62,169,22.00,0.00,-989.00
2024-06-07 01:01:06.474999,0,0,14,0,0,0,73,75,127,60,37,120.60,169,-1.00,1.00,-980.00
2024-06-07 01:01:06.627031,0,-1,14,0,0,0,73,75,127,60,37,120.57,169,-9.00,7.00,-973.00
2024-06-07 01:01:06.678968,0,0,14,0,0,0,73,75,127,60,37,120.63,169,-32.00,16.00,-990.00
2024-06-07 01:01:06.841352,0,0,14,0,0,0,73,75,126,60,37,120.60,169,-37.00,6.00,-1031.00
2024-06-07 01:01:06.882938,0,6,14,0,0,0,73,75,128,60,37,120.59,169,-13.00,15.00,-947.00
2024-06-07 01:01:07.046084,0,8,14,0,1,0,72,75,127,60,37,120.59,169,-16.00,16.00,-991.00
2024-06-07 01:01:07.087064,0,5,14,0,2,0,72,75,126,60,37,120.59,169,-9.00,0.00,-1022.00
2024-06-07 01:01:07.188924,0,2,14,0,3,0,72,75,125,60,37,120.54,169,-23.00,-1.00,-998.00
2024-06-07 01:01:07.353370,0,0,14,-1,4,0,72,75,125,60,37,120.58,170,-9.00,0.00,-1021.00
2024-06-07 01:01:07.392864,0,-2,14,-1,3,0,72,75,125,60,37,120.63,170,-14.00,-12.00,-1028.00
2024-06-07 01:01:07.494967,0,-2,14,-1,3,0,72,75,125,60,37,120.62,170,-12.00,-3.00,-1015.00
2024-06-07 01:01:07.660565,0,-1,14,0,2,0,72,75,125,60,37,120.64,170,-20.00,-1.00,-1023.00
2024-06-07 01:01:07.698920,0,0,14,0,2,0,72,75,125,60,37,120.65,170,-53.00,17.00,-1050.00
2024-06-07 01:01:07.865313,0,0,14,0,2,0,72,75,124,60,37,120.50,170,-7.00,-19.00,-959.00
2024-06-07 01:01:07.903738,0,0,14,0,2,0,72,75,125,60,37,120.60,170,2.00,-21.00,-973.00
2024-06-07 01:01:08.073808,0,0,14,0,2,0,72,75,124,60,37,120.55,170,-12.00,0.00,-1039.00
2024-06-07 01:01:08.110069,-2,0,14,0,2,0,72,75,123,60,37,120.60,170,-19.00,15.00,-1030.00
2024-06-07 01:01:08.209736,-1,0,14,0,2,0,72,75,123,60,37,120.55,170,-15.00,5.00,-1005.00
2024-06-07 01:01:08.261063,-1,0,14,0,2,0,72,75,124,60,37,120.57,171,-13.00,-20.00,-1035.00
2024-06-07 01:01:08.377765,0,0,14,0,2,0,72,75,123,60,37,120.56,171,-7.00,-3.00,-996.00
2024-06-07 01:01:08.464890,0,-2,14,0,2,0,72,75,123,60,36,120.56,171,-6.00,3.00,-963.00
2024-06-07 01:01:08.581959,0,-4,14,0,1,0,72,75,123,60,36,120.51,171,-11.00,-18.00,-1014.00
2024-06-07 01:01:08.669437,0,-2,14,0,0,0,72,75,123,60,36,120.57,171,-19.00,18.00,-1004.00
2024-06-07 01:01:08.786914,0,-1,14,0,0,0,72,75,123,60,36,120.56,171,-14.00,17.00,-1014.00
2024-06-07 01:01:08.873395,0,-1,14,0,0,0,72,75,124,60,36,120.53,171,0.00,4.00,-938.00
2024-06-07 01:01:08.992201,0,0,14,0,0,0,72,75,123,60,36,120.57,171,-25.00,1.00,-968.00
2024-06-07 01:01:09.076990,0,0,14,0,0,0,72,75,123,60,36,120.52,171,-16.00,-1.00,-993.00
2024-06-07 01:01:09.197097,0,0,14,0,0,0,72,75,124,60,36,120.59,171,-16.00,-10.00,-1044.00
2024-06-07 01:01:09.281607,0,0,14,0,0,0,72,75,124,60,36,120.61,172,1.00,-15.00,-980.00
2024-06-07 01:01:09.401348,0,0,14,0,0,0,72,75,124,60,36,120.53,172,-6.00,3.00,-962.00
2024-06-07 01:01:09.484852,0,0,14,0,0,0,72,75,123,60,36,120.54,172,0.00,4.00,-967.00
2024-06-07 01:01:09.606122,0,0,14,0,0,0,72,75,123,60,36,120.58,172,-9.00,22.00,-1001.00
2024-06-07 01:01:09.688731,0,0,14,0,0,0,72,75,122,60,36,120.59,172,-38.00,29.00,-1014.00
2024-06-07 01:01:09.794229,0,0,14,0,0,0,72,75,122,60,36,120.52,172,-8.00,16.00,-1000.00
2024-06-07 01:01:09.892773,0,0,14,0,0,0,72,75,121,60,36,120.55,172,-9.00,13.00,-997.00
2024-06-07 01:01:10.016381,0,0,14,0,0,0,73,74,121,60,36,120.49,172,-22.00,15.00,-1043.00
2024-06-07 01:01:10.096961,0,0,14,0,0,0,73,74,121,60,36,120.54,172,5.00,-8.00,-1019.00
2024-06-07 01:01:10.198778,0,0,14,0,0,0,73,74,120,60,36,120.53,172,-20.00,-6.00,-1005.00
2024-06-07 01:01:10.322879,0,0,14,0,0,0,73,74,121,60,36,120.52,173,0.00,-5.00,-996.00
2024-06-07 01:01:10.403094,0,0,14,0,0,0,73,74,120,60,36,120.54,173,-12.00,-14.00,-986.00
2024-06-07 01:01:10.527768,0,0,14,0,0,0,73,74,120,60,36,120.61,173,-10.00,-6.00,-1013.00
2024-06-07 01:01:10.606937,0,0,14,0,0,0,73,74,121,60,36,120.59,173,9.00,12.00,-1035.00
2024-06-07 01:01:10.708712,0,0,14,0,0,0,73,74,121,60,36,120.58,173,1.00,23.00,-1045.00
2024-06-07 01:01:10.835272,0,0,14,0,0,0,73,74,121,60,36,120.63,173,-17.00,7.00,-1106.00
2024-06-07 01:01:10.912720,0,0,18,0,0,0,73,74,121,60,36,120.52,173,22.00,-20.00,-970.00
2024-06-07 01:01:11.039593,0,0,23,0,0,0,72,75,122,60,36,120.62,173,-40.00,55.00,-1018.00
2024-06-07 01:01:11.116624,0,0,29,0,0,0,72,75,121,60,36,120.57,173,0.00,-13.00,-1028.00
2024-06-07 01:01:11.244370,0,0,35,0,0,0,72,75,122,60,36,120.59,173,-22.00,0.00,-971.00
2024-06-07 01:01:11.320380,0,0,41,0,0,0,72,75,122,60,36,120.60,174,-8.00,17.00,-1006.00
2024-06-07 01:01:11.449922,0,0,47,0,0,0,72,75,123,60,36,120.55,174,8.00,-7.00,-983.00
2024-06-07 01:01:11.524471,0,0,53,0,0,0,72,75,123,60,35,120.61,174,-34.00,11.00,-1016.00
2024-06-07 01:01:11.654644,0,0,59,0,0,0,72,75,123,60,35,120.60,174,-25.00,17.00,-991.00
2024-06-07 01:01:11.728564,0,0,65,0,0,0,72,75,123,60,35,120.55,174,-7.00,6.00,-977.00
2024-06-07 01:01:11.830683,0,0,71,0,0,0,72,75,124,60,35,120.57,174,-10.00,0.00,-1004.00
2024-06-07 01:01:11.961066,0,0,77,0,0,0,72,75,123,60,35,120.52,174,28.00,12.00,-1009.00
2024-06-07 01:01:12.034688,0,0,83,0,0,0,72,75,123,60,35,120.55,174,1.00,15.00,-989.00
2024-06-07 01:01:12.165823,0,0,89,0,0,0,72,75,123,60,35,120.52,174,-1.00,15.00,-1019.00
2024-06-07 01:01:12.239258,0,0,95,0,0,0,72,75,123,60,35,120.59,174,-38.00,21.00,-1013.00
2024-06-07 01:01:12.370750,0,0,101,0,0,0,72,75,123,60,35,120.55,175,-20.00,2.00,-979.00
2024-06-07 01:01:12.445002,0,0,107,0,0,0,72,75,124,60,35,120.56,175,-12.00,3.00,-965.00
2024-06-07 01:01:12.493363,0,0,113,0,0,0,72,75,123,60,35,120.60,175,-17.00,33.00,-991.00
2024-06-07 01:01:12.677932,0,0,119,0,0,0,72,75,123,60,35,120.56,175,-24.00,33.00,-997.00
2024-06-07 01:01:12.697734,0,0,125,0,0,0,72,75,123,60,35,120.59,175,12.00,8.00,-995.00
2024-06-07 01:01:12.882709,0,0,131,0,0,0,72,75,123,60,35,120.64,175,0.00,29.00,-1018.00
2024-06-07 01:01:12.903390,0,0,137,0,0,0,72,75,123,60,35,120.65,175,2.00,0.00,-1000.00
2024-06-07 01:01:13.003382,0,0,143,0,0,0,71,75,122,60,35,120.56,175,-9.00,11.00,-1015.00
2024-06-07 01:01:13.105789,0,0,149,0,0,0,71,75,122,60,35,120.56,175,8.00,34.00,-1022.00
2024-06-07 01:01:13.292792,0,0,155,0,0,0,71,75,123,60,35,120.56,175,23.00,-6.00,-966.00
2024-06-07 01:01:13.309287,0,0,161,0,0,0,71,75,123,60,35,120.63,176,-36.00,40.00,-1024.00
2024-06-07 01:01:13.497557,0,0,167,0,0,0,71,75,123,60,35,120.60,176,15.00,12.00,-1011.00
2024-06-07 01:01:13.513820,0,0,173,0,0,0,71,75,123,60,35,120.59,176,9.00,-1.00,-987.00
2024-06-07 01:01:13.701798,0,0,178,0,0,0,71,75,124,60,35,120.53,176,-18.00,40.00,-1034.00
2024-06-07 01:01:13.717198,0,0,-175,0,0,0,71,75,123,60,35,120.56,176,28.00,10.00,-979.00
2024-06-07 01:01:13.819231,0,0,-169,0,0,0,71,75,124,60,35,120.61,176,1.00,26.00,-983.00
2024-06-07 01:01:14.009051,0,0,-163,0,0,0,71,75,124,60,35,120.59,176,10.00,18.00,-972.00
2024-06-07 01:01:14.023268,0,0,-157,0,0,0,72,76,124,60,35,120.61,176,-27.00,40.00,-1013.00
2024-06-07 01:01:14.125299,0,0,-152,0,0,0,72,76,125,60,35,120.65,176,31.00,-12.00,-1025.00
2024-06-07 01:01:14.227168,0,0,-146,0,0,0,72,76,124,60,35,120.63,176,1.00,21.00,-1010.00
2024-06-07 01:01:14.418675,0,0,-140,0,0,0,72,76,124,60,35,120.68,177,-22.00,10.00,-1048.00
2024-06-07 01:01:14.431252,0,0,-134,0,0,0,72,76,125,60,35,120.63,177,-1.00,-2.00,-964.00
2024-06-07 01:01:14.533218,0,0,-128,0,0,0,72,76,125,60,35,120.62,177,7.00,8.00,-1048.00
2024-06-07 01:01:14.725787,0,0,-122,0,0,0,72,76,125,60,35,120.66,177,27.00,3.00,-983.00
2024-06-07 01:01:14.737050,0,0,-116,0,0,0,72,76,125,60,35,120.67,177,2.00,-3.00,-951.00
2024-06-07 01:01:14.931056,0,0,-110,0,0,0,72,76,125,60,35,120.61,177,-4.00,20.00,-999.00
2024-06-07 01:01:14.941162,0,0,-105,0,0,0,72,76,125,60,35,120.59,177,-17.00,-3.00,-997.00
2024-06-07 01:01:15.047082,0,0,-93,0,0,0,72,75,125,60,35,120.65,177,3.00,14.00,-1033.00
2024-06-07 01:01:15.145161,0,0,-87,0,0,0,72,75,125,60,35,120.65,177,-7.00,17.00,-1012.00
2024-06-07 01:01:15.340230,0,0,-81,0,0,0,72,75,125,60,35,120.64,178,23.00,-10.00,-1022.00
2024-06-07 01:01:15.349185,0,0,-76,0,0,0,72,75,125,60,35,120.61,178,48.00,-22.00,-995.00
2024-06-07 01:01:15.549056,0,0,-70,0,0,0,72,75,125,60,35,120.62,178,-1.00,-4.00,-984.00
2024-06-07 01:01:15.553351,0,0,-64,0,0,0,72,75,125,60,35,120.56,178,-3.00,-1.00,-991.00
2024-06-07 01:01:15.750215,0,0,-58,0,0,0,72,75,125,60,35,120.54,178,-5.00,3.00,-998.00
2024-06-07 01:01:15.758089,0,0,-52,0,0,0,72,75,124,60,35,120.63,178,-17.00,25.00,-992.00
2024-06-07 01:01:15.862300,0,0,-46,0,0,0,72,75,125,60,35,120.60,178,16.00,-25.00,-970.00
2024-06-07 01:01:15.961038,0,0,-40,0,0,0,72,75,125,60,35,120.57,178,-19.00,26.00,-1019.00
2024-06-07 01:01:16.105602,0,0,-34,0,0,0,72,75,125,60,35,120.59,178,8.00,-18.00,-970.00
2024-06-07 01:01:16.165102,0,0,-28,0,0,0,72,75,125,60,35,120.65,178,-17.00,30.00,-990.00
2024-06-07 01:01:16.364177,0,0,-22,0,0,0,72,75,126,60,35,120.63,179,0.00,-4.00,-988.00
2024-06-07 01:01:16.364233,0,0,-16,0,0,0,72,75,125,60,35,120.63,179,-7.00,11.00,-983.00
2024-06-07 01:01:16.420175,0,0,-10,0,0,0,72,75,124,60,35,120.63,179,-13.00,1.00,-992.00
2024-06-07 01:01:16.569315,0,0,-5,0,0,0,72,75,125,60,35,120.60,179,6.00,23.00,-980.00
2024-06-07 01:01:16.624162,0,0,0,0,0,0,72,75,124,60,35,120.62,179,-5.00,11.00,-1037.00
2024-06-07 01:01:16.773745,0,0,3,0,0,0,72,75,124,60,35,120.69,179,-7.00,-8.00,-967.00
2024-06-07 01:01:16.828466,0,0,5,0,0,0,72,75,124,60,35,120.65,179,-20.00,11.00,-1013.00
2024-06-07 01:01:16.978535,0,0,7,0,0,0,72,75,124,60,35,120.65,179,9.00,-2.00,-979.00
2024-06-07 01:01:17.299559,0,0,9,0,0,0,72,75,124,60,35,120.63,179,-36.00,-2.00,-1026.00
2024-06-07 01:01:17.299653,0,0,10,0,0,0,72,75,123,60,35,120.61,179,-25.00,13.00,-1003.00
2024-06-07 01:01:17.299967,0,0,11,0,0,0,72,75,124,60,35,120.66,180,-10.00,2.00,-987.00
2024-06-07 01:01:17.418980,0,0,12,0,0,0,72,75,123,60,35,120.58,180,-15.00,12.00,-1034.00
2024-06-07 01:01:17.440305,0,0,12,0,0,0,72,75,123,60,35,120.63,180,3.00,18.00,-1004.00
2024-06-07 01:01:17.593104,0,0,12,0,0,0,72,75,123,60,34,120.59,180,6.00,-16.00,-983.00
2024-06-07 01:01:17.663063,0,0,12,0,0,0,72,75,123,60,34,120.65,180,-22.00,26.00,-1018.00
2024-06-07 01:01:17.764462,0,0,12,0,0,0,72,75,123,60,34,120.64,180,-3.00,-13.00,-1002.00
2024-06-07 01:01:17.848108,0,0,12,0,0,0,72,75,123,60,34,120.64,180,5.00,13.00,-1005.00
2024-06-07 01:01:18.070280,0,0,12,0,0,0,72,75,124,60,34,120.66,180,6.00,10.00,-1004.00
2024-06-07 01:01:18.070625,0,0,12,0,0,0,72,74,124,60,34,120.66,180,24.00,-3.00,-1021.00
2024-06-07 01:01:18.158152,0,0,12,0,0,0,72,74,124,60,34,120.63,180,31.00,-36.00,-999.00
2024-06-07 01:01:18.293859,0,0,12,0,0,0,72,74,124,60,34,120.63,181,-5.00,5.00,-1000.00
2024-06-07 01:01:18.357996,0,0,12,0,0,0,72,74,125,60,34,120.65,181,-10.00,-6.00,-942.00
2024-06-07 01:01:18.525570,0,0,12,0,0,0,72,74,125,60,34,120.72,181,-51.00,32.00,-1028.00
2024-06-07 01:01:18.668920,0,0,12,0,0,0,72,74,126,60,34,120.69,181,-31.00,19.00,-1003.00
2024-06-07 01:01:18.669120,0,0,12,0,0,0,72,74,126,60,34,120.63,181,2.00,-13.00,-1000.00
2024-06-07 01:01:18.832663,0,0,12,0,0,0,72,74,125,60,34,120.65,181,-2.00,21.00,-1005.00
2024-06-07 01:01:18.989015,0,0,12,0,0,0,72,74,125,60,34,120.69,181,8.00,-17.00,-957.00
2024-06-07 01:01:18.989206,0,0,12,0,0,0,72,74,125,60,34,120.66,181,-26.00,-3.00,-1006.00
2024-06-07 01:01:19.073406,0,0,12,0,0,0,73,74,125,60,34,120.58,181,0.00,-8.00,-1015.00
2024-06-07 01:01:19.174061,0,0,12,0,0,0,73,74,125,60,34,120.58,181,9.00,2.00,-1013.00
2024-06-07 01:01:19.334071,0,0,12,0,0,0,73,74,124,60,34,120.58,182,-2.00,-9.00,-977.00
2024-06-07 01:01:19.383501,0,0,12,0,0,0,73,74,124,60,34,120.59,182,-4.00,8.00,-1025.00
2024-06-07 01:01:19.479934,0,0,12,0,0,0,73,74,124,60,34,120.61,182,0.00,-3.00,-990.00
2024-06-07 01:01:19.581955,0,0,11,0,0,0,73,74,123,60,34,120.68,182,-18.00,13.00,-1025.00
2024-06-07 01:01:19.744983,0,0,5,0,0,0,73,74,123,60,34,120.60,182,7.00,-20.00,-1000.00
2024-06-07 01:01:19.745040,0,0,0,0,0,0,73,74,123,60,34,120.59,182,-18.00,12.00,-953.00
2024-06-07 01:01:19.836760,0,0,-6,0,0,0,73,74,123,60,34,120.63,182,2.00,5.00,-1022.00
2024-06-07 01:01:19.948019,0,0,-12,0,0,0,73,74,122,60,34,120.63,182,2.00,14.00,-1018.00
2024-06-07 01:01:20.091712,0,0,-18,0,0,0,72,75,123,60,34,120.67,182,2.00,0.00,-1005.00
2024-06-07 01:01:20.142634,0,0,-24,0,0,0,72,75,123,60,34,120.57,182,1.00,12.00,-974.00
2024-06-07 01:01:20.255175,0,0,-30,0,0,0,72,75,123,60,34,120.63,183,44.00,-22.00,-976.00
2024-06-07 01:01:20.346779,0,0,-37,0,0,0,72,75,124,60,34,120.59,183,-13.00,-9.00,-984.00
2024-06-07 01:01:20.460685,0,0,-43,0,0,0,72,75,124,60,34,120.62,183,-8.00,-4.00,-976.00
2024-06-07 01:01:20.550684,0,0,-49,0,0,0,72,75,125,60,34,120.68,183,10.00,-22.00,-963.00
2024-06-07 01:01:20.665175,0,0,-55,0,0,0,72,75,125,60,34,120.60,183,-24.00,-19.00,-990.00
2024-06-07 01:01:20.754552,0,0,-61,0,0,0,72,75,126,60,34,120.64,183,-4.00,-7.00,-952.00
2024-06-07 01:01:20.869533,0,0,-67,0,0,0,72,75,126,60,34,120.59,183,1.00,-5.00,-975.00
2024-06-07 01:01:20.960047,0,0,-73,0,0,0,72,75,125,60,34,120.68,183,-14.00,5.00,-1000.00
2024-06-07 01:01:21.074828,0,0,-79,0,0,0,73,75,126,60,34,120.63,183,-15.00,15.00,-1025.00
2024-06-07 01:01:21.162529,0,0,-85,0,0,0,73,75,125,60,34,120.62,183,10.00,13.00,-1024.00
2024-06-07 01:01:21.264654,0,0,-91,0,0,0,73,75,125,60,34,120.72,184,19.00,-12.00,-962.00
2024-06-07 01:01:21.381472,0,0,-97,0,0,0,73,75,125,60,34,120.65,184,9.00,10.00,-1005.00
2024-06-07 01:01:21.468590,0,0,-103,0,0,0,73,75,125,60,34,120.68,184,3.00,0.00,-989.00
2024-06-07 01:01:21.586327,0,0,-109,0,0,0,73,75,125,60,34,120.69,184,-15.00,35.00,-985.00
2024-06-07 01:01:21.672520,0,0,-115,0,0,0,73,75,125,60,34,120.63,184,15.00,0.00,-1010.00
2024-06-07 01:01:21.793354,0,0,-121,0,0,0,73,75,126,60,34,120.69,184,33.00,-19.00,-963.00
2024-06-07 01:01:21.876578,0,0,-127,0,0,0,73,75,126,60,34,120.70,184,32.00,20.00,-1012.00
2024-06-07 01:01:21.998976,0,0,-133,0,0,0,73,75,126,60,34,120.66,184,-15.00,12.00,-1011.00
2024-06-07 01:01:22.080848,0,0,-139,0,0,0,72,75,126,60,34,120.70,184,-13.00,-2.00,-1007.00
2024-06-07 01:01:22.182416,0,0,-145,0,0,0,72,75,127,60,34,120.66,184,-1.00,6.00,-956.00
2024-06-07 01:01:22.303465,0,0,-151,0,0,0,72,75,127,60,34,120.71,185,-3.00,12.00,-986.00
2024-06-07 01:01:22.386421,0,0,-156,0,0,0,72,75,127,60,34,120.60,185,13.00,-2.00,-972.00
2024-06-07 01:01:22.507843,0,0,-162,0,0,0,72,75,127,60,33,120.69,185,0.00,21.00,-1013.00
2024-06-07 01:01:22.590419,0,0,-168,0,0,0,72,75,127,60,33,120.73,185,-10.00,10.00,-990.00
2024-06-07 01:01:22.712624,0,0,-174,0,0,0,72,75,127,60,33,120.69,185,27.00,-8.00,-948.00
2024-06-07 01:01:22.794388,0,0,179,0,0,0,72,75,126,60,33,120.65,185,-12.00,39.00,-1013.00
2024-06-07 01:01:22.923233,0,0,173,0,0,0,72,75,126,60,33,120.66,185,-25.00,27.00,-998.00
2024-06-07 01:01:22.998740,0,0,167,0,0,0,72,75,126,60,33,120.73,185,0.00,24.00,-999.00
2024-06-07 01:01:23.100407,0,0,161,0,0,0,72,75,126,60,33,120.70,185,14.00,24.00,-1046.00
2024-06-07 01:01:23.224576,0,0,154,0,0,0,72,75,126,60,33,120.72,185,17.00,1.00,-990.00
2024-06-07 01:01:23.304430,0,0,148,0,0,0,72,75,126,60,33,120.70,186,-1.00,-2.00,-1002.00
2024-06-07 01:01:23.429391,0,0,142,0,0,0,72,75,125,60,33,120.61,186,9.00,19.00,-1002.00
2024-06-07 01:01:23.508386,0,0,136,0,0,0,72,75,125,60,33,120.63,186,20.00,-14.00,-1024.00
2024-06-07 01:01:23.634110,0,0,130,0,0,0,72,75,125,60,33,120.59,186,1.00,0.00,-1030.00
2024-06-07 01:01:23.661827,0,0,124,0,0,0,72,75,125,60,33,120.65,186,-4.00,18.00,-993.00
2024-06-07 01:01:23.838959,0,0,118,0,0,0,72,75,124,60,33,120.64,186,40.00,-34.00,-966.00
2024-06-07 01:01:23.866049,0,0,112,0,0,0,72,75,123,60,33,120.59,186,8.00,-7.00,-987.00
2024-06-07 01:01:24.043751,0,0,106,0,0,0,72,75,123,60,33,120.66,186,-21.00,16.00,-1006.00
2024-06-07 01:01:24.120280,0,0,100,0,0,0,72,75,123,60,33,120.62,186,-3.00,29.00,-1003.00
2024-06-07 01:01:24.248565,0,0,94,0,0,0,72,75,122,60,33,120.57,186,24.00,2.00,-971.00
2024-06-07 01:01:24.324308,0,0,87,0,0,0,72,75,121,60,33,120.66,187,6.00,-21.00,-952.00
2024-06-07 01:01:24.375572,0,0,81,0,0,0,72,75,121,60,33,120.65,187,-28.00,10.00,-1033.00
2024-06-07 01:01:24.555710,0,0,75,0,0,0,72,75,121,60,33,120.60,187,-2.00,5.00,-1048.00
2024-06-07 01:01:24.579632,0,0,69,0,0,0,72,75,121,60,33,120.54,187,-5.00,20.00,-1058.00
2024-06-07 01:01:24.681494,0,0,63,0,0,0,72,75,120,60,33,120.62,187,-4.00,-1.00,-1007.00
2024-06-07 01:01:24.862907,0,0,56,0,0,0,72,75,120,60,33,120.63,187,-8.00,3.00,-963.00
2024-06-07 01:01:24.885567,0,0,50,0,0,0,72,75,119,60,33,120.60,187,-11.00,18.00,-1048.00
2024-06-07 01:01:25.067714,0,0,44,0,0,0,72,75,121,60,33,120.64,187,-13.00,14.00,-1002.00
2024-06-07 01:01:25.090719,0,0,38,0,0,0,73,74,121,60,33,120.60,187,37.00,-3.00,-989.00
2024-06-07 01:01:25.191791,0,0,32,0,0,0,73,74,121,60,33,120.62,187,-32.00,31.00,-997.00
2024-06-07 01:01:25.294467,0,0,28,0,0,0,73,74,121,60,33,120.60,188,0.00,-12.00,-1021.00
2024-06-07 01:01:25.395444,0,0,24,0,0,0,73,74,121,60,33,120.63,188,0.00,-7.00,-990.00
2024-06-07 01:01:25.580274,0,0,21,0,0,0,73,74,121,60,33,120.60,188,-7.00,-7.00,-1041.00
2024-06-07 01:01:25.601140,0,0,19,0,0,0,73,74,121,60,33,120.60,188,-8.00,21.00,-1061.00
2024-06-07 01:01:25.701575,0,0,18,0,0,0,73,74,122,60,33,120.63,188,-14.00,17.00,-987.00
2024-06-07 01:01:25.887390,0,0,16,0,0,0,73,74,122,60,33,120.62,188,-10.00,8.00,-989.00
2024-06-07 01:01:25.908654,0,0,15,0,0,0,73,74,122,60,33,120.64,188,-31.00,-7.00,-1006.00
2024-06-07 01:01:26.007411,0,0,15,0,0,0,73,74,122,60,33,120.59,188,33.00,-21.00,-968.00
2024-06-07 01:01:26.109545,0,0,14,0,0,0,73,75,122,60,33,120.66,188,5.00,-7.00,-966.00
2024-06-07 01:01:26.296647,0,0,14,0,0,0,73,75,122,60,33,120.60,188,-23.00,6.00,-993.00
2024-06-07 01:01:26.313437,0,0,14,0,0,0,73,75,122,60,33,120.62,189,-6.00,12.00,-962.00
2024-06-07 01:01:26.415766,0,0,14,0,0,0,73,75,122,60,33,120.66,189,0.00,15.00,-980.00
2024-06-07 01:01:26.605369,0,0,14,0,0,0,73,75,122,60,33,120.68,189,-3.00,-9.00,-966.00
2024-06-07 01:01:26.619344,0,0,14,0,0,0,73,75,122,60,33,120.68,189,2.00,7.00,-1005.00
2024-06-07 01:01:26.808640,0,0,14,0,0,0,73,75,122,60,33,120.67,189,1.00,-26.00,-965.00
2024-06-07 01:01:26.823384,0,0,14,0,0,0,73,75,122,60,33,120.63,189,-23.00,15.00,-1007.00
2024-06-07 01:01:27.013693,0,0,14,0,0,0,73,75,122,60,33,120.67,189,14.00,-3.00,-972.00
2024-06-07 01:01:27.027268,0,0,14,0,0,0,73,75,123,60,33,120.63,189,-16.00,-5.00,-1016.00
2024-06-07 01:01:27.130964,0,0,14,0,0,0,72,74,123,60,33,120.68,189,6.00,-10.00,-987.00
2024-06-07 01:01:27.231549,0,0,14,0,0,0,72,74,123,60,33,120.68,189,-27.00,-2.00,-980.00
2024-06-07 01:01:27.333468,0,0,14,0,0,0,72,74,123,60,33,120.64,190,20.00,5.00,-1018.00
2024-06-07 01:01:27.436920,0,0,14,0,0,0,72,74,123,60,33,120.61,190,-9.00,1.00,-940.00
2024-06-07 01:01:27.539166,0,0,14,0,0,0,72,74,124,60,32,120.64,190,-28.00,31.00,-1048.00
2024-06-07 01:01:27.639803,0,0,14,0,0,0,72,74,124,60,32,120.66,190,27.00,-3.00,-974.00
2024-06-07 01:01:27.741414,0,0,14,0,0,0,72,74,125,60,32,120.66,190,-12.00,-22.00,-973.00
2024-06-07 01:01:27.792355,0,0,14,0,0,0,72,74,124,60,32,120.65,190,-34.00,32.00,-1061.00
2024-06-07 01:01:27.938084,0,0,14,0,0,0,72,74,124,60,32,120.66,190,18.00,-18.00,-984.00
2024-06-07 01:01:27.996492,0,0,14,0,0,0,72,74,124,60,32,120.67,190,-13.00,-27.00,-969.00
2024-06-07 01:01:28.099491,0,0,14,0,0,0,72,74,123,60,32,120.66,190,-6.00,-1.00,-1020.00
2024-06-07 01:01:28.202124,0,0,14,0,0,0,72,74,123,60,32,120.65,190,6.00,0.00,-982.00
2024-06-07 01:01:28.303339,0,0,14,0,0,0,72,74,123,60,32,120.65,191,-8.00,5.00,-1012.00
2024-06-07 01:01:28.405914,0,0,14,0,0,0,72,74,123,60,32,120.67,191,-1.00,9.00,-1014.00
2024-06-07 01:01:28.507274,0,0,14,0,0,0,72,74,123,60,32,120.65,191,-5.00,-2.00,-1016.00
2024-06-07 01:01:28.609546,0,0,14,0,0,0,72,74,123,60,32,120.65,191,-2.00,9.00,-1003.00
2024-06-07 01:01:28.754107,0,0,14,0,0,0,72,74,123,60,32,120.60,191,-2.00,7.00,-1020.00
2024-06-07 01:01:28.814032,0,0,14,0,0,0,72,74,122,60,32,120.60,191,-12.00,-5.00,-1049.00
2024-06-07 01:01:28.915355,0,0,14,0,0,0,72,74,122,60,32,120.62,191,6.00,-16.00,-1030.00
2024-06-07 01:01:29.061366,0,0,14,0,0,0,72,74,122,60,32,120.66,191,-3.00,1.00,-1007.00
2024-06-07 01:01:29.119232,0,0,14,0,0,0,73,75,123,60,32,120.62,191,-44.00,26.00,-1001.00
2024-06-07 01:01:29.266038,0,0,14,0,0,0,73,75,123,60,32,120.58,191,20.00,-28.00,-1012.00
2024-06-07 01:01:29.323174,0,0,14,0,0,0,73,75,123,60,32,120.64,192,-1.00,8.00,-1026.00
2024-06-07 01:01:29.470907,0,0,14,0,0,0,73,75,123,60,32,120.61,192,-27.00,1.00,-1023.00
2024-06-07 01:01:29.531020,0,0,14,0,0,0,73,75,123,60,32,120.64,192,9.00,3.00,-975.00
2024-06-07 01:01:29.629453,0,0,14,0,0,0,73,75,124,60,32,120.66,192,-5.00,16.00,-1016.00
2024-06-07 01:01:29.778056,0,0,14,0,0,0,73,75,123,60,32,120.64,192,9.00,-19.00,-968.00
2024-06-07 01:01:29.834826,0,0,14,0,0,0,73,75,123,60,32,120.66,192,4.00,5.00,-1001.00
2024-06-07 01:01:29.935632,0,0,14,0,0,0,73,75,123,60,32,120.62,192,-19.00,27.00,-979.00
2024-06-07 01:01:30.085268,0,0,14,0,0,0,73,75,124,60,32,120.64,192,-6.00,-12.00,-1033.00
2024-06-07 01:01:30.139181,0,0,14,0,0,0,73,75,124,60,32,120.68,192,8.00,-23.00,-959.00
2024-06-07 01:01:30.289999,0,0,14,0,0,0,73,75,124,60,32,120.65,193,-13.00,9.00,-1003.00
2024-06-07 01:01:30.346667,0,0,14,0,0,0,73,75,125,60,32,120.68,193,-24.00,4.00,-1030.00
2024-06-07 01:01:30.445344,0,0,14,0,0,0,73,75,125,60,32,120.66,193,-8.00,6.00,-982.00
2024-06-07 01:01:30.547323,0,0,14,0,0,0,73,75,125,60,31,120.70,193,-15.00,0.00,-1011.00
2024-06-07 01:01:30.699673,0,0,14,0,0,0,73,75,125,60,31,120.63,193,-17.00,14.00,-963.00
2024-06-07 01:01:30.751015,0,0,14,0,0,0,73,75,125,60,31,120.63,193,-33.00,15.00,-1031.00
2024-06-07 01:01:30.904685,0,0,14,0,0,0,73,75,125,60,31,120.66,193,40.00,8.00,-1012.00
2024-06-07 01:01:30.955479,0,0,14,0,0,0,73,75,125,60,31,120.63,193,-37.00,-6.00,-986.00
2024-06-07 01:01:31.107301,0,0,14,0,0,0,73,75,124,60,31,120.63,193,9.00,-1.00,-995.00
2024-06-07 01:01:31.159119,0,0,14,0,0,0,72,74,124,60,31,120.59,193,-12.00,1.00,-1018.00
2024-06-07 01:01:31.314410,0,0,14,0,0,0,72,74,124,60,31,120.60,194,13.00,11.00,-1003.00
2024-06-07 01:01:31.363088,0,0,14,0,0,0,72,74,123,60,31,120.58,194,-7.00,11.00,-1001.00
2024-06-07 01:01:31.518775,0,0,14,0,0,0,72,74,123,60,31,120.71,194,0.00,26.00,-995.00
2024-06-07 01:01:31.567103,0,0,14,0,0,0,72,74,123,60,31,120.55,194,-4.00,4.00,-1006.00
2024-06-07 01:01:31.669599,0,0,14,0,0,0,72,74,122,60,31,120.62,194,-6.00,-1.00,-997.00
2024-06-07 01:01:31.826051,0,0,14,0,0,0,72,74,122,60,31,120.59,194,0.00,9.00,-1027.00
2024-06-07 01:01:31.826298,0,0,14,0,0,0,72,74,121,60,31,120.68,194,-11.00,15.00,-958.00
2024-06-07 01:01:31.923781,0,0,14,0,0,0,72,74,122,60,31,120.54,194,1.00,-3.00,-1055.00
2024-06-07 01:01:32.025833,0,0,14,0,0,0,72,74,121,60,31,120.63,194,9.00,-1.00,-1024.00
2024-06-07 01:01:32.127861,0,0,14,0,0,0,72,75,121,60,31,120.58,194,-35.00,14.00,-1026.00
2024-06-07 01:01:32.238465,0,0,14,0,0,0,72,75,121,60,31,120.64,195,-5.00,4.00,-991.00
2024-06-07 01:01:32.543055,0,0,14,0,0,0,72,75,121,60,31,120.60,195,-6.00,19.00,-1048.00
2024-06-07 01:01:32.586376,0,0,14,0,0,0,72,75,122,60,31,120.63,195,-30.00,-1.00,-1006.00
2024-06-07 01:01:32.586562,0,0,14,0,0,0,72,75,122,60,31,120.63,195,0.00,12.00,-982.00
2024-06-07 01:01:32.637628,0,0,14,0,0,0,72,75,122,60,31,120.58,195,-5.00,0.00,-1025.00
2024-06-07 01:01:32.765784,0,0,14,0,0,0,72,75,123,60,31,120.65,195,15.00,-11.00,-983.00
2024-06-07 01:01:32.846268,0,0,14,0,0,0,72,75,123,60,31,120.58,195,11.00,-11.00,-981.00
2024-06-07 01:01:33.025350,0,0,14,0,0,0,72,75,122,60,31,120.61,195,-1.00,-3.00,-978.00
2024-06-07 01:01:33.046184,0,0,14,0,0,0,72,75,123,60,31,120.61,195,-7.00,0.00,-961.00
2024-06-07 01:01:33.147582,0,0,14,0,0,0,72,74,123,60,31,120.63,195,22.00,-23.00,-961.00
2024-06-07 01:01:33.270404,0,0,14,0,0,0,72,74,123,60,31,120.62,196,0.00,0.00,-974.00
2024-06-07 01:01:33.413868,0,0,14,0,0,0,72,74,123,60,31,120.60,196,18.00,-21.00,-964.00
2024-06-07 01:01:33.453560,0,0,14,0,0,0,72,74,123,60,31,120.57,196,-47.00,5.00,-985.00
2024-06-07 01:01:33.577579,0,0,14,0,0,0,72,74,122,60,31,120.54,196,-2.00,18.00,-1046.00
2024-06-07 01:01:33.720996,0,0,14,0,0,0,72,74,122,60,31,120.64,196,31.00,-1.00,-1006.00
2024-06-07 01:01:33.759548,0,0,14,0,0,0,72,74,122,60,31,120.61,196,14.00,12.00,-1017.00
2024-06-07 01:01:33.885203,0,0,14,0,0,0,72,74,122,60,31,120.63,196,1.00,0.00,-1005.00
2024-06-07 01:01:34.028246,0,0,14,0,0,0,72,74,122,60,31,120.59,196,-32.00,12.00,-1033.00
2024-06-07 01:01:34.065617,0,0,14,0,0,0,72,74,122,60,31,120.61,196,-6.00,27.00,-1032.00
2024-06-07 01:01:34.192350,0,0,14,0,0,0,72,74,122,60,31,120.62,196,-3.00,12.00,-986.00
2024-06-07 01:01:34.335378,0,0,14,0,0,0,72,74,123,60,31,120.56,197,-10.00,-7.00,-1006.00
2024-06-07 01:01:34.372133,0,0,14,0,0,0,72,74,123,60,31,120.54,197,-9.00,12.00,-1057.00
2024-06-07 01:01:34.505256,0,0,14,0,0,0,72,74,123,60,31,120.66,197,-8.00,17.00,-987.00
2024-06-07 01:01:34.642491,0,0,14,0,0,0,72,74,123,60,31,120.64,197,11.00,-6.00,-1006.00
2024-06-07 01:01:34.677387,0,0,14,0,0,0,72,74,123,60,31,120.61,197,-28.00,38.00,-1002.00
2024-06-07 01:01:34.806335,0,0,14,0,0,0,72,74,123,60,31,120.62,197,-10.00,14.00,-1001.00
2024-06-07 01:01:34.962694,0,0,14,0,0,0,72,74,123,60,31,120.60,197,2.00,25.00,-965.00
2024-06-07 01:01:34.983471,0,0,14,0,0,0,72,74,123,60,31,120.67,197,5.00,11.00,-1015.00
2024-06-07 01:01:35.105732,0,0,14,0,0,0,72,74,123,60,31,120.65,197,13.00,9.00,-976.00
2024-06-07 01:01:35.187465,0,0,14,0,0,0,72,75,123,60,31,120.63,197,-10.00,18.00,-1005.00
2024-06-07 01:01:35.307477,0,0,14,0,0,0,72,75,123,60,31,120.66,198,12.00,3.00,-985.00
2024-06-07 01:01:35.391489,0,0,14,0,0,0,72,75,124,60,31,120.67,198,25.00,16.00,-1048.00
2024-06-07 01:01:35.512464,0,0,14,0,0,0,72,75,124,60,31,120.66,198,-28.00,37.00,-1016.00
2024-06-07 01:01:35.595554,0,0,14,0,0,0,72,75,124,60,31,120.65,198,1.00,8.00,-1044.00
2024-06-07 01:01:35.717455,0,0,14,0,0,0,72,75,124,60,31,120.61,198,-31.00,2.00,-956.00
2024-06-07 01:01:35.799543,0,0,14,0,0,0,72,75,124,60,31,120.65,198,4.00,5.00,-1012.00
2024-06-07 01:01:35.850548,0,0,14,0,0,0,72,75,124,60,31,120.63,198,-11.00,34.00,-1006.00
2024-06-07 01:01:36.026859,0,0,14,0,0,0,72,75,124,60,31,120.60,198,7.00,-19.00,-967.00
2024-06-07 01:01:36.054595,0,0,14,0,0,0,72,75,125,60,31,120.65,198,2.00,10.00,-961.00
2024-06-07 01:01:36.156652,0,0,14,0,0,0,72,75,125,60,31,120.69,198,21.00,26.00,-987.00
2024-06-07 01:01:36.331421,0,0,14,0,0,0,72,75,125,60,31,120.64,199,-21.00,23.00,-977.00
2024-06-07 01:01:36.360581,0,0,14,0,0,0,72,75,124,60,31,120.66,199,-8.00,16.00,-1027.00
2024-06-07 01:01:36.536260,0,0,14,0,0,0,72,75,124,60,31,120.61,199,-8.00,26.00,-1002.00
2024-06-07 01:01:36.564764,0,0,14,0,0,0,72,75,124,60,31,120.61,199,1.00,4.00,-1018.00
2024-06-07 01:01:36.740986,0,0,14,0,0,0,72,75,124,60,31,120.66,199,31.00,12.00,-1014.00
2024-06-07 01:01:36.768593,0,0,14,0,0,0,72,75,124,60,31,120.56,199,5.00,18.00,-1021.00
2024-06-07 01:01:36.945858,0,0,14,0,0,0,72,75,124,60,31,120.61,199,9.00,11.00,-990.00
2024-06-07 01:01:36.972799,0,0,14,0,0,0,72,75,125,60,31,120.56,199,-43.00,39.00,-1045.00
2024-06-07 01:01:37.150570,0,0,14,0,0,0,72,75,124,60,31,120.59,199,-2.00,25.00,-996.00
2024-06-07 01:01:37.176558,0,0,14,0,0,0,73,75,125,60,31,120.63,199,-4.00,34.00,-1012.00
2024-06-07 01:01:37.338984,0,0,14,0,0,0,73,75,125,60,31,120.59,200,-7.00,13.00,-1038.00
2024-06-07 01:01:37.381018,0,0,14,0,0,0,73,75,125,60,31,120.61,200,-15.00,14.00,-927.00
2024-06-07 01:01:37.560142,0,0,14,0,0,0,73,75,125,60,31,120.58,200,-29.00,13.00,-955.00
2024-06-07 01:01:37.585263,0,0,14,0,0,0,73,75,125,60,31,120.60,200,29.00,12.00,-1010.00
2024-06-07 01:01:37.765067,0,0,14,0,0,0,73,75,125,60,31,120.57,200,0.00,13.00,-1010.00
2024-06-07 01:01:37.789293,0,0,14,0,0,0,73,75,125,60,31,120.65,200,0.00,-6.00,-1003.00
2024-06-07 01:01:37.969850,0,0,14,0,0,0,73,75,125,60,31,120.57,200,1.00,-7.00,-1016.00
2024-06-07 01:01:37.993259,0,0,14,0,0,0,73,75,125,60,31,120.66,200,3.00,13.00,-1010.00
2024-06-07 01:01:38.178090,0,0,14,0,0,0,73,75,125,60,31,120.66,200,4.00,11.00,-1048.00
2024-06-07 01:01:38.198450,0,0,14,0,0,0,72,74,125,60,31,120.59,200,18.00,-6.00,-993.00
2024-06-07 01:01:38.379314,0,0,14,0,0,0,72,74,125,60,31,120.62,201,15.00,12.00,-995.00
2024-06-07 01:01:38.402375,0,0,14,0,0,0,72,74,125,60,31,120.61,201,1.00,0.00,-1015.00
2024-06-07 01:01:38.584184,0,0,14,0,0,0,72,74,125,60,30,120.60,201,19.00,5.00,-1007.00
2024-06-07 01:01:38.606406,0,0,14,0,0,0,72,74,125,60,30,120.60,201,-16.00,23.00,-1028.00
