TS,pitch,roll,yaw,vgx,vgy,vgz,templ,temph,tof,h,bat,baro,time,agx,agy,agz
2024-06-07 01:01:57.017915,0,0,19,0,0,0,74,77,10,0,30,119.16,207,10.00,10.00,-1002.00
2024-06-07 01:01:57.068943,0,0,19,0,0,0,74,77,10,0,30,119.12,207,9.00,10.00,-1000.00
2024-06-07 01:01:57.221781,0,0,19,0,0,0,74,77,10,0,30,119.12,207,9.00,12.00,-999.00
2024-06-07 01:01:57.272892,0,0,19,0,0,0,75,76,10,0,30,119.07,207,10.00,10.00,-1000.00
2024-06-07 01:01:57.425931,0,0,19,0,0,0,75,76,10,0,30,119.13,207,9.00,10.00,-998.00
2024-06-07 01:01:57.476629,0,0,19,0,0,0,75,76,10,0,30,119.12,207,11.00,11.00,-997.00
2024-06-07 01:01:57.591854,0,0,19,0,0,0,75,76,10,0,30,119.11,207,9.00,11.00,-1000.00
2024-06-07 01:01:57.680841,0,0,19,0,0,0,75,76,10,0,30,119.09,207,9.00,10.00,-998.00
2024-06-07 01:01:57.834583,0,0,19,0,0,0,75,76,10,0,30,119.12,207,11.00,10.00,-1000.00
2024-06-07 01:01:57.885466,0,0,19,0,0,0,75,76,10,0,30,119.16,207,10.00,11.00,-1000.00
2024-06-07 01:01:58.039191,0,0,19,0,0,0,75,76,10,0,30,119.11,207,9.00,11.00,-999.00
2024-06-07 01:01:58.089512,0,0,19,0,0,0,75,76,10,0,30,119.11,207,10.00,10.00,-999.00
2024-06-07 01:01:58.244675,0,0,19,0,0,0,75,76,10,0,30,119.07,207,10.00,11.00,-1000.00
2024-06-07 01:01:58.293528,0,0,19,0,0,0,75,76,10,0,30,119.12,207,11.00,11.00,-998.00
2024-06-07 01:01:58.448808,0,0,19,0,0,0,75,76,10,0,30,119.10,207,9.00,13.00,-998.00
2024-06-07 01:01:58.497532,0,0,19,0,0,0,75,76,10,0,30,119.12,207,11.00,10.00,-998.00
2024-06-07 01:01:58.653847,0,0,19,0,0,0,75,76,10,0,30,119.09,207,11.00,10.00,-999.00
2024-06-07 01:01:58.703819,0,0,19,0,0,0,75,76,10,0,30,119.11,207,8.00,12.00,-999.00
2024-06-07 01:01:58.803515,0,0,19,0,0,0,75,76,10,0,30,119.07,207,10.00,12.00,-1000.00
2024-06-07 01:01:58.960869,0,0,19,0,0,0,75,76,10,0,30,119.07,207,11.00,11.00,-998.00
2024-06-07 01:01:59.007499,0,0,19,0,0,0,75,76,10,0,30,119.10,207,11.00,10.00,-997.00
2024-06-07 01:01:59.124287,0,0,19,0,0,0,75,76,10,0,30,119.08,207,9.00,11.00,-998.00
2024-06-07 01:01:59.211381,0,0,19,0,0,0,75,76,10,0,30,119.16,207,10.00,11.00,-1001.00
2024-06-07 01:01:59.370267,0,0,19,0,0,0,75,77,10,0,30,119.07,207,9.00,11.00,-1002.00
2024-06-07 01:01:59.415415,0,0,19,0,0,0,75,77,10,0,30,119.07,207,17.00,17.00,-1002.00
2024-06-07 01:01:59.575098,0,0,19,0,0,0,75,77,10,0,30,119.07,207,12.00,8.00,-997.00
2024-06-07 01:01:59.619235,0,0,19,0,0,0,75,77,10,0,30,119.07,208,-8.00,3.00,-954.00
2024-06-07 01:01:59.779921,0,0,20,0,0,0,75,77,10,0,30,119.07,208,59.00,-40.00,-1008.00
2024-06-07 01:01:59.823318,0,0,21,0,0,0,75,77,10,0,30,119.07,208,16.00,-9.00,-1030.00
2024-06-07 01:01:59.985308,0,-1,21,0,0,0,75,77,10,0,30,119.07,208,-13.00,14.00,-1154.00
2024-06-07 01:02:00.027340,0,0,21,0,0,-1,75,77,10,0,30,119.07,208,20.00,0.00,-1267.00
2024-06-07 01:02:00.189441,0,0,21,0,0,-4,75,77,12,0,30,119.07,208,39.00,22.00,-1221.00
2024-06-07 01:02:00.189656,0,0,21,0,0,-6,75,77,20,0,30,119.35,208,-45.00,-3.00,-1120.00
2024-06-07 01:02:00.394151,0,0,21,0,0,-7,76,78,29,0,30,119.46,208,4.00,0.00,-1044.00
2024-06-07 01:02:00.435293,0,0,21,0,0,-7,76,78,36,10,30,119.45,208,-13.00,13.00,-1001.00
2024-06-07 01:02:00.596773,0,0,21,0,0,-7,76,78,44,20,30,119.60,208,-10.00,-5.00,-953.00
2024-06-07 01:02:00.639240,0,0,21,0,0,-6,76,78,52,20,30,119.64,209,2.00,-3.00,-921.00
2024-06-07 01:02:00.741266,0,0,21,0,0,-6,76,78,59,30,30,119.73,209,11.00,-5.00,-912.00
2024-06-07 01:02:00.792848,0,0,21,0,0,-5,76,78,65,30,30,119.80,209,-16.00,19.00,-899.00
2024-06-07 01:02:00.906087,0,0,21,0,0,-4,76,78,71,40,30,119.87,209,0.00,21.00,-935.00
2024-06-07 01:02:00.996470,0,0,21,0,0,-3,76,78,75,40,30,119.90,209,6.00,6.00,-850.00
2024-06-07 01:02:01.098587,0,0,21,0,0,-2,76,78,79,50,30,120.01,209,-8.00,-6.00,-924.00
2024-06-07 01:02:01.201656,0,0,21,0,0,-1,76,78,81,50,30,119.98,209,-20.00,29.00,-957.00
2024-06-07 01:02:01.315801,0,0,21,0,0,0,74,77,84,50,30,120.04,209,-9.00,17.00,-932.00
2024-06-07 01:02:01.404425,0,0,21,0,0,0,74,77,85,50,30,119.98,209,-19.00,11.00,-965.00
2024-06-07 01:02:01.521308,0,0,21,0,0,0,74,77,87,50,30,120.03,209,-14.00,10.00,-954.00
2024-06-07 01:02:01.608380,0,0,21,0,0,0,74,77,88,50,30,120.10,210,-6.00,8.00,-963.00
2024-06-07 01:02:01.710374,0,0,21,0,0,0,74,77,89,50,30,120.02,210,2.00,-9.00,-971.00
2024-06-07 01:02:01.812384,0,0,21,0,0,0,74,77,89,60,30,120.09,210,11.00,9.00,-967.00
2024-06-07 01:02:01.930465,0,0,21,0,0,0,74,77,90,60,30,120.03,210,-7.00,-5.00,-991.00
2024-06-07 01:02:02.016388,0,0,21,0,0,0,74,77,90,60,30,120.08,210,19.00,-31.00,-958.00
2024-06-07 01:02:02.148445,0,0,21,0,0,0,74,77,90,60,30,120.09,210,7.00,-10.00,-991.00
2024-06-07 01:02:02.291042,0,0,21,0,0,0,74,77,90,60,30,120.10,210,20.00,0.00,-978.00
2024-06-07 01:02:02.322394,0,0,21,0,0,0,75,77,90,60,30,120.08,210,3.00,6.00,-1011.00
2024-06-07 01:02:02.424335,0,0,21,0,0,0,75,77,90,60,30,120.07,210,1.00,-11.00,-987.00
2024-06-07 01:02:02.609748,0,0,21,0,0,0,75,77,89,60,30,120.03,210,-7.00,-7.00,-975.00
2024-06-07 01:02:02.628420,0,0,21,0,0,0,75,77,89,60,30,120.06,211,-13.00,-2.00,-992.00
2024-06-07 01:02:02.791528,0,0,21,0,0,0,75,77,88,60,30,120.10,211,-15.00,-6.00,-1029.00
2024-06-07 01:02:02.832508,0,0,21,0,0,0,75,77,88,60,30,120.03,211,0.00,2.00,-1029.00
2024-06-07 01:02:02.954615,0,0,21,0,0,0,75,77,87,60,30,119.98,211,1.00,-11.00,-995.00
2024-06-07 01:02:03.263073,0,0,21,0,0,0,75,77,86,60,30,120.06,211,-4.00,5.00,-988.00
2024-06-07 01:02:03.377793,0,0,21,0,0,0,75,77,85,60,30,120.06,211,-2.00,-2.00,-993.00
2024-06-07 01:02:03.378036,0,0,21,0,0,0,75,77,84,60,30,119.99,211,-18.00,8.00,-1027.00
2024-06-07 01:02:03.378800,0,0,21,0,0,0,75,78,83,60,30,119.97,211,-7.00,-2.00,-1015.00
2024-06-07 01:02:03.519422,0,0,21,0,0,0,75,78,82,60,30,120.04,211,-10.00,17.00,-1005.00
2024-06-07 01:02:03.546184,0,0,21,0,0,0,75,78,81,50,30,119.98,212,-2.00,20.00,-1051.00
2024-06-07 01:02:03.681724,0,0,21,0,0,0,75,78,80,50,30,120.02,212,9.00,-15.00,-980.00
2024-06-07 01:02:03.825128,0,0,21,0,0,0,75,78,80,50,30,120.00,212,-36.00,28.00,-1052.00
2024-06-07 01:02:03.852144,0,0,21,0,0,0,75,78,79,50,30,119.96,212,0.00,-16.00,-959.00
2024-06-07 01:02:03.988958,0,0,21,0,0,0,75,78,78,50,30,119.97,212,-22.00,2.00,-1024.00
2024-06-07 01:02:04.183329,0,0,21,0,0,0,75,78,77,50,30,119.97,212,-14.00,24.00,-1011.00
2024-06-07 01:02:04.214781,0,0,21,0,0,0,75,78,77,50,30,119.93,212,7.00,2.00,-992.00
2024-06-07 01:02:04.215090,0,0,21,0,0,0,75,78,76,50,30,119.94,212,3.00,-18.00,-969.00
2024-06-07 01:02:04.387570,0,0,21,0,0,0,74,77,76,50,30,119.93,212,5.00,15.00,-956.00
2024-06-07 01:02:04.464206,0,0,21,0,0,0,74,77,75,50,30,119.90,212,4.00,0.00,-998.00
2024-06-07 01:02:04.515953,0,0,21,0,0,0,74,77,74,50,30,119.93,213,13.00,7.00,-1032.00
2024-06-07 01:02:04.694854,0,0,21,0,0,0,74,77,74,50,30,119.91,213,12.00,13.00,-1017.00
2024-06-07 01:02:04.720973,0,0,21,0,0,0,74,77,74,50,30,119.99,213,24.00,-18.00,-1028.00
2024-06-07 01:02:04.821570,0,0,21,0,0,0,74,77,74,50,30,119.99,213,7.00,-15.00,-1018.00
2024-06-07 01:02:04.922919,0,0,21,0,0,0,74,77,74,50,30,119.96,213,24.00,-19.00,-983.00
2024-06-07 01:02:05.105414,0,0,21,0,0,0,74,77,75,50,30,120.04,213,18.00,-26.00,-994.00
2024-06-07 01:02:05.127088,0,0,21,0,0,0,74,77,75,50,30,119.93,213,9.00,-11.00,-1019.00
2024-06-07 01:02:05.229038,0,0,21,0,0,0,74,77,76,50,30,119.96,213,-23.00,-4.00,-1022.00
2024-06-07 01:02:05.415694,0,0,21,0,0,0,74,76,76,50,30,120.01,213,-14.00,0.00,-983.00
2024-06-07 01:02:05.432911,0,0,21,0,0,0,74,76,77,50,30,119.98,213,-38.00,10.00,-993.00
2024-06-07 01:02:05.618556,0,0,21,0,0,0,74,76,77,50,30,119.97,214,35.00,-26.00,-975.00
2024-06-07 01:02:05.636891,0,0,21,0,0,0,74,76,78,50,30,120.02,214,19.00,-32.00,-977.00
2024-06-07 01:02:05.739071,0,0,21,0,0,0,74,76,79,50,30,119.93,214,9.00,-7.00,-964.00
2024-06-07 01:02:05.840784,0,0,21,0,0,0,74,76,79,50,30,119.99,214,0.00,2.00,-990.00
2024-06-07 01:02:06.026158,0,0,21,0,0,0,74,76,79,50,30,119.99,214,-33.00,16.00,-986.00
2024-06-07 01:02:06.044797,0,0,21,0,0,0,74,76,79,50,30,120.00,214,-3.00,-4.00,-997.00
2024-06-07 01:02:06.230865,0,0,21,0,0,0,74,76,79,50,30,120.01,214,-1.00,-18.00,-1004.00
2024-06-07 01:02:06.248815,0,0,21,0,0,0,74,76,79,50,30,120.03,214,8.00,-7.00,-1002.00
2024-06-07 01:02:06.435678,0,0,21,0,0,0,75,77,79,50,30,120.00,214,15.00,16.00,-999.00
2024-06-07 01:02:06.457497,0,0,21,0,0,0,75,77,79,50,30,120.04,214,4.00,8.00,-1036.00
2024-06-07 01:02:06.554868,0,0,21,0,0,0,75,77,79,50,30,119.96,215,9.00,25.00,-1011.00
2024-06-07 01:02:06.656762,0,0,21,0,0,0,75,77,79,50,30,119.96,215,-20.00,-3.00,-1036.00
2024-06-07 01:02:06.847892,0,0,21,0,0,0,75,77,79,50,30,119.99,215,-6.00,1.00,-970.00
2024-06-07 01:02:06.861030,0,0,21,0,0,0,75,77,79,50,30,119.93,215,-15.00,20.00,-1005.00
2024-06-07 01:02:07.050014,0,0,21,0,0,0,75,77,79,50,30,119.99,215,-14.00,16.00,-1011.00
2024-06-07 01:02:07.067148,0,0,21,0,0,0,75,77,79,50,30,120.00,215,2.00,13.00,-992.00
2024-06-07 01:02:07.168310,0,0,21,0,0,0,75,77,79,50,30,120.00,215,-31.00,-8.00,-991.00
2024-06-07 01:02:07.268626,0,0,21,0,0,0,75,77,79,50,30,120.01,215,-35.00,18.00,-998.00
2024-06-07 01:02:07.370645,0,0,21,0,0,0,74,77,79,50,30,120.04,215,2.00,0.00,-1005.00
2024-06-07 01:02:07.472680,0,0,21,0,0,-1,74,77,80,50,30,120.05,215,-8.00,12.00,-1126.00
2024-06-07 01:02:07.574724,0,0,21,0,0,-2,74,77,82,50,30,120.00,216,-11.00,24.00,-1086.00
2024-06-07 01:02:07.766749,0,0,21,0,0,-3,74,77,85,60,30,120.10,216,-23.00,0.00,-1085.00
2024-06-07 01:02:07.778757,0,0,21,0,0,-3,74,77,89,60,30,120.14,216,6.00,5.00,-1084.00
2024-06-07 01:02:07.971453,0,0,21,0,0,-4,74,77,94,60,30,120.18,216,-16.00,4.00,-1080.00
2024-06-07 01:02:07.982757,0,0,22,0,0,-5,74,77,99,70,30,120.24,216,-16.00,16.00,-1037.00
2024-06-07 01:02:08.033921,0,0,22,0,0,-5,74,77,104,70,30,120.27,216,-18.00,20.00,-1041.00
2024-06-07 01:02:08.176872,0,0,22,0,0,-5,74,77,110,80,30,120.32,216,12.00,7.00,-1019.00
2024-06-07 01:02:08.237816,0,0,22,0,0,-5,74,77,117,90,30,120.39,216,-2.00,-16.00,-983.00
2024-06-07 01:02:08.339860,-1,0,22,0,0,-5,74,76,122,90,30,120.47,216,-7.00,-13.00,-1030.00
2024-06-07 01:02:08.441943,-1,0,22,0,0,-5,74,76,128,100,30,120.52,216,18.00,7.00,-1000.00
2024-06-07 01:02:08.543729,0,0,22,0,0,-5,74,76,133,100,30,120.52,217,-2.00,2.00,-977.00
2024-06-07 01:02:08.688200,0,0,22,0,0,-4,74,76,137,110,30,120.58,217,-8.00,2.00,-1012.00
2024-06-07 01:02:08.753561,-1,0,22,0,0,-4,74,76,144,110,30,120.68,217,-33.00,11.00,-934.00
2024-06-07 01:02:08.849793,0,0,22,0,0,-4,74,76,148,120,30,120.77,217,-22.00,7.00,-972.00
2024-06-07 01:02:08.951796,0,0,22,0,0,-4,74,76,152,120,30,120.77,217,-15.00,23.00,-987.00
2024-06-07 01:02:09.097792,0,0,22,0,0,-3,74,76,156,130,30,120.90,217,-5.00,-1.00,-950.00
2024-06-07 01:02:09.155654,0,0,22,0,0,-3,74,76,159,130,30,120.86,217,17.00,-23.00,-940.00
2024-06-07 01:02:09.258609,0,0,22,0,0,-3,74,76,163,130,30,120.81,217,-7.00,20.00,-944.00
2024-06-07 01:02:09.405082,0,0,22,0,0,-2,74,76,166,140,30,120.90,217,-1.00,6.00,-947.00
2024-06-07 01:02:09.461940,0,0,22,0,0,-2,74,76,168,140,30,120.91,217,-14.00,12.00,-973.00
2024-06-07 01:02:09.602142,0,0,22,0,0,-2,74,76,170,140,30,120.97,218,-1.00,21.00,-987.00
2024-06-07 01:02:09.665553,-1,0,22,0,0,-1,74,76,172,140,30,120.94,218,17.00,2.00,-984.00
2024-06-07 01:02:09.821984,0,0,22,0,0,-1,74,76,174,140,30,120.96,218,-15.00,7.00,-980.00
2024-06-07 01:02:09.870787,0,0,22,0,0,-1,74,76,175,150,30,120.90,218,-1.00,0.00,-928.00
2024-06-07 01:02:10.019523,0,0,22,0,0,-1,74,76,176,150,30,121.00,218,-23.00,38.00,-961.00
2024-06-07 01:02:10.078044,0,0,22,0,0,0,74,76,177,150,30,120.97,218,23.00,0.00,-924.00
2024-06-07 01:02:10.176855,0,0,21,0,0,0,74,76,177,150,30,121.00,218,10.00,-20.00,-976.00
2024-06-07 01:02:10.278515,0,0,22,0,0,0,74,76,177,150,30,120.96,218,-1.00,2.00,-914.00
2024-06-07 01:02:10.429144,0,0,21,0,0,0,73,76,177,150,30,120.94,218,-16.00,20.00,-1010.00
2024-06-07 01:02:10.483360,0,0,22,0,0,0,73,76,176,150,30,121.06,218,-22.00,22.00,-1038.00
2024-06-07 01:02:10.634396,0,0,22,0,0,0,73,76,177,150,30,121.11,219,-5.00,8.00,-1008.00
2024-06-07 01:02:10.686553,0,0,21,0,0,0,73,76,177,150,30,121.03,219,-20.00,15.00,-1005.00
2024-06-07 01:02:10.838953,0,0,22,0,0,0,73,76,177,150,30,121.03,219,-9.00,17.00,-985.00
2024-06-07 01:02:10.890379,0,0,22,0,0,0,73,76,177,150,30,121.12,219,-21.00,19.00,-1022.00
2024-06-07 01:02:11.043869,0,0,22,0,0,0,73,76,177,150,30,121.02,219,-24.00,21.00,-998.00
2024-06-07 01:02:11.094424,0,0,22,0,0,0,73,76,177,150,30,120.99,219,-6.00,2.00,-1009.00
2024-06-07 01:02:11.248311,0,0,22,0,0,0,73,76,177,150,30,121.07,219,-22.00,8.00,-1000.00
2024-06-07 01:02:11.298404,0,0,22,0,0,0,73,76,177,150,30,121.03,219,0.00,1.00,-986.00
2024-06-07 01:02:11.453597,0,0,22,0,0,0,73,76,177,150,30,121.09,219,1.00,-5.00,-978.00
2024-06-07 01:02:11.502322,0,0,22,0,0,0,73,76,177,150,30,121.04,219,0.00,14.00,-1015.00
2024-06-07 01:02:11.657826,0,0,22,0,0,0,73,76,177,150,30,121.08,220,-46.00,20.00,-939.00
2024-06-07 01:02:11.706305,0,0,22,0,0,0,73,76,177,150,30,121.10,220,-27.00,4.00,-991.00
2024-06-07 01:02:11.757716,0,0,22,0,0,0,73,76,177,150,30,121.13,220,-1.00,8.00,-1012.00
2024-06-07 01:02:11.860109,0,0,22,0,0,0,73,76,177,150,30,121.16,220,-6.00,7.00,-1001.00
2024-06-07 01:02:11.961786,-1,0,22,0,0,0,73,76,177,150,30,121.09,220,-1.00,10.00,-1004.00
2024-06-07 01:02:12.063553,0,0,22,0,0,0,73,76,179,150,30,121.11,220,-10.00,11.00,-973.00
2024-06-07 01:02:12.165999,0,0,22,0,0,0,73,76,178,150,30,121.08,220,0.00,6.00,-960.00
2024-06-07 01:02:12.268344,0,0,22,0,0,0,73,76,176,150,30,121.07,220,-15.00,14.00,-955.00
2024-06-07 01:02:12.420455,0,0,22,0,0,1,73,76,176,150,30,121.02,220,-10.00,24.00,-972.00
2024-06-07 01:02:12.472814,0,0,22,0,0,1,73,76,174,150,30,121.02,220,16.00,8.00,-956.00
2024-06-07 01:02:12.573625,0,0,22,0,0,2,73,76,172,140,30,121.01,221,-34.00,21.00,-978.00
2024-06-07 01:02:12.675588,0,0,21,0,0,2,73,76,169,140,30,121.03,221,-12.00,10.00,-970.00
2024-06-07 01:02:12.784524,0,0,21,0,0,2,73,76,167,140,30,121.04,221,-1.00,15.00,-994.00
2024-06-07 01:02:12.879922,0,0,21,0,0,2,73,76,165,140,30,121.00,221,-2.00,4.00,-1000.00
2024-06-07 01:02:12.988890,0,0,21,0,0,2,73,76,162,130,30,120.96,221,-27.00,25.00,-982.00
2024-06-07 01:02:13.083161,0,0,21,0,0,3,73,76,159,130,30,120.96,221,-8.00,4.00,-1015.00
2024-06-07 01:02:13.193697,0,0,21,0,0,2,73,76,157,130,30,120.84,221,-11.00,22.00,-1012.00
2024-06-07 01:02:13.287428,0,0,21,0,0,2,73,76,154,130,30,120.93,221,-2.00,6.00,-1012.00
2024-06-07 01:02:13.398441,0,0,21,0,0,2,73,76,150,120,30,120.93,221,-27.00,31.00,-976.00
2024-06-07 01:02:13.491464,0,0,21,0,0,2,73,76,148,120,30,120.90,221,11.00,7.00,-1019.00
2024-06-07 01:02:13.603252,0,0,21,0,0,2,73,76,146,120,30,120.83,222,-12.00,10.00,-998.00
2024-06-07 01:02:13.696351,0,0,21,0,0,2,73,76,144,120,30,120.86,222,-52.00,17.00,-1009.00
2024-06-07 01:02:13.815200,0,0,21,0,0,1,73,76,142,110,30,120.71,222,6.00,-1.00,-1022.00
2024-06-07 01:02:13.899376,0,0,21,0,0,1,73,76,139,110,30,120.77,222,-2.00,6.00,-1025.00
2024-06-07 01:02:14.012870,0,0,21,0,0,1,73,76,138,110,30,120.75,222,-13.00,19.00,-987.00
2024-06-07 01:02:14.103372,0,0,21,0,0,1,73,76,137,110,30,120.73,222,-16.00,-10.00,-996.00
2024-06-07 01:02:14.207819,0,0,21,0,0,1,73,76,135,110,30,120.74,222,-12.00,21.00,-1020.00
2024-06-07 01:02:14.307218,0,0,21,0,0,1,73,76,134,110,30,120.71,222,-1.00,1.00,-1007.00
2024-06-07 01:02:14.411477,0,0,21,0,0,1,73,76,132,110,30,120.74,222,-14.00,4.00,-1022.00
2024-06-07 01:02:14.512059,0,0,21,0,0,0,73,76,132,100,30,120.67,222,-13.00,3.00,-1023.00
2024-06-07 01:02:14.613361,0,0,21,0,0,0,73,76,131,100,30,120.66,223,-1.00,15.00,-978.00
2024-06-07 01:02:14.735927,0,0,21,0,0,0,73,76,130,100,30,120.75,223,-29.00,20.00,-1072.00
2024-06-07 01:02:14.817317,0,0,21,0,0,0,73,76,130,100,30,120.73,223,11.00,1.00,-1039.00
2024-06-07 01:02:14.934393,0,0,21,0,0,0,73,76,130,100,30,120.67,223,-6.00,15.00,-998.00
2024-06-07 01:02:15.021431,0,0,21,0,0,0,73,76,130,100,30,120.67,223,-15.00,4.00,-969.00
2024-06-07 01:02:15.139214,0,0,21,0,0,0,73,76,130,100,30,120.74,223,-6.00,3.00,-1008.00
2024-06-07 01:02:15.225552,0,0,21,0,0,0,73,76,130,100,30,120.71,223,-15.00,4.00,-1020.00
2024-06-07 01:02:15.344190,0,0,21,0,0,0,73,76,130,100,30,120.77,223,-8.00,4.00,-999.00
2024-06-07 01:02:15.429307,0,0,21,0,0,0,73,76,131,100,30,120.70,223,2.00,21.00,-1028.00
2024-06-07 01:02:15.550401,0,0,21,0,0,0,73,76,130,100,30,120.75,223,-1.00,9.00,-1000.00
2024-06-07 01:02:15.633323,0,0,21,0,0,0,73,76,131,100,30,120.74,224,-14.00,18.00,-979.00
2024-06-07 01:02:15.753560,0,0,21,0,0,0,73,76,131,100,30,120.70,224,-10.00,6.00,-989.00
2024-06-07 01:02:15.839157,0,0,21,0,0,0,73,76,131,100,30,120.71,224,5.00,14.00,-998.00
2024-06-07 01:02:15.888524,0,0,21,0,0,0,73,76,131,100,30,120.74,224,11.00,17.00,-1027.00
2024-06-07 01:02:16.060568,0,0,21,0,0,0,73,76,131,100,30,120.67,224,-21.00,34.00,-1092.00
2024-06-07 01:02:16.091931,0,0,21,0,0,0,73,76,131,100,30,120.74,224,7.00,9.00,-995.00
2024-06-07 01:02:16.265546,0,0,21,0,0,0,73,76,130,100,30,120.72,224,23.00,12.00,-1092.00
2024-06-07 01:02:16.295999,0,0,21,0,0,0,73,76,130,100,30,120.71,224,-6.00,2.00,-998.00
2024-06-07 01:02:16.470477,0,0,21,0,0,0,73,76,130,100,30,120.78,224,-12.00,17.00,-1018.00
2024-06-07 01:02:16.500109,0,0,21,0,0,0,73,76,130,100,30,120.70,224,-1.00,9.00,-1005.00
2024-06-07 01:02:16.601881,0,0,21,0,0,0,73,76,129,100,30,120.71,225,-14.00,18.00,-981.00
2024-06-07 01:02:16.777556,0,0,21,0,0,0,73,76,129,100,30,120.78,225,-14.00,14.00,-1010.00
2024-06-07 01:02:16.805808,-2,0,21,0,0,0,73,76,129,100,30,120.65,225,0.00,5.00,-1006.00
2024-06-07 01:02:16.982307,-8,0,21,0,0,0,73,76,131,100,30,120.68,225,-41.00,17.00,-1080.00
2024-06-07 01:02:17.013555,-8,0,21,2,0,0,73,76,130,100,30,120.67,225,-21.00,5.00,-989.00
2024-06-07 01:02:17.392291,-8,0,21,3,1,0,73,76,131,100,30,120.70,225,-54.00,0.00,-979.00
2024-06-07 01:02:17.470913,-8,0,21,4,1,0,73,76,131,100,30,120.66,225,-23.00,4.00,-1026.00
2024-06-07 01:02:17.471235,-8,0,21,5,2,0,73,76,129,100,30,120.68,225,-37.00,-1.00,-972.00
2024-06-07 01:02:17.471359,-6,0,21,6,2,0,73,75,130,100,30,120.63,225,-48.00,-14.00,-1015.00
2024-06-07 01:02:17.528359,-5,0,21,6,2,0,73,75,130,100,30,120.61,225,-58.00,6.00,-995.00
2024-06-07 01:02:17.661954,-5,0,21,7,2,0,73,75,129,100,30,120.57,226,-70.00,19.00,-962.00
2024-06-07 01:02:17.723785,-2,0,21,7,3,0,73,75,130,100,30,120.65,226,-53.00,6.00,-1009.00
2024-06-07 01:02:17.830964,0,0,21,7,2,0,73,75,129,100,30,120.62,226,-58.00,9.00,-1016.00
2024-06-07 01:02:17.976344,3,0,21,6,2,0,73,75,130,100,30,120.65,226,-45.00,13.00,-1041.00
2024-06-07 01:02:18.212587,3,0,21,4,1,0,73,75,130,100,30,120.68,226,-9.00,0.00,-935.00
2024-06-07 01:02:18.241875,1,0,21,3,1,0,73,75,130,100,30,120.64,226,-15.00,-1.00,-964.00
2024-06-07 01:02:18.426682,0,0,21,3,1,0,73,75,130,100,30,120.71,226,-29.00,0.00,-1006.00
2024-06-07 01:02:18.437592,0,0,21,2,1,0,73,76,129,100,30,120.75,226,-8.00,0.00,-1004.00
2024-06-07 01:02:18.569950,-1,0,21,2,1,0,73,76,130,100,30,120.68,227,-42.00,15.00,-1043.00
2024-06-07 01:02:18.734148,0,-2,21,2,1,0,73,76,130,100,30,120.75,227,-25.00,9.00,-987.00
2024-06-07 01:02:18.743672,0,-2,21,2,0,0,73,76,130,100,30,120.69,227,-31.00,8.00,-1019.00
2024-06-07 01:02:18.877281,0,0,21,2,0,0,73,76,130,100,30,120.69,227,-19.00,27.00,-976.00
2024-06-07 01:02:19.041114,5,1,21,1,0,0,73,76,131,100,30,120.74,227,-35.00,3.00,-972.00
2024-06-07 01:02:19.049757,2,0,21,0,0,0,73,76,131,100,30,120.69,227,-36.00,11.00,-1013.00
2024-06-07 01:02:19.235145,0,0,21,0,0,0,73,76,130,100,30,120.74,227,-21.00,22.00,-1009.00
2024-06-07 01:02:19.255800,0,0,21,0,0,0,73,76,130,100,30,120.68,227,-3.00,-8.00,-975.00
2024-06-07 01:02:19.448126,0,0,21,0,0,0,73,76,130,100,30,120.75,227,-7.00,27.00,-1026.00
2024-06-07 01:02:19.458972,0,0,21,0,0,0,73,75,130,100,30,120.79,227,-22.00,19.00,-970.00
2024-06-07 01:02:19.645214,0,0,21,0,0,0,73,75,130,100,30,120.72,228,9.00,9.00,-974.00
2024-06-07 01:02:19.662894,0,0,21,0,0,0,73,75,130,100,30,120.73,228,-8.00,13.00,-989.00
2024-06-07 01:02:19.713716,0,0,21,0,0,0,73,75,130,100,30,120.81,228,-3.00,9.00,-1058.00
2024-06-07 01:02:19.815690,0,0,21,0,0,0,73,75,130,100,30,120.70,228,-2.00,3.00,-1020.00
2024-06-07 01:02:19.951965,0,0,21,0,0,0,73,75,130,100,30,120.72,228,-9.00,5.00,-1009.00
2024-06-07 01:02:20.019733,0,0,21,0,0,0,73,75,129,100,30,120.74,228,-22.00,10.00,-998.00
2024-06-07 01:02:20.162045,0,0,21,0,0,0,73,75,130,100,30,120.73,228,6.00,2.00,-985.00
2024-06-07 01:02:20.223684,0,0,21,0,0,0,73,75,130,100,30,120.75,228,-4.00,20.00,-970.00
2024-06-07 01:02:20.361453,0,0,21,0,0,0,73,75,129,100,30,120.71,228,-34.00,20.00,-996.00
2024-06-07 01:02:20.427693,0,0,21,0,0,0,73,75,129,100,30,120.75,228,8.00,-1.00,-951.00
2024-06-07 01:02:20.568800,0,0,21,0,0,0,73,75,129,100,30,120.70,229,-8.00,2.00,-996.00
2024-06-07 01:02:20.631752,0,0,21,0,0,0,73,75,129,100,30,120.69,229,-44.00,33.00,-1043.00
2024-06-07 01:02:20.733712,0,0,21,0,0,0,73,75,129,100,30,120.74,229,-8.00,17.00,-1001.00
2024-06-07 01:02:20.836791,0,0,21,0,0,0,73,75,129,100,30,120.75,229,-24.00,29.00,-1028.00
2024-06-07 01:02:20.937770,0,0,21,0,0,0,73,75,128,100,30,120.75,229,17.00,-11.00,-961.00
2024-06-07 01:02:21.052952,0,0,21,0,0,0,73,75,128,100,30,120.67,229,7.00,-1.00,-1006.00
2024-06-07 01:02:21.141502,0,0,21,0,0,0,73,75,128,100,30,120.69,229,-10.00,17.00,-1001.00
2024-06-07 01:02:21.245885,3,0,21,0,0,0,73,75,128,100,30,120.78,229,0.00,15.00,-1007.00
2024-06-07 01:02:21.345484,8,0,21,-1,0,0,73,75,129,100,30,120.75,229,18.00,-6.00,-1023.00
2024-06-07 01:02:21.487700,8,0,21,-2,0,0,73,75,130,100,30,120.72,229,8.00,10.00,-987.00
2024-06-07 01:02:21.549521,8,0,21,-3,-1,0,73,75,129,100,30,120.76,230,14.00,15.00,-997.00
2024-06-07 01:02:21.651386,7,0,21,-4,-1,0,73,75,129,100,30,120.74,230,31.00,-16.00,-975.00
2024-06-07 01:02:21.753376,6,0,21,-5,-2,0,73,75,129,100,30,120.63,230,48.00,-7.00,-969.00
2024-06-07 01:02:21.855437,5,0,21,-6,-2,0,73,75,129,100,30,120.77,230,32.00,31.00,-1022.00
2024-06-07 01:02:21.999687,4,0,21,-7,-2,0,73,75,129,100,30,120.75,230,11.00,10.00,-1004.00
2024-06-07 01:02:22.059404,3,0,21,-7,-2,0,73,75,129,100,30,120.72,230,42.00,20.00,-1002.00
2024-06-07 01:02:22.204419,0,0,21,-7,-2,0,73,75,130,100,30,120.80,230,39.00,21.00,-1022.00
2024-06-07 01:02:22.263944,-2,0,22,-7,-2,0,73,75,130,100,30,120.75,230,47.00,1.00,-987.00
2024-06-07 01:02:22.365648,-4,-1,22,-6,-2,0,73,75,130,100,30,120.74,230,27.00,10.00,-984.00
2024-06-07 01:02:22.514955,-5,-1,22,-5,-2,0,73,75,130,100,30,120.77,230,24.00,7.00,-964.00
2024-06-07 01:02:22.569400,-4,0,22,-4,-1,0,73,75,130,100,30,120.78,231,44.00,5.00,-997.00
2024-06-07 01:02:22.716854,-2,0,22,-3,-1,0,73,75,130,100,30,120.74,231,-2.00,21.00,-1010.00
2024-06-07 01:02:22.773278,-1,0,22,-2,-1,0,73,75,130,100,30,120.75,231,20.00,-8.00,-978.00
2024-06-07 01:02:22.922096,0,0,22,-2,-1,0,73,75,130,100,30,120.68,231,2.00,6.00,-966.00
2024-06-07 01:02:22.981806,0,0,22,-2,-1,0,73,75,130,100,30,120.74,231,19.00,-1.00,-1008.00
2024-06-07 01:02:23.079367,0,1,21,-2,0,0,73,75,130,100,30,120.73,231,21.00,-7.00,-1007.00
2024-06-07 01:02:23.228447,0,0,22,-2,0,0,73,75,131,100,30,120.79,231,-7.00,14.00,-1038.00
2024-06-07 01:02:23.232952,-2,0,22,-2,0,0,73,75,130,100,30,120.75,231,-21.00,19.00,-976.00
2024-06-07 01:02:23.433255,-5,-2,22,-1,0,0,73,75,129,100,30,120.73,231,22.00,-6.00,-1017.00
2024-06-07 01:02:23.487331,-3,-1,22,-1,0,0,74,76,130,100,30,120.70,231,15.00,-6.00,-1027.00
2024-06-07 01:02:23.538756,-1,0,21,0,0,0,74,76,130,100,30,120.73,232,31.00,-3.00,-1007.00
2024-06-07 01:02:23.640695,-1,0,21,0,0,0,74,76,130,100,30,120.75,232,8.00,-1.00,-979.00
2024-06-07 01:02:23.742393,0,0,22,0,0,0,74,76,130,100,30,120.74,232,2.00,8.00,-1025.00
2024-06-07 01:02:23.844290,0,0,22,0,0,0,74,76,130,100,30,120.75,232,-6.00,6.00,-1000.00
2024-06-07 01:02:23.946636,-1,0,22,0,0,0,74,76,131,100,30,120.78,232,1.00,9.00,-1026.00
2024-06-07 01:02:24.048931,0,0,22,0,0,0,74,76,131,100,30,120.76,232,-2.00,7.00,-1027.00
2024-06-07 01:02:24.150367,0,0,22,0,0,0,74,76,131,100,30,120.77,232,-4.00,-7.00,-1001.00
2024-06-07 01:02:24.253998,0,0,22,0,0,0,74,76,131,100,30,120.74,232,1.00,0.00,-1004.00
2024-06-07 01:02:24.354587,0,0,22,0,0,0,74,76,132,100,30,120.73,232,-3.00,-2.00,-1016.00
2024-06-07 01:02:24.457230,0,0,22,0,0,0,73,75,132,100,30,120.75,232,4.00,-1.00,-994.00
2024-06-07 01:02:24.561244,0,0,22,0,0,0,73,75,132,100,30,120.77,233,2.00,0.00,-981.00
2024-06-07 01:02:24.661759,0,0,22,0,0,0,73,75,131,100,30,120.78,233,-38.00,18.00,-979.00
2024-06-07 01:02:24.764440,0,0,22,0,0,0,73,75,132,100,30,120.77,233,8.00,3.00,-986.00
2024-06-07 01:02:24.864819,0,0,22,0,0,0,73,75,132,100,30,120.70,233,3.00,10.00,-1063.00
2024-06-07 01:02:24.966522,0,0,22,0,0,0,73,75,131,100,30,120.72,233,-8.00,4.00,-1003.00
2024-06-07 01:02:25.068242,0,0,21,0,0,0,73,75,131,100,30,120.72,233,-15.00,16.00,-998.00
2024-06-07 01:02:25.170565,0,0,22,0,0,0,73,75,131,100,30,120.71,233,6.00,4.00,-1012.00
2024-06-07 01:02:25.272819,0,0,21,0,0,0,73,75,131,100,30,120.76,233,-7.00,14.00,-1008.00
2024-06-07 01:02:25.374192,0,0,21,0,0,0,73,75,131,100,30,120.75,233,-16.00,14.00,-998.00
2024-06-07 01:02:25.476615,0,0,21,0,0,0,72,76,130,100,30,120.69,233,-16.00,24.00,-1047.00
2024-06-07 01:02:25.578071,0,0,21,0,0,0,72,76,130,100,30,120.78,234,-15.00,10.00,-1005.00
2024-06-07 01:02:25.686338,0,-2,21,0,0,0,72,76,130,100,30,120.69,234,6.00,6.00,-1038.00
2024-06-07 01:02:25.782475,0,-9,22,0,0,0,72,76,131,100,30,120.73,234,-12.00,7.00,-1020.00
2024-06-07 01:02:25.887543,0,-8,22,0,-1,0,72,76,131,100,30,120.78,234,-7.00,19.00,-1048.00
2024-06-07 01:02:25.988532,0,-6,22,1,-2,0,72,76,131,100,30,120.77,234,15.00,13.00,-1005.00
2024-06-07 01:02:26.088848,0,-3,21,1,-3,0,72,76,131,100,30,120.76,234,-8.00,20.00,-972.00
2024-06-07 01:02:26.200934,0,0,21,1,-3,0,72,76,131,100,30,120.76,234,-1.00,30.00,-989.00
2024-06-07 01:02:26.292333,0,1,21,1,-3,0,72,76,131,100,30,120.75,234,-32.00,38.00,-982.00
2024-06-07 01:02:26.403177,0,0,21,1,-2,0,72,76,131,100,30,120.67,234,-15.00,37.00,-1009.00
2024-06-07 01:02:26.496349,0,0,21,1,-2,0,73,75,132,100,29,120.69,234,-22.00,28.00,-991.00
2024-06-07 01:02:26.607416,0,-1,21,1,-2,0,73,75,131,100,29,120.74,235,-23.00,33.00,-1031.00
2024-06-07 01:02:26.700476,0,-1,21,0,-2,0,73,75,132,100,29,120.75,235,28.00,14.00,-959.00
2024-06-07 01:02:26.812328,0,-1,21,0,-2,0,73,75,133,100,29,120.73,235,-12.00,37.00,-976.00
2024-06-07 01:02:26.904022,0,0,21,0,-2,0,73,75,133,100,29,120.72,235,-10.00,22.00,-1024.00
2024-06-07 01:02:27.017504,1,0,21,0,-2,0,73,75,133,100,29,120.74,235,-5.00,30.00,-994.00
2024-06-07 01:02:27.057044,0,0,21,0,-2,0,73,75,133,100,29,120.73,235,0.00,19.00,-1008.00
2024-06-07 01:02:27.221782,0,0,21,0,-2,0,73,75,134,100,29,120.73,235,18.00,18.00,-1003.00
2024-06-07 01:02:27.261273,0,0,21,0,-2,0,73,75,134,100,29,120.73,235,-3.00,21.00,-1038.00
2024-06-07 01:02:27.428113,0,0,21,0,-2,0,73,75,134,100,29,120.73,235,12.00,9.00,-963.00
2024-06-07 01:02:27.516050,-2,4,21,0,-1,0,73,76,135,100,29,120.71,235,5.00,33.00,-956.00
2024-06-07 01:02:27.620460,-1,2,21,0,-1,0,73,76,135,100,29,120.71,236,-19.00,6.00,-975.00
2024-06-07 01:02:27.720286,0,1,21,0,0,0,73,76,134,100,29,120.72,236,-18.00,9.00,-1015.00
2024-06-07 01:02:27.771249,0,0,21,0,0,0,73,76,135,100,29,120.74,236,-16.00,7.00,-1003.00
2024-06-07 01:02:27.938765,0,0,21,0,0,0,73,76,134,100,29,120.77,236,-1.00,0.00,-974.00
2024-06-07 01:02:27.974950,0,0,21,0,0,0,73,76,135,100,29,120.71,236,-4.00,-1.00,-992.00
2024-06-07 01:02:28.143570,0,0,21,0,0,0,73,76,134,100,29,120.79,236,-8.00,13.00,-979.00
2024-06-07 01:02:28.178976,0,0,21,0,0,0,73,76,135,100,29,120.71,236,-7.00,9.00,-993.00
2024-06-07 01:02:28.348859,0,0,21,0,0,0,73,76,135,100,29,120.76,236,-14.00,3.00,-1002.00
2024-06-07 01:02:28.383988,0,0,21,0,0,0,73,76,134,100,29,120.76,236,1.00,3.00,-959.00
2024-06-07 01:02:28.553887,0,0,22,0,0,0,73,74,134,110,28,120.71,236,-2.00,3.00,-981.00
2024-06-07 01:02:28.587965,0,0,22,0,0,0,73,74,134,110,28,120.73,237,0.00,5.00,-990.00
2024-06-07 01:02:28.757981,0,0,22,0,0,0,73,74,133,100,28,120.73,237,-10.00,3.00,-1002.00
2024-06-07 01:02:28.792534,0,0,22,0,0,0,73,74,133,100,28,120.72,237,-47.00,17.00,-991.00
2024-06-07 01:02:28.962747,0,0,22,0,0,0,73,74,132,100,28,120.73,237,-4.00,5.00,-1007.00
2024-06-07 01:02:28.996077,0,0,22,0,0,0,73,74,132,100,28,120.77,237,-5.00,0.00,-1002.00
2024-06-07 01:02:29.167549,0,0,22,0,0,0,73,74,132,100,28,120.69,237,8.00,2.00,-1011.00
2024-06-07 01:02:29.200511,0,0,22,0,0,0,73,74,131,100,28,120.75,237,6.00,14.00,-1019.00
2024-06-07 01:02:29.301915,0,0,22,0,0,0,73,74,131,100,28,120.73,237,-7.00,13.00,-1014.00
2024-06-07 01:02:29.475062,0,0,22,0,0,0,73,74,131,100,28,120.74,237,0.00,5.00,-1053.00
2024-06-07 01:02:29.505849,0,0,22,0,0,0,72,75,131,100,28,120.72,237,-7.00,5.00,-1010.00
2024-06-07 01:02:29.607841,0,0,22,0,0,0,72,75,130,100,28,120.67,238,10.00,1.00,-1000.00
2024-06-07 01:02:29.781763,0,0,22,0,0,0,72,75,131,100,28,120.76,238,-10.00,6.00,-997.00
2024-06-07 01:02:29.811757,0,2,21,0,0,0,72,75,131,100,28,120.74,238,-30.00,34.00,-980.00
2024-06-07 01:02:29.986550,0,8,21,0,0,0,72,75,131,100,28,120.69,238,-15.00,-1.00,-1031.00
2024-06-07 01:02:30.015855,0,6,21,0,2,0,72,75,131,100,28,120.70,238,-5.00,12.00,-978.00
2024-06-07 01:02:30.194632,0,3,21,-1,3,0,72,75,131,100,28,120.74,238,-55.00,20.00,-1019.00
2024-06-07 01:02:30.220127,0,1,21,-1,3,0,72,75,131,100,28,120.74,238,-25.00,2.00,-1025.00
2024-06-07 01:02:30.321934,0,-1,21,-1,3,0,72,75,131,100,28,120.64,238,-10.00,-14.00,-983.00
2024-06-07 01:02:30.500046,0,-1,21,-1,3,0,72,75,131,100,28,120.77,238,-32.00,-17.00,-1004.00
2024-06-07 01:02:30.525726,0,-1,21,-1,2,0,72,75,132,100,28,120.73,238,29.00,-21.00,-983.00
2024-06-07 01:02:30.629838,-1,0,21,-1,2,0,72,75,132,100,28,120.66,239,-31.00,-1.00,-969.00
2024-06-07 01:02:30.729980,0,0,21,-1,2,0,72,75,132,100,28,120.72,239,-30.00,-4.00,-968.00
2024-06-07 01:02:30.908100,-1,0,21,-1,2,0,72,75,131,100,28,120.71,239,-14.00,-4.00,-998.00
2024-06-07 01:02:30.933814,0,0,21,0,2,0,72,75,131,100,28,120.68,239,-3.00,-17.00,-1000.00
2024-06-07 01:02:31.113369,0,0,21,0,2,0,72,75,131,100,28,120.69,239,-29.00,1.00,-1012.00
2024-06-07 01:02:31.137638,0,0,21,0,2,0,72,75,131,100,28,120.68,239,-40.00,2.00,-976.00
2024-06-07 01:02:31.317707,0,0,21,0,2,0,72,75,131,100,28,120.71,239,-12.00,-11.00,-1026.00
2024-06-07 01:02:31.341548,-3,-1,21,0,2,0,72,75,131,100,28,120.68,239,-20.00,-2.00,-1005.00
2024-06-07 01:02:31.392693,-1,-1,21,0,2,0,72,75,131,100,28,120.74,239,-2.00,-9.00,-992.00
2024-06-07 01:02:31.545817,0,-4,21,0,1,0,73,75,131,100,28,120.68,239,23.00,-18.00,-1024.00
2024-06-07 01:02:31.596997,0,-4,21,0,1,0,73,75,131,100,28,120.65,240,-5.00,0.00,-1007.00
2024-06-07 01:02:31.731276,0,-1,21,0,0,0,73,75,131,100,28,120.66,240,-36.00,23.00,-1035.00
2024-06-07 01:02:31.800927,0,-1,21,0,0,0,73,75,131,100,28,120.73,240,-31.00,10.00,-1003.00
2024-06-07 01:02:31.903963,0,0,21,0,0,0,73,75,132,100,28,120.74,240,0.00,-1.00,-1001.00
2024-06-07 01:02:32.115486,0,0,21,0,0,0,73,75,131,100,28,120.66,240,-13.00,5.00,-986.00
2024-06-07 01:02:32.115692,0,0,21,0,0,0,73,75,132,100,28,120.68,240,-16.00,15.00,-1022.00
2024-06-07 01:02:32.257788,0,0,21,0,0,0,73,75,131,100,28,120.68,240,-11.00,15.00,-1013.00
2024-06-07 01:02:32.368486,0,0,21,0,0,0,73,75,132,100,28,120.72,240,-3.00,-1.00,-1006.00
2024-06-07 01:02:32.428002,0,0,21,0,0,0,73,75,132,100,28,120.67,240,-40.00,23.00,-997.00
2024-06-07 01:02:32.553030,0,0,21,0,0,0,72,74,131,100,27,120.62,241,-26.00,5.00,-974.00
2024-06-07 01:02:32.616571,0,0,21,0,0,0,72,74,131,100,27,120.67,241,-14.00,12.00,-1009.00
2024-06-07 01:02:32.777330,0,0,21,0,0,0,72,74,131,100,27,120.68,241,-22.00,8.00,-1019.00
2024-06-07 01:02:32.868518,0,0,21,0,0,0,72,74,131,100,27,120.68,241,-10.00,-3.00,-1000.00
2024-06-07 01:02:32.922614,0,0,21,0,0,0,72,74,131,100,27,120.69,241,-31.00,0.00,-951.00
2024-06-07 01:02:33.048900,0,0,21,0,0,0,72,74,131,100,27,120.70,241,-16.00,0.00,-993.00
2024-06-07 01:02:33.164253,0,0,21,0,0,0,72,74,131,100,27,120.68,241,5.00,-1.00,-992.00
2024-06-07 01:02:33.307800,0,0,21,0,0,0,72,74,131,100,27,120.66,241,-31.00,25.00,-1026.00
2024-06-07 01:02:33.330496,0,0,21,0,0,0,72,74,130,100,27,120.72,241,3.00,-3.00,-992.00
2024-06-07 01:02:33.479921,0,0,21,0,0,0,72,74,131,100,27,120.72,241,-7.00,2.00,-1022.00
2024-06-07 01:02:33.623583,0,0,21,0,0,0,72,75,131,100,27,120.66,242,1.00,5.00,-1012.00
2024-06-07 01:02:33.636335,0,0,21,0,0,0,72,75,130,100,27,120.72,242,-13.00,8.00,-1010.00
2024-06-07 01:02:33.787085,0,0,22,0,0,0,72,75,131,100,27,120.69,242,-10.00,-6.00,-1010.00
2024-06-07 01:02:33.929915,0,0,27,0,0,0,72,75,131,100,27,120.69,242,-28.00,8.00,-1011.00
2024-06-07 01:02:33.942271,0,0,33,0,0,0,72,75,131,100,27,120.70,242,-7.00,-12.00,-1013.00
2024-06-07 01:02:34.093219,0,0,39,0,0,0,72,75,132,100,27,120.64,242,-7.00,-1.00,-980.00
2024-06-07 01:02:34.249533,0,0,45,0,0,0,72,75,132,100,27,120.66,242,-14.00,5.00,-993.00
2024-06-07 01:02:34.250076,0,0,51,0,0,0,72,75,132,100,27,120.65,242,-11.00,27.00,-1017.00
2024-06-07 01:02:34.350342,0,0,57,0,0,0,72,75,132,100,27,120.70,242,-2.00,31.00,-996.00
2024-06-07 01:02:34.452320,0,-1,63,0,0,0,72,75,133,100,27,120.69,242,-4.00,26.00,-1033.00
2024-06-07 01:02:34.554245,0,-1,69,0,0,0,72,74,132,100,27,120.69,243,18.00,4.00,-998.00
2024-06-07 01:02:34.697533,0,0,75,0,0,0,72,74,132,100,27,120.61,243,-3.00,26.00,-1025.00
2024-06-07 01:02:34.758338,0,0,81,0,0,0,72,74,132,100,27,120.69,243,-14.00,26.00,-1013.00
2024-06-07 01:02:34.860384,0,0,87,0,0,0,72,74,132,100,27,120.68,243,15.00,5.00,-987.00
2024-06-07 01:02:35.008082,0,0,93,0,0,0,72,74,131,100,27,120.65,243,-3.00,11.00,-1004.00
2024-06-07 01:02:35.064344,0,0,100,0,0,0,72,74,131,100,27,120.67,243,-8.00,20.00,-1002.00
2024-06-07 01:02:35.211483,0,0,106,0,0,0,72,74,131,100,27,120.66,243,-7.00,32.00,-999.00
2024-06-07 01:02:35.268440,0,0,112,0,0,0,72,74,131,100,27,120.68,243,0.00,6.00,-995.00
2024-06-07 01:02:35.372624,0,0,118,0,0,0,72,74,131,100,27,120.67,243,4.00,15.00,-997.00
2024-06-07 01:02:35.422267,0,0,124,0,0,0,72,74,130,100,27,120.70,243,-54.00,38.00,-971.00
2024-06-07 01:02:35.619631,0,0,130,0,0,0,72,74,130,100,27,120.58,244,-7.00,41.00,-1024.00
2024-06-07 01:02:35.677240,0,0,136,0,0,0,72,74,131,100,27,120.61,244,3.00,3.00,-1000.00
2024-06-07 01:02:35.728293,0,0,142,0,0,0,72,74,131,100,27,120.67,244,5.00,19.00,-982.00
2024-06-07 01:02:35.830262,0,0,148,0,0,0,72,74,131,100,27,120.64,244,1.00,20.00,-994.00
2024-06-07 01:02:36.028329,0,0,153,0,0,0,72,74,131,100,27,120.63,244,9.00,4.00,-1008.00
2024-06-07 01:02:36.034340,0,0,159,0,0,0,72,74,132,100,27,120.54,244,-19.00,19.00,-1000.00
2024-06-07 01:02:36.234130,0,0,165,0,0,0,72,74,132,100,27,120.66,244,14.00,4.00,-1003.00
2024-06-07 01:02:36.238869,0,0,172,0,0,0,72,74,132,100,27,120.59,244,5.00,21.00,-973.00
2024-06-07 01:02:36.340234,0,0,178,0,0,0,72,74,132,100,27,120.63,244,31.00,12.00,-1004.00
2024-06-07 01:02:36.539895,0,0,-175,0,0,0,72,74,132,100,27,120.70,244,18.00,13.00,-979.00
2024-06-07 01:02:36.544073,0,0,-169,0,0,0,73,75,132,100,26,120.62,245,-16.00,13.00,-957.00
2024-06-07 01:02:36.746132,0,0,-163,0,0,0,73,75,132,100,26,120.70,245,-1.00,13.00,-991.00
2024-06-07 01:02:36.748438,0,0,-157,0,0,0,73,75,132,100,26,120.65,245,1.00,14.00,-1001.00
2024-06-07 01:02:36.850121,0,0,-151,0,0,0,73,75,132,100,26,120.69,245,34.00,1.00,-943.00
2024-06-07 01:02:36.952249,0,0,-145,0,0,0,73,75,132,100,26,120.76,245,13.00,1.00,-968.00
2024-06-07 01:02:37.054087,0,0,-139,0,0,0,73,75,131,100,26,120.67,245,13.00,0.00,-977.00
2024-06-07 01:02:37.156176,0,0,-132,0,0,0,73,75,132,100,26,120.63,245,20.00,-2.00,-1022.00
2024-06-07 01:02:37.358949,0,0,-126,0,0,0,73,75,132,100,26,120.60,245,20.00,-7.00,-1000.00
2024-06-07 01:02:37.360199,0,0,-120,0,0,0,73,75,131,100,26,120.54,245,11.00,8.00,-999.00
2024-06-07 01:02:37.563808,0,0,-114,0,0,0,73,75,132,100,26,120.58,245,-8.00,0.00,-986.00
2024-06-07 01:02:37.563967,0,0,-108,0,0,0,73,75,131,100,26,120.55,246,9.00,-2.00,-995.00
2024-06-07 01:02:37.666695,0,0,-102,0,0,0,73,75,131,100,26,120.58,246,-2.00,12.00,-999.00
2024-06-07 01:02:37.768279,0,0,-96,0,0,0,73,75,131,100,26,120.55,246,-5.00,8.00,-1011.00
2024-06-07 01:02:37.870888,0,0,-90,0,0,0,73,75,131,100,26,120.57,246,-7.00,0.00,-988.00
2024-06-07 01:02:37.973995,0,0,-84,0,0,0,73,75,130,100,26,120.50,246,14.00,2.00,-1036.00
2024-06-07 01:02:38.074088,0,0,-78,0,0,0,73,75,131,100,26,120.52,246,-5.00,1.00,-992.00
2024-06-07 01:02:38.180514,0,0,-71,0,0,0,73,75,130,100,26,120.55,246,8.00,-4.00,-984.00
2024-06-07 01:02:38.278062,0,0,-65,0,0,0,73,75,130,100,26,120.52,246,-8.00,0.00,-1004.00
2024-06-07 01:02:38.380061,0,0,-59,0,0,0,73,75,130,100,26,120.55,246,-30.00,-5.00,-1000.00
2024-06-07 01:02:38.482037,0,0,-53,0,0,0,73,75,129,100,25,120.59,246,-48.00,1.00,-998.00
2024-06-07 01:02:38.584056,0,0,-47,0,0,0,72,75,130,100,25,120.55,247,-11.00,-5.00,-999.00
2024-06-07 01:02:38.691414,0,0,-41,0,0,0,72,75,130,100,25,120.56,247,4.00,-26.00,-999.00
2024-06-07 01:02:38.788012,0,0,-35,0,0,0,72,75,129,100,25,120.54,247,-37.00,-2.00,-1001.00
2024-06-07 01:02:38.891924,0,0,-29,0,0,0,72,75,129,100,25,120.53,247,-29.00,15.00,-997.00
2024-06-07 01:02:38.993888,0,0,-23,0,0,0,72,75,130,100,25,120.54,247,-13.00,7.00,-1013.00
2024-06-07 01:02:39.094013,0,0,-17,0,0,0,72,75,130,100,25,120.53,247,-11.00,4.00,-1001.00
2024-06-07 01:02:39.203511,0,0,-11,0,0,0,72,75,130,100,25,120.53,247,-10.00,-10.00,-1022.00
2024-06-07 01:02:39.302861,-1,0,-5,0,0,0,72,75,130,100,25,120.55,247,-2.00,-9.00,-1029.00
2024-06-07 01:02:39.399990,-1,0,0,0,0,0,72,75,130,100,25,120.57,247,-7.00,-5.00,-1020.00
2024-06-07 01:02:39.450998,-1,0,5,0,0,0,72,75,130,100,25,120.58,247,-24.00,-6.00,-998.00
2024-06-07 01:02:39.615136,-1,0,9,0,0,0,72,75,130,100,25,120.60,248,-29.00,9.00,-938.00
2024-06-07 01:02:39.705920,-1,0,12,0,0,0,72,75,131,100,25,120.58,248,-3.00,1.00,-945.00
2024-06-07 01:02:39.756920,0,0,15,0,0,0,72,75,130,100,25,120.61,248,0.00,-5.00,-991.00
2024-06-07 01:02:39.918916,0,0,16,0,0,0,72,75,131,100,25,120.57,248,-22.00,2.00,-964.00
2024-06-07 01:02:39.960937,0,0,18,0,0,0,72,75,131,100,25,120.63,248,-8.00,2.00,-1002.00
2024-06-07 01:02:40.125363,0,0,19,0,0,0,72,75,131,100,25,120.57,248,-25.00,21.00,-971.00
2024-06-07 01:02:40.164986,0,0,20,0,0,0,72,75,131,100,25,120.61,248,-32.00,-2.00,-987.00
2024-06-07 01:02:40.332191,0,0,20,0,0,0,72,75,131,100,25,120.63,248,-11.00,7.00,-989.00
2024-06-07 01:02:40.368935,0,0,20,0,0,0,72,75,131,100,25,120.62,248,4.00,-3.00,-1006.00
2024-06-07 01:02:40.533792,0,0,20,0,0,0,72,75,131,100,25,120.53,248,-9.00,7.00,-989.00
2024-06-07 01:02:40.572948,0,0,20,0,0,0,72,74,131,100,25,120.61,249,1.00,8.00,-1022.00
2024-06-07 01:02:40.738132,0,0,20,0,0,0,72,74,131,100,25,120.62,249,-27.00,19.00,-1001.00
2024-06-07 01:02:40.776892,0,0,20,0,0,0,72,74,131,100,25,120.60,249,-16.00,36.00,-1108.00
2024-06-07 01:02:40.943633,0,0,20,0,0,0,72,74,130,100,25,120.56,249,-14.00,-3.00,-1009.00
2024-06-07 01:02:40.980940,0,0,20,0,0,0,72,74,130,100,25,120.58,249,16.00,2.00,-1027.00
2024-06-07 01:02:41.147675,0,0,20,0,0,0,72,74,129,100,25,120.58,249,-3.00,7.00,-1034.00
2024-06-07 01:02:41.184878,0,0,20,0,0,0,72,74,129,100,25,120.58,249,-2.00,-3.00,-1004.00
2024-06-07 01:02:41.352712,0,0,20,0,0,0,72,74,129,100,25,120.56,249,0.00,-2.00,-995.00
2024-06-07 01:02:41.388907,0,0,20,0,0,0,72,74,129,100,25,120.63,249,-19.00,-2.00,-1026.00
2024-06-07 01:02:41.557746,0,0,20,0,0,0,72,74,128,100,24,120.61,249,-17.00,11.00,-1014.00
2024-06-07 01:02:41.593083,0,0,20,0,0,0,73,75,129,100,24,120.52,250,-18.00,13.00,-1009.00
2024-06-07 01:02:41.765446,0,0,20,0,0,0,73,75,128,100,24,120.63,250,9.00,-1.00,-1056.00
2024-06-07 01:02:41.797997,0,0,20,0,0,0,73,75,128,100,24,120.65,250,-23.00,12.00,-991.00
2024-06-07 01:02:41.966984,0,0,20,0,0,0,73,75,128,100,24,120.62,250,-23.00,28.00,-993.00
2024-06-07 01:02:42.001564,0,0,20,0,0,0,73,75,128,100,24,120.58,250,30.00,-11.00,-1006.00
2024-06-07 01:02:42.126997,0,0,20,0,0,0,73,75,128,100,24,120.63,250,0.00,-2.00,-976.00
2024-06-07 01:02:42.204732,0,0,20,0,0,0,73,75,128,100,24,120.59,250,-4.00,0.00,-1017.00
2024-06-07 01:02:42.377825,0,0,20,0,0,0,73,75,128,100,24,120.56,250,-29.00,35.00,-1042.00
2024-06-07 01:02:42.408820,0,0,15,0,0,0,73,75,128,100,24,120.63,250,14.00,0.00,-1022.00
2024-06-07 01:02:42.510674,0,0,9,0,0,0,73,75,128,100,24,120.57,250,-4.00,22.00,-1003.00
2024-06-07 01:02:42.684170,0,0,3,0,0,0,73,75,128,100,24,120.56,251,14.00,-13.00,-1007.00
2024-06-07 01:02:42.714613,0,0,-2,0,0,0,73,75,128,100,24,120.57,251,-35.00,21.00,-1015.00
2024-06-07 01:02:42.888408,0,0,-8,0,0,0,73,75,128,100,24,120.58,251,-5.00,16.00,-1003.00
2024-06-07 01:02:42.919213,0,0,-14,0,0,0,73,75,128,100,24,120.64,251,-15.00,-13.00,-982.00
2024-06-07 01:02:43.093202,0,0,-20,0,0,0,73,75,128,100,24,120.65,251,-5.00,-1.00,-999.00
2024-06-07 01:02:43.122646,0,0,-26,0,0,0,73,75,128,100,24,120.62,251,-10.00,6.00,-1042.00
2024-06-07 01:02:43.297914,0,0,-32,0,0,0,73,75,129,100,24,120.71,251,-25.00,14.00,-991.00
2024-06-07 01:02:43.327240,0,0,-38,0,0,0,73,75,128,100,24,120.68,251,22.00,-10.00,-972.00
2024-06-07 01:02:43.502693,0,0,-44,0,0,0,73,75,129,100,24,120.65,251,5.00,12.00,-997.00
2024-06-07 01:02:43.530626,0,0,-50,0,0,0,73,75,130,100,24,120.62,251,6.00,1.00,-1006.00
2024-06-07 01:02:43.707471,0,0,-56,0,0,0,72,74,130,100,24,120.61,252,37.00,-7.00,-979.00
2024-06-07 01:02:43.734529,0,0,-62,0,0,0,72,74,131,100,24,120.64,252,-8.00,1.00,-1005.00
2024-06-07 01:02:43.786527,0,0,-68,0,0,0,72,74,131,100,24,120.74,252,17.00,-2.00,-983.00
2024-06-07 01:02:43.912339,0,0,-74,0,0,0,72,74,131,100,24,120.70,252,-13.00,10.00,-996.00
2024-06-07 01:02:43.990933,0,0,-80,0,0,0,72,74,131,100,24,120.65,252,-8.00,13.00,-987.00
2024-06-07 01:02:44.117086,0,0,-86,0,0,0,72,74,131,100,24,120.66,252,22.00,-6.00,-1008.00
2024-06-07 01:02:44.194547,0,0,-92,0,0,0,72,74,131,100,24,120.68,252,-24.00,9.00,-1024.00
2024-06-07 01:02:44.322165,0,0,-98,0,0,0,72,74,131,100,24,120.67,252,28.00,-6.00,-972.00
2024-06-07 01:02:44.399016,0,0,-104,0,0,0,72,74,131,100,24,120.62,252,-14.00,2.00,-978.00
2024-06-07 01:02:44.527425,0,0,-111,0,0,0,72,74,131,100,23,120.62,252,3.00,6.00,-1009.00
2024-06-07 01:02:44.603118,0,0,-117,0,0,0,72,75,131,100,23,120.64,253,1.00,14.00,-1017.00
2024-06-07 01:02:44.704521,0,0,-123,0,0,0,72,75,131,100,23,120.57,253,13.00,6.00,-972.00
2024-06-07 01:02:44.806549,0,0,-129,0,0,0,72,75,130,100,23,120.63,253,-1.00,11.00,-995.00
2024-06-07 01:02:44.936301,0,0,-136,0,0,0,72,75,130,100,23,120.65,253,-5.00,14.00,-1012.00
2024-06-07 01:02:45.010465,0,0,-142,0,0,0,72,75,130,100,23,120.63,253,4.00,9.00,-984.00
2024-06-07 01:02:45.141080,0,0,-148,0,0,0,72,75,130,100,23,120.66,253,27.00,14.00,-985.00
2024-06-07 01:02:45.214467,0,0,-154,0,0,0,72,75,130,100,23,120.63,253,-31.00,25.00,-980.00
2024-06-07 01:02:45.348675,0,0,-160,0,0,0,72,75,129,100,23,120.56,253,-13.00,0.00,-989.00
2024-06-07 01:02:45.418959,0,0,-166,0,0,0,72,75,129,100,23,120.65,253,0.00,-2.00,-1000.00
2024-06-07 01:02:45.550806,0,0,-172,0,0,0,72,75,128,100,23,120.70,253,-5.00,0.00,-975.00
2024-06-07 01:02:45.623425,0,0,-178,0,0,0,72,75,128,100,23,120.65,254,2.00,-3.00,-1003.00
2024-06-07 01:02:45.755469,0,0,175,0,0,0,72,75,127,100,23,120.65,254,1.00,-4.00,-967.00
2024-06-07 01:02:45.826436,0,0,169,0,0,0,72,75,127,100,23,120.67,254,8.00,-13.00,-994.00
2024-06-07 01:02:45.960260,0,0,163,0,0,0,72,75,126,100,23,120.59,254,-27.00,5.00,-1037.00
2024-06-07 01:02:46.030421,0,0,157,0,0,0,72,75,126,100,23,120.60,254,-16.00,7.00,-1006.00
2024-06-07 01:02:46.164984,0,0,151,0,0,0,72,75,126,100,23,120.65,254,-9.00,6.00,-1012.00
2024-06-07 01:02:46.234381,0,0,145,0,0,0,72,75,126,100,23,120.62,254,-16.00,11.00,-992.00
2024-06-07 01:02:46.336849,0,0,139,0,0,0,72,75,126,100,23,120.55,254,-3.00,2.00,-1022.00
2024-06-07 01:02:46.472225,0,0,132,0,0,0,72,75,126,100,23,120.70,254,-13.00,11.00,-1045.00
2024-06-07 01:02:46.540334,0,0,126,0,0,0,72,75,127,100,23,120.66,254,-4.00,-13.00,-991.00
2024-06-07 01:02:46.677511,0,0,114,0,0,0,72,75,127,100,23,120.66,255,-9.00,0.00,-1034.00
2024-06-07 01:02:46.745104,0,0,107,0,0,0,72,75,128,100,23,120.60,255,0.00,-4.00,-1015.00
2024-06-07 01:02:46.881805,0,0,101,0,0,0,72,75,128,100,23,120.66,255,7.00,8.00,-987.00
2024-06-07 01:02:46.948324,0,0,94,0,0,0,72,75,128,100,23,120.60,255,-12.00,-3.00,-996.00
2024-06-07 01:02:47.109285,0,0,88,0,0,0,72,75,129,100,23,120.75,255,38.00,-23.00,-949.00
2024-06-07 01:02:47.170131,0,0,81,0,0,0,72,75,130,100,23,120.76,255,-25.00,19.00,-1000.00
2024-06-07 01:02:47.297949,0,0,75,0,0,0,72,75,131,100,23,120.74,255,-3.00,13.00,-980.00
2024-06-07 01:02:47.357047,0,0,69,0,0,0,72,75,131,100,23,120.71,255,-15.00,21.00,-1053.00
2024-06-07 01:02:47.516499,0,0,62,0,0,0,72,75,131,100,23,120.71,255,5.00,-10.00,-952.00
2024-06-07 01:02:47.516537,0,0,56,0,0,0,72,75,131,100,23,120.70,256,26.00,16.00,-972.00
2024-06-07 01:02:47.613155,0,0,50,0,0,0,72,74,131,100,23,120.76,256,2.00,9.00,-975.00
2024-06-07 01:02:47.790419,0,0,43,0,0,0,72,74,131,100,23,120.70,256,-7.00,11.00,-978.00
2024-06-07 01:02:47.815138,0,0,38,0,0,0,72,74,131,100,23,120.64,256,3.00,0.00,-998.00
2024-06-07 01:02:48.036253,0,0,33,0,0,0,72,74,130,100,23,120.69,256,-1.00,18.00,-1020.00
2024-06-07 01:02:48.036313,0,0,30,0,0,0,72,74,130,100,23,120.65,256,25.00,16.00,-1014.00
2024-06-07 01:02:48.223964,0,0,27,0,0,0,72,74,130,100,23,120.66,256,17.00,0.00,-990.00
2024-06-07 01:02:48.224181,0,0,25,0,0,0,72,74,129,100,23,120.73,256,-10.00,14.00,-1036.00
2024-06-07 01:02:48.367959,0,0,24,0,0,0,72,74,129,100,23,120.73,256,17.00,15.00,-1017.00
2024-06-07 01:02:48.530980,0,0,23,0,0,0,72,74,129,100,23,120.72,256,-6.00,15.00,-1006.00
2024-06-07 01:02:48.531309,0,0,22,0,0,0,72,74,129,100,22,120.71,257,-5.00,22.00,-1058.00
2024-06-07 01:02:48.674468,0,0,21,0,0,0,72,75,129,100,22,120.69,257,17.00,20.00,-1027.00
2024-06-07 01:02:48.838927,0,0,21,0,0,0,72,75,128,100,22,120.63,257,17.00,15.00,-1006.00
2024-06-07 01:02:48.839145,0,0,21,0,0,0,72,75,129,100,22,120.64,257,0.00,24.00,-980.00
2024-06-07 01:02:48.982188,0,0,21,0,0,0,72,75,129,100,22,120.70,257,-9.00,16.00,-1004.00
2024-06-07 01:02:49.153224,0,0,21,0,0,0,72,75,128,100,22,120.68,257,-2.00,22.00,-1021.00
2024-06-07 01:02:49.153380,0,0,21,0,0,0,72,75,127,100,22,120.72,257,9.00,-4.00,-978.00
2024-06-07 01:02:49.288990,0,0,21,0,0,0,72,75,128,100,22,120.70,257,-22.00,15.00,-963.00
2024-06-07 01:02:49.452855,0,0,21,0,0,0,72,75,128,100,22,120.74,257,1.00,-3.00,-1015.00
2024-06-07 01:02:49.452987,0,0,21,0,0,0,72,75,128,100,22,120.72,257,5.00,-8.00,-974.00
2024-06-07 01:02:49.595985,0,0,21,0,0,0,72,75,128,100,22,120.70,258,26.00,10.00,-999.00
2024-06-07 01:02:49.759832,0,0,21,0,0,0,72,75,128,100,22,120.70,258,22.00,1.00,-974.00
2024-06-07 01:02:49.763630,0,0,21,0,0,0,72,75,128,100,22,120.77,258,-21.00,16.00,-995.00
2024-06-07 01:02:49.917337,0,0,21,0,0,0,72,75,129,100,22,120.67,258,6.00,-14.00,-1015.00
2024-06-07 01:02:49.985681,0,0,21,0,0,0,72,75,129,100,22,120.75,258,1.00,7.00,-1000.00
2024-06-07 01:02:50.059054,0,0,21,0,0,0,72,75,130,100,22,120.73,258,-2.00,19.00,-1014.00
2024-06-07 01:02:50.161594,0,0,21,0,0,0,72,75,129,100,22,120.73,258,-9.00,-3.00,-1009.00
2024-06-07 01:02:50.363983,0,0,21,0,0,0,72,75,130,100,22,120.73,258,-29.00,25.00,-1001.00
2024-06-07 01:02:50.366036,0,0,21,0,0,0,72,75,129,100,22,120.71,258,-30.00,16.00,-1023.00
2024-06-07 01:02:50.468572,0,0,21,0,0,0,72,75,129,100,22,120.68,258,4.00,-1.00,-962.00
2024-06-07 01:02:50.569435,0,0,21,0,0,0,72,75,130,100,22,120.68,259,-1.00,0.00,-1005.00
2024-06-07 01:02:50.773632,0,0,21,0,0,0,72,74,130,100,22,120.68,259,-45.00,25.00,-1017.00
2024-06-07 01:02:50.774024,0,0,21,0,0,0,72,74,129,100,22,120.73,259,-12.00,-3.00,-1006.00
2024-06-07 01:02:50.825215,0,0,21,0,0,0,72,74,130,100,22,120.75,259,-3.00,-9.00,-994.00
2024-06-07 01:02:50.982969,0,0,21,0,0,0,72,74,129,100,22,120.71,259,-27.00,0.00,-967.00
2024-06-07 01:02:51.029497,0,0,21,0,0,0,72,74,129,100,22,120.77,259,-10.00,13.00,-994.00
2024-06-07 01:02:51.182682,0,0,21,0,0,0,72,74,130,100,22,120.71,259,3.00,-2.00,-1001.00
2024-06-07 01:02:51.233405,0,0,21,0,0,0,72,74,130,100,22,120.73,259,-9.00,7.00,-988.00
2024-06-07 01:02:51.387573,0,0,21,0,0,0,72,74,130,100,22,120.74,259,5.00,-15.00,-1018.00
2024-06-07 01:02:51.437190,0,0,21,0,0,0,72,74,129,100,22,120.75,259,1.00,-5.00,-993.00
2024-06-07 01:02:51.592893,0,0,21,0,0,0,72,74,130,100,22,120.85,260,-30.00,17.00,-1019.00
2024-06-07 01:02:51.641056,0,0,21,0,0,0,72,75,130,100,22,120.70,260,-17.00,17.00,-1031.00
2024-06-07 01:02:51.797625,0,0,21,0,0,0,72,75,129,100,22,120.73,260,0.00,5.00,-982.00
2024-06-07 01:02:51.845346,0,0,21,0,0,0,72,75,130,100,22,120.74,260,-17.00,4.00,-991.00
2024-06-07 01:02:51.947013,0,0,21,0,0,0,72,75,130,100,22,120.74,260,-9.00,12.00,-997.00
2024-06-07 01:02:52.049369,0,0,21,0,0,0,72,75,130,100,22,120.75,260,-6.00,10.00,-1005.00
2024-06-07 01:02:52.207500,0,0,21,0,0,0,72,75,130,100,22,120.74,260,-33.00,18.00,-1008.00
2024-06-07 01:02:52.253751,0,0,21,0,0,0,72,75,130,100,22,120.78,260,-8.00,2.00,-995.00
2024-06-07 01:02:52.412127,0,0,21,0,0,0,72,75,130,100,22,120.72,260,-20.00,12.00,-1039.00
2024-06-07 01:02:52.458035,0,0,21,0,0,0,72,75,131,100,22,120.73,260,16.00,-12.00,-964.00
2024-06-07 01:02:52.616635,0,0,21,0,0,0,72,75,130,100,22,120.71,261,-26.00,12.00,-979.00
2024-06-07 01:02:52.661367,0,0,21,0,0,0,72,75,131,100,22,120.75,261,-12.00,17.00,-1014.00
2024-06-07 01:02:52.822061,0,0,21,0,0,0,72,75,132,100,22,120.68,261,-3.00,3.00,-1013.00
2024-06-07 01:02:52.864853,0,0,21,0,0,0,72,75,132,100,22,120.77,261,-14.00,14.00,-936.00
2024-06-07 01:02:53.025699,0,0,21,0,0,0,72,75,131,100,22,120.81,261,11.00,-13.00,-992.00
2024-06-07 01:02:53.069058,0,0,21,0,0,0,72,75,131,100,22,120.77,261,-2.00,4.00,-992.00
2024-06-07 01:02:53.231714,0,0,21,0,0,0,72,75,132,100,22,120.72,261,0.00,0.00,-980.00
2024-06-07 01:02:53.272867,0,0,21,0,0,0,72,75,132,100,22,120.72,261,-24.00,21.00,-991.00
2024-06-07 01:02:53.374822,0,0,21,0,0,0,72,75,133,100,22,120.78,261,-31.00,17.00,-1005.00
2024-06-07 01:02:53.537626,0,0,21,0,0,0,72,75,133,100,22,120.69,261,-13.00,15.00,-992.00
2024-06-07 01:02:53.578799,0,0,21,0,0,0,72,75,132,100,22,120.76,262,-25.00,20.00,-973.00
2024-06-07 01:02:53.742435,0,0,21,0,0,0,72,75,132,100,22,120.77,262,-9.00,12.00,-987.00
2024-06-07 01:02:53.782895,0,0,21,0,0,0,72,75,132,100,22,120.75,262,-26.00,25.00,-1050.00
2024-06-07 01:02:53.948292,0,0,21,0,0,0,72,75,131,100,22,120.75,262,-35.00,15.00,-1002.00
2024-06-07 01:02:53.986854,0,0,21,0,0,0,72,75,131,100,22,120.74,262,-9.00,3.00,-1004.00
2024-06-07 01:02:54.153125,0,0,21,0,0,0,72,75,132,100,22,120.79,262,-15.00,19.00,-980.00
2024-06-07 01:02:54.190891,0,0,21,0,0,0,72,75,132,100,22,120.76,262,-5.00,17.00,-1023.00
2024-06-07 01:02:54.292832,0,0,21,0,0,0,72,75,132,100,22,120.83,262,-15.00,30.00,-1049.00
2024-06-07 01:02:54.394850,0,0,21,0,0,0,72,75,131,100,22,120.81,262,20.00,14.00,-1015.00
2024-06-07 01:02:54.496907,0,0,21,0,0,0,72,75,131,100,22,120.79,262,-8.00,18.00,-984.00
2024-06-07 01:02:54.664620,0,0,21,0,0,0,72,75,132,100,22,120.76,263,25.00,8.00,-965.00
2024-06-07 01:02:54.700792,0,0,21,0,0,0,72,75,132,100,22,120.79,263,-21.00,14.00,-1005.00
2024-06-07 01:02:54.802765,0,0,21,0,0,0,72,75,132,100,22,120.78,263,-17.00,25.00,-1001.00
2024-06-07 01:02:54.971496,0,0,21,0,0,0,72,75,132,100,22,120.76,263,-19.00,19.00,-1023.00
2024-06-07 01:02:54.971558,0,0,21,0,0,0,72,75,132,100,22,120.83,263,-26.00,31.00,-1032.00
2024-06-07 01:02:55.057806,0,0,21,0,0,0,72,75,132,100,22,120.81,263,-7.00,10.00,-1004.00
2024-06-07 01:02:55.176022,0,0,21,0,0,0,72,75,131,100,22,120.80,263,3.00,6.00,-989.00
2024-06-07 01:02:55.264559,0,0,21,0,0,0,72,75,131,100,22,120.77,263,-2.00,14.00,-1036.00
2024-06-07 01:02:55.364417,0,0,21,0,0,0,72,75,132,100,22,120.76,263,-39.00,21.00,-1003.00
2024-06-07 01:02:55.483380,0,0,21,0,0,0,72,75,131,100,22,120.77,263,-37.00,20.00,-1006.00
2024-06-07 01:02:55.567675,0,0,21,0,0,0,72,75,131,100,22,120.76,264,-5.00,4.00,-981.00
2024-06-07 01:02:55.688607,0,0,21,0,0,0,72,75,131,100,22,120.76,264,-8.00,19.00,-1015.00
2024-06-07 01:02:55.772164,0,0,21,0,0,0,72,75,131,100,22,120.76,264,-1.00,1.00,-992.00
2024-06-07 01:02:55.892784,0,0,21,0,0,0,72,75,131,100,22,120.81,264,-14.00,14.00,-1019.00
2024-06-07 01:02:55.975735,0,0,21,0,0,0,72,75,131,100,22,120.79,264,8.00,-7.00,-1003.00
2024-06-07 01:02:56.097548,0,0,21,0,0,0,72,75,131,100,22,120.77,264,24.00,-7.00,-996.00
2024-06-07 01:02:56.179564,0,0,21,0,0,0,72,75,131,100,22,120.75,264,1.00,12.00,-992.00
2024-06-07 01:02:56.302233,0,0,21,0,0,0,72,75,132,100,22,120.72,264,-3.00,6.00,-1064.00
2024-06-07 01:02:56.383498,0,0,21,0,0,0,72,75,132,100,22,120.73,264,6.00,13.00,-1008.00
2024-06-07 01:02:56.507586,0,0,21,0,0,0,72,75,132,100,22,120.75,264,-1.00,16.00,-967.00
2024-06-07 01:02:56.587549,0,0,21,0,0,0,72,75,132,100,22,120.77,265,20.00,0.00,-1010.00
2024-06-07 01:02:56.711929,0,0,21,0,0,0,72,74,132,100,22,120.74,265,-48.00,35.00,-1004.00
2024-06-07 01:02:56.791781,0,0,21,0,0,0,72,74,131,100,22,120.77,265,-6.00,11.00,-1001.00
2024-06-07 01:02:56.916689,0,0,21,0,0,0,72,74,131,100,22,120.80,265,-2.00,11.00,-997.00
2024-06-07 01:02:56.995605,0,0,21,0,0,0,72,74,132,100,22,120.79,265,21.00,9.00,-1006.00
2024-06-07 01:02:57.121435,0,0,21,0,0,0,72,74,132,100,22,120.70,265,-2.00,11.00,-1009.00
2024-06-07 01:02:57.199533,0,0,21,0,0,0,72,74,132,100,22,120.71,265,-16.00,17.00,-1004.00
2024-06-07 01:02:57.326700,0,0,21,0,0,0,72,74,132,100,22,120.71,265,0.00,8.00,-1001.00
2024-06-07 01:02:57.403769,0,0,21,0,0,0,72,74,132,100,22,120.74,265,-27.00,20.00,-1018.00
2024-06-07 01:02:57.531404,0,0,21,0,0,0,72,74,132,100,22,120.70,265,1.00,11.00,-999.00
2024-06-07 01:02:57.607551,0,0,21,0,0,0,72,74,131,100,22,120.75,266,-3.00,0.00,-1004.00
2024-06-07 01:02:57.735900,0,0,21,0,0,0,72,75,132,100,22,120.77,266,-6.00,13.00,-991.00
2024-06-07 01:02:57.811460,0,0,21,0,0,0,72,75,131,100,22,120.70,266,-4.00,0.00,-996.00
2024-06-07 01:02:57.940531,0,0,21,0,0,0,72,75,131,100,22,120.73,266,3.00,0.00,-986.00
2024-06-07 01:02:58.015498,0,0,21,0,0,0,72,75,131,100,22,120.76,266,-8.00,14.00,-1007.00
2024-06-07 01:02:58.146081,0,0,21,0,0,0,72,75,131,100,22,120.69,266,6.00,-5.00,-990.00
2024-06-07 01:02:58.221471,0,0,21,0,0,0,72,75,131,100,22,120.71,266,11.00,-7.00,-986.00
2024-06-07 01:02:58.321437,0,0,21,0,0,0,72,75,130,100,22,120.71,266,2.00,-12.00,-982.00
2024-06-07 01:02:58.423940,0,0,21,0,0,0,72,75,130,100,22,120.77,266,-17.00,13.00,-1005.00
2024-06-07 01:02:58.555774,0,0,21,0,0,0,72,75,130,100,22,120.70,266,-12.00,2.00,-993.00
2024-06-07 01:02:58.627373,0,0,21,0,0,0,72,75,130,100,22,120.72,267,-21.00,26.00,-993.00
2024-06-07 01:02:58.760355,0,0,21,0,0,0,71,74,130,100,22,120.74,267,9.00,0.00,-1009.00
2024-06-07 01:02:58.831471,0,0,21,0,0,0,71,74,130,100,22,120.74,267,5.00,16.00,-993.00
2024-06-07 01:02:58.964993,0,0,21,0,0,0,71,74,129,100,22,120.68,267,-16.00,4.00,-1018.00
2024-06-07 01:02:58.984305,0,0,21,0,0,0,71,74,129,100,22,120.78,267,2.00,7.00,-1021.00
2024-06-07 01:02:59.171423,0,0,21,0,0,0,71,74,130,100,22,120.79,267,6.00,0.00,-994.00
2024-06-07 01:02:59.188269,0,0,21,0,0,0,71,74,129,100,22,120.70,267,17.00,0.00,-983.00
2024-06-07 01:02:59.376476,0,0,21,0,0,0,71,74,129,100,22,120.72,267,-4.00,23.00,-999.00
2024-06-07 01:02:59.392558,0,0,21,0,0,0,71,74,130,100,22,120.70,267,18.00,-4.00,-934.00
2024-06-07 01:02:59.580070,0,0,21,0,0,0,71,74,130,100,22,120.72,267,39.00,-9.00,-998.00
2024-06-07 01:02:59.596409,0,0,21,0,0,0,71,74,130,100,22,120.73,268,21.00,-1.00,-1027.00
2024-06-07 01:02:59.784319,0,0,21,0,0,0,72,75,130,100,22,120.71,268,-8.00,1.00,-1032.00
2024-06-07 01:02:59.800461,0,0,21,0,0,0,72,75,130,100,22,120.77,268,-7.00,7.00,-980.00
2024-06-07 01:02:59.988666,0,0,21,0,0,0,72,75,130,100,22,120.74,268,-3.00,15.00,-992.00
2024-06-07 01:03:00.004186,0,0,21,0,0,0,72,75,131,100,22,120.77,268,-6.00,8.00,-992.00
2024-06-07 01:03:00.193364,0,0,21,0,0,0,72,75,130,100,22,120.76,268,-6.00,12.00,-989.00
2024-06-07 01:03:00.208137,0,0,21,0,0,0,72,75,131,100,22,120.82,268,-18.00,14.00,-1009.00
2024-06-07 01:03:00.398037,0,0,21,0,0,0,72,75,131,100,22,120.75,268,0.00,5.00,-1007.00
2024-06-07 01:03:00.412122,0,0,21,0,0,0,72,75,131,100,22,120.85,268,-3.00,13.00,-995.00
2024-06-07 01:03:00.514106,0,0,21,0,0,0,72,75,131,100,22,120.79,268,10.00,-12.00,-944.00
2024-06-07 01:03:00.617532,0,0,21,0,0,0,72,75,131,100,22,120.83,269,-1.00,-3.00,-1002.00
2024-06-07 01:03:00.808264,0,0,21,0,0,0,73,75,132,100,22,120.77,269,-6.00,3.00,-1002.00
2024-06-07 01:03:00.821424,0,0,21,0,0,0,73,75,131,100,22,120.75,269,-14.00,9.00,-995.00
2024-06-07 01:03:01.012437,0,0,21,0,0,0,73,75,132,100,22,120.76,269,-28.00,24.00,-956.00
2024-06-07 01:03:01.024291,0,0,21,0,0,0,73,75,131,100,22,120.72,269,22.00,-12.00,-979.00
2024-06-07 01:03:01.217235,0,0,21,0,0,0,73,75,131,100,22,120.71,269,9.00,-1.00,-981.00
2024-06-07 01:03:01.228464,0,0,21,0,0,0,73,75,131,100,22,120.74,269,-6.00,0.00,-1026.00
2024-06-07 01:03:01.422552,0,0,21,0,0,0,73,75,131,100,22,120.73,269,1.00,1.00,-999.00
2024-06-07 01:03:01.432267,0,0,21,0,0,0,73,75,130,100,22,120.71,269,-2.00,-4.00,-937.00
2024-06-07 01:03:01.626928,0,0,21,0,0,0,73,75,130,100,22,120.76,270,-24.00,13.00,-993.00
2024-06-07 01:03:01.636097,0,0,21,0,0,0,73,75,129,100,22,120.67,270,-5.00,5.00,-1008.00
2024-06-07 01:03:01.831780,0,0,21,0,0,0,72,73,129,100,22,120.69,270,7.00,-12.00,-988.00
2024-06-07 01:03:01.842044,0,0,21,0,0,0,72,73,129,100,22,120.58,270,-18.00,17.00,-1017.00
2024-06-07 01:03:01.942373,0,0,21,0,0,0,72,73,129,100,22,120.64,270,-15.00,17.00,-1010.00
2024-06-07 01:03:02.122893,0,0,21,0,0,0,72,73,129,100,22,120.71,270,-2.00,-4.00,-988.00
2024-06-07 01:03:02.146020,0,0,21,0,0,0,72,73,129,100,22,120.69,270,-17.00,-2.00,-1017.00
2024-06-07 01:03:02.548894,0,0,21,0,0,0,72,73,129,100,22,120.68,270,12.00,-12.00,-984.00
2024-06-07 01:03:02.640456,0,0,21,0,0,0,72,73,129,100,22,120.68,270,-24.00,23.00,-1002.00
2024-06-07 01:03:02.641047,0,0,21,0,0,0,72,73,129,100,22,120.68,270,1.00,0.00,-990.00
2024-06-07 01:03:02.641362,0,0,21,0,0,0,72,73,129,100,21,120.70,271,-11.00,13.00,-988.00
2024-06-07 01:03:02.655914,0,0,21,0,0,0,72,73,130,100,21,120.65,271,0.00,4.00,-973.00
2024-06-07 01:03:02.795240,0,0,21,0,0,0,72,74,130,100,21,120.70,271,-26.00,21.00,-965.00
2024-06-07 01:03:02.859885,0,0,21,0,0,0,72,74,130,100,21,120.70,271,16.00,0.00,-1019.00
2024-06-07 01:03:03.121044,0,0,21,0,0,0,72,74,130,100,21,120.65,271,21.00,-15.00,-1042.00
2024-06-07 01:03:03.121267,0,0,21,0,0,0,72,74,129,100,21,120.67,271,5.00,-19.00,-982.00
2024-06-07 01:03:03.174566,0,0,21,0,0,0,72,74,130,100,21,120.70,271,-13.00,26.00,-991.00
2024-06-07 01:03:03.267915,0,0,21,0,0,0,72,74,129,100,21,120.70,271,39.00,-9.00,-939.00
2024-06-07 01:03:03.391347,0,0,21,0,0,0,72,74,129,100,21,120.70,271,-6.00,21.00,-940.00
2024-06-07 01:03:03.583122,0,0,21,0,0,1,72,74,127,100,21,120.68,271,-3.00,3.00,-900.00
2024-06-07 01:03:03.583338,0,0,21,0,0,2,72,74,125,100,21,120.59,272,20.00,-7.00,-889.00
2024-06-07 01:03:03.726506,0,0,21,0,0,3,72,74,121,100,21,120.61,272,-7.00,15.00,-885.00
2024-06-07 01:03:03.726869,0,0,21,0,0,4,71,74,116,90,21,120.46,272,-9.00,8.00,-887.00
2024-06-07 01:03:03.890384,0,0,21,0,0,5,71,74,111,90,21,120.44,272,8.00,-28.00,-890.00
2024-06-07 01:03:04.033702,0,0,21,0,0,6,71,74,104,80,21,120.49,272,-33.00,8.00,-919.00
2024-06-07 01:03:04.033774,0,0,21,0,0,7,71,74,97,70,21,120.34,272,-24.00,32.00,-959.00
2024-06-07 01:03:04.200870,0,0,21,0,0,7,71,74,89,70,21,120.18,272,-16.00,-13.00,-980.00
2024-06-07 01:03:04.393998,0,0,21,0,0,7,71,74,82,60,21,120.22,272,3.00,0.00,-994.00
2024-06-07 01:03:04.438861,0,0,21,0,0,7,71,74,75,50,21,120.04,272,-47.00,7.00,-994.00
2024-06-07 01:03:04.440725,0,0,21,0,0,6,71,74,68,40,21,119.95,272,14.00,-9.00,-1056.00
