TS,pitch,roll,yaw,vgx,vgy,vgz,templ,temph,tof,h,bat,baro,time,agx,agy,agz
2024-06-07 01:04:53.436311,0,0,11,0,0,0,69,72,10,0,89,119.57,0,9.00,10.00,-1000.00
2024-06-07 01:04:53.441145,0,0,12,0,0,0,69,72,10,0,89,119.60,0,7.00,9.00,-1001.00
2024-06-07 01:04:53.636364,0,0,12,0,0,0,70,73,10,0,89,119.58,0,9.00,9.00,-1002.00
2024-06-07 01:04:53.673615,0,0,12,0,0,0,70,73,10,0,89,119.61,0,7.00,9.00,-999.00
2024-06-07 01:04:53.724925,0,0,12,0,0,0,70,73,10,0,89,119.57,0,8.00,10.00,-998.00
2024-06-07 01:04:53.841229,0,0,12,0,0,0,70,73,10,0,89,119.60,0,8.00,10.00,-998.00
2024-06-07 01:04:53.928954,0,0,12,0,0,0,70,73,10,0,89,119.62,0,8.00,8.00,-997.00
2024-06-07 01:04:54.047356,0,0,12,0,0,0,70,73,10,0,89,119.60,0,7.00,11.00,-998.00
2024-06-07 01:04:54.132930,0,0,12,0,0,0,70,73,10,0,89,119.64,0,9.00,10.00,-998.00
2024-06-07 01:04:54.256455,0,0,12,0,0,0,70,73,10,0,89,119.64,0,8.00,11.00,-1001.00
2024-06-07 01:04:54.336684,0,0,12,0,0,0,70,73,10,0,89,119.65,0,9.00,12.00,-1001.00
2024-06-07 01:04:54.455802,0,0,12,0,0,0,70,73,10,0,89,119.63,0,10.00,10.00,-997.00
2024-06-07 01:04:54.540685,0,0,12,0,0,0,70,73,10,0,89,119.66,0,9.00,10.00,-997.00
2024-06-07 01:04:54.642821,0,0,12,0,0,0,70,73,10,0,89,119.58,0,9.00,9.00,-998.00
2024-06-07 01:04:54.744735,0,0,12,0,0,0,70,73,10,0,89,119.63,0,8.00,11.00,-1003.00
2024-06-07 01:04:54.870669,0,0,12,0,0,0,70,73,10,0,89,119.63,0,9.00,11.00,-1001.00
2024-06-07 01:04:54.948754,0,0,12,0,0,0,70,73,10,0,89,119.66,0,8.00,11.00,-998.00
2024-06-07 01:04:55.075836,0,0,12,0,0,0,70,73,10,0,89,119.62,0,9.00,10.00,-997.00
2024-06-07 01:04:55.152687,0,0,12,0,0,0,70,73,10,0,89,119.64,0,8.00,11.00,-1000.00
2024-06-07 01:04:55.274869,0,0,12,0,0,0,70,73,10,0,89,119.57,0,8.00,10.00,-996.00
2024-06-07 01:04:55.356907,0,0,12,0,0,0,70,73,10,0,89,119.62,0,9.00,10.00,-999.00
2024-06-07 01:04:55.480383,0,0,12,0,0,0,70,73,10,0,89,119.68,0,8.00,12.00,-998.00
2024-06-07 01:04:55.562417,0,0,12,0,0,0,70,72,10,0,89,119.62,0,7.00,10.00,-997.00
2024-06-07 01:04:55.662828,0,0,12,0,0,0,70,72,10,0,89,119.67,0,9.00,11.00,-996.00
2024-06-07 01:04:55.764753,0,0,12,0,0,0,70,72,10,0,89,119.64,0,9.00,9.00,-999.00
2024-06-07 01:04:55.866722,0,0,12,0,0,0,70,72,10,0,89,119.65,0,10.00,10.00,-998.00
2024-06-07 01:04:55.992041,0,0,12,0,0,0,70,72,10,0,89,119.63,0,9.00,10.00,-999.00
2024-06-07 01:04:56.070673,0,0,12,0,0,0,70,72,10,0,89,119.62,0,8.00,12.00,-999.00
2024-06-07 01:04:56.201871,0,0,12,0,0,0,70,72,10,0,89,119.68,0,9.00,10.00,-1002.00
2024-06-07 01:04:56.276073,0,0,12,0,0,0,70,72,10,0,89,119.68,0,9.00,10.00,-997.00
2024-06-07 01:04:56.401174,0,0,12,0,0,0,70,72,10,0,89,119.68,0,7.00,10.00,-998.00
2024-06-07 01:04:56.478951,0,0,12,0,0,0,70,72,10,0,89,119.63,0,8.00,10.00,-999.00
2024-06-07 01:04:56.580825,0,0,12,0,0,0,70,71,10,0,89,119.65,0,10.00,10.00,-999.00
2024-06-07 01:04:56.683215,0,0,12,0,0,0,70,71,10,0,89,119.66,0,8.00,11.00,-1001.00
2024-06-07 01:04:56.810864,0,0,12,0,0,0,70,71,10,0,89,119.70,0,9.00,11.00,-1001.00
2024-06-07 01:04:56.888509,0,0,12,0,0,0,70,71,10,0,89,119.68,0,8.00,11.00,-998.00
2024-06-07 01:04:56.988979,0,0,12,0,0,0,70,71,10,0,89,119.60,0,9.00,9.00,-998.00
2024-06-07 01:04:57.041568,0,0,12,0,0,0,70,71,10,0,89,119.67,0,9.00,9.00,-998.00
2024-06-07 01:04:57.220414,0,0,12,0,0,0,70,71,10,0,89,119.63,0,10.00,10.00,-1000.00
2024-06-07 01:04:57.244515,0,0,12,0,0,0,70,71,10,0,89,119.65,0,8.00,10.00,-1000.00
2024-06-07 01:04:57.348587,0,0,12,0,0,0,70,71,10,0,89,119.67,0,9.00,9.00,-1001.00
2024-06-07 01:04:57.448775,0,0,12,0,0,0,70,71,10,0,89,119.65,0,5.00,6.00,-999.00
2024-06-07 01:04:57.630716,0,0,12,0,0,0,70,72,10,0,89,119.65,0,14.00,-3.00,-991.00
2024-06-07 01:04:57.652560,0,0,12,0,0,0,70,72,10,0,89,119.65,0,-27.00,1.00,-981.00
2024-06-07 01:04:57.835524,0,0,13,0,0,0,70,72,10,0,89,119.65,0,-36.00,45.00,-1035.00
2024-06-07 01:04:57.856544,0,0,14,0,0,0,70,72,10,0,89,119.65,0,36.00,-20.00,-1091.00
2024-06-07 01:04:58.039311,0,0,14,0,0,0,70,72,10,0,89,119.65,0,-1.00,16.00,-1220.00
2024-06-07 01:04:58.060232,0,0,14,0,0,-2,70,72,10,0,89,119.65,0,0.00,16.00,-1280.00
2024-06-07 01:04:58.163143,0,0,14,0,0,-5,70,72,16,0,89,119.72,0,60.00,-16.00,-1140.00
2024-06-07 01:04:58.350914,0,0,14,0,0,-7,70,72,24,0,89,119.90,0,4.00,9.00,-1081.00
2024-06-07 01:04:58.369425,0,0,14,0,0,-8,70,72,32,10,89,120.01,0,6.00,0.00,-1002.00
2024-06-07 01:04:58.468606,0,0,14,0,0,-8,70,72,40,20,89,120.07,1,-2.00,-2.00,-953.00
2024-06-07 01:04:58.657577,0,0,14,0,0,-7,71,73,47,20,89,120.15,1,2.00,1.00,-925.00
2024-06-07 01:04:58.672330,0,0,14,0,0,-6,71,73,55,30,89,120.21,1,-1.00,-4.00,-889.00
2024-06-07 01:04:58.774409,0,0,14,0,0,-5,71,73,59,40,89,120.29,1,16.00,0.00,-899.00
2024-06-07 01:04:58.966458,0,0,14,0,0,-4,71,73,65,40,89,120.36,1,-14.00,25.00,-889.00
2024-06-07 01:04:58.978231,0,0,14,0,0,-3,71,73,69,40,89,120.49,1,-2.00,-6.00,-896.00
2024-06-07 01:04:59.080218,0,0,14,0,0,-2,71,73,72,50,89,120.56,1,3.00,-7.00,-926.00
2024-06-07 01:04:59.268123,0,0,14,0,0,-1,71,73,74,50,89,120.47,1,-13.00,6.00,-956.00
2024-06-07 01:04:59.285640,0,0,14,0,0,0,71,73,77,50,89,120.54,1,-13.00,4.00,-968.00
2024-06-07 01:04:59.472898,0,0,14,0,0,0,71,73,78,50,89,120.53,1,-9.00,10.00,-1006.00
2024-06-07 01:04:59.488254,0,0,14,0,0,0,71,73,80,50,89,120.58,2,-22.00,12.00,-991.00
2024-06-07 01:04:59.677650,0,0,14,0,0,0,70,72,81,50,89,120.56,2,-2.00,-2.00,-1007.00
2024-06-07 01:04:59.692343,0,0,14,0,0,0,70,72,82,60,89,120.60,2,-31.00,1.00,-985.00
2024-06-07 01:04:59.882514,0,0,14,0,0,0,70,72,83,60,88,120.63,2,-10.00,-1.00,-976.00
2024-06-07 01:04:59.896295,0,0,14,0,0,0,70,72,85,60,88,120.61,2,-15.00,5.00,-989.00
2024-06-07 01:05:00.093041,0,0,14,0,0,0,70,72,86,60,88,120.57,2,17.00,1.00,-1002.00
2024-06-07 01:05:00.100195,0,0,14,0,0,0,70,72,86,60,88,120.66,2,17.00,0.00,-977.00
2024-06-07 01:05:00.202460,0,0,14,0,0,0,70,72,87,60,88,120.64,2,2.00,11.00,-975.00
2024-06-07 01:05:00.304210,0,0,14,0,0,0,70,72,88,60,88,120.63,2,-7.00,-7.00,-975.00
2024-06-07 01:05:00.407168,0,0,14,0,0,0,70,72,88,60,88,120.62,3,-1.00,0.00,-978.00
2024-06-07 01:05:00.508238,0,0,14,0,0,0,70,72,88,60,88,120.65,3,10.00,-3.00,-969.00
2024-06-07 01:05:00.703244,0,0,14,0,0,0,71,73,88,60,88,120.67,3,1.00,4.00,-1018.00
2024-06-07 01:05:00.712116,0,0,14,0,0,0,71,73,88,60,88,120.66,3,-12.00,11.00,-979.00
2024-06-07 01:05:00.767922,0,0,14,0,0,0,71,73,88,60,88,120.73,3,2.00,3.00,-988.00
2024-06-07 01:05:00.864958,0,0,14,0,0,0,71,73,87,60,88,120.64,3,11.00,2.00,-1008.00
2024-06-07 01:05:01.008872,0,0,14,0,0,0,71,73,86,60,88,120.64,3,-12.00,2.00,-991.00
2024-06-07 01:05:01.068882,0,0,14,0,0,0,71,73,86,60,88,120.64,3,-24.00,18.00,-1006.00
2024-06-07 01:05:01.182910,0,0,14,0,0,0,71,73,85,60,88,120.67,3,-8.00,2.00,-990.00
2024-06-07 01:05:01.272877,0,0,14,0,0,0,71,73,85,60,88,120.67,3,-5.00,5.00,-994.00
2024-06-07 01:05:01.418691,0,0,14,0,0,0,71,73,84,60,88,120.55,4,-7.00,18.00,-1006.00
2024-06-07 01:05:01.478538,0,0,14,0,0,0,71,73,83,60,88,120.60,4,8.00,1.00,-985.00
2024-06-07 01:05:01.579010,0,0,14,0,0,0,71,73,82,60,88,120.56,4,5.00,4.00,-1012.00
2024-06-07 01:05:01.681092,0,0,14,0,0,0,71,73,82,60,88,120.63,4,8.00,9.00,-1032.00
2024-06-07 01:05:01.782837,0,0,14,0,0,0,71,73,81,60,88,120.55,4,-24.00,11.00,-990.00
2024-06-07 01:05:01.930352,0,0,14,0,0,0,71,73,81,60,88,120.55,4,5.00,0.00,-1019.00
2024-06-07 01:05:01.986781,0,0,14,0,0,0,71,73,80,60,88,120.63,4,17.00,-1.00,-1003.00
2024-06-07 01:05:02.340419,0,0,14,0,0,0,71,73,80,60,88,120.68,4,1.00,4.00,-999.00
2024-06-07 01:05:02.414959,0,0,14,0,0,0,71,73,80,60,88,120.63,4,2.00,4.00,-991.00
2024-06-07 01:05:02.415047,0,0,14,0,0,0,71,73,79,60,88,120.52,4,9.00,8.00,-1028.00
2024-06-07 01:05:02.415350,0,0,14,0,0,0,71,73,79,60,88,120.52,5,6.00,-6.00,-1001.00
2024-06-07 01:05:02.496828,0,0,14,0,0,0,71,73,79,60,88,120.52,5,26.00,-8.00,-990.00
2024-06-07 01:05:02.599548,0,0,14,0,0,0,70,73,79,60,88,120.57,5,1.00,4.00,-1009.00
2024-06-07 01:05:02.757750,0,0,14,0,0,0,70,73,79,60,88,120.58,5,-9.00,5.00,-1024.00
2024-06-07 01:05:02.843041,0,0,14,0,0,0,70,73,79,60,88,120.54,5,-7.00,5.00,-1027.00
2024-06-07 01:05:02.941350,0,0,14,0,0,0,70,73,79,60,88,120.57,5,-22.00,12.00,-1033.00
2024-06-07 01:05:03.019116,0,0,14,0,0,0,70,73,80,60,88,120.57,5,-3.00,3.00,-1005.00
2024-06-07 01:05:03.152979,0,0,14,0,0,0,70,73,80,60,88,120.59,5,17.00,-1.00,-967.00
2024-06-07 01:05:03.255625,0,0,14,0,0,0,70,73,80,60,88,120.58,5,-7.00,10.00,-1027.00
2024-06-07 01:05:03.315977,0,0,14,0,0,0,70,73,81,60,88,120.61,5,11.00,2.00,-1013.00
2024-06-07 01:05:03.437974,0,0,14,0,0,0,70,73,81,60,88,120.64,6,3.00,1.00,-1026.00
2024-06-07 01:05:03.517910,0,0,14,0,0,0,70,73,81,60,88,120.56,6,47.00,-12.00,-1017.00
2024-06-07 01:05:03.684180,0,0,14,0,0,0,70,72,82,60,88,120.61,6,-27.00,14.00,-988.00
2024-06-07 01:05:03.825567,0,0,14,0,0,0,70,72,82,60,88,120.63,6,2.00,5.00,-985.00
2024-06-07 01:05:03.825766,0,0,14,0,0,0,70,72,82,60,88,120.61,6,-6.00,12.00,-1001.00
2024-06-07 01:05:03.989397,0,0,14,0,0,0,70,72,82,60,88,120.61,6,-13.00,9.00,-1008.00
2024-06-07 01:05:04.144602,0,0,14,0,0,0,70,72,81,60,88,120.64,6,-7.00,5.00,-1009.00
2024-06-07 01:05:04.144784,0,0,14,0,0,0,70,72,81,60,88,120.61,6,-6.00,14.00,-996.00
2024-06-07 01:05:04.230921,0,0,14,0,0,0,70,72,81,60,88,120.60,6,-8.00,5.00,-967.00
2024-06-07 01:05:04.387950,0,0,14,0,0,0,70,72,81,60,88,120.59,6,-9.00,12.00,-980.00
2024-06-07 01:05:04.388127,0,0,14,0,0,0,70,72,81,60,88,120.54,7,-13.00,17.00,-1016.00
2024-06-07 01:05:04.486578,0,0,14,0,0,0,70,72,80,60,88,120.57,7,-23.00,23.00,-990.00
2024-06-07 01:05:04.592890,0,0,14,0,0,0,69,72,80,60,88,120.58,7,-8.00,15.00,-1004.00
2024-06-07 01:05:04.740921,0,0,14,0,0,0,69,72,80,60,88,120.61,7,8.00,-2.00,-1005.00
2024-06-07 01:05:04.900612,0,0,14,0,0,0,69,72,80,60,88,120.52,7,14.00,1.00,-1008.00
2024-06-07 01:05:04.944679,0,0,14,0,0,0,69,72,80,60,88,120.54,7,12.00,4.00,-989.00
2024-06-07 01:05:04.995986,0,0,14,0,0,0,69,72,80,60,88,120.61,7,-3.00,10.00,-1004.00
2024-06-07 01:05:05.097977,0,0,14,0,0,0,69,72,80,60,88,120.62,7,-8.00,5.00,-996.00
2024-06-07 01:05:05.208121,0,0,14,0,0,0,69,72,80,60,88,120.59,7,37.00,4.00,-984.00
2024-06-07 01:05:05.303135,0,0,14,0,0,0,69,72,80,60,88,120.56,7,0.00,-1.00,-976.00
2024-06-07 01:05:05.404309,0,0,14,0,0,0,69,72,80,60,88,120.59,8,-16.00,10.00,-1001.00
2024-06-07 01:05:05.505946,0,0,14,0,0,0,69,72,80,60,88,120.58,8,-7.00,11.00,-993.00
2024-06-07 01:05:05.616669,0,0,14,0,0,0,70,72,80,60,88,120.62,8,1.00,6.00,-1045.00
2024-06-07 01:05:05.711217,0,0,14,0,0,0,70,72,81,60,88,120.63,8,5.00,4.00,-1084.00
2024-06-07 01:05:05.821795,0,0,14,0,0,-1,70,72,82,60,88,120.60,8,20.00,-14.00,-1145.00
2024-06-07 01:05:05.914226,0,0,14,0,0,-2,70,72,85,60,88,120.63,8,-12.00,2.00,-1089.00
2024-06-07 01:05:06.031851,0,0,14,0,0,-3,70,72,89,60,88,120.74,8,-3.00,8.00,-1076.00
2024-06-07 01:05:06.117820,0,0,14,0,0,-4,70,72,93,70,88,120.75,8,3.00,9.00,-1048.00
2024-06-07 01:05:06.231967,0,0,14,0,0,-4,70,72,97,70,88,120.86,8,-41.00,16.00,-1052.00
2024-06-07 01:05:06.321912,0,0,14,0,0,-5,70,72,103,80,88,120.80,8,-7.00,14.00,-1023.00
2024-06-07 01:05:06.435948,0,0,14,0,0,-5,70,72,108,80,88,120.87,9,-12.00,10.00,-986.00
2024-06-07 01:05:06.525738,0,0,14,0,0,-5,70,72,114,90,88,120.93,9,13.00,1.00,-1005.00
2024-06-07 01:05:06.646209,0,0,14,0,0,-5,70,72,119,90,88,120.99,9,-10.00,3.00,-997.00
2024-06-07 01:05:06.729634,0,0,14,0,0,-5,70,72,125,100,88,121.00,9,-6.00,7.00,-977.00
2024-06-07 01:05:06.845894,0,0,14,0,0,-5,70,72,130,110,88,121.08,9,-31.00,21.00,-1004.00
2024-06-07 01:05:06.933633,0,0,14,0,0,-5,70,72,136,110,88,121.20,9,8.00,9.00,-988.00
2024-06-07 01:05:07.035838,0,0,14,0,0,-4,70,72,141,120,88,121.20,9,-15.00,22.00,-982.00
2024-06-07 01:05:07.138153,0,0,14,0,0,-4,70,72,145,120,88,121.19,9,9.00,4.00,-982.00
2024-06-07 01:05:07.239655,0,0,14,0,0,-4,70,72,149,120,88,121.29,9,-25.00,14.00,-965.00
2024-06-07 01:05:07.357495,0,0,14,0,0,-3,70,72,153,130,88,121.29,9,-19.00,19.00,-976.00
2024-06-07 01:05:07.445572,0,0,14,0,0,-3,70,72,157,130,88,121.37,10,-2.00,-6.00,-959.00
2024-06-07 01:05:07.545665,0,0,14,0,0,-3,70,72,160,140,88,121.37,10,1.00,6.00,-966.00
2024-06-07 01:05:07.664638,0,0,14,0,0,-2,69,72,163,140,88,121.42,10,-14.00,4.00,-987.00
2024-06-07 01:05:07.749633,0,0,14,0,0,-2,69,72,166,140,88,121.44,10,-10.00,1.00,-951.00
2024-06-07 01:05:07.869343,0,0,14,0,0,-2,69,72,168,140,88,121.40,10,-4.00,12.00,-996.00
2024-06-07 01:05:07.953627,0,0,14,0,0,-2,69,72,171,150,88,121.46,10,2.00,9.00,-983.00
2024-06-07 01:05:08.056111,0,0,14,0,0,-1,69,72,173,150,88,121.43,10,6.00,-2.00,-967.00
2024-06-07 01:05:08.177106,0,0,14,0,0,-1,69,72,174,150,88,121.44,10,12.00,5.00,-983.00
2024-06-07 01:05:08.259584,0,0,14,0,0,-1,69,72,175,150,88,121.47,10,-8.00,-2.00,-985.00
2024-06-07 01:05:08.362477,0,0,14,0,0,-1,69,72,177,150,88,121.52,10,7.00,8.00,-952.00
2024-06-07 01:05:08.464805,0,0,14,0,0,0,69,72,178,150,88,121.57,11,0.00,3.00,-971.00
2024-06-07 01:05:08.515498,0,0,14,0,0,0,69,72,178,150,88,121.58,11,22.00,-9.00,-985.00
2024-06-07 01:05:08.693989,0,0,14,0,0,0,69,72,179,150,88,121.53,11,-12.00,0.00,-958.00
2024-06-07 01:05:08.719614,0,0,14,0,0,0,69,72,179,150,88,121.54,11,5.00,0.00,-982.00
2024-06-07 01:05:08.893795,0,0,14,0,0,0,69,72,178,150,88,121.57,11,-16.00,13.00,-1007.00
2024-06-07 01:05:08.923693,0,0,14,0,0,0,69,72,178,150,88,121.52,11,-18.00,14.00,-990.00
2024-06-07 01:05:09.098910,0,0,14,0,0,0,69,72,178,150,88,121.56,11,2.00,1.00,-996.00
2024-06-07 01:05:09.128362,0,0,14,0,0,0,69,72,178,150,88,121.53,11,-16.00,7.00,-1013.00
2024-06-07 01:05:09.303606,0,0,14,0,0,0,69,72,178,150,88,121.54,11,0.00,-8.00,-984.00
2024-06-07 01:05:09.332317,0,0,14,0,0,0,69,72,178,150,88,121.50,11,-5.00,1.00,-983.00
2024-06-07 01:05:09.507928,0,0,14,0,0,0,69,72,178,150,88,121.54,12,0.00,-4.00,-972.00
2024-06-07 01:05:09.536361,0,0,14,0,0,0,69,72,178,150,88,121.51,12,-13.00,6.00,-971.00
2024-06-07 01:05:09.712589,0,0,14,0,0,0,70,72,178,150,88,121.46,12,-13.00,16.00,-1011.00
2024-06-07 01:05:09.740295,0,0,14,0,0,0,70,72,178,150,88,121.56,12,-4.00,-4.00,-991.00
2024-06-07 01:05:09.922957,0,0,14,0,0,0,70,72,179,150,88,121.50,12,0.00,2.00,-1002.00
2024-06-07 01:05:09.944293,0,0,14,0,0,0,70,72,177,150,88,121.54,12,0.00,2.00,-1004.00
2024-06-07 01:05:10.123054,0,0,14,0,0,0,70,72,178,150,88,121.54,12,4.00,1.00,-1031.00
2024-06-07 01:05:10.148507,0,0,14,0,0,0,70,72,179,150,88,121.55,12,-6.00,17.00,-985.00
2024-06-07 01:05:10.250341,0,0,14,0,0,0,70,72,179,150,88,121.59,12,6.00,0.00,-996.00
2024-06-07 01:05:10.352898,0,0,14,0,0,0,70,72,179,150,88,121.57,12,19.00,-5.00,-983.00
2024-06-07 01:05:10.455608,0,0,14,0,0,0,70,72,178,150,88,121.59,13,6.00,-4.00,-957.00
2024-06-07 01:05:10.557635,0,0,14,0,0,0,70,72,178,150,88,121.53,13,3.00,4.00,-948.00
2024-06-07 01:05:10.658095,0,0,14,0,0,0,70,72,176,150,88,121.51,13,0.00,7.00,-930.00
2024-06-07 01:05:10.761574,0,0,14,0,0,1,70,72,175,150,88,121.49,13,-6.00,1.00,-947.00
2024-06-07 01:05:10.862630,0,0,14,0,0,1,70,72,173,150,88,121.50,13,0.00,5.00,-972.00
2024-06-07 01:05:10.964088,0,0,14,0,0,2,70,72,171,150,88,121.47,13,-44.00,24.00,-954.00
2024-06-07 01:05:11.147337,0,0,14,0,0,2,70,72,169,150,88,121.44,13,-26.00,19.00,-985.00
2024-06-07 01:05:11.168007,0,0,14,0,0,2,70,72,166,140,88,121.46,13,-1.00,0.00,-962.00
2024-06-07 01:05:11.350958,0,0,14,0,0,2,70,72,163,140,88,121.44,13,19.00,-6.00,-999.00
2024-06-07 01:05:11.372489,0,0,14,0,0,2,70,72,161,140,88,121.33,13,-6.00,12.00,-983.00
2024-06-07 01:05:11.555632,0,0,14,0,0,2,70,72,157,140,88,121.27,14,10.00,4.00,-1028.00
2024-06-07 01:05:11.576088,0,0,14,0,0,2,70,72,155,130,88,121.32,14,-25.00,21.00,-1024.00
2024-06-07 01:05:11.760610,0,0,14,0,0,2,69,71,153,130,88,121.32,14,-12.00,4.00,-1023.00
2024-06-07 01:05:11.779996,0,0,14,0,0,2,69,71,150,130,88,121.25,14,-18.00,24.00,-1053.00
2024-06-07 01:05:11.965165,0,0,14,0,0,2,69,71,148,130,88,121.27,14,0.00,0.00,-1018.00
2024-06-07 01:05:11.983948,0,0,14,0,0,2,69,71,147,120,88,121.29,14,-7.00,12.00,-1015.00
2024-06-07 01:05:12.170025,0,0,14,0,0,1,69,71,145,120,88,121.28,14,-10.00,0.00,-1022.00
2024-06-07 01:05:12.188004,0,0,14,0,0,1,69,71,143,120,88,121.31,14,-3.00,9.00,-991.00
2024-06-07 01:05:12.240696,0,0,14,0,0,1,69,71,141,120,88,121.17,14,-1.00,11.00,-1064.00
2024-06-07 01:05:12.374985,0,0,14,0,0,1,69,71,140,120,88,121.19,14,7.00,-8.00,-989.00
2024-06-07 01:05:12.443141,0,0,14,0,0,1,69,71,139,120,88,121.22,15,-1.00,7.00,-1007.00
2024-06-07 01:05:12.546731,0,0,14,0,0,1,69,71,138,110,88,121.20,15,21.00,-16.00,-1006.00
2024-06-07 01:05:12.682155,0,0,14,0,0,1,69,72,136,110,88,121.13,15,-34.00,28.00,-1045.00
2024-06-07 01:05:12.749236,0,0,14,0,0,1,69,72,134,110,88,121.09,15,5.00,-12.00,-1006.00
2024-06-07 01:05:12.886737,0,0,14,0,0,1,69,72,134,110,88,121.14,15,-19.00,13.00,-1032.00
2024-06-07 01:05:12.953217,0,0,14,0,0,0,69,72,133,110,88,121.13,15,-10.00,8.00,-1006.00
2024-06-07 01:05:13.059965,0,0,14,0,0,0,69,72,132,110,88,121.16,15,-1.00,2.00,-1009.00
2024-06-07 01:05:13.157394,0,0,14,0,0,0,69,72,132,110,88,121.18,15,-1.00,6.00,-1032.00
2024-06-07 01:05:13.297443,0,0,14,0,0,0,69,72,131,110,88,121.16,15,-34.00,8.00,-1005.00
2024-06-07 01:05:13.361420,0,0,14,0,0,0,69,72,132,110,88,121.12,15,-19.00,3.00,-1010.00
2024-06-07 01:05:13.501348,0,0,14,0,0,0,69,72,132,110,88,121.17,16,30.00,-6.00,-986.00
2024-06-07 01:05:13.565890,0,0,14,0,0,0,69,72,132,110,88,121.12,16,-26.00,8.00,-1015.00
2024-06-07 01:05:13.667178,0,0,14,0,0,0,69,72,132,110,88,121.13,16,-16.00,10.00,-1001.00
2024-06-07 01:05:13.769525,0,0,14,0,0,0,69,72,132,110,88,121.13,16,17.00,7.00,-979.00
2024-06-07 01:05:13.911587,0,0,14,0,0,0,69,72,132,110,88,121.16,16,6.00,-4.00,-987.00
2024-06-07 01:05:13.973186,0,0,14,0,0,0,69,72,132,110,88,121.11,16,-12.00,-5.00,-992.00
2024-06-07 01:05:14.115613,0,0,14,0,0,0,69,72,132,110,88,121.10,16,-3.00,7.00,-992.00
2024-06-07 01:05:14.177292,0,0,14,0,0,0,69,72,132,110,88,121.12,16,-14.00,19.00,-984.00
2024-06-07 01:05:14.279154,0,0,14,0,0,0,69,72,132,110,88,121.12,16,-11.00,0.00,-988.00
2024-06-07 01:05:14.381689,0,0,14,0,0,0,69,72,132,110,88,121.12,17,-20.00,22.00,-1021.00
2024-06-07 01:05:14.525599,0,0,14,0,0,0,69,72,132,110,88,121.11,17,0.00,-5.00,-1001.00
2024-06-07 01:05:14.587446,0,0,14,0,0,0,69,72,132,110,88,121.10,17,-11.00,2.00,-1004.00
2024-06-07 01:05:14.687215,0,0,14,0,0,0,69,72,132,110,88,121.19,17,10.00,-11.00,-945.00
2024-06-07 01:05:14.832336,0,0,14,0,0,0,69,72,132,110,88,121.15,17,-8.00,6.00,-999.00
2024-06-07 01:05:14.891158,0,0,14,0,0,0,69,72,132,110,88,121.17,17,0.00,5.00,-997.00
2024-06-07 01:05:15.006991,0,0,14,0,0,0,69,72,132,110,88,121.10,17,-5.00,5.00,-1022.00
2024-06-07 01:05:15.095374,0,0,14,0,0,0,69,72,132,110,88,121.09,17,23.00,-7.00,-1007.00
2024-06-07 01:05:15.241842,-3,0,14,0,0,0,69,72,132,110,88,121.12,17,-7.00,3.00,-1025.00
2024-06-07 01:05:15.298938,-7,0,14,1,0,0,69,72,132,110,88,121.05,17,5.00,-1.00,-999.00
2024-06-07 01:05:15.446648,-8,0,14,2,0,0,69,72,133,110,88,121.09,18,14.00,-6.00,-1011.00
2024-06-07 01:05:15.503334,-8,0,14,3,0,0,69,72,133,110,88,121.08,18,-8.00,-3.00,-1004.00
2024-06-07 01:05:15.651503,-8,0,14,4,1,0,69,72,133,110,88,121.05,18,6.00,-9.00,-997.00
2024-06-07 01:05:15.707020,-7,0,14,5,1,0,70,71,131,110,88,121.04,18,-52.00,12.00,-1017.00
2024-06-07 01:05:15.856294,-6,0,14,6,1,0,70,71,131,110,88,121.10,18,-54.00,14.00,-977.00
2024-06-07 01:05:15.911025,-5,0,14,7,1,0,70,71,132,110,88,121.02,18,-64.00,14.00,-995.00
2024-06-07 01:05:16.061011,-4,0,14,7,2,0,70,71,131,110,88,121.04,18,-56.00,19.00,-999.00
2024-06-07 01:05:16.114956,-2,0,14,7,2,0,70,71,131,110,88,121.04,18,-50.00,0.00,-996.00
2024-06-07 01:05:16.216989,0,0,14,7,1,0,70,71,131,110,88,120.95,18,-50.00,0.00,-976.00
2024-06-07 01:05:16.318999,3,0,14,6,1,0,70,71,131,110,88,121.05,18,-53.00,9.00,-972.00
2024-06-07 01:05:16.470671,4,0,14,5,1,0,70,71,131,110,88,121.03,19,-42.00,6.00,-1012.00
2024-06-07 01:05:16.522935,3,0,14,4,1,0,70,71,130,110,88,121.08,19,-33.00,5.00,-1002.00
2024-06-07 01:05:16.573568,2,0,14,3,0,0,70,71,130,110,88,121.11,19,-24.00,8.00,-1002.00
2024-06-07 01:05:16.726887,0,0,14,3,0,0,69,72,130,110,88,121.06,19,-45.00,24.00,-991.00
2024-06-07 01:05:16.777740,0,0,14,2,0,0,69,72,130,110,88,121.08,19,-9.00,3.00,-998.00
2024-06-07 01:05:16.880227,0,-1,14,2,0,0,69,72,130,110,88,121.11,19,-10.00,-5.00,-1004.00
2024-06-07 01:05:16.982650,0,-1,14,2,0,0,69,72,130,110,88,121.13,19,-17.00,9.00,-995.00
2024-06-07 01:05:17.085310,0,-1,14,2,0,0,69,72,130,110,88,121.12,19,-20.00,7.00,-986.00
2024-06-07 01:05:17.202503,0,0,14,2,0,0,69,72,130,110,88,121.03,19,22.00,2.00,-1043.00
2024-06-07 01:05:17.344960,0,0,14,2,0,0,69,72,130,110,88,121.10,19,-28.00,19.00,-1021.00
2024-06-07 01:05:17.389628,2,0,14,1,0,0,69,72,130,110,88,121.06,20,-27.00,30.00,-1005.00
2024-06-07 01:05:17.528777,3,0,14,1,0,0,69,72,130,110,88,121.10,20,-35.00,27.00,-1012.00
2024-06-07 01:05:17.653814,1,0,14,0,0,0,69,72,130,110,88,121.08,20,-11.00,11.00,-1010.00
2024-06-07 01:05:17.696966,0,0,14,0,0,0,69,72,130,110,88,121.15,20,-30.00,21.00,-1020.00
2024-06-07 01:05:17.851336,0,0,14,0,0,0,69,72,130,110,88,121.09,20,-26.00,22.00,-1014.00
2024-06-07 01:05:17.905762,0,0,14,0,0,0,69,72,131,110,88,121.07,20,9.00,11.00,-999.00
2024-06-07 01:05:18.002957,0,0,14,0,0,0,69,72,131,110,88,121.15,20,-37.00,40.00,-993.00
2024-06-07 01:05:18.204991,0,0,14,0,0,0,69,72,131,110,88,121.12,20,8.00,-10.00,-935.00
2024-06-07 01:05:18.206797,0,0,14,0,0,0,69,72,131,110,88,121.12,20,1.00,4.00,-980.00
2024-06-07 01:05:18.312075,0,0,14,0,0,0,69,72,131,110,88,121.22,20,3.00,11.00,-996.00
2024-06-07 01:05:18.494383,0,0,14,0,0,0,69,72,131,110,88,121.13,21,10.00,-5.00,-986.00
2024-06-07 01:05:18.512860,0,0,14,0,0,0,69,72,131,110,88,121.17,21,28.00,0.00,-983.00
2024-06-07 01:05:18.622670,0,0,14,0,0,0,69,72,131,110,88,121.18,21,9.00,4.00,-998.00
2024-06-07 01:05:18.736748,0,0,14,0,0,0,69,71,131,110,88,121.15,21,7.00,11.00,-1003.00
2024-06-07 01:05:18.879383,0,0,14,0,0,0,69,71,131,110,88,121.13,21,-7.00,13.00,-1030.00
2024-06-07 01:05:18.921623,0,0,14,0,0,0,69,71,131,110,88,121.17,21,5.00,12.00,-1005.00
2024-06-07 01:05:19.042547,0,0,14,0,0,0,69,71,132,110,88,121.17,21,-18.00,30.00,-1070.00
2024-06-07 01:05:19.185038,0,0,14,0,0,0,69,71,131,110,88,121.17,21,-9.00,11.00,-983.00
2024-06-07 01:05:19.227533,0,0,14,0,0,0,69,71,131,110,88,121.16,21,10.00,2.00,-985.00
2024-06-07 01:05:19.349191,0,0,14,0,0,0,69,71,131,110,88,121.18,21,-1.00,7.00,-987.00
2024-06-07 01:05:19.440241,0,0,14,0,0,0,69,71,131,110,88,121.12,22,5.00,7.00,-1016.00
2024-06-07 01:05:19.534181,0,0,14,0,0,0,69,71,131,110,88,121.16,22,-4.00,6.00,-1017.00
2024-06-07 01:05:19.645310,0,0,14,0,0,0,69,71,131,110,88,121.23,22,-1.00,9.00,-1005.00
2024-06-07 01:05:19.737373,0,0,14,0,0,0,69,71,131,110,88,121.18,22,-6.00,9.00,-992.00
2024-06-07 01:05:19.860109,1,0,14,0,0,0,69,71,132,110,88,121.13,22,31.00,12.00,-995.00
2024-06-07 01:05:19.941343,6,0,14,0,0,0,69,71,132,110,88,121.12,22,-10.00,4.00,-1011.00
2024-06-07 01:05:20.054498,8,0,14,-1,0,0,69,71,134,110,88,121.15,22,6.00,9.00,-1002.00
2024-06-07 01:05:20.145301,8,0,14,-3,0,0,69,71,133,110,88,121.24,22,4.00,16.00,-1027.00
2024-06-07 01:05:20.259879,8,0,14,-4,-1,0,69,71,132,110,88,121.13,22,58.00,-7.00,-1003.00
2024-06-07 01:05:20.298691,7,0,14,-5,-1,0,69,71,133,110,88,121.13,22,27.00,12.00,-1022.00
2024-06-07 01:05:20.465170,6,0,14,-6,-1,0,69,71,132,110,88,121.15,23,51.00,9.00,-989.00
2024-06-07 01:05:20.502831,5,0,14,-7,-1,0,69,71,132,110,88,121.13,23,47.00,4.00,-964.00
2024-06-07 01:05:20.668818,4,0,14,-7,-2,0,69,71,132,110,88,121.12,23,61.00,-18.00,-990.00
2024-06-07 01:05:20.707274,1,0,14,-7,-2,0,69,72,132,110,88,121.16,23,28.00,5.00,-1004.00
2024-06-07 01:05:20.873860,-1,0,14,-7,-1,0,69,72,131,110,88,121.14,23,47.00,2.00,-1000.00
2024-06-07 01:05:20.910462,-3,0,14,-6,-1,0,69,72,131,110,88,121.18,23,41.00,8.00,-1003.00
2024-06-07 01:05:21.078409,-4,0,14,-5,-1,0,69,72,131,110,88,121.17,23,37.00,-8.00,-983.00
2024-06-07 01:05:21.114403,-4,0,14,-4,-1,0,69,72,131,110,88,121.18,23,38.00,1.00,-991.00
2024-06-07 01:05:21.283741,-2,0,14,-3,-1,0,69,72,131,110,88,121.14,23,17.00,-10.00,-1014.00
2024-06-07 01:05:21.318429,-1,1,14,-3,0,0,69,72,132,110,88,121.25,23,6.00,16.00,-1000.00
2024-06-07 01:05:21.487999,0,1,14,-2,0,0,69,72,131,110,88,121.21,24,26.00,-13.00,-1013.00
2024-06-07 01:05:21.522779,0,0,14,-2,0,0,69,72,132,110,88,121.20,24,37.00,2.00,-1035.00
2024-06-07 01:05:21.693700,0,0,14,-2,0,0,69,72,132,110,88,121.14,24,0.00,-1.00,-1017.00
2024-06-07 01:05:21.726420,0,0,14,-2,0,0,69,72,133,110,88,121.19,24,11.00,-17.00,-1023.00
2024-06-07 01:05:21.898252,0,0,14,-2,0,0,69,72,133,110,88,121.22,24,13.00,-14.00,-993.00
2024-06-07 01:05:21.930502,-1,0,14,-2,0,0,69,72,134,110,88,121.16,24,34.00,-11.00,-999.00
2024-06-07 01:05:22.109044,-5,-1,14,-1,0,0,69,72,134,110,88,121.25,24,12.00,19.00,-994.00
2024-06-07 01:05:22.134316,-2,0,14,0,0,0,69,72,135,110,88,121.22,24,5.00,20.00,-1004.00
2024-06-07 01:05:22.236547,-1,0,14,0,0,0,69,72,136,110,88,121.22,24,-11.00,22.00,-975.00
2024-06-07 01:05:22.338502,0,0,14,0,0,0,69,72,136,110,88,121.21,24,7.00,-7.00,-1035.00
2024-06-07 01:05:22.511950,0,0,14,0,0,0,69,72,136,110,88,121.22,25,5.00,-1.00,-1003.00
2024-06-07 01:05:22.542700,0,0,14,0,0,0,69,72,137,110,88,121.20,25,-23.00,7.00,-947.00
2024-06-07 01:05:22.718074,0,0,14,0,0,0,69,72,137,110,88,121.24,25,9.00,2.00,-982.00
2024-06-07 01:05:22.746621,0,0,14,0,0,0,69,71,138,110,88,121.31,25,2.00,7.00,-1013.00
2024-06-07 01:05:22.922385,0,0,14,0,0,0,69,71,138,110,88,121.23,25,3.00,8.00,-1031.00
2024-06-07 01:05:22.950435,0,0,14,0,0,0,69,71,138,110,88,121.20,25,2.00,17.00,-1008.00
2024-06-07 01:05:23.127435,0,0,14,0,0,0,69,71,139,110,88,121.26,25,0.00,1.00,-974.00
2024-06-07 01:05:23.154348,0,0,14,0,0,0,69,71,139,110,88,121.23,25,11.00,-2.00,-987.00
2024-06-07 01:05:23.331354,0,0,14,0,0,0,69,71,140,110,88,121.35,25,16.00,-11.00,-965.00
2024-06-07 01:05:23.358282,0,0,14,0,0,0,69,71,140,110,88,121.26,25,4.00,-9.00,-1029.00
2024-06-07 01:05:23.536231,0,0,14,0,0,0,69,71,139,110,88,121.23,26,-12.00,15.00,-1029.00
2024-06-07 01:05:23.562508,0,0,14,0,0,0,69,71,139,110,88,121.16,26,11.00,5.00,-976.00
2024-06-07 01:05:23.664364,0,0,14,0,0,0,69,71,138,110,88,121.14,26,31.00,0.00,-971.00
2024-06-07 01:05:23.766367,0,0,14,0,0,0,69,72,138,110,88,121.21,26,17.00,-12.00,-989.00
2024-06-07 01:05:23.868388,0,0,14,0,0,0,69,72,137,110,88,121.23,26,3.00,13.00,-1020.00
2024-06-07 01:05:23.970280,0,0,14,0,0,0,69,72,136,110,88,121.16,26,18.00,-17.00,-1012.00
2024-06-07 01:05:24.111969,0,0,14,0,0,0,69,72,136,110,88,121.16,26,2.00,13.00,-994.00
2024-06-07 01:05:24.176235,0,0,14,0,0,0,69,72,135,110,88,121.16,26,5.00,6.00,-1018.00
2024-06-07 01:05:24.276186,0,0,14,0,0,0,69,72,135,110,88,121.16,26,-6.00,31.00,-958.00
2024-06-07 01:05:24.326918,0,-4,14,0,0,0,69,72,134,110,88,121.22,26,19.00,-8.00,-1022.00
2024-06-07 01:05:24.429024,0,-8,14,0,-1,0,69,72,134,110,88,121.19,27,-1.00,13.00,-1019.00
2024-06-07 01:05:24.561607,0,-7,14,0,-2,0,69,72,133,110,88,121.25,27,9.00,19.00,-1057.00
2024-06-07 01:05:24.632958,0,-4,14,0,-3,0,69,72,133,110,88,121.28,27,2.00,21.00,-1009.00
2024-06-07 01:05:24.764667,0,-2,14,0,-3,0,69,72,133,110,88,121.27,27,22.00,14.00,-999.00
2024-06-07 01:05:24.836950,0,0,14,1,-3,0,69,72,134,110,88,121.18,27,3.00,22.00,-982.00
2024-06-07 01:05:24.969451,0,1,14,1,-3,0,69,72,133,110,88,121.24,27,18.00,19.00,-1045.00
2024-06-07 01:05:25.041215,0,0,14,1,-3,0,69,72,134,110,88,121.29,27,11.00,2.00,-989.00
2024-06-07 01:05:25.174197,0,0,14,0,-2,0,69,72,134,110,88,121.29,27,28.00,0.00,-983.00
2024-06-07 01:05:25.245058,0,0,14,0,-2,0,69,72,134,110,88,121.29,27,2.00,5.00,-1007.00
2024-06-07 01:05:25.379826,0,0,14,0,-2,0,69,72,135,110,88,121.24,27,6.00,16.00,-1016.00
2024-06-07 01:05:25.448843,0,0,14,0,-2,0,69,72,134,110,88,121.23,28,6.00,17.00,-1021.00
2024-06-07 01:05:25.585119,0,0,14,0,-2,0,69,72,134,110,88,121.13,28,22.00,0.00,-1010.00
2024-06-07 01:05:25.652913,1,0,14,0,-2,0,69,72,135,110,88,121.22,28,16.00,6.00,-989.00
2024-06-07 01:05:25.789114,0,0,14,0,-2,0,69,72,134,110,88,121.13,28,2.00,11.00,-1005.00
2024-06-07 01:05:25.857327,0,1,14,0,-2,0,69,72,134,110,88,121.17,28,3.00,3.00,-1017.00
2024-06-07 01:05:25.958931,0,2,14,0,-2,0,69,72,135,110,88,121.27,28,-6.00,7.00,-1009.00
2024-06-07 01:05:26.095869,0,4,14,0,-1,0,69,72,134,110,88,121.22,28,-2.00,2.00,-1004.00
2024-06-07 01:05:26.162888,0,2,14,0,0,0,69,72,134,110,88,121.16,28,-4.00,-5.00,-963.00
2024-06-07 01:05:26.300756,0,1,14,0,0,0,69,72,134,110,88,121.22,28,4.00,-3.00,-1004.00
2024-06-07 01:05:26.367826,0,0,14,0,0,0,69,72,133,110,88,121.26,28,-8.00,5.00,-1004.00
2024-06-07 01:05:26.505548,0,0,14,0,0,0,69,72,133,110,88,121.24,29,10.00,1.00,-1013.00
2024-06-07 01:05:26.570884,0,0,14,0,0,0,69,72,133,110,88,121.18,29,-8.00,1.00,-1027.00
2024-06-07 01:05:26.712843,0,0,14,0,0,0,69,72,133,110,88,121.21,29,26.00,-13.00,-1003.00
2024-06-07 01:05:26.775091,0,0,14,0,0,0,69,71,133,110,88,121.24,29,15.00,-21.00,-974.00
2024-06-07 01:05:26.876899,0,0,14,0,0,0,69,71,134,110,88,121.23,29,0.00,4.00,-1014.00
2024-06-07 01:05:26.978930,0,0,14,0,0,0,69,71,133,110,88,121.26,29,-2.00,1.00,-1001.00
2024-06-07 01:05:27.080863,0,0,14,0,0,0,69,71,133,110,88,121.26,29,2.00,-5.00,-974.00
2024-06-07 01:05:27.222353,0,0,14,0,0,0,69,71,134,110,88,121.22,29,1.00,9.00,-1046.00
2024-06-07 01:05:27.286905,0,0,14,0,0,0,69,71,134,110,88,121.13,29,-16.00,-13.00,-986.00
2024-06-07 01:05:27.386769,0,0,14,0,0,0,69,71,134,110,88,121.19,29,-1.00,-6.00,-939.00
2024-06-07 01:05:27.529838,0,0,14,0,0,0,69,71,134,110,88,121.13,30,-23.00,-1.00,-968.00
2024-06-07 01:05:27.590868,0,0,14,0,0,0,69,71,134,110,88,121.15,30,-2.00,-9.00,-994.00
2024-06-07 01:05:27.734462,0,0,14,0,0,0,69,71,134,110,88,121.21,30,4.00,-3.00,-1007.00
2024-06-07 01:05:27.795146,0,0,14,0,0,0,69,71,134,110,88,121.21,30,1.00,5.00,-1013.00
2024-06-07 01:05:27.896926,0,0,14,0,0,0,69,71,134,110,88,121.14,30,8.00,4.00,-997.00
2024-06-07 01:05:28.000690,0,0,14,0,0,0,69,71,134,110,88,121.20,30,10.00,7.00,-1026.00
2024-06-07 01:05:28.100704,0,0,14,0,0,0,69,71,134,110,88,121.21,30,-2.00,0.00,-1001.00
2024-06-07 01:05:28.152107,0,0,14,0,0,0,69,71,133,110,88,121.12,30,-11.00,7.00,-1000.00
2024-06-07 01:05:28.254504,0,4,14,0,0,0,69,71,134,110,88,121.16,30,-3.00,-2.00,-1048.00
2024-06-07 01:05:28.356940,0,8,14,0,1,0,69,71,134,110,88,121.10,31,0.00,17.00,-1010.00
2024-06-07 01:05:28.558603,0,7,14,0,2,0,69,71,133,110,88,121.12,31,-7.00,-12.00,-1017.00
2024-06-07 01:05:28.561798,0,4,14,0,3,0,69,71,132,110,88,121.17,31,22.00,-21.00,-1010.00
2024-06-07 01:05:28.662604,0,1,14,0,3,0,69,71,131,110,88,121.21,31,6.00,-29.00,-1009.00
2024-06-07 01:05:28.764007,0,0,14,0,3,0,70,72,131,110,88,121.10,31,7.00,-25.00,-1011.00
2024-06-07 01:05:28.962803,0,-1,14,0,3,0,70,72,131,110,88,121.07,31,16.00,-33.00,-1010.00
2024-06-07 01:05:28.968296,0,0,14,0,3,0,70,72,131,110,88,121.15,31,-1.00,-15.00,-1020.00
2024-06-07 01:05:29.069822,0,0,14,0,2,0,70,72,130,110,88,121.21,31,10.00,-28.00,-1008.00
2024-06-07 01:05:29.171859,0,0,14,0,2,0,70,72,131,110,88,121.17,31,12.00,-20.00,-991.00
2024-06-07 01:05:29.273819,0,0,14,0,2,0,70,72,131,110,88,121.19,31,16.00,-21.00,-1007.00
2024-06-07 01:05:29.375812,0,0,14,0,2,0,70,72,131,110,88,121.15,32,-31.00,12.00,-981.00
2024-06-07 01:05:29.477764,-1,0,14,0,2,0,70,72,131,110,88,121.13,32,31.00,-38.00,-1006.00
2024-06-07 01:05:29.580060,0,0,14,0,2,0,70,72,131,110,88,121.11,32,24.00,-14.00,-1013.00
2024-06-07 01:05:29.681816,0,0,14,0,2,0,70,72,130,110,88,121.21,32,-16.00,0.00,-1028.00
2024-06-07 01:05:29.783866,0,0,14,0,2,0,70,72,131,110,88,121.18,32,5.00,-10.00,-995.00
2024-06-07 01:05:29.987033,0,-1,14,0,2,0,70,72,130,110,88,121.11,32,10.00,-23.00,-1019.00
2024-06-07 01:05:29.987385,1,-4,14,0,1,0,70,72,130,110,88,121.18,32,4.00,-19.00,-999.00
2024-06-07 01:05:30.089694,0,-2,14,0,0,0,70,72,130,110,88,121.21,32,-6.00,-1.00,-1002.00
2024-06-07 01:05:30.192063,0,-1,14,0,0,0,70,72,130,110,88,121.15,32,0.00,-21.00,-1022.00
2024-06-07 01:05:30.294046,0,0,14,0,0,0,70,72,130,110,88,121.19,32,-6.00,-10.00,-1022.00
2024-06-07 01:05:30.398241,0,0,14,0,0,0,70,72,130,110,88,121.21,33,4.00,-3.00,-1023.00
2024-06-07 01:05:30.498636,0,0,14,0,0,0,70,72,130,110,88,121.21,33,11.00,-16.00,-1031.00
2024-06-07 01:05:30.601125,0,0,14,0,0,0,70,72,131,110,88,121.14,33,2.00,0.00,-1006.00
2024-06-07 01:05:30.703809,0,0,14,0,0,0,70,72,131,110,88,121.15,33,-37.00,8.00,-1033.00
2024-06-07 01:05:30.804390,0,0,14,0,0,0,70,72,131,110,88,121.14,33,6.00,-12.00,-994.00
2024-06-07 01:05:30.905810,0,0,14,0,0,0,70,72,131,110,88,121.24,33,6.00,0.00,-994.00
2024-06-07 01:05:31.011458,0,0,14,0,0,0,70,72,131,110,88,121.21,33,17.00,-10.00,-1002.00
2024-06-07 01:05:31.109821,0,0,14,0,0,0,70,72,131,110,88,121.30,33,13.00,2.00,-1031.00
2024-06-07 01:05:31.215890,0,0,14,0,0,0,70,72,131,110,88,121.28,33,-4.00,4.00,-997.00
2024-06-07 01:05:31.313958,0,0,14,0,0,0,70,72,131,110,88,121.18,33,-6.00,1.00,-983.00
2024-06-07 01:05:31.420701,0,0,14,0,0,0,70,72,131,110,88,121.18,34,14.00,-10.00,-996.00
2024-06-07 01:05:31.517771,0,0,14,0,0,0,70,72,131,110,88,121.11,34,11.00,-7.00,-999.00
2024-06-07 01:05:31.619935,0,0,14,0,0,0,70,72,131,110,88,121.15,34,6.00,-8.00,-1005.00
2024-06-07 01:05:31.727851,0,0,14,0,0,0,70,72,131,110,88,121.18,34,19.00,-6.00,-1025.00
2024-06-07 01:05:31.823969,0,0,14,0,0,0,69,72,131,110,88,121.14,34,13.00,0.00,-1013.00
2024-06-07 01:05:31.932423,0,0,14,0,0,0,69,72,131,110,88,121.20,34,10.00,-20.00,-995.00
2024-06-07 01:05:32.137724,0,0,14,0,0,0,69,72,131,110,88,121.24,34,-8.00,-10.00,-998.00
2024-06-07 01:05:32.258168,0,0,14,0,0,0,69,72,131,110,88,121.22,34,32.00,-6.00,-961.00
2024-06-07 01:05:32.258454,0,0,14,0,0,0,69,72,131,110,88,121.16,34,0.00,-8.00,-991.00
2024-06-07 01:05:32.282320,0,0,14,0,0,0,69,72,131,110,88,121.14,34,27.00,-28.00,-989.00
2024-06-07 01:05:32.384327,0,0,15,0,0,0,69,72,130,110,88,121.13,35,41.00,-9.00,-978.00
2024-06-07 01:05:32.528993,0,0,21,0,0,0,69,72,131,110,88,121.15,35,45.00,-29.00,-1009.00
2024-06-07 01:05:32.588295,0,0,27,0,0,0,69,72,130,110,88,121.15,35,0.00,-31.00,-977.00
2024-06-07 01:05:32.700595,0,0,33,0,0,0,69,72,130,110,88,121.15,35,0.00,-6.00,-1004.00
2024-06-07 01:05:32.792199,0,0,39,0,0,0,70,72,130,110,88,121.13,35,1.00,-11.00,-974.00
2024-06-07 01:05:32.894423,0,0,45,0,0,0,70,72,130,110,88,121.16,35,-4.00,-7.00,-1024.00
2024-06-07 01:05:33.059089,0,0,51,0,0,0,70,72,129,110,88,121.21,35,-15.00,12.00,-1025.00
2024-06-07 01:05:33.162014,0,0,57,0,0,0,70,72,130,110,88,121.17,35,-6.00,5.00,-1016.00
2024-06-07 01:05:33.213070,0,0,63,0,0,0,70,72,130,110,88,121.17,35,-7.00,-15.00,-1005.00
2024-06-07 01:05:33.302279,0,0,69,0,0,0,70,72,129,110,88,121.20,35,-13.00,5.00,-1011.00
2024-06-07 01:05:33.479192,0,0,74,0,0,0,70,72,129,110,88,121.19,36,2.00,-15.00,-994.00
2024-06-07 01:05:33.622530,0,0,81,0,0,0,70,72,129,110,88,121.14,36,-16.00,6.00,-978.00
2024-06-07 01:05:33.623828,0,0,86,0,0,0,70,72,130,110,88,121.20,36,-13.00,-14.00,-991.00
2024-06-07 01:05:33.791834,-1,0,92,0,0,0,70,72,130,110,88,121.19,36,-27.00,13.00,-1024.00
2024-06-07 01:05:33.812111,-1,0,98,0,0,0,70,72,130,110,88,121.17,36,-13.00,-4.00,-1009.00
2024-06-07 01:05:33.935001,0,0,104,0,0,0,70,72,130,110,88,121.22,36,-35.00,0.00,-999.00
2024-06-07 01:05:34.098822,0,0,110,0,0,0,70,72,130,110,88,121.21,36,-10.00,6.00,-1012.00
2024-06-07 01:05:34.118198,0,0,116,0,0,0,70,72,131,110,88,121.23,36,-45.00,27.00,-1043.00
2024-06-07 01:05:34.252917,0,0,122,0,0,0,70,72,131,110,88,121.21,36,-9.00,-3.00,-977.00
2024-06-07 01:05:34.322117,0,0,128,0,0,0,70,72,132,110,88,121.15,36,-17.00,-7.00,-971.00
2024-06-07 01:05:34.492335,-1,0,134,0,0,0,70,72,132,110,88,121.18,37,-18.00,0.00,-1001.00
2024-06-07 01:05:34.526444,0,0,140,0,0,0,70,72,132,110,88,121.15,37,-2.00,-2.00,-1004.00
2024-06-07 01:05:34.628119,0,0,146,0,0,0,70,72,132,110,88,121.21,37,-14.00,3.00,-995.00
2024-06-07 01:05:34.730211,0,0,152,0,0,0,70,72,132,110,88,121.18,37,10.00,-2.00,-984.00
2024-06-07 01:05:34.832136,0,0,158,0,0,0,70,71,133,110,88,121.20,37,-7.00,-2.00,-988.00
2024-06-07 01:05:34.934154,0,0,164,0,0,0,70,71,132,110,88,121.14,37,-6.00,3.00,-1016.00
2024-06-07 01:05:35.036135,0,0,170,0,0,0,70,71,133,110,88,121.20,37,15.00,-10.00,-1012.00
2024-06-07 01:05:35.209941,0,0,176,0,0,0,70,71,133,110,88,121.23,37,-14.00,15.00,-1016.00
2024-06-07 01:05:35.240068,0,0,-177,0,0,0,70,71,133,110,88,121.26,37,-15.00,0.00,-995.00
2024-06-07 01:05:35.413822,0,0,-171,0,0,0,70,71,133,110,88,121.28,37,-5.00,9.00,-986.00
2024-06-07 01:05:35.443983,0,0,-165,0,0,0,70,71,133,110,88,121.24,38,13.00,-1.00,-1022.00
2024-06-07 01:05:35.618572,0,0,-159,0,0,0,70,71,133,110,88,121.22,38,27.00,-2.00,-998.00
2024-06-07 01:05:35.647878,0,0,-153,0,0,0,70,71,133,110,88,121.18,38,-18.00,19.00,-978.00
2024-06-07 01:05:35.823607,0,0,-146,0,0,0,70,71,133,110,88,121.26,38,1.00,12.00,-996.00
2024-06-07 01:05:35.852000,0,0,-140,0,0,0,71,72,133,110,88,121.23,38,-15.00,18.00,-1010.00
2024-06-07 01:05:36.029100,0,0,-134,0,0,0,71,72,133,110,88,121.31,38,-6.00,13.00,-1019.00
2024-06-07 01:05:36.056056,0,0,-128,0,0,0,71,72,133,110,88,121.26,38,-7.00,13.00,-995.00
2024-06-07 01:05:36.233011,0,0,-122,0,0,0,71,72,133,110,88,121.27,38,-20.00,19.00,-1005.00
2024-06-07 01:05:36.259984,0,0,-116,0,0,0,71,72,133,110,88,121.24,38,-6.00,16.00,-1004.00
2024-06-07 01:05:36.311737,0,0,-110,0,0,0,71,72,133,110,88,121.24,38,9.00,2.00,-992.00
2024-06-07 01:05:36.437835,0,0,-103,0,0,0,71,72,133,110,88,121.28,39,9.00,12.00,-1003.00
2024-06-07 01:05:36.517427,0,0,-98,0,0,0,71,72,133,110,88,121.28,39,-12.00,21.00,-990.00
2024-06-07 01:05:36.617736,0,0,-91,0,0,0,71,72,133,110,88,121.22,39,-6.00,8.00,-986.00
2024-06-07 01:05:36.719602,0,0,-85,0,0,0,71,72,133,110,88,121.35,39,-17.00,30.00,-1013.00
2024-06-07 01:05:36.847791,0,0,-79,0,0,0,70,72,133,110,88,121.27,39,0.00,13.00,-1001.00
2024-06-07 01:05:36.923352,0,0,-73,0,0,0,70,72,133,110,88,121.28,39,-5.00,24.00,-1027.00
2024-06-07 01:05:37.052972,0,0,-67,0,0,0,70,72,133,110,88,121.31,39,21.00,7.00,-994.00
2024-06-07 01:05:37.127216,0,0,-61,0,0,0,70,72,133,110,88,121.18,39,-1.00,10.00,-986.00
2024-06-07 01:05:37.229831,0,0,-55,0,0,0,70,72,133,110,88,121.26,39,27.00,7.00,-991.00
2024-06-07 01:05:37.331208,0,0,-49,0,0,0,70,72,133,110,88,121.26,39,-15.00,14.00,-1002.00
2024-06-07 01:05:37.433116,0,0,-42,0,0,0,70,72,133,110,88,121.30,40,12.00,18.00,-1024.00
2024-06-07 01:05:37.564164,0,0,-36,0,0,0,70,72,133,110,88,121.22,40,0.00,25.00,-997.00
2024-06-07 01:05:37.637071,0,0,-30,0,0,0,70,72,132,110,88,121.25,40,0.00,7.00,-1008.00
2024-06-07 01:05:37.769726,0,0,-25,0,0,0,70,72,132,110,88,121.23,40,2.00,29.00,-1004.00
2024-06-07 01:05:37.841124,0,0,-19,0,0,0,70,71,133,110,88,121.27,40,53.00,-11.00,-958.00
2024-06-07 01:05:37.974314,0,0,-13,0,0,0,70,71,132,110,88,121.26,40,13.00,8.00,-1009.00
2024-06-07 01:05:38.045192,0,0,-7,0,0,0,70,71,133,110,88,121.26,40,7.00,13.00,-997.00
2024-06-07 01:05:38.179537,0,0,-2,0,0,0,70,71,132,110,88,121.32,40,9.00,7.00,-1016.00
2024-06-07 01:05:38.249119,0,0,1,0,0,0,70,71,132,110,88,121.18,40,-19.00,10.00,-1005.00
2024-06-07 01:05:38.386885,0,0,4,0,0,0,70,71,132,110,88,121.29,40,11.00,15.00,-1057.00
2024-06-07 01:05:38.454954,0,0,7,0,0,0,70,71,132,110,88,121.25,41,-8.00,19.00,-993.00
2024-06-07 01:05:38.555132,0,0,8,0,0,0,70,71,131,110,88,121.29,41,-20.00,7.00,-956.00
2024-06-07 01:05:38.657071,0,0,10,0,0,0,70,71,132,110,88,121.34,41,4.00,4.00,-973.00
2024-06-07 01:05:38.792913,0,0,11,0,0,0,70,71,131,110,88,121.23,41,4.00,1.00,-1004.00
2024-06-07 01:05:38.861353,0,0,12,0,0,0,70,71,132,110,88,121.26,41,11.00,10.00,-1042.00
2024-06-07 01:05:38.998675,0,0,12,0,0,0,70,71,132,110,88,121.18,41,-4.00,7.00,-990.00
2024-06-07 01:05:39.065537,0,0,12,0,0,0,70,71,131,110,88,121.28,41,21.00,11.00,-1047.00
2024-06-07 01:05:39.202590,0,0,12,0,0,0,70,71,132,110,88,121.25,41,-26.00,11.00,-1001.00
2024-06-07 01:05:39.269101,0,0,12,0,0,0,70,71,132,110,88,121.24,41,18.00,11.00,-1008.00
2024-06-07 01:05:39.407413,0,0,12,0,0,0,70,71,132,110,88,121.21,41,-1.00,17.00,-1002.00
2024-06-07 01:05:39.473052,0,0,12,0,0,0,70,71,133,110,88,121.26,42,20.00,-5.00,-977.00
2024-06-07 01:05:39.612624,0,0,12,0,0,0,70,71,132,110,88,121.25,42,10.00,6.00,-976.00
2024-06-07 01:05:39.676791,0,0,12,0,0,0,70,71,132,110,88,121.22,42,6.00,0.00,-999.00
2024-06-07 01:05:39.820647,0,0,12,0,0,0,70,71,132,110,88,121.23,42,12.00,19.00,-1033.00
2024-06-07 01:05:39.881052,0,0,12,0,0,0,70,72,132,110,88,121.35,42,11.00,6.00,-993.00
2024-06-07 01:05:40.021727,0,0,12,0,0,0,70,72,132,110,88,121.28,42,14.00,0.00,-981.00
2024-06-07 01:05:40.085101,0,0,12,0,0,0,70,72,132,110,88,121.20,42,-9.00,2.00,-961.00
2024-06-07 01:05:40.226533,0,0,12,0,0,0,70,72,132,110,88,121.26,42,-1.00,-3.00,-974.00
2024-06-07 01:05:40.237748,0,0,12,0,0,0,70,72,132,110,88,121.22,42,6.00,7.00,-1001.00
2024-06-07 01:05:40.431421,0,0,12,0,0,0,70,72,132,110,88,121.33,42,-2.00,9.00,-987.00
2024-06-07 01:05:40.442934,0,0,12,0,0,0,70,72,132,110,88,121.25,43,-9.00,10.00,-998.00
2024-06-07 01:05:40.638891,0,0,12,0,0,0,70,72,131,110,88,121.25,43,2.00,6.00,-1002.00
2024-06-07 01:05:40.645807,0,0,12,0,0,0,70,72,132,110,88,121.26,43,-8.00,29.00,-1019.00
2024-06-07 01:05:40.841166,0,0,12,0,0,0,70,72,132,110,88,121.19,43,-1.00,14.00,-1016.00
2024-06-07 01:05:40.849919,0,0,12,0,0,0,69,72,132,110,88,121.30,43,31.00,-2.00,-985.00
2024-06-07 01:05:40.951987,0,0,12,0,0,0,69,72,132,110,88,121.24,43,-31.00,10.00,-1006.00
2024-06-07 01:05:41.055336,0,0,11,0,0,0,69,72,132,110,88,121.25,43,8.00,-9.00,-990.00
2024-06-07 01:05:41.155904,0,0,5,0,0,0,69,72,132,110,88,121.25,43,5.00,8.00,-965.00
2024-06-07 01:05:41.257935,0,0,0,0,0,0,69,72,132,110,88,121.28,43,27.00,-1.00,-995.00
2024-06-07 01:05:41.455184,0,0,-7,0,0,0,69,72,132,110,88,121.30,43,3.00,5.00,-1007.00
2024-06-07 01:05:41.464057,0,0,-13,0,0,0,69,72,131,110,88,121.24,44,34.00,-4.00,-1048.00
2024-06-07 01:05:41.563619,0,0,-19,0,0,0,69,72,132,110,88,121.28,44,10.00,7.00,-1012.00
2024-06-07 01:05:41.665451,0,0,-25,0,0,0,69,72,132,110,88,121.28,44,0.00,13.00,-990.00
2024-06-07 01:05:41.864777,0,0,-31,0,0,0,69,72,132,110,87,121.23,44,1.00,15.00,-973.00
2024-06-07 01:05:41.869479,0,0,-43,0,0,0,70,71,132,110,87,121.20,44,-17.00,17.00,-994.00
2024-06-07 01:05:42.069548,0,0,-49,0,0,0,70,71,131,110,87,121.24,44,-1.00,4.00,-1005.00
2024-06-07 01:05:42.073472,0,0,-55,0,0,0,70,71,132,110,87,121.24,44,-20.00,17.00,-1001.00
2024-06-07 01:05:42.175484,0,0,-60,0,0,0,70,71,132,110,87,121.28,44,-4.00,20.00,-1026.00
2024-06-07 01:05:42.277501,0,0,-66,0,0,0,70,71,131,110,87,121.23,44,4.00,19.00,-997.00
2024-06-07 01:05:42.379393,0,0,-72,0,0,0,70,71,132,110,87,121.24,45,-10.00,18.00,-979.00
2024-06-07 01:05:42.481758,0,0,-78,0,0,0,70,71,132,110,87,121.29,45,-19.00,22.00,-989.00
2024-06-07 01:05:42.583508,0,0,-83,0,0,0,70,71,132,110,87,121.32,45,10.00,9.00,-976.00
2024-06-07 01:05:42.685475,0,0,-89,0,0,0,70,71,132,110,87,121.28,45,-8.00,19.00,-996.00
2024-06-07 01:05:42.888744,0,0,-95,0,0,0,70,71,132,110,87,121.32,45,-5.00,6.00,-985.00
2024-06-07 01:05:42.889466,0,0,-101,0,0,0,70,72,132,110,87,121.34,45,-41.00,39.00,-990.00
2024-06-07 01:05:42.991373,0,0,-106,0,0,0,70,72,132,110,87,121.29,45,10.00,6.00,-990.00
2024-06-07 01:05:43.094711,0,0,-112,0,0,0,70,72,132,110,87,121.26,45,49.00,-1.00,-1025.00
2024-06-07 01:05:43.195524,0,0,-118,0,0,0,70,72,132,110,87,121.24,45,2.00,0.00,-1006.00
2024-06-07 01:05:43.299353,0,0,-124,0,0,0,70,72,132,110,87,121.30,45,-17.00,21.00,-1017.00
2024-06-07 01:05:43.400366,0,0,-130,0,0,0,70,72,132,110,87,121.28,46,0.00,9.00,-1008.00
2024-06-07 01:05:43.503788,0,0,-136,0,0,0,70,72,132,110,87,121.29,46,9.00,-8.00,-955.00
2024-06-07 01:05:43.603848,0,0,-142,0,0,0,70,72,132,110,87,121.24,46,1.00,3.00,-993.00
2024-06-07 01:05:43.705356,0,0,-148,0,0,0,70,72,132,110,87,121.27,46,-24.00,26.00,-981.00
2024-06-07 01:05:43.811766,0,0,-154,0,0,0,70,72,132,110,87,121.25,46,-29.00,31.00,-999.00
2024-06-07 01:05:43.909311,0,0,-160,0,0,0,70,72,132,110,87,121.24,46,-7.00,17.00,-1012.00
2024-06-07 01:05:44.015088,0,0,-166,0,0,0,70,72,132,110,87,121.32,46,18.00,-5.00,-971.00
2024-06-07 01:05:44.062607,0,0,-171,0,0,0,70,72,132,110,87,121.27,46,11.00,-3.00,-952.00
2024-06-07 01:05:44.219959,0,0,-177,0,0,0,70,72,133,110,87,121.30,46,-33.00,31.00,-1014.00
2024-06-07 01:05:44.267210,0,0,176,0,0,0,70,72,132,110,87,121.29,46,-27.00,21.00,-993.00
2024-06-07 01:05:44.424667,0,0,170,0,0,0,70,72,133,110,87,121.31,47,31.00,9.00,-1069.00
2024-06-07 01:05:44.470217,0,0,164,0,0,0,70,72,134,110,87,121.31,47,-16.00,10.00,-1005.00
2024-06-07 01:05:44.630466,0,0,158,0,0,0,70,72,133,110,87,121.26,47,-8.00,3.00,-987.00
2024-06-07 01:05:44.674201,0,0,152,0,0,0,70,72,134,110,87,121.24,47,17.00,-7.00,-979.00
2024-06-07 01:05:44.835401,0,0,146,0,0,0,70,72,133,110,87,121.29,47,-19.00,24.00,-1010.00
2024-06-07 01:05:44.878685,0,0,140,0,0,0,70,72,133,110,87,121.27,47,-16.00,11.00,-1004.00
2024-06-07 01:05:45.040641,0,0,134,0,0,0,70,72,133,110,87,121.29,47,-5.00,14.00,-1036.00
2024-06-07 01:05:45.082215,-1,0,128,0,0,0,70,72,133,110,87,121.23,47,-15.00,2.00,-976.00
2024-06-07 01:05:45.245142,-1,0,122,0,0,0,70,72,132,110,87,121.27,47,-47.00,18.00,-982.00
2024-06-07 01:05:45.286143,0,0,116,0,0,0,70,72,132,110,87,121.29,47,15.00,-16.00,-948.00
2024-06-07 01:05:45.448624,0,0,110,0,0,0,70,72,132,110,87,121.29,48,-28.00,20.00,-1011.00
2024-06-07 01:05:45.490152,0,0,104,0,0,0,70,72,132,110,87,121.31,48,-13.00,16.00,-1038.00
2024-06-07 01:05:45.653389,0,0,98,0,0,0,70,72,132,110,87,121.25,48,-4.00,0.00,-1021.00
2024-06-07 01:05:45.697780,0,0,92,0,0,0,70,72,132,110,87,121.25,48,-47.00,11.00,-944.00
2024-06-07 01:05:45.796433,0,0,86,0,0,0,70,72,132,110,87,121.30,48,-8.00,0.00,-999.00
2024-06-07 01:05:45.961739,0,0,80,0,0,0,71,72,132,110,87,121.27,48,31.00,-3.00,-1016.00
2024-06-07 01:05:46.000495,0,0,74,0,0,0,71,72,131,110,87,121.30,48,30.00,-9.00,-1006.00
2024-06-07 01:05:46.165406,0,0,68,0,0,0,71,72,131,110,87,121.31,48,-13.00,15.00,-1000.00
2024-06-07 01:05:46.204140,0,0,62,0,0,0,71,72,131,110,87,121.25,48,10.00,-3.00,-1020.00
2024-06-07 01:05:46.370724,0,0,56,0,0,0,71,72,131,110,87,121.26,48,-11.00,-3.00,-998.00
2024-06-07 01:05:46.408097,0,0,50,0,0,0,71,72,131,110,87,121.23,49,26.00,-17.00,-976.00
2024-06-07 01:05:46.583745,0,0,44,0,0,0,71,72,130,110,87,121.27,49,-22.00,14.00,-997.00
2024-06-07 01:05:46.612377,0,0,38,0,0,0,71,72,130,110,87,121.27,49,-13.00,6.00,-961.00
2024-06-07 01:05:46.780912,0,0,32,0,0,0,71,72,130,110,87,121.31,49,-14.00,9.00,-1013.00
2024-06-07 01:05:46.817792,0,0,27,0,0,0,71,72,130,110,87,121.27,49,4.00,-4.00,-975.00
2024-06-07 01:05:46.984599,0,0,23,0,0,0,69,71,131,110,87,121.27,49,6.00,0.00,-1007.00
2024-06-07 01:05:47.021274,0,0,20,0,0,0,69,71,130,110,87,121.22,49,-8.00,-4.00,-987.00
2024-06-07 01:05:47.122362,0,0,18,0,0,0,69,71,131,110,87,121.15,49,-3.00,-15.00,-1024.00
2024-06-07 01:05:47.272548,0,0,17,0,0,0,69,71,130,110,87,121.26,49,17.00,1.00,-1002.00
2024-06-07 01:05:47.354505,0,0,15,0,0,0,69,71,131,110,87,121.22,49,-34.00,19.00,-1015.00
2024-06-07 01:05:47.457804,0,0,14,0,0,0,69,71,131,110,87,121.25,50,8.00,-5.00,-992.00
2024-06-07 01:05:47.479166,0,0,14,0,0,0,69,71,131,110,87,121.19,50,13.00,0.00,-1007.00
2024-06-07 01:05:47.785402,0,0,14,0,0,0,69,71,131,110,87,121.18,50,-28.00,-4.00,-984.00
2024-06-07 01:05:47.785610,0,0,14,0,0,0,69,71,130,110,87,121.20,50,10.00,-13.00,-993.00
2024-06-07 01:05:47.786437,0,0,14,0,0,0,69,71,131,110,86,121.22,50,-9.00,11.00,-1008.00
2024-06-07 01:05:47.999367,0,0,14,0,0,0,69,72,130,110,86,121.26,50,-29.00,12.00,-1006.00
2024-06-07 01:05:48.040953,0,0,14,0,0,0,69,72,131,110,86,121.26,50,-1.00,0.00,-990.00
2024-06-07 01:05:48.092717,0,0,14,0,0,0,69,72,131,110,86,121.19,50,16.00,-9.00,-988.00
2024-06-07 01:05:48.224295,0,0,14,0,0,0,69,72,131,110,86,121.26,50,-17.00,8.00,-996.00
2024-06-07 01:05:48.367648,0,0,14,0,0,0,69,72,130,110,86,121.24,50,1.00,0.00,-966.00
2024-06-07 01:05:48.398434,0,0,14,0,0,0,69,72,130,110,86,121.26,51,-9.00,7.00,-1001.00
2024-06-07 01:05:48.531493,0,0,14,0,0,0,69,72,130,110,86,121.25,51,-21.00,3.00,-1014.00
2024-06-07 01:05:48.675051,0,0,14,0,0,0,69,72,130,110,86,121.20,51,-8.00,0.00,-1002.00
2024-06-07 01:05:48.703975,0,0,14,0,0,0,69,72,130,110,86,121.15,51,-1.00,0.00,-971.00
2024-06-07 01:05:48.838823,0,0,14,0,0,0,69,72,131,110,86,121.23,51,-19.00,10.00,-1056.00
2024-06-07 01:05:48.981920,0,0,14,0,0,0,70,72,131,110,86,121.26,51,-5.00,-5.00,-985.00
2024-06-07 01:05:49.009952,0,0,14,0,0,0,70,72,131,110,86,121.29,51,5.00,2.00,-1000.00
2024-06-07 01:05:49.145940,0,0,14,0,0,0,70,72,131,110,86,121.28,51,11.00,-1.00,-1007.00
2024-06-07 01:05:49.289116,0,0,14,0,0,0,70,72,131,110,86,121.27,51,-2.00,0.00,-1002.00
2024-06-07 01:05:49.316189,0,0,14,0,0,0,70,72,131,110,86,121.27,51,5.00,-12.00,-975.00
2024-06-07 01:05:49.453020,0,0,14,0,0,0,70,72,131,110,86,121.20,52,-24.00,18.00,-991.00
2024-06-07 01:05:49.596316,0,0,14,0,0,0,70,72,131,110,86,121.19,52,0.00,5.00,-1005.00
2024-06-07 01:05:49.622609,0,0,14,0,0,0,70,72,131,110,86,121.23,52,-1.00,4.00,-975.00
2024-06-07 01:05:49.761297,0,0,14,0,0,0,70,72,131,110,86,121.27,52,-9.00,9.00,-1092.00
2024-06-07 01:05:49.954345,0,0,14,0,0,-4,70,72,135,110,86,121.36,52,26.00,18.00,-1699.00
2024-06-07 01:05:49.980792,0,-12,14,0,0,-10,70,71,151,120,86,121.49,52,45.00,142.00,-1287.00
2024-06-07 01:05:50.029665,0,-106,14,1,-5,-10,70,71,629,130,86,121.65,52,-21.00,606.00,-1051.00
2024-06-07 01:05:50.165054,1,131,14,2,-9,4,70,71,226,130,86,121.61,52,-6.00,510.00,-888.00
2024-06-07 01:05:50.233808,1,21,12,1,-3,12,70,71,155,120,86,121.59,52,0.00,203.00,-1480.00
2024-06-07 01:05:50.336106,0,-3,11,0,-3,10,70,71,138,110,86,121.27,52,15.00,-18.00,-1370.00
2024-06-07 01:05:50.465954,0,2,12,0,-3,6,70,71,132,100,86,121.23,53,53.00,25.00,-1373.00
2024-06-07 01:05:50.539630,0,2,13,0,-2,3,70,71,129,100,86,121.23,53,3.00,2.00,-1321.00
2024-06-07 01:05:50.641765,0,1,13,0,-1,0,70,71,129,100,86,121.17,53,-20.00,18.00,-1160.00
2024-06-07 01:05:50.773181,0,0,14,0,-1,0,70,71,131,100,86,121.14,53,16.00,9.00,-1109.00
2024-06-07 01:05:50.846529,0,0,14,0,0,-1,70,71,133,100,86,121.26,53,26.00,6.00,-1045.00
2024-06-07 01:05:50.977890,0,0,14,0,0,-1,70,71,135,100,86,121.23,53,8.00,11.00,-1026.00
2024-06-07 01:05:51.049996,0,1,14,0,0,-1,70,71,138,100,86,121.25,53,-1.00,3.00,-1010.00
2024-06-07 01:05:51.182818,0,1,14,0,0,0,70,71,139,100,86,121.37,53,5.00,13.00,-996.00
2024-06-07 01:05:51.254746,0,0,14,0,0,0,70,71,141,110,86,121.34,53,-6.00,18.00,-930.00
2024-06-07 01:05:51.387487,0,0,14,0,0,0,70,71,142,110,86,121.32,53,-10.00,21.00,-947.00
2024-06-07 01:05:51.458738,0,0,14,0,0,0,70,71,141,110,86,121.38,54,-12.00,21.00,-972.00
2024-06-07 01:05:51.592745,0,0,14,0,0,0,70,71,142,110,86,121.31,54,-5.00,0.00,-1010.00
2024-06-07 01:05:51.612380,0,0,14,0,0,0,70,71,142,110,86,121.28,54,5.00,-8.00,-967.00
2024-06-07 01:05:51.714994,0,0,14,0,0,0,70,71,141,110,85,121.25,54,5.00,4.00,-966.00
2024-06-07 01:05:51.815705,0,0,14,0,0,0,70,71,141,110,85,121.25,54,3.00,21.00,-1029.00
2024-06-07 01:05:51.918023,0,0,14,0,0,0,70,73,140,110,85,121.24,54,-3.00,7.00,-995.00
2024-06-07 01:05:52.104398,0,0,14,0,0,0,70,73,140,110,85,121.28,54,0.00,12.00,-984.00
2024-06-07 01:05:52.121575,0,0,14,0,0,0,70,73,138,110,85,121.28,54,-15.00,-4.00,-956.00
2024-06-07 01:05:52.314267,0,0,14,0,0,0,70,73,138,110,85,121.31,54,8.00,8.00,-1002.00
2024-06-07 01:05:52.325601,0,0,14,0,0,0,70,73,138,110,85,121.29,54,-9.00,10.00,-1015.00
2024-06-07 01:05:52.513822,0,0,14,0,0,0,70,73,136,110,85,121.24,55,-10.00,-3.00,-1005.00
2024-06-07 01:05:52.529526,0,0,14,0,0,0,70,73,135,110,85,121.28,55,14.00,6.00,-1027.00
2024-06-07 01:05:52.719899,0,0,14,0,0,0,70,73,135,110,85,121.19,55,-13.00,1.00,-983.00
2024-06-07 01:05:52.733664,0,0,14,0,0,0,70,73,135,110,85,121.16,55,-8.00,13.00,-991.00
2024-06-07 01:05:52.929913,0,0,14,0,0,0,70,73,135,110,85,121.20,55,4.00,6.00,-1007.00
2024-06-07 01:05:52.937856,0,0,14,0,0,0,70,73,134,110,85,121.22,55,34.00,-1.00,-1017.00
2024-06-07 01:05:53.040135,0,0,14,0,0,0,70,73,134,110,85,121.25,55,42.00,-15.00,-1060.00
2024-06-07 01:05:53.141578,0,0,14,0,0,0,70,73,134,110,85,121.22,55,31.00,-13.00,-1044.00
2024-06-07 01:05:53.243624,0,0,14,0,0,0,70,73,135,110,85,121.19,55,7.00,3.00,-1026.00
2024-06-07 01:05:53.435971,0,0,14,0,0,0,70,73,134,110,85,121.23,55,-21.00,6.00,-991.00
2024-06-07 01:05:53.447647,0,0,14,0,0,0,70,73,134,110,85,121.19,56,-44.00,29.00,-1031.00
2024-06-07 01:05:53.635130,0,0,14,0,0,0,70,73,134,110,85,121.29,56,16.00,1.00,-993.00
2024-06-07 01:05:53.651523,0,0,14,0,0,0,70,73,135,110,85,121.21,56,5.00,-6.00,-973.00
2024-06-07 01:05:53.845276,0,0,14,0,0,0,70,73,135,110,85,121.26,56,-16.00,18.00,-1043.00
2024-06-07 01:05:53.855584,0,0,14,0,0,0,70,73,134,110,85,121.23,56,9.00,-3.00,-1003.00
2024-06-07 01:05:54.049869,0,0,14,0,0,0,70,72,134,110,85,121.24,56,-9.00,9.00,-991.00
2024-06-07 01:05:54.059551,0,0,14,0,0,0,70,72,135,110,85,121.26,56,12.00,-6.00,-993.00
2024-06-07 01:05:54.254734,0,0,14,0,0,0,70,72,134,110,85,121.20,56,15.00,-8.00,-997.00
2024-06-07 01:05:54.263433,0,0,14,0,0,0,70,72,134,110,85,121.23,56,18.00,-9.00,-987.00
2024-06-07 01:05:54.459627,0,0,14,0,0,0,70,72,134,110,85,121.20,56,7.00,-4.00,-979.00
2024-06-07 01:05:54.467660,0,0,14,0,0,0,70,72,134,110,85,121.26,57,17.00,-6.00,-1022.00
2024-06-07 01:05:54.604400,0,0,14,0,0,0,70,72,134,110,85,121.22,57,5.00,0.00,-1010.00
2024-06-07 01:05:54.672359,0,0,14,0,0,0,70,72,134,110,85,121.24,57,7.00,0.00,-1005.00
2024-06-07 01:05:54.869168,0,0,14,0,0,0,70,72,134,110,85,121.22,57,2.00,-8.00,-988.00
2024-06-07 01:05:54.876140,0,0,14,0,0,0,70,72,133,110,85,121.26,57,-4.00,-9.00,-974.00
2024-06-07 01:05:55.073940,0,0,14,0,0,0,70,73,134,110,85,121.27,57,0.00,-12.00,-983.00
2024-06-07 01:05:55.079541,0,0,14,0,0,0,70,73,134,110,85,121.22,57,-9.00,4.00,-1014.00
2024-06-07 01:05:55.283785,0,0,14,0,0,0,70,73,134,110,85,121.21,57,-6.00,14.00,-1040.00
2024-06-07 01:05:55.283952,0,0,14,0,0,0,70,73,133,110,85,121.21,57,10.00,-7.00,-994.00
2024-06-07 01:05:55.385394,0,0,14,0,0,0,70,73,133,110,85,121.28,57,0.00,0.00,-1014.00
2024-06-07 01:05:55.436878,0,0,14,0,0,0,70,73,134,110,85,121.23,58,0.00,-5.00,-1005.00
2024-06-07 01:05:55.586132,0,0,14,0,0,0,70,73,134,110,85,121.21,58,19.00,-9.00,-989.00
2024-06-07 01:05:55.640753,0,0,14,0,0,0,70,73,133,110,85,121.19,58,1.00,0.00,-1007.00
2024-06-07 01:05:55.744018,0,0,14,0,0,0,70,73,134,110,84,121.27,58,-3.00,11.00,-1014.00
2024-06-07 01:05:55.844347,0,0,14,0,0,0,70,73,135,110,84,121.20,58,-12.00,0.00,-996.00
2024-06-07 01:05:55.995384,0,0,14,0,0,0,70,72,135,110,84,121.27,58,-13.00,15.00,-1036.00
2024-06-07 01:05:56.048476,0,0,14,0,0,0,70,72,135,110,84,121.25,58,0.00,0.00,-994.00
2024-06-07 01:05:56.200376,0,0,14,0,0,0,70,72,135,110,84,121.23,58,18.00,-13.00,-1011.00
2024-06-07 01:05:56.252365,0,0,14,0,0,0,70,72,135,110,84,121.19,58,-12.00,21.00,-1042.00
2024-06-07 01:05:56.404946,0,0,14,0,0,0,70,72,136,110,84,121.29,58,0.00,-28.00,-1402.00
2024-06-07 01:05:56.456317,0,0,14,0,0,-3,70,72,142,110,84,121.42,59,-29.00,48.00,-1738.00
2024-06-07 01:05:56.609709,0,10,14,0,0,-10,70,72,6553,110,84,121.53,59,-17.00,162.00,-1728.00
2024-06-07 01:05:56.660262,0,98,14,-2,6,-12,70,72,155,130,84,121.61,59,-27.00,816.00,-1054.00
2024-06-07 01:05:56.814939,1,-137,14,-3,10,3,70,72,316,130,84,121.70,59,3.00,729.00,-866.00
2024-06-07 01:05:56.864109,0,-24,15,-1,4,11,70,72,147,120,84,121.22,59,-58.00,364.00,-962.00
2024-06-07 01:05:57.019835,0,-3,14,-1,4,6,70,72,136,100,84,121.09,59,-12.00,1.00,-1425.00
2024-06-07 01:05:57.068109,-1,-4,14,-1,3,2,70,72,132,100,84,121.14,59,-69.00,-1.00,-1391.00
2024-06-07 01:05:57.229096,0,-2,14,-1,2,0,70,72,130,100,84,121.13,59,-14.00,-5.00,-1190.00
2024-06-07 01:05:57.272193,0,-1,14,-1,2,0,70,72,130,100,84,121.15,59,-12.00,11.00,-1132.00
2024-06-07 01:05:57.432708,0,-1,14,0,1,-1,70,72,131,100,84,121.17,60,-20.00,35.00,-1062.00
2024-06-07 01:05:57.476264,0,0,14,0,1,-1,70,72,132,100,84,121.16,60,-3.00,5.00,-1037.00
2024-06-07 01:05:57.606203,0,0,14,0,1,-1,70,72,134,100,84,121.21,60,13.00,0.00,-981.00
2024-06-07 01:05:57.680192,0,0,14,0,1,0,70,72,134,100,84,121.20,60,-29.00,36.00,-994.00
2024-06-07 01:05:57.782156,0,-2,14,0,1,0,70,72,135,100,84,121.22,60,-17.00,33.00,-980.00
2024-06-07 01:05:57.945808,0,-3,14,0,0,0,70,72,136,110,84,121.23,60,-10.00,15.00,-1023.00
2024-06-07 01:05:57.986042,0,-2,14,0,0,0,70,72,136,110,84,121.19,60,-4.00,5.00,-1000.00
2024-06-07 01:05:58.145898,0,-1,14,0,0,0,70,72,137,110,84,121.28,60,-7.00,2.00,-956.00
2024-06-07 01:05:58.190012,0,-1,14,0,0,0,70,72,137,110,84,121.26,60,5.00,4.00,-993.00
2024-06-07 01:05:58.350449,0,0,14,0,0,0,70,72,136,110,84,121.32,60,-7.00,-11.00,-987.00
2024-06-07 01:05:58.394667,0,0,14,0,0,0,70,72,136,110,84,121.21,61,-1.00,-2.00,-1010.00
2024-06-07 01:05:58.555209,0,0,14,0,0,0,70,72,136,110,84,121.24,61,-8.00,15.00,-972.00
2024-06-07 01:05:58.597934,0,-1,14,0,0,0,70,72,135,110,84,121.28,61,5.00,1.00,-1048.00
2024-06-07 01:05:58.700862,0,-1,14,0,0,0,70,72,135,110,84,121.22,61,-12.00,14.00,-1008.00
2024-06-07 01:05:58.862349,0,-1,14,0,0,0,70,72,134,110,84,121.20,61,20.00,-7.00,-960.00
2024-06-07 01:05:58.904037,0,-1,14,0,0,0,70,72,133,100,84,121.20,61,13.00,-13.00,-982.00
2024-06-07 01:05:59.067324,0,-1,14,0,0,0,70,72,134,100,84,121.21,61,-15.00,0.00,-975.00
2024-06-07 01:05:59.109678,0,-1,14,0,0,0,70,72,133,100,84,121.17,61,-23.00,23.00,-985.00
2024-06-07 01:05:59.209954,0,-1,14,0,0,0,70,72,133,100,84,121.15,61,-29.00,42.00,-1022.00
2024-06-07 01:05:59.261141,0,-1,14,0,0,0,70,72,131,100,84,121.20,61,-23.00,31.00,-980.00
2024-06-07 01:05:59.374435,0,-1,14,0,0,0,70,72,132,100,84,121.13,62,-28.00,6.00,-1003.00
2024-06-07 01:05:59.464964,0,0,14,0,0,0,70,72,131,100,84,121.15,62,-4.00,19.00,-1009.00
2024-06-07 01:05:59.579132,0,0,14,0,0,0,70,72,131,100,84,121.17,62,9.00,-16.00,-1038.00
2024-06-07 01:05:59.668891,0,0,14,0,0,0,70,72,131,100,84,121.17,62,-5.00,16.00,-997.00
2024-06-07 01:05:59.771425,0,0,14,0,0,0,70,72,131,100,84,121.22,62,-14.00,22.00,-987.00
2024-06-07 01:05:59.886498,0,0,14,0,0,0,70,72,131,100,84,121.17,62,5.00,-10.00,-1012.00
2024-06-07 01:05:59.975118,0,0,14,0,0,0,71,73,131,100,84,121.14,62,-23.00,7.00,-953.00
2024-06-07 01:06:00.091607,0,0,14,0,0,0,71,73,132,100,84,121.17,62,-11.00,-8.00,-935.00
2024-06-07 01:06:00.179149,0,0,14,0,0,0,71,73,132,100,84,121.17,62,13.00,7.00,-984.00
2024-06-07 01:06:00.301184,0,0,14,0,0,0,71,73,133,100,84,121.18,62,-5.00,4.00,-998.00
2024-06-07 01:06:00.383416,0,0,14,0,0,0,71,73,133,100,84,121.17,63,-32.00,9.00,-950.00
2024-06-07 01:06:00.505960,0,0,14,0,0,0,71,73,133,100,84,121.21,63,-25.00,11.00,-988.00
2024-06-07 01:06:00.587055,0,0,14,0,0,0,71,73,134,100,84,121.17,63,-15.00,23.00,-1051.00
2024-06-07 01:06:00.689034,-1,0,14,0,0,0,71,73,134,100,84,121.21,63,-21.00,26.00,-1008.00
2024-06-07 01:06:00.809689,0,0,14,0,0,0,71,73,134,100,83,121.24,63,8.00,4.00,-981.00
2024-06-07 01:06:00.892974,-1,0,14,0,0,0,71,73,134,100,83,121.19,63,12.00,3.00,-1014.00
2024-06-07 01:06:01.013105,-1,0,14,0,0,0,70,73,134,100,83,121.19,63,-14.00,22.00,-960.00
2024-06-07 01:06:01.097075,-1,-1,14,0,0,0,70,73,134,100,83,121.20,63,-12.00,-3.00,-980.00
2024-06-07 01:06:01.217904,-1,0,14,0,0,0,70,73,135,100,83,121.22,63,-3.00,-3.00,-1002.00
2024-06-07 01:06:01.301131,-1,0,14,0,0,0,70,73,135,100,83,121.24,63,-15.00,11.00,-966.00
2024-06-07 01:06:01.427712,0,0,14,0,0,0,70,73,135,100,83,121.19,64,-26.00,6.00,-987.00
2024-06-07 01:06:01.504974,-1,0,14,0,0,0,70,73,135,100,83,121.21,64,-2.00,11.00,-1036.00
2024-06-07 01:06:01.627709,-1,0,14,0,0,0,70,73,134,100,83,121.18,64,-2.00,13.00,-1031.00
2024-06-07 01:06:01.708921,-1,0,14,0,0,0,70,73,135,100,83,121.17,64,-17.00,18.00,-1001.00
2024-06-07 01:06:01.832334,-1,0,14,0,0,0,70,73,135,100,83,121.21,64,-26.00,11.00,-964.00
