TS,pitch,roll,yaw,vgx,vgy,vgz,templ,temph,tof,h,bat,baro,time,agx,agy,agz
2024-06-07 01:06:36.646761,0,0,12,0,0,0,73,76,10,0,81,119.85,83,11.00,9.00,-1000.00
2024-06-07 01:06:36.697268,0,0,12,0,0,0,73,76,10,0,81,119.86,83,8.00,12.00,-998.00
2024-06-07 01:06:36.799108,0,0,12,0,0,0,73,76,10,0,81,119.86,83,10.00,11.00,-1001.00
2024-06-07 01:06:36.959431,0,0,12,0,0,0,73,76,10,0,81,119.80,83,10.00,11.00,-1000.00
2024-06-07 01:06:37.003073,0,0,12,0,0,0,73,76,10,0,81,119.76,83,8.00,11.00,-1001.00
2024-06-07 01:06:37.104768,0,0,12,0,0,0,73,76,10,0,81,119.83,83,10.00,12.00,-1001.00
2024-06-07 01:06:37.260816,0,0,12,0,0,0,73,76,10,0,81,119.82,83,9.00,11.00,-999.00
2024-06-07 01:06:37.309244,0,0,12,0,0,0,73,76,10,0,81,119.75,83,9.00,11.00,-996.00
2024-06-07 01:06:37.465695,0,0,12,0,0,0,73,76,10,0,81,119.80,83,9.00,10.00,-1000.00
2024-06-07 01:06:37.512865,0,0,12,0,0,0,73,76,10,0,81,119.77,83,8.00,11.00,-1001.00
2024-06-07 01:06:37.676186,0,0,12,0,0,0,73,76,10,0,81,119.83,83,10.00,10.00,-1002.00
2024-06-07 01:06:37.716766,0,0,12,0,0,0,73,76,10,0,81,119.76,83,10.00,11.00,-998.00
2024-06-07 01:06:37.818632,0,0,12,0,0,0,73,76,10,0,81,119.84,83,7.00,12.00,-1000.00
2024-06-07 01:06:37.982868,0,0,12,0,0,0,73,76,10,0,81,119.82,83,8.00,12.00,-998.00
2024-06-07 01:06:38.022625,0,0,12,0,0,0,73,76,10,0,81,119.81,83,9.00,11.00,-1001.00
2024-06-07 01:06:38.074710,0,0,12,0,0,0,73,76,10,0,81,119.80,83,10.00,12.00,-999.00
2024-06-07 01:06:38.226867,0,0,12,0,0,0,73,75,10,0,81,119.84,83,9.00,11.00,-999.00
2024-06-07 01:06:38.277994,0,0,12,0,0,0,73,75,10,0,81,119.81,83,10.00,12.00,-1001.00
2024-06-07 01:06:38.389007,0,0,12,0,0,0,73,75,10,0,81,119.79,83,9.00,10.00,-999.00
2024-06-07 01:06:38.482100,0,0,12,0,0,0,73,75,10,0,81,119.85,83,8.00,10.00,-1002.00
2024-06-07 01:06:38.592931,0,0,12,0,0,0,73,75,10,0,81,119.86,83,11.00,11.00,-1000.00
2024-06-07 01:06:38.685798,0,0,12,0,0,0,73,75,10,0,81,119.82,83,9.00,12.00,-1001.00
2024-06-07 01:06:38.787723,0,0,12,0,0,0,73,75,10,0,81,119.82,83,7.00,8.00,-1001.00
2024-06-07 01:06:38.904494,0,0,12,0,0,0,73,75,10,0,81,119.82,83,9.00,11.00,-998.00
2024-06-07 01:06:38.991632,0,0,12,0,0,0,73,75,10,0,81,119.82,83,-9.00,-5.00,-996.00
2024-06-07 01:06:39.093657,0,0,13,0,0,0,73,75,10,0,81,119.82,83,5.00,0.00,-1009.00
2024-06-07 01:06:39.195604,0,0,14,0,0,0,73,76,10,0,81,119.82,83,-17.00,19.00,-1029.00
2024-06-07 01:06:39.313499,0,0,14,0,0,0,73,76,10,0,81,119.82,83,-19.00,1.00,-1242.00
2024-06-07 01:06:39.399587,0,0,14,0,0,-2,73,76,10,0,81,119.82,83,7.00,-11.00,-1337.00
2024-06-07 01:06:39.514011,0,0,14,0,0,-5,73,76,12,0,81,119.82,84,6.00,20.00,-1289.00
2024-06-07 01:06:39.603516,0,0,14,0,0,-7,73,76,21,0,81,120.06,84,21.00,-2.00,-1074.00
2024-06-07 01:06:39.719929,0,0,14,0,0,-7,73,76,29,0,81,120.21,84,-12.00,9.00,-1025.00
2024-06-07 01:06:39.807429,0,0,14,0,0,-7,73,76,37,10,81,120.22,84,10.00,-3.00,-984.00
2024-06-07 01:06:39.922986,0,0,14,0,0,-7,73,76,46,20,81,120.33,84,-15.00,8.00,-942.00
2024-06-07 01:06:40.011491,0,0,14,0,0,-6,73,76,54,20,81,120.33,84,7.00,-4.00,-959.00
2024-06-07 01:06:40.127810,0,0,14,0,0,-5,73,76,60,30,81,120.49,84,-3.00,-4.00,-889.00
2024-06-07 01:06:40.215573,0,0,14,0,0,-4,74,77,66,30,81,120.59,84,-13.00,-6.00,-904.00
2024-06-07 01:06:40.332625,0,0,14,0,0,-3,74,77,72,30,81,120.70,84,-17.00,12.00,-898.00
2024-06-07 01:06:40.419511,0,0,14,0,0,-2,74,77,76,40,81,120.66,84,15.00,-12.00,-911.00
2024-06-07 01:06:40.538777,0,0,14,0,0,-1,74,77,80,40,81,120.73,85,30.00,15.00,-906.00
2024-06-07 01:06:40.623524,0,0,14,0,0,0,74,77,82,40,81,120.73,85,-20.00,9.00,-944.00
2024-06-07 01:06:40.742186,0,0,14,0,0,0,74,77,85,40,81,120.81,85,1.00,-2.00,-955.00
2024-06-07 01:06:40.827577,0,0,14,0,0,0,74,77,87,40,81,120.81,85,6.00,-6.00,-999.00
2024-06-07 01:06:40.929461,0,0,14,0,0,0,74,77,88,50,81,120.85,85,1.00,-1.00,-969.00
2024-06-07 01:06:41.049413,0,0,14,0,0,0,74,77,89,50,81,120.75,85,-11.00,-11.00,-961.00
2024-06-07 01:06:41.133527,0,0,14,0,0,0,74,77,91,50,81,120.79,85,-18.00,1.00,-1004.00
2024-06-07 01:06:41.235409,0,0,14,0,0,0,74,76,92,50,81,120.78,85,-8.00,0.00,-989.00
2024-06-07 01:06:41.356555,0,0,14,0,0,0,74,76,92,50,81,120.80,85,5.00,-14.00,-955.00
2024-06-07 01:06:41.439391,0,0,14,0,0,0,74,76,93,50,81,120.77,85,18.00,-7.00,-972.00
2024-06-07 01:06:41.541458,0,0,14,0,0,0,74,76,93,50,81,120.86,86,-11.00,20.00,-992.00
2024-06-07 01:06:41.643451,0,0,14,0,0,0,74,76,94,50,81,120.87,86,-9.00,6.00,-989.00
2024-06-07 01:06:41.771642,0,0,14,0,0,0,74,76,94,50,81,120.86,86,11.00,-10.00,-969.00
2024-06-07 01:06:41.797395,0,0,14,0,0,0,74,76,94,50,81,120.85,86,-10.00,12.00,-981.00
2024-06-07 01:06:41.972102,0,0,14,0,0,0,74,76,94,50,81,120.86,86,-7.00,7.00,-1003.00
2024-06-07 01:06:42.002876,0,0,14,0,0,0,74,76,94,50,81,120.86,86,-1.00,-10.00,-972.00
2024-06-07 01:06:42.103616,0,0,14,0,0,1,74,76,93,50,81,120.74,86,-2.00,6.00,-1020.00
2024-06-07 01:06:42.278095,0,0,14,0,0,1,73,76,92,50,81,120.81,86,-13.00,-4.00,-1027.00
2024-06-07 01:06:42.310076,0,0,14,0,0,1,73,76,91,50,81,120.83,86,2.00,4.00,-1012.00
2024-06-07 01:06:42.409347,0,0,14,0,0,1,73,76,90,50,81,120.80,86,-20.00,-8.00,-968.00
2024-06-07 01:06:42.586421,0,0,14,0,0,1,73,76,90,50,81,120.83,87,-1.00,4.00,-1053.00
2024-06-07 01:06:42.613460,0,0,14,0,0,1,73,76,88,50,81,120.77,87,9.00,11.00,-1005.00
2024-06-07 01:06:42.790009,0,0,14,0,0,1,73,76,88,50,81,120.82,87,-12.00,11.00,-1082.00
2024-06-07 01:06:42.817405,0,0,14,0,0,0,73,76,86,50,81,120.84,87,-8.00,5.00,-998.00
2024-06-07 01:06:42.919331,0,0,14,0,0,0,73,76,85,50,81,120.81,87,-5.00,-5.00,-998.00
2024-06-07 01:06:43.021342,0,0,14,0,0,0,73,76,84,50,81,120.79,87,7.00,-3.00,-1025.00
2024-06-07 01:06:43.123316,0,0,14,0,0,0,73,76,83,50,81,120.79,87,-14.00,6.00,-951.00
2024-06-07 01:06:43.225940,0,0,14,0,0,0,73,76,82,50,81,120.76,87,11.00,-9.00,-999.00
2024-06-07 01:06:43.327276,0,0,14,0,0,0,73,76,81,50,81,120.77,87,4.00,0.00,-989.00
2024-06-07 01:06:43.429337,0,0,14,0,0,0,73,76,79,50,81,120.73,87,-20.00,20.00,-1064.00
2024-06-07 01:06:43.613968,0,0,14,0,0,0,73,76,79,40,81,120.71,88,-21.00,0.00,-974.00
2024-06-07 01:06:43.633173,0,0,14,0,0,0,73,76,78,40,81,120.71,88,11.00,2.00,-1004.00
2024-06-07 01:06:43.818730,0,0,14,0,0,0,73,76,77,40,81,120.73,88,-14.00,6.00,-960.00
2024-06-07 01:06:43.837078,0,0,14,0,0,0,73,76,76,40,81,120.67,88,-12.00,14.00,-1004.00
2024-06-07 01:06:44.023482,0,0,14,0,0,0,73,76,76,40,81,120.72,88,-6.00,1.00,-1011.00
2024-06-07 01:06:44.041104,0,0,14,0,0,0,73,76,76,40,81,120.71,88,-1.00,2.00,-1013.00
2024-06-07 01:06:44.228283,0,0,14,0,0,0,73,76,76,40,81,120.67,88,-13.00,12.00,-1003.00
2024-06-07 01:06:44.245382,0,0,14,0,0,0,73,76,76,40,81,120.72,88,34.00,-8.00,-973.00
2024-06-07 01:06:44.428504,0,0,14,0,0,0,73,76,75,40,81,120.73,88,-17.00,28.00,-1022.00
2024-06-07 01:06:44.449270,0,0,14,0,0,0,73,76,75,40,81,120.69,88,-8.00,14.00,-1009.00
2024-06-07 01:06:44.638504,0,0,14,0,0,0,73,76,75,40,81,120.68,89,-14.00,14.00,-998.00
2024-06-07 01:06:44.653257,0,0,14,0,0,0,73,76,75,40,81,120.68,89,-12.00,15.00,-1023.00
2024-06-07 01:06:44.944604,0,0,14,0,0,0,73,76,75,40,81,120.67,89,13.00,7.00,-1009.00
2024-06-07 01:06:44.945189,0,0,14,0,0,0,73,76,75,40,81,120.76,89,-9.00,16.00,-1012.00
2024-06-07 01:06:44.959093,0,0,14,0,0,0,73,76,75,40,81,120.69,89,-21.00,7.00,-1000.00
2024-06-07 01:06:45.061301,0,0,14,0,0,0,73,76,75,40,81,120.70,89,4.00,11.00,-1013.00
2024-06-07 01:06:45.247644,0,0,14,0,0,0,73,76,75,40,81,120.74,89,-21.00,5.00,-951.00
2024-06-07 01:06:45.265018,0,0,14,0,0,0,74,76,76,40,81,120.75,89,-3.00,2.00,-1000.00
2024-06-07 01:06:45.456952,0,0,14,0,0,0,74,76,76,40,81,120.70,89,18.00,0.00,-1029.00
2024-06-07 01:06:45.469018,0,0,14,0,0,0,74,76,76,40,81,120.75,89,-7.00,8.00,-1010.00
2024-06-07 01:06:45.661718,0,0,14,0,0,0,74,76,76,40,81,120.79,90,15.00,-6.00,-998.00
2024-06-07 01:06:45.674379,0,0,14,0,0,0,74,76,76,40,81,120.77,90,0.00,6.00,-1017.00
2024-06-07 01:06:45.775244,0,0,14,0,0,0,74,76,76,40,81,120.74,90,-14.00,10.00,-993.00
2024-06-07 01:06:45.878060,0,0,14,0,0,0,74,76,76,40,81,120.76,90,-4.00,14.00,-999.00
2024-06-07 01:06:45.930089,0,0,14,0,0,0,74,76,77,40,81,120.75,90,-14.00,7.00,-968.00
2024-06-07 01:06:46.030053,0,0,14,0,0,0,74,76,77,40,81,120.70,90,5.00,-2.00,-999.00
2024-06-07 01:06:46.132056,0,0,14,0,0,0,74,76,77,40,81,120.77,90,-7.00,9.00,-1007.00
2024-06-07 01:06:46.271606,0,0,14,0,0,0,73,75,77,40,81,120.75,90,-5.00,10.00,-1036.00
2024-06-07 01:06:46.336045,0,0,14,0,0,0,73,75,77,40,81,120.78,90,-13.00,2.00,-965.00
2024-06-07 01:06:46.437871,0,0,14,0,0,0,73,75,78,40,81,120.75,90,-1.00,8.00,-991.00
2024-06-07 01:06:46.539993,0,0,14,0,0,0,73,75,78,40,81,120.78,91,-33.00,8.00,-1000.00
2024-06-07 01:06:46.681112,0,0,14,0,0,0,73,75,78,40,81,120.79,91,19.00,-4.00,-1019.00
2024-06-07 01:06:46.744075,0,0,14,0,0,0,73,75,78,40,81,120.86,91,-10.00,23.00,-1015.00
2024-06-07 01:06:46.846259,0,0,14,0,0,0,73,75,78,40,81,120.85,91,-15.00,8.00,-988.00
2024-06-07 01:06:46.988707,0,0,14,0,0,0,73,75,77,40,81,120.80,91,8.00,-3.00,-1011.00
2024-06-07 01:06:47.050889,0,0,14,0,0,0,73,75,78,40,81,120.76,91,14.00,-2.00,-992.00
2024-06-07 01:06:47.485188,0,0,14,0,0,0,73,75,77,40,81,120.80,91,4.00,-5.00,-996.00
2024-06-07 01:06:47.485283,0,0,14,0,0,0,72,76,77,40,81,120.81,91,-15.00,-11.00,-999.00
2024-06-07 01:06:47.485614,0,0,14,0,0,0,72,76,77,40,81,120.86,91,10.00,-7.00,-992.00
2024-06-07 01:06:47.485886,0,0,14,0,0,0,72,76,77,40,81,120.85,91,0.00,3.00,-982.00
2024-06-07 01:06:47.561204,0,0,14,0,0,0,72,76,77,40,81,120.70,92,20.00,-12.00,-965.00
2024-06-07 01:06:47.705301,0,0,14,0,0,0,72,76,77,40,81,120.75,92,2.00,0.00,-1009.00
2024-06-07 01:06:47.830357,0,0,14,0,0,0,72,76,77,40,81,120.82,92,18.00,-2.00,-1001.00
2024-06-07 01:06:47.945156,0,0,14,0,0,0,72,76,77,40,81,120.74,92,13.00,2.00,-995.00
2024-06-07 01:06:47.968834,0,0,14,0,0,0,72,76,77,40,81,120.76,92,0.00,7.00,-1000.00
2024-06-07 01:06:48.121106,0,0,14,0,0,0,72,76,77,40,81,120.86,92,0.00,2.00,-1012.00
2024-06-07 01:06:48.175027,0,0,14,0,0,0,72,76,77,40,81,120.84,92,-2.00,-7.00,-952.00
2024-06-07 01:06:48.313754,0,0,14,0,0,0,73,75,78,40,81,120.77,92,-6.00,10.00,-996.00
2024-06-07 01:06:48.457082,0,0,14,0,0,0,73,75,78,40,81,120.79,92,-21.00,2.00,-1008.00
2024-06-07 01:06:48.478857,0,0,14,0,0,0,73,75,78,40,81,120.78,93,-27.00,9.00,-994.00
2024-06-07 01:06:48.600535,0,0,14,0,0,0,73,75,78,40,81,120.80,93,-3.00,7.00,-989.00
2024-06-07 01:06:48.744377,0,0,14,0,0,0,73,75,78,40,81,120.73,93,6.00,-8.00,-992.00
2024-06-07 01:06:48.887268,0,0,14,0,0,0,73,75,78,40,81,120.82,93,4.00,0.00,-1010.00
2024-06-07 01:06:48.888145,0,0,14,0,0,0,73,75,78,40,81,120.72,93,-1.00,13.00,-1008.00
2024-06-07 01:06:49.048080,0,0,14,0,0,0,73,75,78,40,81,120.73,93,0.00,6.00,-1019.00
2024-06-07 01:06:49.104137,0,0,14,0,0,0,73,75,78,40,81,120.71,93,0.00,12.00,-990.00
2024-06-07 01:06:49.193101,0,0,14,0,0,0,73,75,78,40,81,120.74,93,-3.00,10.00,-979.00
2024-06-07 01:06:49.344876,0,0,14,0,0,0,73,75,78,40,81,120.77,93,-5.00,28.00,-1021.00
2024-06-07 01:06:49.397000,0,0,14,0,0,0,73,75,78,40,81,120.78,93,0.00,3.00,-998.00
2024-06-07 01:06:49.498756,0,0,14,0,0,0,73,75,78,40,81,120.75,94,-20.00,11.00,-978.00
2024-06-07 01:06:49.651021,0,0,14,0,0,0,73,75,78,40,81,120.81,94,0.00,5.00,-991.00
2024-06-07 01:06:49.702698,0,0,14,0,0,0,73,75,78,40,81,120.77,94,13.00,14.00,-979.00
2024-06-07 01:06:49.855492,0,0,14,0,0,-1,73,75,78,40,81,120.83,94,-3.00,11.00,-1099.00
2024-06-07 01:06:49.855721,0,0,14,0,0,-2,73,75,80,40,81,120.84,94,6.00,-2.00,-1087.00
2024-06-07 01:06:49.957813,0,0,14,0,0,-3,73,75,82,50,81,120.88,94,0.00,7.00,-1103.00
2024-06-07 01:06:50.061189,0,0,14,0,0,-4,73,75,86,50,81,120.89,94,-15.00,13.00,-1070.00
2024-06-07 01:06:50.162129,0,0,14,0,0,-4,73,75,90,60,81,120.82,94,0.00,7.00,-1056.00
2024-06-07 01:06:50.367423,0,0,14,0,0,-5,73,74,98,60,81,120.95,94,3.00,16.00,-1034.00
2024-06-07 01:06:50.416799,0,0,14,0,0,-5,73,74,103,70,81,121.03,94,-7.00,11.00,-1013.00
2024-06-07 01:06:50.473429,0,0,14,0,0,-5,73,74,108,70,81,121.04,95,-36.00,11.00,-982.00
2024-06-07 01:06:50.569667,0,0,14,0,0,-5,73,74,114,80,81,121.11,95,17.00,18.00,-1014.00
2024-06-07 01:06:50.675133,0,0,14,0,0,-5,73,74,120,80,81,121.22,95,1.00,14.00,-999.00
2024-06-07 01:06:50.774557,0,0,14,0,0,-5,73,74,125,90,81,121.26,95,6.00,-2.00,-950.00
2024-06-07 01:06:50.880670,0,0,14,0,0,-5,73,74,130,90,81,121.32,95,-2.00,1.00,-946.00
2024-06-07 01:06:50.977686,0,0,14,0,0,-4,73,74,135,100,81,121.39,95,37.00,-2.00,-996.00
2024-06-07 01:06:51.079659,0,0,14,0,0,-4,73,74,140,100,81,121.39,95,0.00,6.00,-968.00
2024-06-07 01:06:51.187302,0,0,14,0,0,-4,73,74,145,110,81,121.41,95,-12.00,10.00,-959.00
2024-06-07 01:06:51.283658,0,0,14,0,0,-3,73,74,149,110,81,121.44,95,-4.00,16.00,-941.00
2024-06-07 01:06:51.391836,0,0,14,0,0,-3,73,74,152,120,81,121.45,95,-6.00,16.00,-982.00
2024-06-07 01:06:51.487819,0,0,14,0,0,-3,73,74,156,120,81,121.45,96,17.00,21.00,-1058.00
2024-06-07 01:06:51.596949,0,0,14,0,0,-2,73,74,159,120,81,121.47,96,-23.00,4.00,-974.00
2024-06-07 01:06:51.691599,0,0,14,0,0,-2,73,74,161,120,81,121.56,96,-11.00,-9.00,-938.00
2024-06-07 01:06:51.806043,0,0,14,0,0,-2,73,74,163,130,81,121.62,96,15.00,-13.00,-971.00
2024-06-07 01:06:51.898762,0,0,14,0,0,-2,73,74,165,130,81,121.59,96,-23.00,18.00,-984.00
2024-06-07 01:06:51.997451,0,0,14,0,0,-1,73,74,167,130,81,121.55,96,-16.00,15.00,-988.00
2024-06-07 01:06:52.112753,0,0,14,0,0,-1,73,74,169,130,81,121.60,96,-17.00,16.00,-988.00
2024-06-07 01:06:52.201795,0,0,14,0,0,-1,73,74,170,130,81,121.68,96,-4.00,5.00,-984.00
2024-06-07 01:06:52.317659,0,0,14,0,0,-1,71,75,171,140,81,121.70,96,0.00,12.00,-970.00
2024-06-07 01:06:52.406655,0,0,14,0,0,0,71,75,172,140,81,121.65,96,12.00,-6.00,-967.00
2024-06-07 01:06:52.507816,0,0,14,0,0,0,71,75,174,140,81,121.68,97,6.00,2.00,-995.00
2024-06-07 01:06:52.620278,0,0,14,0,0,0,71,75,174,140,81,121.70,97,4.00,-7.00,-964.00
2024-06-07 01:06:52.711536,0,0,14,0,0,0,71,75,175,140,81,121.64,97,19.00,-4.00,-931.00
2024-06-07 01:06:52.825516,0,0,14,0,0,0,71,75,174,140,81,121.66,97,10.00,7.00,-982.00
2024-06-07 01:06:52.916349,0,0,14,0,0,0,71,75,174,140,81,121.65,97,-30.00,39.00,-1017.00
2024-06-07 01:06:53.017625,0,0,14,0,0,0,71,75,174,140,81,121.65,97,2.00,5.00,-988.00
2024-06-07 01:06:53.136724,0,0,14,0,0,0,71,75,174,140,81,121.65,97,-12.00,2.00,-975.00
2024-06-07 01:06:53.221506,0,0,14,0,0,0,71,75,175,140,81,121.63,97,-16.00,38.00,-997.00
2024-06-07 01:06:53.346107,0,0,14,0,0,0,72,74,174,140,81,121.66,97,5.00,9.00,-1006.00
2024-06-07 01:06:53.425563,0,0,14,0,0,0,72,74,174,140,81,121.65,97,9.00,-5.00,-980.00
2024-06-07 01:06:53.542027,0,0,14,0,0,0,72,74,173,140,81,121.63,98,-20.00,23.00,-1016.00
2024-06-07 01:06:53.629546,0,0,14,0,0,0,72,74,174,140,81,121.60,98,3.00,5.00,-982.00
2024-06-07 01:06:53.746727,0,0,14,0,0,0,72,74,173,140,81,121.57,98,-14.00,37.00,-1001.00
2024-06-07 01:06:53.833497,0,0,14,0,0,0,72,74,173,140,81,121.62,98,9.00,-2.00,-968.00
2024-06-07 01:06:53.935451,0,0,14,0,0,0,72,74,173,140,81,121.61,98,24.00,15.00,-1004.00
2024-06-07 01:06:53.986411,0,0,14,0,0,0,72,74,173,140,81,121.70,98,-27.00,8.00,-998.00
2024-06-07 01:06:54.156148,0,0,14,0,0,0,72,74,173,140,81,121.65,98,-13.00,10.00,-993.00
2024-06-07 01:06:54.190453,0,0,14,0,0,0,72,74,173,140,81,121.71,98,22.00,5.00,-1009.00
2024-06-07 01:06:54.361006,0,0,14,0,0,0,72,75,173,140,81,121.68,98,0.00,-18.00,-1027.00
2024-06-07 01:06:54.394433,0,0,14,0,0,0,72,75,173,140,81,121.62,98,-21.00,16.00,-1029.00
2024-06-07 01:06:54.496360,0,0,14,0,0,0,72,75,172,140,81,121.58,99,-15.00,25.00,-1019.00
2024-06-07 01:06:54.667986,0,0,14,0,0,0,72,75,173,140,81,121.60,99,8.00,-16.00,-939.00
2024-06-07 01:06:54.700414,0,0,14,0,0,0,72,75,173,140,81,121.58,99,-5.00,18.00,-931.00
2024-06-07 01:06:54.874863,0,0,14,0,0,0,72,75,173,140,81,121.68,99,-18.00,8.00,-956.00
2024-06-07 01:06:54.904315,0,0,14,0,0,1,72,75,171,140,81,121.60,99,18.00,-8.00,-922.00
2024-06-07 01:06:55.077545,0,0,14,0,0,1,72,75,170,130,81,121.62,99,-23.00,4.00,-944.00
2024-06-07 01:06:55.108180,0,0,14,0,0,2,72,75,168,130,81,121.62,99,-8.00,23.00,-963.00
2024-06-07 01:06:55.282405,0,0,14,0,0,2,72,75,165,130,81,121.53,99,0.00,-5.00,-975.00
2024-06-07 01:06:55.312461,0,0,14,0,0,2,72,75,163,130,81,121.47,99,8.00,0.00,-968.00
2024-06-07 01:06:55.487201,0,0,14,0,0,2,72,75,161,130,81,121.50,99,-6.00,-13.00,-1010.00
2024-06-07 01:06:55.516297,0,0,14,0,0,2,72,75,158,120,81,121.48,100,-25.00,31.00,-978.00
2024-06-07 01:06:55.696355,0,0,14,0,0,2,72,75,155,120,81,121.42,100,4.00,-2.00,-1014.00
2024-06-07 01:06:55.720229,0,0,14,0,0,2,72,75,153,120,81,121.46,100,-10.00,-2.00,-982.00
2024-06-07 01:06:55.822103,0,0,14,0,0,2,72,75,150,120,81,121.40,100,-4.00,32.00,-1032.00
2024-06-07 01:06:55.999198,0,0,14,0,0,2,72,75,148,110,81,121.40,100,-35.00,1.00,-1018.00
2024-06-07 01:06:56.026069,0,0,14,0,0,2,72,75,146,110,81,121.34,100,-4.00,21.00,-971.00
2024-06-07 01:06:56.128634,0,0,14,0,0,2,72,75,143,110,81,121.35,100,-14.00,6.00,-1018.00
2024-06-07 01:06:56.230039,0,0,14,0,0,2,72,75,141,110,81,121.28,100,4.00,-3.00,-1004.00
2024-06-07 01:06:56.332291,0,0,14,0,0,1,72,75,139,100,81,121.28,100,13.00,18.00,-1036.00
2024-06-07 01:06:56.434239,0,0,14,0,0,1,72,75,137,100,81,121.24,100,-16.00,2.00,-1015.00
2024-06-07 01:06:56.614108,0,0,14,0,0,1,72,75,136,100,81,121.27,101,-4.00,-3.00,-1058.00
2024-06-07 01:06:56.637929,0,0,14,0,0,1,72,75,134,100,81,121.18,101,-27.00,44.00,-1014.00
2024-06-07 01:06:56.818313,0,0,14,0,0,1,72,75,132,100,81,121.21,101,-10.00,15.00,-1017.00
2024-06-07 01:06:56.842775,0,0,14,0,0,1,72,75,131,100,81,121.12,101,-29.00,14.00,-1042.00
2024-06-07 01:06:56.944162,0,-1,14,0,0,1,72,75,130,100,81,121.16,101,25.00,-18.00,-1000.00
2024-06-07 01:06:57.125432,0,0,14,0,0,0,72,75,129,90,81,121.16,101,0.00,22.00,-987.00
2024-06-07 01:06:57.152487,0,0,14,0,0,1,72,75,127,90,81,121.15,101,-12.00,22.00,-1037.00
2024-06-07 01:06:57.250196,0,0,14,0,0,0,72,75,126,90,81,121.16,101,-16.00,28.00,-1052.00
2024-06-07 01:06:57.432888,0,0,14,0,0,0,72,75,125,90,81,121.19,101,-31.00,28.00,-1041.00
2024-06-07 01:06:57.454458,0,0,14,0,0,0,72,75,124,90,81,121.16,101,-9.00,17.00,-1019.00
2024-06-07 01:06:57.637868,0,0,14,0,0,0,72,75,124,90,81,121.13,102,-26.00,36.00,-1054.00
2024-06-07 01:06:57.658239,0,0,14,0,0,0,72,75,124,90,81,121.16,102,-5.00,24.00,-1074.00
2024-06-07 01:06:57.761633,0,0,14,0,0,0,72,75,123,90,81,121.16,102,10.00,8.00,-1019.00
2024-06-07 01:06:57.811995,0,0,14,0,0,0,72,75,123,90,81,121.14,102,-5.00,-4.00,-1004.00
2024-06-07 01:06:57.919454,0,0,14,0,0,0,72,75,123,90,81,121.15,102,-16.00,33.00,-1008.00
2024-06-07 01:06:58.017067,0,0,14,0,0,0,72,75,123,90,81,121.19,102,-35.00,23.00,-998.00
2024-06-07 01:06:58.117200,0,0,14,0,0,0,72,75,123,90,81,121.18,102,0.00,1.00,-969.00
2024-06-07 01:06:58.251901,0,0,14,0,0,0,72,75,124,90,81,121.15,102,-9.00,12.00,-975.00
2024-06-07 01:06:58.325807,0,0,14,0,0,0,72,75,124,90,81,121.16,102,-9.00,16.00,-1047.00
2024-06-07 01:06:58.423409,0,0,14,0,0,0,72,75,124,90,81,121.18,102,-36.00,29.00,-1014.00
2024-06-07 01:06:58.559112,0,0,14,0,0,0,72,75,124,90,81,121.17,103,0.00,0.00,-984.00
2024-06-07 01:06:58.626986,0,0,14,0,0,0,72,75,125,90,81,121.16,103,-21.00,1.00,-979.00
2024-06-07 01:06:58.763999,-1,0,14,0,0,0,72,75,125,90,81,121.11,103,-29.00,8.00,-971.00
2024-06-07 01:06:58.835952,-1,-1,14,0,0,0,72,75,125,90,81,121.14,103,1.00,-7.00,-948.00
2024-06-07 01:06:58.934044,-1,-1,14,0,0,0,72,75,126,90,81,121.16,103,-33.00,24.00,-1024.00
2024-06-07 01:06:59.071535,-1,0,14,0,0,0,72,75,126,90,81,121.13,103,-39.00,27.00,-1023.00
2024-06-07 01:06:59.138066,-1,0,14,0,0,0,72,75,125,90,81,121.13,103,-13.00,10.00,-995.00
2024-06-07 01:06:59.239897,-1,0,14,0,0,0,72,75,126,90,81,121.16,103,-13.00,18.00,-1001.00
2024-06-07 01:06:59.378657,-1,0,14,0,0,0,72,75,126,90,81,121.17,103,3.00,-5.00,-972.00
2024-06-07 01:06:59.444075,-5,0,14,0,0,0,72,75,127,90,81,121.18,103,-20.00,9.00,-981.00
2024-06-07 01:06:59.583013,-8,0,14,1,0,0,72,75,128,90,81,121.12,104,-28.00,-4.00,-994.00
2024-06-07 01:06:59.648135,-8,0,14,2,0,0,72,75,128,90,81,121.13,104,-9.00,-8.00,-1066.00
2024-06-07 01:06:59.787724,-8,0,14,3,0,0,72,75,126,90,81,121.14,104,-55.00,17.00,-950.00
2024-06-07 01:06:59.851974,-8,0,14,5,1,0,72,75,127,90,81,121.04,104,-50.00,16.00,-1014.00
2024-06-07 01:06:59.953749,-8,0,14,6,1,0,72,75,127,90,81,121.08,104,-50.00,-4.00,-959.00
2024-06-07 01:07:00.094917,-7,0,14,6,1,0,72,75,127,90,81,121.10,104,-41.00,6.00,-1011.00
2024-06-07 01:07:00.157811,-6,0,14,7,1,0,72,75,126,90,81,120.99,104,-39.00,6.00,-982.00
2024-06-07 01:07:00.303062,-4,0,14,7,2,0,72,75,126,90,81,121.07,104,-55.00,0.00,-998.00
2024-06-07 01:07:00.361654,-1,0,14,7,2,0,72,75,126,90,81,121.07,104,-44.00,8.00,-1002.00
2024-06-07 01:07:00.504492,1,0,14,7,1,0,72,75,127,90,81,121.03,104,-58.00,-4.00,-1002.00
2024-06-07 01:07:00.566103,3,0,14,6,1,0,72,75,127,90,81,121.07,105,-68.00,13.00,-1044.00
2024-06-07 01:07:00.709305,4,0,14,5,1,0,72,75,127,90,81,121.06,105,-19.00,-13.00,-984.00
2024-06-07 01:07:00.769683,2,0,14,4,0,0,72,75,127,90,80,121.02,105,-15.00,-10.00,-954.00
2024-06-07 01:07:00.872291,1,0,14,3,0,0,72,75,127,90,80,121.14,105,-36.00,5.00,-975.00
2024-06-07 01:07:00.973710,0,0,14,3,0,0,72,75,127,90,80,121.15,105,-19.00,1.00,-1070.00
2024-06-07 01:07:01.081645,0,1,14,2,0,0,72,75,127,90,80,121.15,105,-41.00,15.00,-993.00
2024-06-07 01:07:01.179924,0,0,14,2,0,0,72,75,127,90,80,121.09,105,-31.00,3.00,-1029.00
2024-06-07 01:07:01.279706,0,0,14,2,0,0,72,75,127,90,80,121.13,105,-18.00,0.00,-997.00
2024-06-07 01:07:01.426964,0,-2,14,2,0,0,72,75,127,90,80,121.10,105,-4.00,-6.00,-1033.00
2024-06-07 01:07:01.487407,0,-1,14,2,0,0,72,75,127,90,80,121.20,105,-52.00,6.00,-1002.00
2024-06-07 01:07:01.585643,0,0,14,2,0,0,72,75,127,90,80,121.13,106,-25.00,-2.00,-1016.00
2024-06-07 01:07:01.636645,3,0,14,1,0,0,72,75,127,90,80,121.14,106,-43.00,19.00,-1032.00
2024-06-07 01:07:01.835728,2,0,14,1,0,0,72,75,126,90,80,121.14,106,-11.00,8.00,-1047.00
2024-06-07 01:07:01.840832,1,0,14,0,0,0,72,75,126,90,80,121.13,106,-15.00,-9.00,-972.00
2024-06-07 01:07:02.143393,0,0,14,0,0,0,72,75,126,90,80,121.13,106,2.00,8.00,-982.00
2024-06-07 01:07:02.170929,0,0,14,0,0,0,72,75,125,90,80,121.12,106,-17.00,-16.00,-965.00
2024-06-07 01:07:02.171038,0,0,14,0,0,0,72,75,126,90,80,121.12,106,-35.00,31.00,-1010.00
2024-06-07 01:07:02.277364,0,0,14,0,0,0,72,75,126,90,80,121.21,106,14.00,0.00,-980.00
2024-06-07 01:07:02.350750,0,0,14,0,0,0,72,75,126,90,80,121.12,106,3.00,-16.00,-1015.00
2024-06-07 01:07:02.500609,0,0,14,0,0,0,72,75,126,90,80,121.19,107,-23.00,7.00,-1015.00
2024-06-07 01:07:02.599952,0,0,14,0,0,0,72,75,126,90,80,121.10,107,-35.00,35.00,-1040.00
2024-06-07 01:07:02.665430,0,0,14,0,0,0,72,75,126,90,80,121.22,107,31.00,-20.00,-956.00
2024-06-07 01:07:02.788613,0,0,14,0,0,0,72,75,126,90,80,121.13,107,8.00,-7.00,-1017.00
2024-06-07 01:07:02.945838,0,0,14,0,0,0,72,75,126,90,80,121.19,107,-28.00,17.00,-1006.00
2024-06-07 01:07:02.962595,0,0,14,0,0,0,72,75,126,90,80,121.16,107,-40.00,24.00,-1004.00
2024-06-07 01:07:03.065689,0,0,14,0,0,0,72,75,126,90,80,121.14,107,-25.00,29.00,-990.00
2024-06-07 01:07:03.177735,0,0,14,0,0,0,72,75,126,90,80,121.15,107,-5.00,14.00,-1033.00
2024-06-07 01:07:03.321079,0,0,14,0,0,0,72,75,126,90,80,121.14,107,-17.00,21.00,-1014.00
2024-06-07 01:07:03.371386,0,0,14,0,0,0,72,75,126,90,80,121.15,107,-24.00,39.00,-963.00
2024-06-07 01:07:03.544106,0,0,14,0,0,0,72,75,126,90,80,121.18,108,-10.00,3.00,-966.00
2024-06-07 01:07:03.628289,0,0,14,0,0,0,72,75,126,90,80,121.15,108,-16.00,6.00,-982.00
2024-06-07 01:07:03.679654,0,0,14,0,0,0,72,75,126,90,80,121.14,108,-16.00,16.00,-1021.00
2024-06-07 01:07:03.936258,0,0,14,0,0,0,72,75,126,90,80,121.18,108,2.00,13.00,-1009.00
2024-06-07 01:07:03.936646,0,0,14,0,0,0,72,75,126,90,80,121.18,108,17.00,-16.00,-996.00
2024-06-07 01:07:03.982509,0,0,14,0,0,0,72,75,126,90,80,121.17,108,-22.00,22.00,-1071.00
2024-06-07 01:07:04.104496,0,0,14,0,0,0,72,75,126,90,80,121.15,108,-1.00,11.00,-969.00
2024-06-07 01:07:04.244243,6,0,14,0,0,0,72,75,126,90,80,121.18,108,5.00,13.00,-1026.00
2024-06-07 01:07:04.290828,8,0,14,-1,0,0,72,75,126,90,80,121.19,108,-21.00,9.00,-999.00
2024-06-07 01:07:04.406677,8,0,14,-3,0,0,72,74,127,90,80,121.19,108,23.00,-9.00,-1014.00
2024-06-07 01:07:04.553897,7,0,14,-4,-1,0,72,74,126,90,80,121.19,109,17.00,5.00,-958.00
2024-06-07 01:07:04.597020,6,0,14,-5,-1,0,72,74,126,90,80,121.19,109,7.00,20.00,-1017.00
2024-06-07 01:07:04.713712,6,0,14,-6,-1,0,72,74,126,90,80,121.18,109,47.00,7.00,-996.00
2024-06-07 01:07:04.868988,4,0,14,-7,-1,0,72,74,126,90,80,121.11,109,9.00,31.00,-1029.00
2024-06-07 01:07:04.900435,4,0,14,-7,-1,0,72,74,126,90,80,121.13,109,48.00,-20.00,-973.00
2024-06-07 01:07:05.009740,1,0,14,-7,-2,0,72,74,126,90,80,121.15,109,35.00,17.00,-984.00
2024-06-07 01:07:05.104476,-1,0,14,-7,-1,0,72,74,126,90,80,121.11,109,58.00,-8.00,-1002.00
2024-06-07 01:07:05.215425,-3,0,14,-6,-1,0,72,74,126,90,80,121.15,109,36.00,12.00,-1014.00
2024-06-07 01:07:05.257414,-5,0,14,-5,-1,0,72,74,126,90,80,121.11,109,21.00,10.00,-989.00
2024-06-07 01:07:05.410437,-4,0,14,-4,-1,0,71,74,127,90,80,121.10,109,6.00,28.00,-1017.00
2024-06-07 01:07:05.522002,-2,0,14,-3,0,0,71,74,127,90,80,121.17,110,33.00,7.00,-997.00
2024-06-07 01:07:05.615866,-1,0,14,-3,0,0,71,74,128,90,80,121.13,110,10.00,5.00,-979.00
2024-06-07 01:07:05.716339,0,0,14,-2,0,0,71,74,128,90,80,121.17,110,-4.00,8.00,-1015.00
2024-06-07 01:07:05.769266,0,1,14,-2,0,0,71,74,128,90,79,121.17,110,51.00,-2.00,-1008.00
2024-06-07 01:07:05.869340,0,0,14,-2,0,0,71,74,128,90,79,121.14,110,-8.00,23.00,-966.00
2024-06-07 01:07:05.972251,0,0,14,-2,0,0,71,74,128,90,79,121.16,110,20.00,6.00,-996.00
2024-06-07 01:07:06.136325,-1,0,14,-2,0,0,71,74,128,90,79,121.24,110,15.00,7.00,-999.00
2024-06-07 01:07:06.175364,-2,-1,14,-2,0,0,71,74,129,90,79,121.21,110,3.00,21.00,-1017.00
2024-06-07 01:07:06.341098,-4,-1,14,-1,0,0,71,74,128,90,79,121.16,110,8.00,1.00,-986.00
2024-06-07 01:07:06.379332,-2,-1,14,0,0,0,72,74,129,90,79,121.22,110,8.00,18.00,-1017.00
2024-06-07 01:07:06.481522,-1,-1,14,0,0,0,72,74,129,90,79,121.21,111,7.00,3.00,-1030.00
2024-06-07 01:07:06.648425,0,0,14,0,0,0,72,74,129,90,79,121.10,111,23.00,-6.00,-998.00
2024-06-07 01:07:06.685528,0,0,14,0,0,0,72,74,129,90,79,121.15,111,-8.00,19.00,-1018.00
2024-06-07 01:07:06.853593,0,0,14,0,0,0,72,74,129,90,79,121.17,111,4.00,-4.00,-970.00
2024-06-07 01:07:06.889363,0,0,14,0,0,0,72,74,129,90,79,121.17,111,2.00,8.00,-1009.00
2024-06-07 01:07:07.058033,0,-1,14,0,0,0,72,74,129,90,79,121.18,111,22.00,-4.00,-981.00
2024-06-07 01:07:07.093455,0,-1,14,0,0,0,72,74,128,90,79,121.11,111,-10.00,10.00,-1014.00
2024-06-07 01:07:07.262830,0,-1,14,0,0,0,72,74,129,90,79,121.13,111,-36.00,13.00,-992.00
2024-06-07 01:07:07.297612,0,-1,14,0,0,0,72,74,128,90,79,121.13,111,-16.00,34.00,-1009.00
2024-06-07 01:07:07.467530,0,-1,14,0,0,0,72,74,128,90,79,121.18,111,-16.00,3.00,-990.00
2024-06-07 01:07:07.501458,0,0,14,0,0,0,72,74,128,90,79,121.15,112,-8.00,21.00,-995.00
2024-06-07 01:07:07.672413,0,0,14,0,0,0,72,74,127,90,79,121.15,112,-21.00,32.00,-1004.00
2024-06-07 01:07:07.705506,0,0,14,0,0,0,72,74,127,90,79,121.13,112,-30.00,23.00,-991.00
2024-06-07 01:07:07.877541,0,0,14,0,0,0,72,74,127,90,79,121.19,112,-15.00,20.00,-1031.00
2024-06-07 01:07:07.909266,0,0,14,0,0,0,72,74,127,90,79,121.17,112,-6.00,12.00,-996.00
2024-06-07 01:07:08.082108,0,0,14,0,0,0,72,74,126,90,79,121.17,112,3.00,11.00,-1008.00
2024-06-07 01:07:08.113331,0,0,14,0,0,0,72,74,126,90,79,121.13,112,-13.00,17.00,-1043.00
2024-06-07 01:07:08.286789,0,0,14,0,0,0,72,74,126,90,79,121.18,112,-8.00,9.00,-1026.00
2024-06-07 01:07:08.317260,0,0,14,0,0,0,72,74,126,90,79,121.21,112,-11.00,17.00,-1011.00
2024-06-07 01:07:08.433717,0,0,14,0,0,0,72,75,126,90,79,121.17,112,-18.00,11.00,-968.00
2024-06-07 01:07:08.521143,0,0,14,0,0,0,72,75,126,90,79,121.16,113,-14.00,11.00,-1026.00
2024-06-07 01:07:08.697458,0,-1,14,0,0,0,72,75,126,90,79,121.20,113,14.00,20.00,-969.00
2024-06-07 01:07:08.725101,0,-8,14,0,0,0,72,75,127,90,79,121.17,113,-1.00,2.00,-1019.00
2024-06-07 01:07:08.900993,0,-8,14,0,-1,0,72,75,127,90,79,121.11,113,0.00,7.00,-1007.00
2024-06-07 01:07:08.929073,0,-6,14,0,-2,0,72,75,126,90,79,121.18,113,-2.00,17.00,-1015.00
2024-06-07 01:07:09.105807,0,-4,14,0,-3,0,72,75,126,90,79,121.21,113,-12.00,24.00,-999.00
2024-06-07 01:07:09.134078,0,0,14,1,-3,0,72,75,126,90,79,121.14,113,-19.00,46.00,-969.00
2024-06-07 01:07:09.310585,0,0,14,1,-3,0,72,75,126,90,79,121.18,113,-28.00,45.00,-942.00
2024-06-07 01:07:09.337921,0,0,14,1,-2,0,72,75,126,90,79,121.14,113,-1.00,31.00,-951.00
2024-06-07 01:07:09.520021,0,0,14,0,-2,0,72,75,126,90,79,121.16,113,14.00,10.00,-970.00
2024-06-07 01:07:09.541975,0,-1,14,0,-2,0,72,75,125,90,79,121.10,114,-14.00,43.00,-1011.00
2024-06-07 01:07:09.644082,0,-1,14,0,-2,0,72,75,125,90,79,121.16,114,-3.00,31.00,-1009.00
2024-06-07 01:07:09.696550,1,-1,14,0,-2,0,72,75,125,90,78,121.15,114,-18.00,47.00,-959.00
2024-06-07 01:07:09.797016,0,-1,14,0,-2,0,72,75,124,90,78,121.21,114,-17.00,54.00,-1067.00
2024-06-07 01:07:09.899043,0,-1,14,0,-2,0,72,75,124,90,78,121.20,114,9.00,24.00,-1001.00
2024-06-07 01:07:10.027391,0,-1,14,0,-2,0,72,75,124,90,78,121.10,114,-8.00,27.00,-1006.00
2024-06-07 01:07:10.103047,0,0,14,0,-2,0,72,75,124,90,78,121.16,114,-4.00,30.00,-993.00
2024-06-07 01:07:10.232197,0,0,14,0,-2,0,72,75,124,90,78,121.16,114,18.00,14.00,-1028.00
2024-06-07 01:07:10.306978,0,0,14,0,-2,0,72,75,124,90,78,121.21,114,3.00,24.00,-1026.00
2024-06-07 01:07:10.409002,0,4,14,0,-2,0,72,74,124,90,78,121.20,114,9.00,41.00,-981.00
2024-06-07 01:07:10.539706,0,3,14,0,-1,0,72,74,124,90,78,121.12,115,-8.00,23.00,-1005.00
2024-06-07 01:07:10.614141,0,1,14,0,0,0,72,74,124,90,78,121.13,115,0.00,9.00,-1037.00
2024-06-07 01:07:10.744177,0,0,14,0,0,0,72,74,124,90,78,121.15,115,-14.00,18.00,-1005.00
2024-06-07 01:07:10.818122,0,0,14,0,0,0,72,74,124,90,78,121.15,115,18.00,0.00,-1013.00
2024-06-07 01:07:10.920090,0,0,14,0,0,0,72,74,125,90,78,121.18,115,-2.00,4.00,-996.00
2024-06-07 01:07:11.051327,0,0,14,0,0,0,72,74,125,90,78,121.12,115,16.00,0.00,-1027.00
2024-06-07 01:07:11.123876,0,0,14,0,0,0,72,74,125,90,78,121.19,115,4.00,0.00,-990.00
2024-06-07 01:07:11.256400,0,0,14,0,0,0,72,74,126,90,78,121.18,115,16.00,-4.00,-1020.00
2024-06-07 01:07:11.328014,0,0,14,0,0,0,72,74,126,90,78,121.22,115,-38.00,10.00,-994.00
2024-06-07 01:07:11.461417,0,0,14,0,0,0,71,73,126,90,78,121.16,115,-7.00,-1.00,-997.00
2024-06-07 01:07:11.532181,0,0,14,0,0,0,71,73,126,90,78,121.19,116,-38.00,26.00,-924.00
2024-06-07 01:07:11.665918,0,0,14,0,0,0,71,73,127,90,78,121.19,116,7.00,-2.00,-991.00
2024-06-07 01:07:11.736331,0,0,14,0,0,0,71,73,127,90,78,121.21,116,0.00,10.00,-997.00
2024-06-07 01:07:11.870642,0,0,14,0,0,0,71,73,127,90,78,121.20,116,2.00,5.00,-1043.00
2024-06-07 01:07:11.939968,0,0,14,0,0,0,71,73,127,90,78,121.16,116,1.00,17.00,-1025.00
2024-06-07 01:07:12.084758,0,0,14,0,0,0,71,73,127,90,78,121.15,116,-2.00,3.00,-994.00
2024-06-07 01:07:12.143969,0,0,14,0,0,0,71,73,127,90,78,121.22,116,6.00,12.00,-1013.00
2024-06-07 01:07:12.280455,0,0,14,0,0,0,71,73,127,90,78,121.14,116,-8.00,22.00,-1006.00
2024-06-07 01:07:12.348684,0,0,14,0,0,0,71,73,127,90,78,121.15,116,18.00,2.00,-996.00
2024-06-07 01:07:12.485009,0,0,14,0,0,0,71,74,126,90,78,121.13,116,21.00,6.00,-982.00
2024-06-07 01:07:12.551863,0,0,14,0,0,0,71,74,126,90,78,121.20,117,10.00,7.00,-1002.00
2024-06-07 01:07:12.689600,0,0,14,0,0,0,71,74,126,90,78,121.13,117,-22.00,19.00,-983.00
2024-06-07 01:07:12.755852,0,0,14,0,0,0,71,74,126,90,78,121.10,117,3.00,23.00,-977.00
2024-06-07 01:07:12.899688,0,7,14,0,0,0,71,74,126,90,78,121.17,117,-4.00,26.00,-981.00
2024-06-07 01:07:12.959819,0,6,14,0,2,0,71,74,126,90,78,121.17,117,6.00,-9.00,-1011.00
2024-06-07 01:07:13.061602,0,4,14,0,3,0,71,74,125,90,78,121.17,117,2.00,0.00,-1066.00
2024-06-07 01:07:13.201686,0,2,14,0,3,0,71,74,126,90,78,121.19,117,-31.00,16.00,-1028.00
2024-06-07 01:07:13.266796,0,0,14,0,3,0,71,74,125,90,78,121.16,117,22.00,-21.00,-992.00
2024-06-07 01:07:13.316736,0,-1,14,0,3,0,71,74,125,90,78,121.13,117,1.00,6.00,-1023.00
2024-06-07 01:07:13.513171,0,-1,14,0,3,0,73,74,125,90,78,121.16,117,28.00,-3.00,-1019.00
2024-06-07 01:07:13.571734,0,0,14,0,2,0,73,74,125,90,78,121.12,118,6.00,-6.00,-1005.00
2024-06-07 01:07:13.713548,0,0,14,0,2,0,73,74,125,90,78,121.14,118,2.00,-14.00,-987.00
2024-06-07 01:07:13.724690,0,0,14,0,2,0,73,74,126,90,78,121.18,118,-16.00,3.00,-1002.00
2024-06-07 01:07:13.918410,0,0,14,0,2,0,73,74,126,90,78,121.20,118,7.00,-11.00,-984.00
2024-06-07 01:07:13.928540,0,0,14,0,2,0,73,74,125,90,78,121.21,118,7.00,-16.00,-981.00
2024-06-07 01:07:14.123067,0,0,14,0,2,0,73,74,126,90,78,121.21,118,0.00,-6.00,-996.00
2024-06-07 01:07:14.132689,-1,0,14,0,2,0,73,74,125,90,78,121.24,118,-10.00,4.00,-1003.00
2024-06-07 01:07:14.234653,0,0,14,0,2,0,73,74,125,90,78,121.23,118,-48.00,24.00,-1021.00
2024-06-07 01:07:14.434714,0,-1,14,0,2,0,73,74,125,90,78,121.16,118,1.00,-21.00,-1002.00
2024-06-07 01:07:14.438603,0,-3,14,0,1,0,71,74,126,90,78,121.17,118,0.00,-17.00,-1031.00
2024-06-07 01:07:14.635182,0,-4,14,0,1,0,71,74,126,90,78,121.20,119,15.00,0.00,-994.00
2024-06-07 01:07:14.644549,0,-2,14,0,0,0,71,74,125,90,78,121.16,119,-15.00,23.00,-1034.00
2024-06-07 01:07:14.745064,0,-1,14,0,0,0,71,74,125,90,78,121.18,119,-40.00,39.00,-992.00
2024-06-07 01:07:14.918216,0,-1,14,0,0,0,71,74,125,90,78,121.25,119,-42.00,15.00,-978.00
2024-06-07 01:07:14.948742,0,0,14,0,0,0,71,74,125,90,78,121.28,119,-9.00,10.00,-994.00
2024-06-07 01:07:15.147444,0,0,14,0,0,0,71,74,126,90,78,121.24,119,10.00,3.00,-1013.00
2024-06-07 01:07:15.152639,0,0,14,0,0,0,71,74,125,90,78,121.22,119,6.00,17.00,-1002.00
2024-06-07 01:07:15.254743,0,0,14,0,0,0,71,74,125,90,78,121.19,119,-10.00,16.00,-1042.00
2024-06-07 01:07:15.356640,0,0,14,0,0,0,71,74,125,90,78,121.18,119,2.00,0.00,-1013.00
2024-06-07 01:07:15.458622,0,0,14,0,0,0,72,75,125,90,78,121.22,119,-11.00,19.00,-1012.00
2024-06-07 01:07:15.659454,0,0,14,0,0,0,72,75,124,90,78,121.22,120,-15.00,7.00,-999.00
2024-06-07 01:07:15.662614,0,0,14,0,0,0,72,75,124,90,78,121.21,120,-7.00,12.00,-959.00
2024-06-07 01:07:15.765220,0,0,14,0,0,0,72,75,125,90,77,121.15,120,18.00,0.00,-954.00
2024-06-07 01:07:15.867459,0,0,14,0,0,0,72,75,125,90,77,121.15,120,23.00,-2.00,-1008.00
2024-06-07 01:07:15.969557,0,0,14,0,0,0,72,75,125,90,77,121.20,120,-10.00,23.00,-1024.00
2024-06-07 01:07:16.171078,0,0,14,0,0,0,72,75,125,90,77,121.18,120,16.00,0.00,-993.00
2024-06-07 01:07:16.173675,0,0,14,0,0,0,72,75,125,90,77,121.20,120,9.00,6.00,-1016.00
2024-06-07 01:07:16.275578,0,0,14,0,0,0,72,75,125,90,77,121.21,120,-30.00,32.00,-1024.00
2024-06-07 01:07:16.478791,0,0,14,0,0,0,72,75,125,90,77,121.17,120,-40.00,31.00,-1003.00
2024-06-07 01:07:16.479403,0,0,14,0,0,0,71,73,126,90,77,121.16,121,-12.00,16.00,-1016.00
2024-06-07 01:07:16.638669,0,0,14,0,0,0,71,73,125,90,77,121.18,121,-15.00,15.00,-1005.00
2024-06-07 01:07:16.687286,0,0,14,0,0,0,71,73,125,90,77,121.20,121,0.00,3.00,-992.00
2024-06-07 01:07:16.785497,0,0,17,0,0,0,71,73,125,90,77,121.15,121,56.00,-43.00,-1001.00
2024-06-07 01:07:16.888497,0,0,23,0,0,0,71,73,125,90,77,121.19,121,1.00,14.00,-992.00
2024-06-07 01:07:16.989835,0,0,29,0,0,0,71,73,125,90,77,121.21,121,4.00,-2.00,-991.00
2024-06-07 01:07:17.194723,0,0,35,0,0,0,71,73,125,90,77,121.20,121,8.00,7.00,-950.00
2024-06-07 01:07:17.194810,0,0,41,0,0,0,71,73,125,90,77,121.25,121,-27.00,26.00,-1023.00
2024-06-07 01:07:17.311085,0,0,47,0,0,0,71,73,125,90,77,121.23,121,1.00,2.00,-978.00
2024-06-07 01:07:17.422477,0,0,53,0,0,0,71,73,125,90,77,121.13,121,-29.00,30.00,-1019.00
2024-06-07 01:07:17.448300,0,0,59,0,0,0,72,74,125,90,77,121.25,122,-5.00,11.00,-1000.00
2024-06-07 01:07:17.594297,0,0,65,0,0,0,72,74,125,90,77,121.23,122,1.00,3.00,-1004.00
2024-06-07 01:07:17.652297,0,0,71,0,0,0,72,74,126,90,77,121.23,122,7.00,3.00,-1013.00
2024-06-07 01:07:17.760188,0,0,77,0,0,0,72,74,126,90,77,121.19,122,-5.00,9.00,-986.00
2024-06-07 01:07:17.856515,0,0,83,0,0,0,72,74,126,90,77,121.25,122,2.00,0.00,-997.00
2024-06-07 01:07:17.958272,0,0,89,0,0,0,72,74,126,90,77,121.22,122,0.00,12.00,-982.00
2024-06-07 01:07:18.110624,0,0,95,0,0,0,72,74,126,90,77,121.23,122,-5.00,7.00,-1008.00
2024-06-07 01:07:18.162175,0,0,101,0,0,0,72,74,126,90,77,121.20,122,23.00,-3.00,-989.00
2024-06-07 01:07:18.292960,0,0,107,0,0,0,72,74,127,90,77,121.21,122,9.00,10.00,-1033.00
2024-06-07 01:07:18.366244,0,0,113,0,0,0,72,74,127,90,77,121.22,122,0.00,-1.00,-988.00
2024-06-07 01:07:18.536964,0,0,119,0,0,0,71,73,126,90,77,121.18,123,-6.00,24.00,-1012.00
2024-06-07 01:07:18.680373,0,0,126,0,0,0,71,73,127,90,77,121.19,123,6.00,2.00,-991.00
2024-06-07 01:07:18.680550,0,0,132,0,0,0,71,73,126,90,77,121.23,123,-9.00,12.00,-959.00
2024-06-07 01:07:18.844185,0,0,138,0,0,0,71,73,126,90,77,121.23,123,19.00,6.00,-1036.00
2024-06-07 01:07:18.987710,0,0,144,0,0,0,71,73,126,90,77,121.20,123,4.00,5.00,-1002.00
2024-06-07 01:07:18.988068,0,0,150,0,0,0,71,73,126,90,77,121.15,123,-39.00,14.00,-999.00
2024-06-07 01:07:19.155676,0,0,156,0,0,0,71,73,126,90,77,121.14,123,11.00,-1.00,-974.00
2024-06-07 01:07:19.299008,0,0,162,0,0,0,71,73,125,90,77,121.16,123,-1.00,7.00,-968.00
2024-06-07 01:07:19.299196,0,0,168,0,0,0,71,73,125,90,77,121.22,123,1.00,7.00,-1026.00
2024-06-07 01:07:19.459461,0,0,174,0,0,0,71,73,125,90,77,121.22,123,-3.00,1.00,-1000.00
2024-06-07 01:07:19.613867,0,0,-179,0,0,0,72,74,125,90,77,121.26,124,-11.00,10.00,-1022.00
2024-06-07 01:07:19.613951,0,0,-173,0,0,0,72,74,124,90,77,121.14,124,1.00,3.00,-1027.00
2024-06-07 01:07:19.692136,0,0,-167,0,0,0,72,74,125,90,77,121.17,124,5.00,0.00,-1026.00
2024-06-07 01:07:19.794175,0,0,-162,0,0,0,72,74,125,90,77,121.17,124,-3.00,0.00,-1002.00
2024-06-07 01:07:19.896379,0,0,-156,0,0,0,72,74,125,90,77,121.13,124,-6.00,1.00,-1000.00
2024-06-07 01:07:20.062036,0,0,-150,0,0,0,72,74,125,90,77,121.18,124,13.00,-6.00,-984.00
2024-06-07 01:07:20.100055,0,0,-144,0,0,0,72,74,125,90,77,121.20,124,0.00,11.00,-991.00
2024-06-07 01:07:20.266898,0,0,-138,0,0,0,72,74,126,90,77,121.27,124,1.00,0.00,-995.00
2024-06-07 01:07:20.304080,0,0,-132,0,0,0,72,74,126,90,77,121.24,124,-12.00,15.00,-1022.00
2024-06-07 01:07:20.471647,0,0,-126,0,0,0,72,74,126,90,77,121.16,124,-50.00,26.00,-973.00
2024-06-07 01:07:20.508048,0,0,-120,0,0,0,71,74,126,90,77,121.22,125,29.00,-20.00,-937.00
2024-06-07 01:07:20.676446,0,0,-114,0,0,0,71,74,126,90,77,121.22,125,5.00,0.00,-942.00
2024-06-07 01:07:20.712055,0,0,-109,0,0,0,71,74,126,90,77,121.25,125,2.00,0.00,-1034.00
2024-06-07 01:07:20.881262,0,0,-103,0,0,0,71,74,126,90,76,121.16,125,0.00,13.00,-995.00
2024-06-07 01:07:20.916015,0,0,-97,0,0,0,71,74,126,90,76,121.22,125,8.00,2.00,-1005.00
2024-06-07 01:07:21.018079,0,0,-91,0,0,0,71,74,125,90,76,121.23,125,-3.00,6.00,-999.00
2024-06-07 01:07:21.069022,0,0,-85,0,0,0,71,74,125,90,76,121.19,125,-3.00,9.00,-997.00
2024-06-07 01:07:21.188441,0,0,-79,0,0,0,71,74,125,90,76,121.21,125,-4.00,5.00,-988.00
2024-06-07 01:07:21.273006,0,0,-74,0,0,0,71,74,125,90,76,121.26,125,4.00,-7.00,-995.00
2024-06-07 01:07:21.374978,0,0,-68,0,0,0,71,74,124,90,76,121.16,125,-9.00,5.00,-992.00
2024-06-07 01:07:21.476989,0,0,-62,0,0,0,71,73,125,90,76,121.14,126,-20.00,15.00,-1011.00
2024-06-07 01:07:21.598039,0,0,-56,0,0,0,71,73,125,90,76,121.14,126,-14.00,17.00,-1007.00
2024-06-07 01:07:21.680955,0,0,-50,0,0,0,71,73,125,90,76,121.18,126,14.00,2.00,-1018.00
2024-06-07 01:07:21.783062,0,0,-44,0,0,0,71,73,126,90,76,121.22,126,2.00,-12.00,-985.00
2024-06-07 01:07:21.887613,0,0,-38,0,0,0,71,73,126,90,76,121.24,126,-29.00,18.00,-1001.00
2024-06-07 01:07:21.986982,0,0,-32,0,0,0,71,73,126,90,76,121.14,126,-7.00,4.00,-997.00
2024-06-07 01:07:22.117545,0,0,-26,0,0,0,71,73,126,90,76,121.13,126,-9.00,12.00,-974.00
2024-06-07 01:07:22.190884,0,0,-20,0,0,0,71,73,126,90,76,121.17,126,-9.00,4.00,-984.00
2024-06-07 01:07:22.314761,0,0,-14,0,0,0,71,73,126,90,76,121.20,126,15.00,10.00,-1028.00
2024-06-07 01:07:22.395176,0,0,-8,0,0,0,71,73,126,90,76,121.10,126,-12.00,17.00,-989.00
2024-06-07 01:07:22.519763,0,0,-3,0,0,0,71,73,126,90,76,121.24,127,21.00,-9.00,-996.00
2024-06-07 01:07:22.598819,0,0,0,0,0,0,71,73,126,90,76,121.26,127,-37.00,26.00,-1031.00
2024-06-07 01:07:22.701673,0,0,4,0,0,0,71,73,127,90,76,121.23,127,11.00,-1.00,-990.00
2024-06-07 01:07:22.803206,0,0,6,0,0,0,71,73,126,90,76,121.19,127,-9.00,7.00,-959.00
2024-06-07 01:07:22.929471,0,0,8,0,0,0,71,73,127,90,76,121.21,127,-5.00,20.00,-1026.00
2024-06-07 01:07:23.007186,0,0,10,0,0,0,71,73,126,90,76,121.15,127,18.00,-19.00,-1004.00
2024-06-07 01:07:23.134007,0,0,11,0,0,0,71,73,126,90,76,121.20,127,3.00,7.00,-1009.00
2024-06-07 01:07:23.212350,0,0,12,0,0,0,71,73,127,90,76,121.23,127,-16.00,12.00,-989.00
2024-06-07 01:07:23.316410,0,0,12,0,0,0,71,73,126,90,76,121.23,127,-25.00,-10.00,-907.00
2024-06-07 01:07:23.415063,0,0,13,0,0,0,71,73,126,90,76,121.20,127,-8.00,23.00,-1010.00
2024-06-07 01:07:23.548759,0,0,13,0,0,0,72,74,127,90,76,121.17,128,12.00,-13.00,-984.00
2024-06-07 01:07:23.619000,0,0,13,0,0,0,72,74,127,90,76,121.13,128,-2.00,3.00,-1000.00
2024-06-07 01:07:23.748527,0,0,13,0,0,0,72,74,127,90,76,121.15,128,3.00,2.00,-1011.00
2024-06-07 01:07:23.827717,0,0,13,0,0,0,72,74,127,90,76,121.27,128,0.00,4.00,-1021.00
2024-06-07 01:07:23.924865,0,0,13,0,0,0,72,74,127,90,76,121.26,128,-4.00,15.00,-1033.00
2024-06-07 01:07:24.056013,0,0,13,0,0,0,72,74,126,90,76,121.17,128,-24.00,22.00,-983.00
2024-06-07 01:07:24.128813,0,0,13,0,0,0,72,74,127,90,76,121.19,128,-24.00,19.00,-1010.00
2024-06-07 01:07:24.260571,0,0,13,0,0,0,72,74,127,90,76,121.20,128,-39.00,19.00,-978.00
2024-06-07 01:07:24.332970,0,0,13,0,0,0,72,74,127,90,76,121.17,128,-8.00,10.00,-1000.00
2024-06-07 01:07:24.465194,0,0,13,0,0,0,72,74,127,90,76,121.15,128,0.00,13.00,-1000.00
2024-06-07 01:07:24.536823,0,0,13,0,0,0,71,73,127,90,76,121.17,129,-5.00,12.00,-980.00
2024-06-07 01:07:24.670033,0,0,13,0,0,0,71,73,127,90,76,121.18,129,-38.00,26.00,-939.00
2024-06-07 01:07:24.740957,0,0,13,0,0,0,71,73,127,90,76,121.14,129,20.00,11.00,-1004.00
2024-06-07 01:07:24.874658,0,0,13,0,0,0,71,73,127,90,76,121.25,129,17.00,2.00,-1025.00
2024-06-07 01:07:24.896122,0,0,13,0,0,0,71,73,127,90,76,121.27,129,2.00,0.00,-998.00
2024-06-07 01:07:24.996793,0,0,13,0,0,0,71,73,127,90,76,121.18,129,-15.00,14.00,-1036.00
2024-06-07 01:07:25.098745,0,0,13,0,0,0,71,73,127,90,76,121.19,129,17.00,-10.00,-977.00
2024-06-07 01:07:25.200929,0,0,13,0,0,0,71,73,127,90,76,121.27,129,10.00,9.00,-966.00
2024-06-07 01:07:25.301860,0,0,13,0,0,0,71,73,127,90,76,121.29,129,1.00,7.00,-992.00
2024-06-07 01:07:25.403604,0,0,13,0,0,0,71,73,126,90,76,121.26,129,0.00,9.00,-985.00
2024-06-07 01:07:25.506697,0,0,9,0,0,0,71,74,127,90,76,121.27,130,64.00,-24.00,-1011.00
2024-06-07 01:07:25.607645,0,0,3,0,0,0,71,74,126,90,76,121.25,130,-6.00,21.00,-1035.00
2024-06-07 01:07:25.710329,0,0,-2,0,0,0,71,74,127,90,76,121.28,130,17.00,-12.00,-987.00
2024-06-07 01:07:25.898600,0,0,-8,0,0,0,71,74,127,90,76,121.20,130,32.00,-8.00,-991.00
2024-06-07 01:07:25.914696,0,0,-14,0,0,0,71,74,126,90,76,121.22,130,-18.00,19.00,-999.00
2024-06-07 01:07:26.103379,0,0,-20,0,0,0,71,74,126,90,76,121.31,130,11.00,1.00,-989.00
2024-06-07 01:07:26.117586,0,0,-26,0,0,0,71,74,126,90,76,121.27,130,19.00,2.00,-992.00
2024-06-07 01:07:26.308206,0,0,-32,0,0,0,71,74,127,90,76,121.27,130,-9.00,24.00,-1001.00
2024-06-07 01:07:26.321582,0,0,-38,0,0,0,71,74,126,90,76,121.23,130,-11.00,20.00,-1015.00
2024-06-07 01:07:26.518531,0,0,-44,0,0,0,71,74,126,90,76,121.23,130,-13.00,20.00,-1006.00
2024-06-07 01:07:26.527000,0,0,-49,0,0,0,71,74,125,90,76,121.23,131,-27.00,14.00,-1006.00
2024-06-07 01:07:26.717782,0,0,-55,0,0,0,71,74,126,90,76,121.26,131,-11.00,32.00,-1033.00
2024-06-07 01:07:26.731529,0,0,-61,0,0,0,71,74,126,90,76,121.29,131,26.00,25.00,-1050.00
2024-06-07 01:07:26.831538,0,0,-67,0,0,0,71,74,125,90,76,121.26,131,-14.00,20.00,-1013.00
2024-06-07 01:07:26.933667,0,0,-73,0,0,0,71,74,126,90,76,121.21,131,3.00,19.00,-1000.00
2024-06-07 01:07:27.127445,0,0,-79,0,0,0,71,74,125,90,76,121.28,131,3.00,19.00,-1006.00
2024-06-07 01:07:27.138603,0,0,-85,0,0,0,71,74,125,90,76,121.30,131,-22.00,34.00,-1017.00
2024-06-07 01:07:27.332132,0,0,-91,0,0,0,71,74,125,90,76,121.23,131,12.00,3.00,-972.00
2024-06-07 01:07:27.342538,0,0,-97,0,0,0,71,74,124,90,76,121.29,131,-6.00,30.00,-1033.00
2024-06-07 01:07:27.537421,0,0,-103,0,0,0,71,74,124,90,76,121.24,131,-1.00,14.00,-1005.00
2024-06-07 01:07:27.546518,0,0,-110,0,0,0,72,74,124,90,76,121.22,132,-36.00,26.00,-1040.00
2024-06-07 01:07:27.648848,0,-1,-116,0,0,0,72,74,125,90,76,121.26,132,-9.00,22.00,-878.00
2024-06-07 01:07:27.844181,0,0,-122,0,0,0,72,74,125,90,76,121.29,132,23.00,10.00,-1021.00
2024-06-07 01:07:27.853392,0,0,-128,0,0,0,72,74,125,90,76,121.28,132,4.00,15.00,-1044.00
2024-06-07 01:07:27.956323,0,0,-134,0,0,0,72,74,124,90,76,121.28,132,-7.00,18.00,-1005.00
2024-06-07 01:07:28.056645,0,0,-140,0,0,0,72,74,124,90,76,121.28,132,-29.00,27.00,-1034.00
2024-06-07 01:07:28.160456,0,0,-146,0,0,0,72,74,124,90,76,121.25,132,-32.00,8.00,-964.00
2024-06-07 01:07:28.260457,0,0,-152,0,0,0,72,74,124,90,76,121.28,132,-13.00,19.00,-1000.00
2024-06-07 01:07:28.458596,0,0,-158,0,0,0,72,74,125,90,76,121.31,132,-15.00,10.00,-997.00
2024-06-07 01:07:28.458650,0,0,-164,0,0,0,72,74,124,90,76,121.31,132,-14.00,11.00,-1044.00
2024-06-07 01:07:28.566450,0,0,-170,0,0,0,71,74,124,90,76,121.25,133,-20.00,22.00,-1003.00
2024-06-07 01:07:28.765763,-1,0,-176,0,0,0,71,74,124,90,76,121.29,133,8.00,-13.00,-985.00
2024-06-07 01:07:28.770505,-1,0,177,0,0,0,71,74,124,90,75,121.27,133,-30.00,7.00,-994.00
2024-06-07 01:07:28.872834,0,0,171,0,0,0,71,74,124,90,75,121.28,133,33.00,-16.00,-977.00
2024-06-07 01:07:28.923406,0,0,165,0,0,0,71,74,123,90,75,121.21,133,2.00,-8.00,-1022.00
2024-06-07 01:07:29.073591,0,0,159,0,0,0,71,74,123,90,75,121.27,133,-19.00,0.00,-990.00
2024-06-07 01:07:29.127557,0,0,153,0,0,0,71,74,124,90,75,121.23,133,-6.00,-3.00,-1008.00
2024-06-07 01:07:29.229480,0,0,147,0,0,0,71,74,123,90,75,121.23,133,-36.00,17.00,-974.00
2024-06-07 01:07:29.331291,0,0,141,0,0,0,71,74,124,90,75,121.23,133,-2.00,-14.00,-1009.00
2024-06-07 01:07:29.482490,0,0,135,0,0,0,71,74,123,90,75,121.22,133,-15.00,0.00,-1022.00
2024-06-07 01:07:29.535526,0,0,129,0,0,0,72,75,123,90,75,121.27,134,1.00,0.00,-1021.00
2024-06-07 01:07:29.637316,0,0,123,0,0,0,72,75,123,90,75,121.31,134,-11.00,1.00,-999.00
2024-06-07 01:07:29.792569,0,0,117,0,0,0,72,75,124,90,75,121.15,134,-17.00,-1.00,-1014.00
2024-06-07 01:07:29.841388,0,0,111,0,0,0,72,75,124,90,75,121.20,134,-2.00,-8.00,-1015.00
2024-06-07 01:07:29.943408,0,0,105,0,0,0,72,75,124,90,75,121.26,134,-31.00,7.00,-1012.00
2024-06-07 01:07:30.096855,0,0,99,0,0,0,72,75,124,90,75,121.29,134,-5.00,0.00,-1000.00
2024-06-07 01:07:30.149338,0,0,93,0,0,0,72,75,125,90,75,121.19,134,-22.00,11.00,-1029.00
2024-06-07 01:07:30.249776,0,0,87,0,0,0,72,75,125,90,75,121.21,134,-48.00,19.00,-980.00
2024-06-07 01:07:30.404051,0,0,80,0,0,0,72,75,125,90,75,121.28,134,-16.00,6.00,-1027.00
2024-06-07 01:07:30.453342,0,0,74,0,0,0,72,75,126,90,75,121.28,134,-1.00,-5.00,-954.00
2024-06-07 01:07:30.555210,0,0,68,0,0,0,72,74,126,90,75,121.28,135,-19.00,0.00,-955.00
2024-06-07 01:07:30.711276,0,0,62,0,0,0,72,74,127,90,75,121.27,135,12.00,-6.00,-1000.00
2024-06-07 01:07:30.759220,0,0,57,0,0,0,72,74,127,90,75,121.23,135,-4.00,-7.00,-965.00
2024-06-07 01:07:30.917531,0,0,51,0,0,0,72,74,127,90,75,121.29,135,20.00,-12.00,-999.00
2024-06-07 01:07:30.963195,0,0,45,0,0,0,72,74,127,90,75,121.24,135,-13.00,-2.00,-997.00
2024-06-07 01:07:31.065223,0,0,39,0,0,0,72,74,127,90,75,121.31,135,-22.00,7.00,-1003.00
2024-06-07 01:07:31.223228,0,0,33,0,0,0,72,74,127,90,75,121.24,135,6.00,-5.00,-1029.00
2024-06-07 01:07:31.269492,0,0,29,0,0,0,72,74,127,90,75,121.23,135,-2.00,-7.00,-988.00
2024-06-07 01:07:31.427941,0,0,25,0,0,0,72,74,126,90,75,121.24,135,-18.00,-11.00,-989.00
2024-06-07 01:07:31.473423,0,0,22,0,0,0,72,74,126,90,75,121.24,135,-36.00,20.00,-999.00
2024-06-07 01:07:31.632822,0,0,18,0,0,0,71,74,126,90,75,121.20,136,19.00,-10.00,-972.00
2024-06-07 01:07:31.678337,0,0,17,0,0,0,71,74,126,90,75,121.23,136,-7.00,6.00,-1006.00
2024-06-07 01:07:31.837594,0,0,16,0,0,0,71,74,125,90,75,121.26,136,7.00,-3.00,-1008.00
2024-06-07 01:07:31.881202,0,0,15,0,0,0,71,74,125,90,75,121.13,136,2.00,1.00,-1045.00
2024-06-07 01:07:32.144845,0,0,15,0,0,0,71,74,125,90,75,121.23,136,6.00,-6.00,-966.00
2024-06-07 01:07:32.145219,0,0,14,0,0,0,71,74,125,90,75,121.21,136,20.00,-10.00,-1007.00
2024-06-07 01:07:32.187143,0,0,14,0,0,0,71,74,125,90,75,121.21,136,5.00,-2.00,-975.00
2024-06-07 01:07:32.362671,0,0,14,0,0,0,71,74,125,90,75,121.27,136,-11.00,4.00,-1032.00
2024-06-07 01:07:32.474847,0,0,14,0,0,0,71,74,125,90,75,121.21,136,-21.00,11.00,-1002.00
2024-06-07 01:07:32.475032,0,0,14,0,0,0,71,74,126,90,75,121.15,137,14.00,-21.00,-1022.00
2024-06-07 01:07:32.647311,0,0,14,0,0,0,72,73,126,90,75,121.26,137,12.00,-13.00,-1015.00
2024-06-07 01:07:32.700120,0,0,14,0,0,0,72,73,126,90,75,121.22,137,-34.00,0.00,-900.00
2024-06-07 01:07:32.829025,0,0,14,0,0,0,72,73,126,90,75,121.22,137,-13.00,-1.00,-987.00
2024-06-07 01:07:32.850132,0,0,14,0,0,0,72,73,126,90,75,121.16,137,24.00,-18.00,-994.00
2024-06-07 01:07:32.990334,0,0,14,0,0,0,72,73,127,90,75,121.19,137,-33.00,5.00,-987.00
2024-06-07 01:07:33.054317,0,0,14,0,0,0,72,73,127,90,75,121.26,137,-30.00,-4.00,-980.00
2024-06-07 01:07:33.158783,0,0,14,0,0,0,72,73,127,90,75,121.23,137,12.00,-8.00,-997.00
2024-06-07 01:07:33.341223,0,0,14,0,0,0,72,73,126,90,75,121.20,137,0.00,-10.00,-982.00
2024-06-07 01:07:33.359952,0,0,14,0,0,0,72,73,126,90,75,121.19,137,6.00,-4.00,-999.00
2024-06-07 01:07:33.477604,0,0,14,0,0,0,72,73,127,90,75,121.26,138,-10.00,-6.00,-990.00
2024-06-07 01:07:33.590035,0,0,14,0,0,0,72,73,127,90,75,121.25,138,52.00,-27.00,-966.00
2024-06-07 01:07:33.733478,0,0,14,0,0,0,72,73,128,90,75,121.22,138,2.00,6.00,-1037.00
2024-06-07 01:07:33.774237,0,0,14,0,0,0,72,73,127,90,74,121.13,138,29.00,-18.00,-995.00
2024-06-07 01:07:33.896533,0,0,14,0,0,0,72,73,127,90,74,121.16,138,-38.00,14.00,-997.00
2024-06-07 01:07:33.972079,0,0,14,0,0,0,72,73,128,90,74,121.17,138,8.00,-16.00,-1043.00
2024-06-07 01:07:34.096665,0,0,14,0,0,0,72,73,129,90,74,121.24,138,-3.00,-9.00,-1013.00
2024-06-07 01:07:34.175929,0,0,14,0,0,0,72,73,128,90,74,121.26,138,13.00,-10.00,-984.00
2024-06-07 01:07:34.295086,0,0,14,0,0,0,72,73,129,90,74,121.24,138,-14.00,15.00,-1031.00
2024-06-07 01:07:34.379956,0,0,14,0,0,-6,72,73,131,100,74,121.31,138,-28.00,36.00,-1654.00
2024-06-07 01:07:34.499965,0,-29,14,0,0,-11,72,73,140,100,74,121.55,139,9.00,110.00,-1320.00
2024-06-07 01:07:34.584249,0,-141,15,1,-8,-7,71,73,458,120,74,121.58,139,6.00,547.00,-1009.00
2024-06-07 01:07:34.709761,1,95,14,2,-8,8,71,73,185,120,74,121.61,139,-42.00,551.00,-880.00
2024-06-07 01:07:34.787917,0,1,12,0,-3,12,71,73,178,100,74,121.68,139,12.00,258.00,-1406.00
2024-06-07 01:07:34.909471,0,-1,12,0,-4,9,71,73,137,90,74,121.23,139,93.00,-139.00,-1380.00
2024-06-07 01:07:34.991904,0,4,13,1,-3,5,71,73,129,90,74,121.17,139,0.00,25.00,-1424.00
2024-06-07 01:07:35.093892,0,3,14,0,-2,2,71,73,125,80,74,121.23,139,-40.00,14.00,-1295.00
2024-06-07 01:07:35.216554,0,2,14,0,-2,0,71,73,124,80,74,121.16,139,44.00,-19.00,-1169.00
2024-06-07 01:07:35.297883,0,1,14,0,-1,0,71,73,126,80,74,121.27,139,52.00,-24.00,-1097.00
2024-06-07 01:07:35.425610,0,1,14,0,-1,-1,71,73,129,80,74,121.23,139,0.00,11.00,-1047.00
2024-06-07 01:07:35.501982,0,0,14,0,0,-1,71,73,131,80,74,121.26,140,0.00,3.00,-1052.00
2024-06-07 01:07:35.629022,0,0,14,0,0,-1,72,74,135,90,74,121.28,140,-6.00,3.00,-927.00
2024-06-07 01:07:35.705790,0,1,14,0,0,0,72,74,137,90,74,121.28,140,-2.00,8.00,-936.00
2024-06-07 01:07:35.830991,0,1,14,0,0,0,72,74,139,90,74,121.35,140,1.00,8.00,-1025.00
2024-06-07 01:07:35.909831,0,0,14,0,0,0,72,74,140,90,74,121.44,140,43.00,-22.00,-966.00
2024-06-07 01:07:36.035861,0,0,14,0,0,0,72,74,141,90,74,121.39,140,10.00,3.00,-943.00
2024-06-07 01:07:36.113792,0,0,14,0,0,0,72,74,141,90,74,121.34,140,3.00,-18.00,-960.00
2024-06-07 01:07:36.164812,0,0,14,0,0,0,72,74,141,90,74,121.31,140,-20.00,25.00,-999.00
2024-06-07 01:07:36.343070,0,0,14,0,0,0,72,74,141,90,74,121.37,140,-15.00,8.00,-998.00
2024-06-07 01:07:36.369048,0,1,14,0,0,0,72,74,141,90,74,121.35,140,0.00,2.00,-991.00
2024-06-07 01:07:36.547791,0,1,14,0,0,0,72,74,141,90,74,121.39,141,9.00,-18.00,-978.00
2024-06-07 01:07:36.572723,0,1,14,0,0,0,71,74,140,90,74,121.36,141,-20.00,22.00,-1018.00
2024-06-07 01:07:36.752557,0,0,14,0,0,0,71,74,141,90,74,121.37,141,-5.00,4.00,-994.00
2024-06-07 01:07:36.776713,0,0,14,0,0,0,71,74,140,90,73,121.33,141,-1.00,-9.00,-989.00
2024-06-07 01:07:36.957670,0,0,14,0,0,0,71,74,140,90,73,121.36,141,-9.00,-4.00,-1018.00
2024-06-07 01:07:36.982579,0,0,14,0,0,0,71,74,140,90,73,121.31,141,5.00,0.00,-1049.00
2024-06-07 01:07:37.082706,0,0,14,0,0,0,71,74,140,90,73,121.36,141,-17.00,23.00,-1023.00
2024-06-07 01:07:37.264521,0,0,14,0,0,0,71,74,140,90,73,121.34,141,2.00,4.00,-994.00
2024-06-07 01:07:37.286698,0,0,14,0,0,0,71,74,140,90,73,121.27,141,2.00,-2.00,-977.00
2024-06-07 01:07:37.469398,0,0,14,0,0,0,71,74,140,90,73,121.30,141,-8.00,0.00,-982.00
2024-06-07 01:07:37.490692,0,0,14,0,0,0,71,74,139,90,73,121.27,142,-20.00,1.00,-921.00
2024-06-07 01:07:37.674285,0,0,14,0,0,0,72,73,139,90,73,121.37,142,-6.00,-7.00,-1002.00
2024-06-07 01:07:37.694679,0,0,14,0,0,0,72,73,139,90,73,121.37,142,-16.00,12.00,-1009.00
2024-06-07 01:07:37.796753,0,0,14,0,0,0,72,73,139,90,73,121.34,142,-16.00,13.00,-991.00
2024-06-07 01:07:37.981560,0,0,14,0,0,0,72,73,138,90,73,121.31,142,-7.00,-2.00,-1002.00
2024-06-07 01:07:38.001138,0,0,14,0,0,0,72,73,137,90,73,121.32,142,-26.00,18.00,-1063.00
2024-06-07 01:07:38.186735,0,0,14,0,0,0,72,73,137,90,73,121.29,142,-23.00,0.00,-951.00
2024-06-07 01:07:38.204635,0,0,14,0,0,0,72,73,136,90,73,121.34,142,-14.00,-10.00,-1014.00
2024-06-07 01:07:38.306687,0,0,14,0,0,0,72,73,138,90,73,121.35,142,3.00,-11.00,-1002.00
2024-06-07 01:07:38.493438,0,0,14,0,0,0,72,73,137,90,73,121.34,142,0.00,-7.00,-984.00
2024-06-07 01:07:38.510680,0,0,14,0,0,0,72,73,136,90,73,121.36,143,2.00,-11.00,-1031.00
2024-06-07 01:07:38.698845,0,0,14,0,0,0,71,74,136,90,73,121.32,143,-11.00,-3.00,-976.00
2024-06-07 01:07:38.714781,0,0,14,0,0,0,71,74,136,90,73,121.34,143,-17.00,-2.00,-1017.00
2024-06-07 01:07:38.904106,0,0,14,0,0,0,71,74,136,90,73,121.29,143,-26.00,5.00,-1020.00
2024-06-07 01:07:38.918647,0,0,14,0,0,0,71,74,136,90,73,121.31,143,-25.00,0.00,-1004.00
2024-06-07 01:07:39.107828,0,0,14,0,0,0,71,74,136,90,73,121.28,143,-26.00,-1.00,-1022.00
2024-06-07 01:07:39.122542,0,0,14,0,0,0,71,74,137,90,73,121.27,143,-10.00,-6.00,-1068.00
2024-06-07 01:07:39.312586,0,0,14,0,0,0,71,74,137,90,73,121.31,143,-6.00,-11.00,-1010.00
2024-06-07 01:07:39.326499,0,0,14,0,0,0,71,74,137,90,73,121.34,143,-19.00,20.00,-1014.00
2024-06-07 01:07:39.517566,0,0,14,0,0,0,71,74,137,90,73,121.32,143,7.00,-11.00,-977.00
2024-06-07 01:07:39.531766,0,0,14,0,0,0,71,74,137,90,73,121.30,144,2.00,-8.00,-1018.00
2024-06-07 01:07:39.722129,0,0,14,0,0,0,72,73,137,90,73,121.30,144,-31.00,16.00,-993.00
2024-06-07 01:07:39.734627,0,0,14,0,0,0,72,73,137,90,73,121.27,144,-2.00,-6.00,-1009.00
2024-06-07 01:07:39.927019,-1,0,14,0,0,0,72,73,137,90,73,121.22,144,-28.00,-5.00,-1034.00
2024-06-07 01:07:39.939560,-1,0,14,0,0,0,72,73,138,90,73,121.30,144,-6.00,-9.00,-977.00
2024-06-07 01:07:40.040680,-1,0,14,0,0,0,72,73,138,90,73,121.31,144,-25.00,-4.00,-1035.00
2024-06-07 01:07:40.093596,0,0,14,0,0,0,72,73,138,90,73,121.30,144,0.00,-19.00,-973.00
2024-06-07 01:07:40.193691,0,0,14,0,0,0,72,73,138,90,73,121.38,144,-7.00,-4.00,-997.00
2024-06-07 01:07:40.337504,0,0,14,0,0,0,72,73,139,90,73,121.32,144,-37.00,10.00,-981.00
2024-06-07 01:07:40.397842,0,0,14,0,0,0,72,73,138,90,73,121.36,144,-3.00,-22.00,-970.00
2024-06-07 01:07:40.500403,0,0,14,0,0,0,72,73,138,90,73,121.32,145,-22.00,-2.00,-953.00
2024-06-07 01:07:40.601611,0,0,14,0,0,0,71,73,139,90,73,121.37,145,-34.00,12.00,-997.00
2024-06-07 01:07:40.750012,0,0,14,0,0,0,71,73,139,90,73,121.37,145,-19.00,-7.00,-993.00
2024-06-07 01:07:40.805642,-1,0,14,0,0,0,71,73,139,90,73,121.40,145,-26.00,22.00,-1010.00
2024-06-07 01:07:40.955342,0,0,14,0,0,0,71,73,139,90,73,121.42,145,-47.00,0.00,-1417.00
2024-06-07 01:07:41.009466,0,1,14,0,0,-5,71,73,145,90,73,121.52,145,-30.00,71.00,-1672.00
2024-06-07 01:07:41.159599,0,23,14,-1,1,-12,71,73,179,100,73,121.57,145,-48.00,-2.00,-1730.00
2024-06-07 01:07:41.213274,0,128,13,-3,8,-9,71,73,194,120,73,121.78,145,-19.00,796.00,-1094.00
2024-06-07 01:07:41.360666,2,-106,15,-3,8,6,71,73,500,120,73,121.78,145,17.00,749.00,-825.00
2024-06-07 01:07:41.417444,0,-5,17,-1,3,11,71,73,153,110,73,121.63,145,-15.00,527.00,-932.00
2024-06-07 01:07:41.519968,0,5,16,-2,4,9,71,73,142,100,73,121.42,146,-51.00,4.00,-1404.00
2024-06-07 01:07:41.667540,0,-4,15,-2,5,5,71,73,136,90,73,121.31,146,-2.00,-9.00,-1415.00
2024-06-07 01:07:41.723323,0,-5,15,-1,3,2,71,73,134,80,73,121.27,146,-74.00,-3.00,-1334.00
2024-06-07 01:07:41.880410,-1,-3,14,-1,2,0,71,73,133,80,73,121.31,146,21.00,-25.00,-1149.00
2024-06-07 01:07:41.927239,0,-1,14,-1,2,-1,71,73,135,80,73,121.35,146,-3.00,4.00,-1112.00
2024-06-07 01:07:42.077058,0,0,14,0,1,-1,71,73,136,80,73,121.43,146,-16.00,16.00,-951.00
2024-06-07 01:07:42.131193,0,0,14,0,1,-1,71,73,139,90,73,121.34,146,2.00,-7.00,-974.00
2024-06-07 01:07:42.281881,0,0,14,0,1,-1,71,73,140,90,73,121.30,146,0.00,0.00,-1010.00
2024-06-07 01:07:42.337797,0,0,14,0,1,-1,71,73,143,90,73,121.38,146,-21.00,0.00,-995.00
2024-06-07 01:07:42.437279,0,-2,14,0,0,0,71,73,145,90,73,121.38,146,9.00,-17.00,-989.00
2024-06-07 01:07:42.589057,0,-2,14,0,0,0,71,73,145,90,73,121.45,147,3.00,-18.00,-959.00
2024-06-07 01:07:42.644031,0,-1,14,0,0,0,71,74,146,90,73,121.39,147,11.00,-13.00,-1021.00
2024-06-07 01:07:42.743225,0,0,14,0,0,0,71,74,148,90,73,121.45,147,0.00,-9.00,-952.00
2024-06-07 01:07:42.896357,0,0,14,0,0,0,71,74,147,90,73,121.44,147,0.00,-4.00,-999.00
2024-06-07 01:07:42.947190,0,0,14,0,0,0,71,74,147,90,73,121.44,147,8.00,-3.00,-987.00
2024-06-07 01:07:43.101257,0,0,14,0,0,0,71,74,147,90,73,121.36,147,10.00,-7.00,-952.00
2024-06-07 01:07:43.151304,0,0,14,0,0,0,71,74,147,90,73,121.44,147,-4.00,7.00,-993.00
2024-06-07 01:07:43.305812,0,0,14,0,0,0,71,74,147,90,73,121.43,147,-8.00,-7.00,-990.00
2024-06-07 01:07:43.355164,0,0,14,0,0,0,71,74,146,90,73,121.38,147,14.00,0.00,-996.00
2024-06-07 01:07:43.406117,0,0,14,0,0,0,71,74,146,90,73,121.34,147,-2.00,-5.00,-979.00
2024-06-07 01:07:43.510705,0,0,14,0,0,0,71,74,145,90,73,121.42,148,-1.00,-2.00,-1021.00
2024-06-07 01:07:43.661131,0,0,14,0,0,0,71,74,145,90,73,121.47,148,-29.00,13.00,-1040.00
2024-06-07 01:07:43.712025,0,0,14,0,0,0,71,74,145,90,72,121.37,148,0.00,10.00,-985.00
2024-06-07 01:07:43.817830,0,0,14,0,0,0,71,74,144,90,72,121.38,148,-12.00,10.00,-1027.00
2024-06-07 01:07:43.916097,0,0,14,0,0,0,71,74,144,90,72,121.35,148,-33.00,21.00,-933.00
2024-06-07 01:07:44.022715,0,0,14,0,0,0,71,74,144,90,72,121.39,148,-8.00,6.00,-1003.00
2024-06-07 01:07:44.120023,0,0,14,0,0,0,71,74,144,90,72,121.36,148,-34.00,4.00,-1023.00
2024-06-07 01:07:44.223410,0,0,14,0,0,0,71,74,143,90,72,121.35,148,-28.00,28.00,-1045.00
2024-06-07 01:07:44.324229,0,0,14,0,0,0,71,74,144,90,72,121.38,148,9.00,-2.00,-979.00
2024-06-07 01:07:44.429863,0,0,14,0,0,0,71,74,144,90,72,121.41,148,-14.00,5.00,-1000.00
2024-06-07 01:07:44.528248,0,0,14,0,0,0,71,74,144,90,72,121.42,149,0.00,-9.00,-980.00
2024-06-07 01:07:44.638649,0,0,14,0,0,0,72,74,143,90,72,121.41,149,-21.00,0.00,-975.00
