TS,pitch,roll,yaw,vgx,vgy,vgz,templ,temph,tof,h,bat,baro,time,agx,agy,agz
2024-06-07 14:23:31.416286,-2,0,40,0,0,0,77,80,10,0,69,152.63,72,-34.00,-9.00,-1001.00
2024-06-07 14:23:31.570015,-2,0,40,0,0,0,77,80,10,0,69,152.62,72,-35.00,-8.00,-1002.00
2024-06-07 14:23:31.621047,-2,0,40,0,0,0,77,80,10,0,69,152.62,72,-35.00,-9.00,-1001.00
2024-06-07 14:23:31.721791,-2,0,40,0,0,0,77,80,10,0,69,152.63,72,-36.00,-10.00,-999.00
2024-06-07 14:23:31.877030,-2,0,40,0,0,0,77,80,10,0,69,152.61,72,-35.00,-9.00,-997.00
2024-06-07 14:23:31.924814,-2,0,40,0,0,0,77,80,10,0,69,152.65,72,-34.00,-8.00,-999.00
2024-06-07 14:23:32.082516,-2,0,40,0,0,0,77,80,10,0,69,152.64,72,-35.00,-9.00,-997.00
2024-06-07 14:23:32.128807,-2,0,40,0,0,0,77,80,10,0,69,152.68,72,-37.00,-10.00,-999.00
2024-06-07 14:23:32.291259,-2,0,40,0,0,0,77,80,10,0,69,152.60,72,-36.00,-9.00,-1000.00
2024-06-07 14:23:32.335104,-2,0,40,0,0,0,77,80,10,0,69,152.60,72,-35.00,-10.00,-1002.00
2024-06-07 14:23:32.434949,-2,0,40,0,0,0,77,80,10,0,69,152.58,72,-35.00,-10.00,-997.00
2024-06-07 14:23:32.537505,-2,0,40,0,0,0,77,80,10,0,69,152.59,72,-36.00,-9.00,-997.00
2024-06-07 14:23:32.639080,-2,0,40,0,0,0,77,80,10,0,69,152.62,72,-36.00,-8.00,-998.00
2024-06-07 14:23:32.798713,-2,0,40,0,0,0,77,80,10,0,69,152.58,72,-36.00,-9.00,-1000.00
2024-06-07 14:23:32.842944,-2,0,40,0,0,0,77,80,10,0,69,152.60,72,-35.00,-9.00,-999.00
2024-06-07 14:23:32.945377,-2,0,40,0,0,0,77,80,10,0,69,152.62,72,-36.00,-9.00,-1000.00
2024-06-07 14:23:33.106004,-2,0,40,0,0,0,77,80,10,0,69,152.60,72,-35.00,-9.00,-999.00
2024-06-07 14:23:33.148798,-2,0,40,0,0,0,77,80,10,0,69,152.59,72,-37.00,-9.00,-999.00
2024-06-07 14:23:33.311781,-2,0,40,0,0,0,77,80,10,0,69,152.62,72,-36.00,-8.00,-1000.00
2024-06-07 14:23:33.352948,-2,0,40,0,0,0,77,80,10,0,69,152.62,72,-34.00,-10.00,-998.00
2024-06-07 14:23:33.515467,-2,0,40,0,0,0,77,80,10,0,69,152.53,72,-36.00,-9.00,-999.00
2024-06-07 14:23:33.556910,-2,0,40,0,0,0,77,80,10,0,69,152.54,72,-37.00,-9.00,-998.00
2024-06-07 14:23:33.658924,-2,0,40,0,0,0,77,80,10,0,69,152.54,72,-35.00,-10.00,-998.00
2024-06-07 14:23:33.822817,-2,0,40,0,0,0,77,80,10,0,69,152.62,72,-35.00,-10.00,-1000.00
2024-06-07 14:23:33.863199,-2,0,40,0,0,0,77,80,10,0,69,152.61,72,-34.00,-11.00,-998.00
2024-06-07 14:23:33.964856,-2,0,40,0,0,0,77,80,10,0,69,152.56,72,-35.00,-11.00,-1000.00
2024-06-07 14:23:34.066782,-2,0,40,0,0,0,77,80,10,0,69,152.59,72,-36.00,-11.00,-1000.00
2024-06-07 14:23:34.168981,-2,0,40,0,0,0,77,80,10,0,69,152.62,72,-35.00,-10.00,-1003.00
2024-06-07 14:23:34.219632,-2,0,40,0,0,0,77,80,10,0,69,152.61,72,-36.00,-11.00,-1001.00
2024-06-07 14:23:34.372961,-2,0,40,0,0,0,77,80,10,0,69,152.61,72,-35.00,-9.00,-999.00
2024-06-07 14:23:34.427395,-2,0,40,0,0,0,77,80,10,0,69,152.57,72,-35.00,-9.00,-999.00
2024-06-07 14:23:34.526438,-2,0,40,0,0,0,77,80,10,0,69,152.54,72,-35.00,-10.00,-999.00
2024-06-07 14:23:34.628905,-2,0,40,0,0,0,77,80,10,0,69,152.54,72,-35.00,-9.00,-1000.00
2024-06-07 14:23:34.730763,-2,0,40,0,0,0,77,80,10,0,69,152.58,72,-35.00,-9.00,-1001.00
2024-06-07 14:23:34.832017,-2,0,40,0,0,0,77,80,10,0,69,152.55,72,-34.00,-9.00,-1001.00
2024-06-07 14:23:34.949028,-2,0,40,0,0,0,77,80,10,0,69,152.60,72,-36.00,-10.00,-998.00
2024-06-07 14:23:35.035701,-2,0,40,0,0,0,77,80,10,0,69,152.52,72,-35.00,-9.00,-997.00
2024-06-07 14:23:35.153852,-2,0,40,0,0,0,77,80,10,0,69,152.61,72,-36.00,-10.00,-998.00
2024-06-07 14:23:35.239765,-2,0,40,0,0,0,77,80,10,0,69,152.61,72,-35.00,-8.00,-998.00
2024-06-07 14:23:35.364952,-2,0,40,0,0,0,78,81,10,0,68,152.53,72,-36.00,-9.00,-1000.00
2024-06-07 14:23:35.447280,-2,0,40,0,0,0,78,81,10,0,68,152.60,72,-35.00,-10.00,-1000.00
2024-06-07 14:23:35.547530,-2,0,40,0,0,0,78,81,10,0,68,152.58,72,-36.00,-9.00,-997.00
2024-06-07 14:23:35.648704,-2,0,40,0,0,0,78,81,10,0,68,152.61,72,-36.00,-8.00,-996.00
2024-06-07 14:23:35.749769,-2,0,40,0,0,0,78,81,10,0,68,152.60,72,-30.00,-5.00,-997.00
2024-06-07 14:23:35.852319,-1,0,40,0,0,0,78,81,10,0,68,152.60,72,-30.00,-6.00,-993.00
2024-06-07 14:23:35.953638,-1,0,40,0,0,0,78,81,10,0,68,152.60,73,-53.00,-26.00,-1001.00
2024-06-07 14:23:36.076941,0,0,41,0,0,0,78,81,10,0,68,152.60,73,-1.00,-12.00,-983.00
2024-06-07 14:23:36.158436,0,-1,42,0,0,0,78,81,10,0,68,152.60,73,28.00,54.00,-999.00
2024-06-07 14:23:36.280237,0,0,42,0,0,0,78,81,10,0,68,152.60,73,23.00,10.00,-1076.00
2024-06-07 14:23:36.364047,2,1,42,0,0,-2,78,80,10,0,68,152.60,73,-12.00,19.00,-1026.00
2024-06-07 14:23:36.464500,0,-2,41,0,0,-5,78,80,10,0,68,152.60,73,20.00,21.00,-1243.00
2024-06-07 14:23:36.565701,-1,-2,42,-1,0,-7,78,80,18,0,68,152.80,73,-34.00,100.00,-1254.00
2024-06-07 14:23:36.668199,-1,-3,42,0,0,-7,78,80,26,10,68,153.04,73,-10.00,47.00,-1253.00
2024-06-07 14:23:36.793493,0,-3,41,0,0,-8,78,80,34,20,68,153.07,73,14.00,43.00,-1062.00
2024-06-07 14:23:36.871811,0,-3,41,0,0,-7,78,80,42,20,68,153.07,73,-31.00,65.00,-1037.00
2024-06-07 14:23:36.973608,-1,-3,41,0,0,-6,78,80,48,30,68,153.15,74,-8.00,38.00,-979.00
2024-06-07 14:23:37.100707,0,-3,41,0,0,-5,78,80,55,40,68,153.18,74,1.00,31.00,-918.00
2024-06-07 14:23:37.177667,0,-3,41,0,0,-4,78,80,60,40,68,153.28,74,-6.00,56.00,-914.00
2024-06-07 14:23:37.316670,0,-3,41,0,0,-3,78,80,65,40,68,153.29,74,-18.00,59.00,-878.00
2024-06-07 14:23:37.381547,0,-3,41,0,0,-2,77,80,69,50,68,153.33,74,-13.00,56.00,-882.00
2024-06-07 14:23:37.510591,0,-3,41,0,0,-1,77,80,72,50,68,153.39,74,-14.00,75.00,-927.00
2024-06-07 14:23:37.585488,0,-3,42,0,0,-1,77,80,74,50,68,153.45,74,-31.00,58.00,-987.00
2024-06-07 14:23:37.714091,0,-2,42,0,0,0,77,80,77,50,68,153.47,74,-18.00,61.00,-966.00
2024-06-07 14:23:37.790489,0,-2,42,0,0,0,77,80,79,50,68,153.51,74,-27.00,54.00,-991.00
2024-06-07 14:23:37.891785,0,-2,42,0,0,0,77,80,80,60,68,153.48,74,-19.00,48.00,-998.00
2024-06-07 14:23:38.021309,-1,-2,42,0,0,0,77,80,81,60,68,153.48,75,-3.00,40.00,-964.00
2024-06-07 14:23:38.044593,0,-3,42,0,0,0,77,80,83,60,68,153.48,75,3.00,39.00,-977.00
2024-06-07 14:23:38.225839,0,-3,42,0,0,0,77,80,84,60,68,153.50,75,-13.00,49.00,-1000.00
2024-06-07 14:23:38.248568,0,-3,42,0,0,0,77,80,85,60,68,153.45,75,-13.00,51.00,-965.00
2024-06-07 14:23:38.430569,0,-2,42,0,0,0,78,80,86,60,68,153.47,75,-20.00,61.00,-964.00
2024-06-07 14:23:38.504652,0,-2,42,0,0,0,78,80,87,60,68,153.56,75,-46.00,67.00,-984.00
2024-06-07 14:23:38.555012,0,-2,42,0,0,0,78,80,88,60,68,153.53,75,-12.00,49.00,-982.00
2024-06-07 14:23:38.657369,0,-2,42,0,0,0,78,80,87,60,68,153.57,75,-12.00,52.00,-1003.00
2024-06-07 14:23:38.840221,0,-2,41,0,0,0,78,80,88,60,68,153.54,75,-15.00,52.00,-997.00
2024-06-07 14:23:38.861400,0,-2,42,0,0,0,78,80,88,70,68,153.58,75,-13.00,63.00,-997.00
2024-06-07 14:23:38.963600,0,-2,42,0,0,0,78,80,88,70,68,153.53,76,-1.00,60.00,-973.00
2024-06-07 14:23:39.065390,0,-3,42,0,0,0,78,80,88,70,68,153.50,76,24.00,52.00,-934.00
2024-06-07 14:23:39.261904,0,-3,42,0,0,0,78,80,88,70,68,153.47,76,0.00,52.00,-973.00
2024-06-07 14:23:39.269465,0,-3,42,0,0,0,78,80,87,70,68,153.46,76,-12.00,56.00,-999.00
2024-06-07 14:23:39.371659,0,-3,42,0,0,0,77,81,86,70,68,153.46,76,-14.00,64.00,-1016.00
2024-06-07 14:23:39.473488,0,-2,42,0,0,0,77,81,86,60,68,153.38,76,-12.00,61.00,-1028.00
2024-06-07 14:23:39.575492,0,-3,41,0,0,0,77,81,86,60,68,153.49,76,-34.00,49.00,-1016.00
2024-06-07 14:23:39.762125,0,-3,42,0,0,0,77,81,85,60,68,153.46,76,10.00,51.00,-1019.00
2024-06-07 14:23:39.779344,0,-3,42,0,0,0,77,81,84,60,68,153.51,76,-28.00,59.00,-1005.00
2024-06-07 14:23:39.951995,0,-3,42,0,0,0,77,81,84,60,68,153.49,76,3.00,62.00,-1022.00
2024-06-07 14:23:39.985730,0,-3,41,0,0,0,77,81,83,60,68,153.53,77,12.00,54.00,-1001.00
2024-06-07 14:23:40.086195,0,-3,41,0,0,0,77,81,83,60,68,153.44,77,6.00,54.00,-1022.00
2024-06-07 14:23:40.187397,0,-3,41,0,0,0,77,81,82,60,68,153.46,77,7.00,56.00,-999.00
2024-06-07 14:23:40.377496,0,-3,41,0,0,0,77,81,82,60,68,153.44,77,-1.00,60.00,-1039.00
2024-06-07 14:23:40.391348,0,-3,42,0,0,0,77,80,81,60,68,153.40,77,-2.00,61.00,-1017.00
2024-06-07 14:23:40.493501,0,-3,42,0,0,0,77,80,81,60,68,153.43,77,-12.00,60.00,-985.00
2024-06-07 14:23:40.595366,0,-3,42,0,0,0,77,80,81,60,68,153.41,77,1.00,63.00,-985.00
2024-06-07 14:23:40.785943,0,-3,42,0,0,0,77,80,81,60,68,153.41,77,4.00,59.00,-978.00
2024-06-07 14:23:40.799397,0,-3,42,0,0,0,77,80,80,60,68,153.45,77,2.00,67.00,-990.00
2024-06-07 14:23:40.990880,0,-3,42,0,0,0,77,80,80,60,68,153.42,77,13.00,68.00,-1012.00
2024-06-07 14:23:41.003230,0,-3,42,0,0,0,77,80,80,60,68,153.46,78,0.00,60.00,-1000.00
2024-06-07 14:23:41.105371,0,-3,42,0,0,0,77,80,80,60,68,153.39,78,6.00,56.00,-990.00
2024-06-07 14:23:41.207431,0,-3,42,0,0,0,77,80,80,60,68,153.43,78,5.00,70.00,-977.00
2024-06-07 14:23:41.309647,0,-4,42,0,0,0,77,80,80,60,68,153.47,78,13.00,68.00,-997.00
2024-06-07 14:23:41.502628,0,-4,41,0,0,0,77,79,80,60,68,153.40,78,47.00,66.00,-1047.00
2024-06-07 14:23:41.513533,0,-3,41,0,0,0,77,79,80,60,68,153.37,78,4.00,77.00,-1005.00
2024-06-07 14:23:41.707369,0,-4,41,0,0,0,77,79,80,60,68,153.39,78,11.00,55.00,-985.00
2024-06-07 14:23:41.717815,0,-4,41,0,0,0,77,79,80,60,68,153.35,78,4.00,64.00,-1012.00
2024-06-07 14:23:41.915162,0,-3,41,0,0,0,77,79,80,60,68,153.31,78,-4.00,80.00,-988.00
2024-06-07 14:23:41.921619,0,-3,41,0,0,0,77,79,80,60,68,153.25,78,30.00,54.00,-998.00
2024-06-07 14:23:42.023335,0,-3,41,0,0,0,77,79,80,60,68,153.42,79,-7.00,68.00,-949.00
2024-06-07 14:23:42.074601,0,-3,41,0,0,0,77,79,80,60,68,153.32,79,5.00,60.00,-1039.00
2024-06-07 14:23:42.176983,0,-3,41,0,0,0,77,79,80,60,68,153.37,79,36.00,63.00,-998.00
2024-06-07 14:23:42.324851,0,-3,41,0,0,0,77,79,80,60,68,153.36,79,0.00,69.00,-993.00
2024-06-07 14:23:42.380538,0,-3,41,0,0,0,76,79,80,60,68,153.35,79,-7.00,83.00,-1018.00
2024-06-07 14:23:42.533814,0,-3,41,0,0,0,76,79,81,60,68,153.39,79,-12.00,74.00,-995.00
2024-06-07 14:23:42.584587,0,-4,41,0,0,0,76,79,80,60,68,153.43,79,-18.00,103.00,-943.00
2024-06-07 14:23:42.732964,0,-4,41,0,0,0,76,79,81,60,68,153.42,79,-24.00,107.00,-961.00
2024-06-07 14:23:42.788468,0,-4,42,0,0,0,76,79,81,60,68,153.33,79,-8.00,79.00,-1034.00
2024-06-07 14:23:42.890601,-1,-4,42,0,0,0,76,79,81,60,68,153.41,79,-23.00,95.00,-933.00
2024-06-07 14:23:42.992436,-1,-5,42,0,0,0,76,79,81,60,68,153.41,80,-19.00,86.00,-987.00
2024-06-07 14:23:43.142992,-1,-5,42,0,0,0,76,79,81,60,68,153.46,80,-34.00,96.00,-1006.00
2024-06-07 14:23:43.196246,-1,-5,42,0,0,0,76,79,81,60,68,153.32,80,-10.00,79.00,-986.00
2024-06-07 14:23:43.345910,-1,-5,42,0,0,0,76,79,81,60,68,153.37,80,17.00,53.00,-1020.00
2024-06-07 14:23:43.400464,0,-4,42,0,0,0,77,79,81,60,68,153.43,80,-27.00,71.00,-996.00
2024-06-07 14:23:43.502608,0,-4,42,0,0,0,77,79,81,60,68,153.44,80,-21.00,85.00,-1016.00
2024-06-07 14:23:43.653087,0,-4,42,0,0,0,77,79,81,60,68,153.38,80,-40.00,77.00,-1016.00
2024-06-07 14:23:43.706667,0,-4,42,0,0,0,77,79,81,60,68,153.41,80,14.00,67.00,-979.00
2024-06-07 14:23:43.812492,0,-4,42,0,0,0,77,79,81,60,68,153.42,80,25.00,57.00,-978.00
2024-06-07 14:23:43.912330,0,-4,42,0,0,0,77,79,81,60,68,153.42,80,1.00,76.00,-995.00
2024-06-07 14:23:44.012841,0,-4,42,0,0,0,77,79,81,60,68,153.38,81,-16.00,88.00,-1006.00
2024-06-07 14:23:44.167922,0,-4,42,0,0,0,77,79,81,60,68,153.35,81,-12.00,84.00,-1009.00
2024-06-07 14:23:44.216268,0,-4,41,0,0,0,77,79,82,60,68,153.33,81,-13.00,76.00,-1033.00
2024-06-07 14:23:44.369813,0,-4,41,0,0,-1,77,79,84,60,68,153.31,81,-11.00,96.00,-1096.00
2024-06-07 14:23:44.420254,0,-4,41,0,0,-2,76,79,86,60,68,153.39,81,-26.00,98.00,-1063.00
2024-06-07 14:23:44.574588,-1,-4,42,0,0,-3,76,79,90,70,68,153.43,81,-15.00,114.00,-1070.00
2024-06-07 14:23:44.625638,-1,-4,42,0,0,-4,76,79,94,70,68,153.58,81,15.00,78.00,-1056.00
2024-06-07 14:23:44.726202,-1,-4,42,0,0,-4,76,79,99,70,68,153.56,81,53.00,62.00,-1035.00
2024-06-07 14:23:44.882347,0,-4,42,0,0,-5,76,79,105,80,68,153.54,81,14.00,78.00,-1013.00
2024-06-07 14:23:44.930432,0,-4,41,0,0,-5,76,79,110,80,68,153.61,81,11.00,75.00,-1006.00
2024-06-07 14:23:45.190339,0,-4,41,0,0,-5,76,79,115,90,68,153.68,82,-27.00,72.00,-958.00
2024-06-07 14:23:45.190443,0,-4,41,0,0,-5,76,79,122,100,68,153.66,82,-25.00,66.00,-994.00
2024-06-07 14:23:45.236238,0,-4,42,0,0,-5,76,79,127,100,68,153.69,82,-2.00,91.00,-968.00
2024-06-07 14:23:45.393808,-1,-3,41,0,0,-5,76,79,132,110,68,153.74,82,-20.00,81.00,-1001.00
2024-06-07 14:23:45.443816,0,-4,41,0,0,-4,76,79,138,110,68,153.78,82,-39.00,67.00,-1002.00
2024-06-07 14:23:45.542304,-1,-4,42,0,0,-4,76,79,143,120,68,153.82,82,-47.00,77.00,-995.00
2024-06-07 14:23:45.703037,-1,-4,42,0,0,-4,76,79,147,120,68,153.84,82,-18.00,68.00,-954.00
2024-06-07 14:23:45.746192,-1,-4,41,0,0,-4,76,79,153,130,68,153.93,82,-19.00,72.00,-968.00
2024-06-07 14:23:45.917969,-1,-3,41,0,0,-4,76,79,156,130,68,153.98,82,-19.00,44.00,-977.00
2024-06-07 14:23:45.950212,-1,-3,41,0,0,-3,76,79,160,130,68,154.00,82,-37.00,68.00,-990.00
2024-06-07 14:23:46.001139,-1,-2,42,0,0,-3,76,79,164,140,68,154.04,83,0.00,50.00,-997.00
2024-06-07 14:23:46.110558,-1,-3,42,0,0,-3,76,79,167,140,68,154.02,83,-49.00,103.00,-970.00
2024-06-07 14:23:46.205165,-1,-3,41,0,0,-2,76,79,173,140,68,154.14,83,-21.00,72.00,-957.00
2024-06-07 14:23:46.316898,-1,-4,42,0,0,-2,76,79,173,150,68,154.17,83,-28.00,85.00,-969.00
2024-06-07 14:23:46.409117,-1,-4,42,0,0,-2,76,78,177,150,68,154.15,83,-9.00,76.00,-957.00
2024-06-07 14:23:46.522123,-1,-4,42,0,0,-1,76,78,179,150,68,154.21,83,-62.00,105.00,-967.00
2024-06-07 14:23:46.614120,-1,-5,42,0,0,-1,76,78,180,150,68,154.26,83,-32.00,96.00,-997.00
2024-06-07 14:23:46.726867,-1,-5,42,0,0,-1,76,78,182,160,68,154.17,83,-8.00,70.00,-915.00
2024-06-07 14:23:46.817231,0,-5,42,0,0,-1,76,78,183,160,68,154.17,83,-25.00,75.00,-942.00
2024-06-07 14:23:46.931658,0,-5,41,0,0,0,76,78,183,160,68,154.10,83,-48.00,86.00,-971.00
2024-06-07 14:23:47.021458,0,-4,41,0,0,0,76,78,184,160,68,154.08,84,-65.00,97.00,-967.00
2024-06-07 14:23:47.123209,-1,-4,41,0,0,0,76,78,183,160,68,154.22,84,-41.00,88.00,-930.00
2024-06-07 14:23:47.253727,-1,-5,41,0,0,0,76,78,188,160,68,154.15,84,-49.00,87.00,-995.00
2024-06-07 14:23:47.329113,-2,-5,42,0,0,0,76,78,187,160,68,154.22,84,-13.00,82.00,-941.00
2024-06-07 14:23:47.429265,-1,-5,42,0,0,0,75,79,187,160,68,154.27,84,-42.00,92.00,-978.00
2024-06-07 14:23:47.544458,-1,-5,42,0,0,0,75,79,186,160,68,154.20,84,-1.00,67.00,-947.00
2024-06-07 14:23:47.633390,-1,-4,41,0,0,0,75,79,187,160,68,154.24,84,-38.00,87.00,-1001.00
2024-06-07 14:23:47.735245,-1,-4,41,0,0,0,75,79,188,160,68,154.15,84,-36.00,88.00,-998.00
2024-06-07 14:23:47.864882,0,-4,41,0,0,0,75,79,187,160,68,154.18,84,-46.00,84.00,-990.00
2024-06-07 14:23:47.939569,-1,-4,41,0,0,0,75,79,185,160,68,154.13,85,-22.00,45.00,-996.00
2024-06-07 14:23:48.059777,-1,-4,41,0,0,0,75,79,186,160,68,154.14,85,-25.00,79.00,-1000.00
2024-06-07 14:23:48.143323,-1,-4,41,0,0,0,75,79,185,160,68,154.08,85,-55.00,67.00,-955.00
2024-06-07 14:23:48.267356,-1,-4,42,0,0,0,75,79,186,160,68,154.07,85,-22.00,49.00,-958.00
2024-06-07 14:23:48.348341,-1,-3,42,0,0,0,75,79,184,160,68,154.04,85,-37.00,59.00,-1022.00
2024-06-07 14:23:48.465864,-2,-3,41,0,0,0,76,77,185,160,68,154.13,85,-40.00,54.00,-988.00
2024-06-07 14:23:48.553040,-2,-2,42,0,0,0,76,77,185,160,68,154.11,85,-25.00,41.00,-1024.00
2024-06-07 14:23:48.656048,-2,-2,42,0,0,0,76,77,185,160,68,154.12,85,-30.00,61.00,-1012.00
2024-06-07 14:23:48.755015,-1,-2,42,0,0,0,76,77,185,160,68,154.15,85,-36.00,62.00,-1012.00
2024-06-07 14:23:48.876802,-1,-2,41,0,0,0,76,77,185,160,68,154.19,85,3.00,34.00,-1008.00
2024-06-07 14:23:48.959418,-1,-3,42,0,0,0,76,77,183,160,68,154.23,86,7.00,37.00,-976.00
2024-06-07 14:23:49.060955,0,-3,42,0,0,1,76,77,182,160,68,154.15,86,-27.00,44.00,-941.00
2024-06-07 14:23:49.182612,0,-2,42,0,0,1,76,77,182,160,68,154.17,86,-28.00,53.00,-961.00
2024-06-07 14:23:49.264962,0,-3,42,0,0,2,76,77,179,160,68,154.15,86,-17.00,45.00,-970.00
2024-06-07 14:23:49.387208,0,-2,42,0,0,2,76,77,177,150,68,154.06,86,-28.00,52.00,-968.00
2024-06-07 14:23:49.468910,0,-2,42,0,0,2,76,77,175,150,68,154.05,86,-4.00,49.00,-1007.00
2024-06-07 14:23:49.593261,0,-2,42,0,0,2,76,77,171,150,68,154.05,86,-9.00,60.00,-977.00
2024-06-07 14:23:49.675907,0,-2,42,0,0,2,76,77,167,150,68,154.02,86,-13.00,53.00,-971.00
2024-06-07 14:23:49.775004,0,-2,42,0,0,2,76,77,165,140,68,154.01,86,-23.00,67.00,-1002.00
2024-06-07 14:23:49.877439,0,-3,42,0,0,2,76,77,163,140,68,153.96,86,-13.00,60.00,-1002.00
2024-06-07 14:23:50.003386,0,-3,41,0,0,2,76,77,159,140,68,153.96,87,-19.00,60.00,-986.00
2024-06-07 14:23:50.086234,0,-3,41,0,0,2,76,77,156,140,68,153.97,87,-10.00,54.00,-1020.00
2024-06-07 14:23:50.182941,0,-3,42,0,0,2,76,77,153,130,68,153.92,87,-21.00,68.00,-1018.00
2024-06-07 14:23:50.310361,0,-3,42,0,0,2,76,77,153,130,68,153.92,87,-29.00,58.00,-1029.00
2024-06-07 14:23:50.336483,0,-3,42,0,0,2,76,77,149,130,68,153.86,87,-29.00,63.00,-1024.00
2024-06-07 14:23:50.519799,0,-3,42,0,0,1,76,77,147,130,68,153.77,87,-10.00,49.00,-1016.00
2024-06-07 14:23:50.540147,0,-3,42,0,0,1,76,77,145,130,68,153.79,87,-16.00,49.00,-1018.00
2024-06-07 14:23:50.642039,0,-3,42,0,0,1,76,77,144,120,68,153.82,87,-33.00,63.00,-1000.00
2024-06-07 14:23:50.744035,0,-3,41,0,0,1,76,77,142,120,68,153.78,87,-16.00,49.00,-1000.00
2024-06-07 14:23:50.924703,-1,-3,42,0,0,1,76,77,139,120,68,153.78,87,-23.00,49.00,-1003.00
2024-06-07 14:23:50.947951,-1,-2,42,0,0,1,76,77,139,120,68,153.74,88,-44.00,56.00,-1021.00
2024-06-07 14:23:51.128324,-1,-2,42,0,0,1,76,77,138,120,68,153.72,88,-39.00,51.00,-1014.00
2024-06-07 14:23:51.151954,-1,-2,42,0,0,1,76,77,136,120,68,153.69,88,-51.00,50.00,-1025.00
2024-06-07 14:23:51.254074,-1,-2,42,0,0,0,76,77,135,120,68,153.70,88,-18.00,48.00,-1025.00
2024-06-07 14:23:51.435429,-1,-2,42,0,0,0,76,77,135,120,68,153.77,88,-11.00,46.00,-1019.00
2024-06-07 14:23:51.457923,-1,-2,42,0,0,0,76,78,134,110,68,153.72,88,-25.00,49.00,-1025.00
2024-06-07 14:23:51.646250,-1,-2,42,0,0,0,76,78,135,110,68,153.77,88,-12.00,40.00,-1013.00
2024-06-07 14:23:51.663405,-2,-2,42,0,0,0,76,78,134,110,68,153.78,88,-20.00,48.00,-987.00
2024-06-07 14:23:51.764047,-1,-2,42,0,0,0,76,78,134,110,68,153.87,88,-41.00,70.00,-993.00
2024-06-07 14:23:51.866185,-1,-2,42,0,0,0,76,78,135,110,68,153.84,88,-1.00,49.00,-1023.00
2024-06-07 14:23:51.970098,-1,-2,42,0,0,0,76,78,135,110,68,153.74,89,-33.00,65.00,-991.00
2024-06-07 14:23:52.070478,-1,-3,42,0,0,0,76,78,136,120,68,153.75,89,-31.00,40.00,-1006.00
2024-06-07 14:23:52.172128,-1,-2,42,0,0,0,76,78,136,120,68,153.84,89,-25.00,37.00,-995.00
2024-06-07 14:23:52.357123,0,-2,42,0,0,0,76,78,136,120,68,153.79,89,-28.00,31.00,-960.00
2024-06-07 14:23:52.376027,0,-2,41,0,0,0,76,78,137,120,68,153.71,89,-61.00,46.00,-929.00
2024-06-07 14:23:52.561846,-1,-2,41,0,0,0,76,77,137,120,68,153.71,89,-48.00,30.00,-1035.00
2024-06-07 14:23:52.580951,-1,-1,41,0,0,0,76,77,136,120,68,153.70,89,-65.00,33.00,-1034.00
2024-06-07 14:23:52.768369,-1,0,41,0,0,0,76,77,137,120,68,153.67,89,-30.00,52.00,-1049.00
2024-06-07 14:23:52.783778,-1,-1,41,0,0,0,76,77,136,120,68,153.72,89,-24.00,16.00,-1000.00
2024-06-07 14:23:52.972665,-1,-1,41,0,0,0,76,77,138,120,68,153.65,89,-51.00,49.00,-978.00
2024-06-07 14:23:52.989018,-1,-1,41,0,0,0,76,77,135,120,68,153.66,90,-24.00,19.00,-992.00
2024-06-07 14:23:53.176646,-1,-1,41,0,0,0,76,77,137,120,68,153.70,90,-48.00,28.00,-1062.00
2024-06-07 14:23:53.192023,-2,-1,42,0,0,0,76,77,136,120,68,153.67,90,-33.00,41.00,-958.00
2024-06-07 14:23:53.293945,-2,-1,42,0,0,0,76,77,135,120,68,153.67,90,-27.00,35.00,-967.00
2024-06-07 14:23:53.484810,-3,-2,42,0,0,0,76,77,136,120,68,153.66,90,-49.00,44.00,-1020.00
2024-06-07 14:23:53.497893,-8,-2,42,0,0,0,76,77,138,120,68,153.67,90,-39.00,34.00,-993.00
2024-06-07 14:23:53.600882,-8,-2,42,0,0,0,76,77,135,110,68,153.67,90,-65.00,56.00,-1055.00
2024-06-07 14:23:53.702065,-8,-2,42,1,1,0,76,77,135,110,68,153.58,90,-62.00,35.00,-1003.00
2024-06-07 14:23:53.804269,-8,-2,42,2,2,0,76,77,135,110,68,153.61,90,-49.00,36.00,-1004.00
2024-06-07 14:23:53.996652,-8,-1,42,3,2,0,76,77,134,110,68,153.57,90,-38.00,26.00,-1061.00
2024-06-07 14:23:54.008480,-8,-1,42,4,3,0,76,77,134,110,68,153.65,91,-67.00,55.00,-986.00
2024-06-07 14:23:54.201548,-8,-1,42,4,4,0,76,77,133,110,68,153.59,91,-77.00,45.00,-973.00
2024-06-07 14:23:54.201600,-8,-2,42,5,4,0,76,77,135,110,68,153.56,91,-86.00,46.00,-1017.00
2024-06-07 14:23:54.264506,-7,-2,42,5,5,0,76,77,135,110,68,153.65,91,-89.00,48.00,-1023.00
2024-06-07 14:23:54.364958,-4,-2,42,6,5,0,76,77,135,110,68,153.51,91,-54.00,35.00,-973.00
2024-06-07 14:23:54.507365,0,-1,42,6,5,0,75,78,134,110,68,153.51,91,-70.00,43.00,-1001.00
2024-06-07 14:23:54.568750,1,-1,42,5,4,0,75,78,135,110,68,153.60,91,-67.00,65.00,-949.00
2024-06-07 14:23:54.671004,3,-2,41,4,4,0,75,78,135,110,68,153.56,91,-68.00,45.00,-1016.00
2024-06-07 14:23:54.772725,3,-2,41,3,3,0,75,78,134,110,68,153.45,91,-60.00,52.00,-969.00
2024-06-07 14:23:54.919902,1,-3,42,3,2,0,75,78,135,110,68,153.52,91,-40.00,19.00,-1022.00
2024-06-07 14:23:54.976909,0,-2,42,2,2,0,75,78,135,110,68,153.47,92,-55.00,42.00,-1006.00
2024-06-07 14:23:55.079821,0,-2,42,2,2,0,75,78,136,110,68,153.70,92,-42.00,40.00,-1008.00
2024-06-07 14:23:55.181429,-1,-1,42,2,1,0,75,78,136,120,68,153.72,92,-61.00,52.00,-985.00
2024-06-07 14:23:55.282724,-1,0,42,2,2,0,75,78,136,120,68,153.62,92,-41.00,43.00,-967.00
2024-06-07 14:23:55.428953,0,0,42,1,2,0,75,78,135,120,68,153.69,92,-56.00,61.00,-976.00
2024-06-07 14:23:55.490970,4,-3,41,1,2,0,76,79,135,120,68,153.65,92,-60.00,32.00,-945.00
2024-06-07 14:23:55.591087,2,-4,41,0,1,0,76,79,134,120,68,153.74,92,-43.00,54.00,-993.00
2024-06-07 14:23:55.691271,0,-3,41,0,0,0,76,79,135,120,68,153.77,92,-42.00,44.00,-988.00
2024-06-07 14:23:55.792796,0,-2,41,0,0,0,76,79,135,120,68,153.76,92,-19.00,40.00,-974.00
2024-06-07 14:23:55.941188,0,-2,41,0,0,0,76,79,135,120,68,153.76,92,-37.00,45.00,-962.00
2024-06-07 14:23:55.996694,0,-2,42,0,0,0,76,79,135,120,68,153.75,93,-25.00,46.00,-996.00
2024-06-07 14:23:56.145880,0,-2,42,0,0,0,76,79,135,120,68,153.82,93,-25.00,53.00,-985.00
2024-06-07 14:23:56.200729,0,-2,42,0,0,0,76,79,136,120,68,153.72,93,-3.00,33.00,-1024.00
2024-06-07 14:23:56.302923,0,-2,42,0,0,0,76,79,135,120,68,153.84,93,-20.00,46.00,-995.00
2024-06-07 14:23:56.404785,0,-2,41,0,0,0,76,79,134,120,68,153.78,93,-26.00,48.00,-1017.00
2024-06-07 14:23:56.555354,0,-2,41,0,0,0,76,77,135,120,68,153.82,93,-8.00,37.00,-1000.00
2024-06-07 14:23:56.609121,0,-2,41,0,0,0,76,77,135,110,68,153.83,93,-18.00,34.00,-1025.00
2024-06-07 14:23:56.760222,0,-2,42,0,0,0,76,77,135,110,68,153.75,93,-22.00,35.00,-979.00
2024-06-07 14:23:56.813861,0,-1,42,0,0,0,76,77,135,110,68,153.80,93,-21.00,49.00,-978.00
2024-06-07 14:23:56.978128,0,-1,42,0,0,0,76,77,134,110,68,153.81,93,3.00,32.00,-976.00
2024-06-07 14:23:57.017805,0,-1,42,0,0,0,76,77,134,110,68,153.76,94,-35.00,46.00,-973.00
2024-06-07 14:23:57.119730,0,-2,42,0,0,0,76,77,134,110,68,153.78,94,-22.00,30.00,-1008.00
2024-06-07 14:23:57.222704,0,-2,42,0,0,0,76,77,135,110,68,153.77,94,-9.00,38.00,-1012.00
2024-06-07 14:23:57.324345,0,-2,41,0,0,0,76,77,135,110,68,153.80,94,-31.00,54.00,-985.00
2024-06-07 14:23:57.581711,0,-2,41,0,0,0,76,77,135,120,68,153.75,94,-20.00,43.00,-993.00
2024-06-07 14:23:57.581864,0,-2,41,0,0,0,76,77,135,120,68,153.72,94,-12.00,36.00,-992.00
2024-06-07 14:23:57.633032,0,-2,41,0,0,0,76,77,136,120,68,153.79,94,-22.00,44.00,-977.00
2024-06-07 14:23:57.731644,0,-2,41,0,0,0,76,77,136,120,68,153.76,94,-26.00,47.00,-998.00
2024-06-07 14:23:57.888327,0,-2,41,0,0,0,76,77,135,120,68,153.75,94,-34.00,61.00,-1023.00
2024-06-07 14:23:57.935582,5,-2,41,0,0,0,76,77,137,120,68,153.83,94,-1.00,30.00,-990.00
2024-06-07 14:23:57.986826,7,-2,41,-1,-1,0,76,77,135,120,68,153.78,95,-29.00,43.00,-999.00
2024-06-07 14:23:58.091342,7,-2,41,-2,-2,0,76,77,135,110,68,153.73,95,-6.00,41.00,-1012.00
2024-06-07 14:23:58.191324,7,-2,41,-3,-3,0,76,77,136,110,68,153.75,95,-2.00,43.00,-1034.00
2024-06-07 14:23:58.294033,6,-2,41,-4,-4,0,76,77,137,120,68,153.77,95,-17.00,45.00,-1026.00
2024-06-07 14:23:58.394596,5,-2,41,-4,-4,0,76,77,137,120,68,153.80,95,27.00,22.00,-966.00
2024-06-07 14:23:58.496923,3,-2,41,-5,-5,0,76,77,138,120,68,153.78,95,11.00,48.00,-981.00
2024-06-07 14:23:58.601592,3,-1,41,-5,-5,0,76,77,137,120,68,153.75,95,11.00,28.00,-993.00
2024-06-07 14:23:58.700440,1,-2,41,-5,-5,0,76,77,137,120,68,153.79,95,26.00,63.00,-962.00
2024-06-07 14:23:58.802511,-1,-2,41,-5,-5,0,76,77,136,120,68,153.82,95,5.00,72.00,-1030.00
2024-06-07 14:23:58.912896,-4,-2,41,-5,-4,0,76,77,136,120,68,153.73,95,37.00,49.00,-958.00
2024-06-07 14:23:59.006437,-5,-2,41,-4,-3,0,76,77,137,120,68,153.71,96,1.00,27.00,-1007.00
2024-06-07 14:23:59.115233,-5,-3,42,-3,-3,0,76,77,136,120,68,153.64,96,-28.00,67.00,-1002.00
2024-06-07 14:23:59.210609,-4,-3,42,-3,-2,0,76,77,134,110,68,153.72,96,-9.00,46.00,-988.00
2024-06-07 14:23:59.313241,-2,-3,42,-2,-2,0,76,77,133,110,68,153.72,96,-2.00,45.00,-1018.00
2024-06-07 14:23:59.414415,-2,-2,42,-2,-2,0,76,77,134,110,68,153.68,96,-2.00,46.00,-1039.00
2024-06-07 14:23:59.526158,-1,-2,42,-2,-2,0,75,78,132,110,68,153.75,96,-5.00,49.00,-1033.00
2024-06-07 14:23:59.618360,-1,-2,42,-2,-1,0,75,78,133,110,68,153.72,96,-12.00,50.00,-1010.00
2024-06-07 14:23:59.729575,-1,-4,42,-2,-1,0,75,78,132,110,68,153.76,96,-23.00,50.00,-1046.00
2024-06-07 14:23:59.822457,-4,-5,42,-1,-2,0,75,78,134,110,68,153.72,96,-29.00,49.00,-1019.00
2024-06-07 14:23:59.934391,-7,-1,42,-1,-1,0,75,78,134,110,68,153.81,96,-22.00,60.00,-947.00
2024-06-07 14:24:00.031089,-4,-1,42,0,0,0,75,78,134,110,68,153.83,97,15.00,27.00,-956.00
2024-06-07 14:24:00.128563,-3,-2,42,0,0,0,75,78,133,110,68,153.79,97,-17.00,52.00,-1038.00
2024-06-07 14:24:00.241768,-2,-2,42,0,0,0,75,78,134,110,68,153.69,97,-28.00,51.00,-1005.00
2024-06-07 14:24:00.332675,-1,-2,42,0,0,0,75,78,133,110,68,153.79,97,-12.00,36.00,-996.00
2024-06-07 14:24:00.446544,-1,-3,42,0,0,0,75,78,134,110,68,153.86,97,-70.00,69.00,-1010.00
2024-06-07 14:24:00.539887,-1,-3,42,0,0,0,75,78,134,110,68,153.85,97,-30.00,54.00,-981.00
2024-06-07 14:24:00.638450,-1,-3,42,0,0,0,75,78,135,110,68,153.78,97,-30.00,77.00,-1047.00
2024-06-07 14:24:00.753635,-1,-3,42,0,0,0,75,78,134,110,68,153.76,97,6.00,53.00,-996.00
2024-06-07 14:24:00.844171,-1,-2,42,0,0,0,75,78,135,110,68,153.70,97,6.00,71.00,-1035.00
2024-06-07 14:24:00.944742,0,-3,42,0,0,0,75,78,134,110,68,153.79,97,-22.00,76.00,-1006.00
2024-06-07 14:24:01.046482,0,-3,41,0,0,0,75,78,137,110,68,153.73,98,-48.00,62.00,-976.00
2024-06-07 14:24:01.163612,0,-3,41,0,0,0,75,78,136,110,68,153.70,98,-47.00,50.00,-1014.00
2024-06-07 14:24:01.250848,0,-3,41,0,0,0,75,78,136,110,68,153.75,98,-6.00,65.00,-1086.00
2024-06-07 14:24:01.381518,0,-3,41,0,0,0,75,78,136,120,68,153.73,98,-47.00,56.00,-989.00
2024-06-07 14:24:01.454497,-1,-3,41,0,0,0,75,78,135,120,68,153.78,98,-50.00,70.00,-932.00
2024-06-07 14:24:01.572986,-1,-3,42,0,0,0,76,78,136,120,68,153.75,98,-19.00,63.00,-964.00
2024-06-07 14:24:01.658838,-1,-3,41,0,0,0,76,78,136,120,68,153.65,98,-35.00,61.00,-1001.00
2024-06-07 14:24:01.777873,-1,-3,41,0,0,0,76,78,135,120,68,153.68,98,-10.00,51.00,-968.00
2024-06-07 14:24:01.862629,-1,-3,41,0,0,0,76,78,135,110,68,153.75,98,7.00,57.00,-1004.00
2024-06-07 14:24:01.980308,-1,-3,41,0,0,0,76,78,135,110,68,153.65,99,-45.00,50.00,-963.00
2024-06-07 14:24:02.066421,-1,-2,41,0,0,0,76,78,134,110,68,153.66,99,-31.00,57.00,-1023.00
2024-06-07 14:24:02.188277,-1,-5,41,0,0,0,76,78,134,110,68,153.78,99,-48.00,58.00,-997.00
2024-06-07 14:24:02.219407,-1,-8,42,0,0,0,76,78,134,110,68,153.71,99,-31.00,36.00,-1082.00
2024-06-07 14:24:02.392214,-1,-8,42,1,-1,0,76,78,134,110,68,153.73,99,-18.00,52.00,-988.00
2024-06-07 14:24:02.424504,-2,-8,42,1,-2,0,76,78,133,110,68,153.74,99,-28.00,67.00,-1004.00
2024-06-07 14:24:02.525326,-2,-5,42,2,-2,0,76,77,132,110,68,153.75,99,-46.00,87.00,-995.00
2024-06-07 14:24:02.627448,-1,-2,42,2,-2,0,76,77,131,110,68,153.70,99,-27.00,76.00,-1011.00
2024-06-07 14:24:02.803079,0,-2,41,2,-2,0,76,77,131,110,68,153.70,99,-10.00,61.00,-996.00
2024-06-07 14:24:02.832239,0,-2,41,2,-2,0,76,77,132,110,68,153.71,99,-36.00,63.00,-996.00
2024-06-07 14:24:03.006366,0,-2,41,2,-2,0,76,77,132,110,68,153.66,100,-16.00,70.00,-1001.00
2024-06-07 14:24:03.036242,0,-3,41,1,-2,0,76,77,132,110,68,153.72,100,5.00,67.00,-966.00
2024-06-07 14:24:03.211341,0,-3,41,1,-2,0,76,77,132,110,68,153.74,100,-25.00,57.00,-988.00
2024-06-07 14:24:03.240202,-1,-3,41,1,-2,0,76,77,133,110,68,153.67,100,-23.00,43.00,-999.00
2024-06-07 14:24:03.342210,-1,-3,41,1,-2,0,76,77,133,110,68,153.62,100,-15.00,40.00,-992.00
2024-06-07 14:24:03.518372,-2,-3,41,1,-2,0,76,77,132,110,68,153.67,100,-38.00,76.00,-954.00
2024-06-07 14:24:03.546187,-2,-2,41,1,-2,0,75,77,132,110,68,153.69,100,-30.00,40.00,-1003.00
2024-06-07 14:24:03.649822,-2,-2,41,1,-2,0,75,77,133,110,68,153.62,100,-29.00,44.00,-950.00
2024-06-07 14:24:03.750405,-2,0,41,2,-2,0,75,77,133,110,68,153.65,100,-21.00,3.00,-965.00
2024-06-07 14:24:03.928043,-1,4,41,1,-1,0,75,77,133,110,68,153.61,100,-16.00,24.00,-946.00
2024-06-07 14:24:03.954188,-2,1,41,0,-1,0,75,77,133,110,68,153.66,101,-36.00,34.00,-972.00
2024-06-07 14:24:04.133790,-2,0,42,0,-1,0,75,77,134,110,68,153.63,101,-49.00,23.00,-1045.00
2024-06-07 14:24:04.158265,-2,0,42,0,-1,0,75,77,133,110,68,153.68,101,-66.00,31.00,-1012.00
2024-06-07 14:24:04.338367,-3,0,42,0,-1,0,75,77,134,110,68,153.71,101,-35.00,20.00,-967.00
2024-06-07 14:24:04.362310,-3,0,42,0,0,0,75,77,133,110,68,153.69,101,-46.00,33.00,-999.00
2024-06-07 14:24:04.542440,-3,0,42,0,0,0,75,77,134,110,68,153.66,101,-38.00,28.00,-1004.00
2024-06-07 14:24:04.566622,-3,0,42,0,0,0,75,77,135,110,68,153.69,101,-60.00,34.00,-979.00
2024-06-07 14:24:04.747513,-2,-1,42,0,0,0,75,77,135,120,68,153.72,101,-61.00,26.00,-1038.00
2024-06-07 14:24:04.770418,-2,-1,42,0,0,0,75,77,135,120,68,153.73,101,-20.00,36.00,-1001.00
2024-06-07 14:24:04.876295,-2,-1,42,0,0,0,75,77,136,120,68,153.60,101,-29.00,29.00,-999.00
2024-06-07 14:24:04.974428,-2,-2,42,0,0,0,75,77,134,120,68,153.73,102,-61.00,35.00,-997.00
2024-06-07 14:24:05.157017,-2,-2,42,0,0,0,75,77,135,120,68,153.69,102,-43.00,36.00,-1012.00
2024-06-07 14:24:05.178331,-2,-2,42,0,0,0,75,77,136,120,68,153.65,102,-87.00,60.00,-962.00
2024-06-07 14:24:05.280300,-2,-2,42,0,0,0,75,77,136,120,68,153.74,102,-35.00,42.00,-959.00
2024-06-07 14:24:05.465827,-2,-1,42,0,0,0,75,77,137,120,68,153.63,102,-41.00,32.00,-1003.00
2024-06-07 14:24:05.484783,-2,-1,42,0,0,0,75,77,135,120,68,153.68,102,-46.00,30.00,-982.00
2024-06-07 14:24:05.668984,-1,-1,42,0,0,0,76,77,135,120,68,153.64,102,-50.00,24.00,-1031.00
2024-06-07 14:24:05.688381,-1,0,41,0,0,0,76,77,134,120,68,153.57,102,-58.00,34.00,-1029.00
2024-06-07 14:24:05.874221,-1,-1,41,0,0,0,76,77,134,110,68,153.54,102,-61.00,52.00,-974.00
2024-06-07 14:24:05.892232,-2,-1,41,0,0,0,76,77,133,110,68,153.62,102,-44.00,37.00,-1020.00
2024-06-07 14:24:05.943684,-1,-1,42,0,0,0,76,77,134,110,68,153.74,103,-66.00,51.00,-999.00
2024-06-07 14:24:06.045342,-2,-2,41,0,0,0,76,77,134,110,68,153.63,103,-34.00,34.00,-1004.00
2024-06-07 14:24:06.180835,-2,2,41,0,0,0,76,77,135,110,68,153.67,103,-54.00,36.00,-1018.00
2024-06-07 14:24:06.250097,-2,6,41,0,0,0,76,77,137,110,68,153.64,103,-29.00,22.00,-953.00
2024-06-07 14:24:06.351479,-2,4,41,-1,1,0,76,77,136,110,68,153.66,103,-54.00,18.00,-1051.00
2024-06-07 14:24:06.453177,-2,3,41,-1,2,0,76,77,135,110,68,153.71,103,9.00,-36.00,-995.00
2024-06-07 14:24:06.590405,-1,0,41,-1,2,0,76,78,135,110,68,153.63,103,-17.00,-38.00,-1011.00
2024-06-07 14:24:06.657290,-1,0,42,-1,2,0,76,78,135,110,68,153.57,103,-48.00,0.00,-958.00
2024-06-07 14:24:06.796560,-1,-1,42,-1,2,0,76,78,135,110,68,153.70,103,-35.00,-18.00,-1023.00
2024-06-07 14:24:06.861230,-1,-1,42,-1,2,0,76,78,136,110,68,153.67,103,-52.00,9.00,-960.00
2024-06-07 14:24:06.963157,-1,0,42,-1,1,0,76,78,137,120,68,153.74,104,-22.00,-9.00,-1004.00
2024-06-07 14:24:07.066852,-1,0,42,-1,1,0,76,78,137,120,68,153.73,104,-26.00,-5.00,-1000.00
2024-06-07 14:24:07.167233,-1,0,42,-1,1,0,76,78,137,120,68,153.68,104,-4.00,-16.00,-1001.00
2024-06-07 14:24:07.270885,0,0,41,-1,1,0,76,78,137,120,68,153.72,104,-24.00,-14.00,-978.00
2024-06-07 14:24:07.371309,0,0,41,-1,1,0,76,78,138,120,68,153.68,104,7.00,-16.00,-945.00
2024-06-07 14:24:07.515148,0,0,42,-1,1,0,76,78,138,120,68,153.76,104,29.00,3.00,-997.00
2024-06-07 14:24:07.575263,0,0,42,-1,1,0,76,78,138,120,68,153.73,104,-16.00,8.00,-971.00
2024-06-07 14:24:07.716848,0,0,42,-1,1,0,76,78,138,120,68,153.79,104,-2.00,0.00,-932.00
2024-06-07 14:24:07.779660,0,0,42,-1,1,0,76,78,139,120,68,153.74,104,-27.00,-1.00,-1006.00
2024-06-07 14:24:07.882076,-1,0,42,-1,1,0,76,78,138,120,68,153.76,104,-18.00,-1.00,-983.00
2024-06-07 14:24:07.983292,0,-2,42,-1,1,0,76,78,139,120,68,153.77,105,-60.00,30.00,-987.00
2024-06-07 14:24:08.126334,-2,-6,42,-1,1,0,76,78,137,120,68,153.66,105,-50.00,34.00,-963.00
2024-06-07 14:24:08.187326,-2,-4,42,-1,0,0,76,78,138,120,68,153.82,105,-30.00,31.00,-999.00
2024-06-07 14:24:08.331348,-1,-3,42,0,0,0,76,78,137,120,68,153.78,105,-26.00,30.00,-1015.00
2024-06-07 14:24:08.391335,-1,-2,42,0,0,0,76,78,138,120,68,153.67,105,-39.00,32.00,-994.00
2024-06-07 14:24:08.493654,-1,-2,42,0,0,0,76,78,138,120,68,153.70,105,-43.00,29.00,-1003.00
2024-06-07 14:24:08.638631,-1,-1,42,0,0,0,75,77,138,120,68,153.75,105,-32.00,28.00,-979.00
2024-06-07 14:24:08.698046,-2,-2,42,0,0,0,75,77,138,120,68,153.73,105,-20.00,10.00,-997.00
2024-06-07 14:24:08.804118,-2,-2,42,0,0,0,75,77,138,120,68,153.66,105,-60.00,22.00,-1036.00
2024-06-07 14:24:08.902133,-2,-2,42,0,0,0,75,77,138,120,68,153.72,105,-81.00,62.00,-960.00
2024-06-07 14:24:09.049752,-3,-2,42,0,0,0,75,77,138,120,68,153.62,106,-56.00,45.00,-1004.00
2024-06-07 14:24:09.111188,-3,-3,42,0,0,0,75,77,138,120,68,153.57,106,-59.00,36.00,-1002.00
2024-06-07 14:24:09.208072,-3,-2,42,0,0,0,75,77,138,120,68,153.59,106,-48.00,47.00,-989.00
2024-06-07 14:24:09.357725,-3,-2,42,0,0,0,75,77,138,120,68,153.70,106,-56.00,47.00,-980.00
2024-06-07 14:24:09.412115,-4,-2,42,0,0,0,75,77,137,120,68,153.66,106,-35.00,14.00,-1048.00
2024-06-07 14:24:09.560203,-3,-2,42,0,0,0,75,77,137,120,68,153.65,106,-45.00,55.00,-993.00
2024-06-07 14:24:09.617557,-3,-2,42,0,0,0,75,78,136,110,68,153.68,106,-19.00,60.00,-999.00
2024-06-07 14:24:09.717952,-2,-3,41,0,0,0,75,78,136,110,68,153.66,106,-43.00,61.00,-1007.00
2024-06-07 14:24:09.819927,-2,-4,41,0,0,0,75,78,136,110,68,153.79,106,-80.00,63.00,-997.00
2024-06-07 14:24:09.971095,-2,-3,42,0,0,0,75,78,135,110,68,153.72,106,-44.00,40.00,-1048.00
2024-06-07 14:24:09.975653,-2,-3,42,0,0,0,75,78,135,110,68,153.49,107,-60.00,44.00,-960.00
2024-06-07 14:24:10.075366,-3,-2,42,0,0,0,75,78,137,110,68,153.68,107,-64.00,13.00,-1018.00
2024-06-07 14:24:10.181293,-3,-1,42,0,0,0,75,78,136,110,68,153.75,107,-73.00,9.00,-984.00
2024-06-07 14:24:10.283165,-4,-1,41,0,0,0,75,78,136,110,68,153.70,107,-44.00,-16.00,-980.00
2024-06-07 14:24:10.381269,-4,0,44,0,0,0,75,78,136,110,68,153.56,107,-43.00,-2.00,-967.00
2024-06-07 14:24:10.483002,-3,0,50,0,0,0,75,78,135,110,68,153.62,107,-75.00,26.00,-1019.00
2024-06-07 14:24:10.585357,-3,0,56,0,0,0,76,78,135,110,68,153.64,107,-59.00,27.00,-1038.00
2024-06-07 14:24:10.687214,-3,0,62,0,0,0,76,78,135,110,68,153.67,107,-53.00,32.00,-920.00
2024-06-07 14:24:10.789340,-3,-1,68,0,0,0,76,78,135,110,68,153.74,107,-28.00,46.00,-1005.00
2024-06-07 14:24:10.894299,-2,-2,74,0,0,0,76,78,135,110,68,153.74,107,-35.00,49.00,-970.00
2024-06-07 14:24:10.993201,-2,-2,80,0,0,0,76,78,135,110,68,153.70,108,-18.00,44.00,-1014.00
2024-06-07 14:24:11.095981,-1,-1,86,0,0,0,76,78,135,110,68,153.74,108,-13.00,42.00,-934.00
2024-06-07 14:24:11.198379,-1,-1,91,0,0,0,76,78,135,110,68,153.75,108,-9.00,54.00,-985.00
2024-06-07 14:24:11.300838,0,-2,97,0,0,0,76,78,134,110,68,153.72,108,0.00,23.00,-999.00
2024-06-07 14:24:11.402917,0,-2,103,0,0,0,76,78,135,110,68,153.76,108,0.00,39.00,-1014.00
2024-06-07 14:24:11.506615,0,-2,109,0,0,0,76,78,134,110,68,153.73,108,-3.00,31.00,-1024.00
2024-06-07 14:24:11.621408,0,-1,115,0,0,0,76,78,135,120,68,153.72,108,-23.00,17.00,-973.00
2024-06-07 14:24:11.707082,0,0,121,0,0,0,76,78,135,120,68,153.73,108,10.00,1.00,-996.00
2024-06-07 14:24:11.815676,0,0,127,0,0,0,76,78,134,120,68,153.72,108,1.00,10.00,-972.00
2024-06-07 14:24:11.918052,-1,-1,134,0,0,0,76,78,135,120,68,153.85,108,-39.00,47.00,-1001.00
2024-06-07 14:24:12.013196,-1,-2,140,0,0,0,76,78,133,120,68,153.73,109,-25.00,39.00,-998.00
2024-06-07 14:24:12.119984,0,-2,147,0,0,0,76,78,135,120,68,153.69,109,-8.00,34.00,-986.00
2024-06-07 14:24:12.217062,0,-2,153,0,0,0,76,78,134,120,68,153.74,109,-10.00,39.00,-1051.00
2024-06-07 14:24:12.324779,0,-2,160,0,0,0,76,78,133,120,68,153.74,109,14.00,60.00,-987.00
2024-06-07 14:24:12.421046,0,-2,167,0,0,0,76,78,133,110,68,153.77,109,2.00,53.00,-1023.00
2024-06-07 14:24:12.530928,1,-2,173,0,0,0,76,78,132,110,68,153.62,109,9.00,47.00,-991.00
2024-06-07 14:24:12.624931,1,-1,-179,0,0,0,76,79,131,110,68,153.68,109,36.00,14.00,-1016.00
2024-06-07 14:24:12.737440,2,-1,-172,0,0,0,76,79,131,110,68,153.65,109,74.00,-24.00,-1019.00
2024-06-07 14:24:12.830808,2,0,-165,0,0,0,76,79,132,110,68,153.65,109,42.00,5.00,-1026.00
2024-06-07 14:24:12.934140,2,0,-159,0,0,0,76,79,132,110,68,153.74,109,28.00,-2.00,-985.00
2024-06-07 14:24:13.033056,2,1,-152,0,0,0,76,79,133,110,68,153.67,110,81.00,-36.00,-967.00
2024-06-07 14:24:13.135326,2,1,-146,0,0,0,76,79,132,110,68,153.62,110,81.00,-22.00,-984.00
2024-06-07 14:24:13.249431,1,2,-140,0,0,0,76,79,134,110,68,153.68,110,45.00,-1.00,-991.00
2024-06-07 14:24:13.338958,2,1,-134,0,0,0,76,79,132,110,68,153.59,110,80.00,-18.00,-981.00
2024-06-07 14:24:13.452164,2,1,-128,0,0,0,76,79,133,110,68,153.67,110,69.00,-8.00,-1012.00
2024-06-07 14:24:13.542870,3,1,-123,0,0,0,76,79,133,110,68,153.78,110,69.00,-1.00,-990.00
2024-06-07 14:24:13.658002,3,1,-117,0,0,0,75,79,133,110,68,153.63,110,63.00,2.00,-995.00
2024-06-07 14:24:13.746977,3,1,-112,0,0,0,75,79,133,110,68,153.59,110,36.00,6.00,-1016.00
2024-06-07 14:24:13.801047,3,1,-106,0,0,0,75,79,133,110,68,153.67,110,74.00,0.00,-1008.00
2024-06-07 14:24:13.900992,3,1,-101,0,0,0,75,79,134,110,68,153.59,110,47.00,-9.00,-1049.00
2024-06-07 14:24:14.065587,3,1,-95,0,0,0,75,79,134,110,68,153.70,111,49.00,-12.00,-1006.00
2024-06-07 14:24:14.105111,3,1,-89,0,0,0,75,79,134,110,68,153.61,111,61.00,-25.00,-1018.00
2024-06-07 14:24:14.270403,3,1,-83,0,0,0,75,79,134,110,68,153.61,111,40.00,-16.00,-1014.00
2024-06-07 14:24:14.308997,3,1,-77,0,0,0,75,79,134,110,68,153.63,111,36.00,-37.00,-1015.00
2024-06-07 14:24:14.475447,2,2,-72,0,0,0,75,79,135,110,68,153.67,111,32.00,-21.00,-1018.00
2024-06-07 14:24:14.512862,2,2,-66,0,0,0,75,79,135,110,68,153.64,111,51.00,-40.00,-1011.00
2024-06-07 14:24:14.680068,2,2,-60,0,0,0,76,79,136,110,68,153.73,111,49.00,-63.00,-1005.00
2024-06-07 14:24:14.718231,2,2,-55,0,0,0,76,79,135,110,68,153.73,111,52.00,-49.00,-956.00
2024-06-07 14:24:14.819288,2,3,-49,0,0,0,76,79,136,110,68,153.87,111,41.00,-80.00,-994.00
2024-06-07 14:24:14.987081,1,3,-44,0,0,0,76,79,136,110,68,153.84,111,37.00,-75.00,-948.00
2024-06-07 14:24:15.022975,1,4,-38,0,0,0,76,79,135,110,68,153.80,112,40.00,-85.00,-954.00
2024-06-07 14:24:15.191908,1,4,-33,0,0,0,76,79,135,110,68,153.79,112,18.00,-57.00,-1014.00
2024-06-07 14:24:15.226772,1,4,-27,0,0,0,76,79,134,110,68,153.80,112,16.00,-94.00,-975.00
2024-06-07 14:24:15.399412,0,4,-21,0,0,0,76,79,135,110,68,153.84,112,-12.00,-42.00,-1014.00
2024-06-07 14:24:15.430912,0,4,-15,0,0,0,76,79,134,110,68,153.72,112,-8.00,-70.00,-1015.00
2024-06-07 14:24:15.601503,0,4,-9,0,0,0,76,79,136,110,68,153.76,112,-21.00,-63.00,-1032.00
2024-06-07 14:24:15.635548,-1,4,2,0,0,0,76,79,134,110,68,153.69,112,-57.00,-44.00,-980.00
2024-06-07 14:24:15.736795,-2,3,9,0,0,0,76,79,135,110,68,153.69,112,-43.00,-53.00,-976.00
2024-06-07 14:24:15.843140,-2,3,15,0,0,0,76,79,134,110,68,153.59,112,-30.00,-63.00,-1019.00
2024-06-07 14:24:15.940860,-2,2,21,0,0,0,76,79,135,110,68,153.60,113,-29.00,-41.00,-957.00
2024-06-07 14:24:16.113462,-3,2,25,0,0,0,76,79,136,110,68,153.58,113,-69.00,-36.00,-999.00
2024-06-07 14:24:16.144772,-3,2,29,0,0,0,76,79,136,110,68,153.51,113,-67.00,-29.00,-999.00
2024-06-07 14:24:16.324686,-3,2,32,0,0,0,76,79,135,110,68,153.61,113,-79.00,-9.00,-1007.00
2024-06-07 14:24:16.348847,-3,1,35,0,0,0,76,79,135,110,68,153.59,113,-76.00,-14.00,-1021.00
2024-06-07 14:24:16.523077,-3,1,36,0,0,0,76,79,136,110,68,153.57,113,-74.00,-15.00,-982.00
2024-06-07 14:24:16.552680,-3,1,38,0,0,0,76,79,137,110,68,153.60,113,-65.00,-33.00,-993.00
2024-06-07 14:24:16.654784,-3,1,39,0,0,0,77,79,137,110,68,153.59,113,-46.00,-40.00,-1011.00
2024-06-07 14:24:16.830608,-3,1,39,0,0,0,77,79,137,120,68,153.48,113,-72.00,-37.00,-1010.00
2024-06-07 14:24:16.858784,-3,1,40,0,0,0,77,79,137,120,68,153.53,113,-74.00,-18.00,-983.00
2024-06-07 14:24:17.035458,-4,1,40,0,0,0,77,79,137,120,68,153.63,114,-105.00,-11.00,-1007.00
2024-06-07 14:24:17.062776,-4,0,40,0,0,0,77,79,139,120,68,153.62,114,-61.00,-31.00,-1013.00
2024-06-07 14:24:17.240013,-4,0,40,0,0,0,77,79,138,120,68,153.55,114,-78.00,-22.00,-1002.00
2024-06-07 14:24:17.268246,-4,0,40,0,0,0,77,79,138,120,68,153.51,114,-65.00,-18.00,-990.00
2024-06-07 14:24:17.444970,-4,0,40,0,0,0,77,79,138,120,68,153.60,114,-67.00,-23.00,-998.00
2024-06-07 14:24:17.470991,-4,0,40,0,0,0,77,79,138,120,68,153.55,114,-76.00,-27.00,-987.00
2024-06-07 14:24:17.522149,-3,0,40,0,0,0,77,79,138,120,68,153.54,114,-60.00,-33.00,-1014.00
2024-06-07 14:24:17.674929,-4,1,40,0,0,0,76,79,137,120,68,153.50,114,-11.00,-59.00,-1084.00
2024-06-07 14:24:17.727831,-4,1,40,0,0,0,76,79,137,120,68,153.53,114,-74.00,-20.00,-1000.00
2024-06-07 14:24:17.827971,-4,1,40,0,0,0,76,79,137,120,68,153.60,114,-61.00,-10.00,-957.00
2024-06-07 14:24:17.956850,-4,0,40,0,0,0,76,79,136,120,68,153.52,115,-64.00,-25.00,-1022.00
2024-06-07 14:24:18.031699,-3,0,40,0,0,0,76,79,136,110,68,153.43,115,-106.00,0.00,-1016.00
2024-06-07 14:24:18.161669,-4,0,40,0,0,0,76,79,136,110,68,153.51,115,-73.00,-9.00,-1034.00
2024-06-07 14:24:18.237077,-4,0,40,0,0,0,76,79,136,110,68,153.41,115,-85.00,-10.00,-1018.00
2024-06-07 14:24:18.340873,-4,0,40,0,0,0,76,79,137,110,68,153.52,115,-77.00,-10.00,-991.00
2024-06-07 14:24:18.439663,-4,0,40,0,0,0,76,79,137,110,68,153.54,115,-87.00,-44.00,-979.00
2024-06-07 14:24:18.571318,-3,1,40,0,0,0,76,79,137,110,68,153.48,115,-87.00,-13.00,-983.00
2024-06-07 14:24:18.648302,-4,1,40,0,0,0,76,79,137,120,68,153.53,115,-62.00,-34.00,-1039.00
2024-06-07 14:24:18.745627,-4,1,40,0,0,0,76,79,138,120,68,153.49,115,-81.00,-27.00,-1029.00
2024-06-07 14:24:18.848741,-4,1,40,0,0,0,76,79,137,120,68,153.42,115,-93.00,-20.00,-985.00
2024-06-07 14:24:18.949688,-4,1,39,0,0,0,76,79,138,120,68,153.51,116,-80.00,-7.00,-978.00
2024-06-07 14:24:19.051437,-4,1,34,0,0,0,76,79,137,120,68,153.63,116,-84.00,-4.00,-1004.00
2024-06-07 14:24:19.185531,-3,2,28,0,0,0,76,79,138,120,68,153.58,116,-80.00,-13.00,-992.00
2024-06-07 14:24:19.256639,-3,2,22,0,0,0,76,79,139,120,68,153.54,116,-46.00,-20.00,-990.00
2024-06-07 14:24:19.391972,-2,2,16,0,0,0,76,79,138,120,68,153.60,116,-79.00,-21.00,-1015.00
2024-06-07 14:24:19.459434,-2,2,10,0,0,0,76,79,137,120,68,153.59,116,-63.00,-38.00,-1003.00
2024-06-07 14:24:19.561381,-2,2,4,0,0,0,76,79,136,120,68,153.63,116,-57.00,-44.00,-974.00
2024-06-07 14:24:19.710884,-2,3,-1,0,0,0,76,79,136,120,68,153.64,116,-5.00,-85.00,-997.00
2024-06-07 14:24:19.765585,-2,3,-7,0,0,0,76,79,135,120,68,153.65,116,-19.00,-75.00,-1014.00
2024-06-07 14:24:19.867571,-1,3,-13,0,0,0,76,79,136,110,68,153.68,116,-34.00,-86.00,-985.00
2024-06-07 14:24:19.970602,-1,4,-19,0,0,0,76,79,135,110,68,153.69,117,15.00,-82.00,-1025.00
2024-06-07 14:24:20.071518,0,4,-25,0,0,0,76,79,135,110,68,153.79,117,0.00,-84.00,-1017.00
2024-06-07 14:24:20.213579,0,4,-31,0,0,0,76,79,134,110,68,153.75,117,-4.00,-75.00,-992.00
2024-06-07 14:24:20.275429,1,4,-37,0,0,0,76,79,133,110,68,153.76,117,0.00,-93.00,-1016.00
2024-06-07 14:24:20.414326,1,4,-43,0,0,0,76,79,133,110,68,153.82,117,30.00,-77.00,-954.00
2024-06-07 14:24:20.480729,2,4,-49,0,0,0,76,79,132,110,68,153.81,117,26.00,-97.00,-1017.00
2024-06-07 14:24:20.621632,2,5,-56,0,0,0,76,79,133,110,68,153.73,117,61.00,-71.00,-1007.00
2024-06-07 14:24:20.683352,3,5,-62,0,0,0,77,79,132,110,68,153.78,117,41.00,-61.00,-1016.00
2024-06-07 14:24:20.825758,4,4,-68,0,0,0,77,79,133,110,68,153.68,117,66.00,-46.00,-1019.00
2024-06-07 14:24:20.887350,4,3,-74,0,0,0,77,79,131,110,68,153.67,117,92.00,-67.00,-984.00
2024-06-07 14:24:20.994081,4,2,-80,0,0,0,77,79,131,110,68,153.66,118,39.00,-50.00,-978.00
2024-06-07 14:24:21.091343,4,2,-86,0,0,0,77,79,131,110,68,153.65,118,99.00,-70.00,-979.00
2024-06-07 14:24:21.233502,4,2,-92,0,0,0,77,79,132,110,68,153.58,118,79.00,-44.00,-1029.00
2024-06-07 14:24:21.295324,4,2,-99,0,0,0,77,79,132,110,68,153.61,118,79.00,-3.00,-972.00
2024-06-07 14:24:21.439663,4,1,-105,0,0,0,77,79,132,110,68,153.60,118,107.00,-18.00,-976.00
2024-06-07 14:24:21.499352,4,0,-111,0,0,0,77,79,132,110,68,153.53,118,62.00,2.00,-1007.00
2024-06-07 14:24:21.643645,4,0,-116,0,0,0,77,79,132,110,68,153.58,118,97.00,21.00,-984.00
2024-06-07 14:24:21.703324,5,0,-122,0,0,0,77,79,132,110,68,153.49,118,57.00,53.00,-1020.00
2024-06-07 14:24:21.850954,4,-1,-128,0,0,0,77,79,133,110,68,153.43,118,91.00,51.00,-977.00
2024-06-07 14:24:21.907284,4,-2,-134,0,0,0,77,79,133,110,68,153.52,118,99.00,22.00,-1013.00
2024-06-07 14:24:21.958515,4,-2,-139,0,0,0,77,79,133,110,68,153.57,119,116.00,18.00,-975.00
2024-06-07 14:24:22.060519,4,-3,-145,0,0,0,77,79,133,110,68,153.59,119,74.00,50.00,-988.00
2024-06-07 14:24:22.257428,4,-3,-151,0,0,0,77,79,132,110,68,153.62,119,102.00,41.00,-980.00
2024-06-07 14:24:22.264776,4,-3,-157,0,0,0,77,79,133,110,68,153.61,119,84.00,54.00,-1009.00
2024-06-07 14:24:22.462578,4,-3,-163,0,0,0,77,79,134,110,68,153.63,119,89.00,57.00,-962.00
2024-06-07 14:24:22.468568,4,-4,-169,0,0,0,77,79,134,110,68,153.68,119,58.00,82.00,-984.00
2024-06-07 14:24:22.570641,3,-4,-175,0,0,0,77,79,133,110,68,153.62,119,61.00,66.00,-999.00
2024-06-07 14:24:22.769502,3,-4,178,0,0,0,77,80,132,110,68,153.67,119,32.00,91.00,-1013.00
2024-06-07 14:24:22.774625,2,-4,172,0,0,0,77,80,132,110,68,153.66,119,41.00,81.00,-1015.00
2024-06-07 14:24:22.876536,2,-4,167,0,0,0,77,80,132,110,68,153.69,119,27.00,88.00,-966.00
2024-06-07 14:24:22.978855,1,-4,161,0,0,0,77,80,132,110,68,153.69,120,2.00,110.00,-1000.00
2024-06-07 14:24:23.084326,0,-5,155,0,0,0,77,80,132,110,68,153.67,120,11.00,108.00,-977.00
2024-06-07 14:24:23.182624,0,-5,149,0,0,0,77,80,132,110,68,153.60,120,15.00,82.00,-1006.00
2024-06-07 14:24:23.284485,0,-5,142,0,0,0,77,80,132,110,68,153.58,120,5.00,70.00,-1051.00
2024-06-07 14:24:23.387135,-1,-4,135,0,0,0,77,80,131,110,68,153.59,120,-10.00,52.00,-1022.00
2024-06-07 14:24:23.488501,-1,-4,128,0,0,0,77,80,131,110,68,153.59,120,-32.00,78.00,-1001.00
2024-06-07 14:24:23.691112,-1,-3,122,0,0,0,77,80,131,110,68,153.50,120,-61.00,58.00,-952.00
2024-06-07 14:24:23.692419,-2,-2,116,0,0,0,77,79,132,110,68,153.56,120,-71.00,80.00,-1009.00
2024-06-07 14:24:23.902714,-3,-2,109,0,0,0,77,79,131,110,68,153.58,120,-48.00,69.00,-1001.00
2024-06-07 14:24:23.902922,-3,-2,103,0,0,0,77,79,131,110,68,153.53,120,-46.00,59.00,-992.00
2024-06-07 14:24:24.000510,-3,-2,97,0,0,0,77,79,132,110,68,153.45,121,-70.00,71.00,-1042.00
2024-06-07 14:24:24.100549,-4,-2,91,0,0,0,77,79,130,110,68,153.46,121,-45.00,57.00,-982.00
2024-06-07 14:24:24.204455,-4,-2,85,0,0,0,77,79,131,110,68,153.29,121,-68.00,66.00,-980.00
2024-06-07 14:24:24.305206,-3,-2,79,0,0,0,77,79,130,110,68,153.38,121,-94.00,59.00,-988.00
2024-06-07 14:24:24.407879,-3,-2,72,0,0,0,77,79,132,110,68,153.48,121,-99.00,46.00,-1009.00
2024-06-07 14:24:24.512323,-4,-1,67,0,0,0,77,79,132,110,68,153.40,121,-79.00,32.00,-985.00
2024-06-07 14:24:24.610724,-4,-1,61,0,0,0,77,79,132,110,68,153.32,121,-81.00,15.00,-993.00
2024-06-07 14:24:24.713109,-4,-1,56,0,0,0,77,79,133,110,68,153.30,121,-81.00,13.00,-981.00
2024-06-07 14:24:24.815619,-5,0,52,0,0,0,77,79,133,110,68,153.16,121,-75.00,9.00,-951.00
2024-06-07 14:24:24.919528,-5,0,49,0,0,0,77,79,133,110,68,153.20,121,-84.00,-2.00,-959.00
2024-06-07 14:24:25.022599,-5,0,47,0,0,0,77,79,132,110,68,153.18,122,-80.00,-15.00,-1000.00
2024-06-07 14:24:25.122732,-5,0,46,0,0,0,77,79,134,110,68,153.35,122,-102.00,-7.00,-1023.00
2024-06-07 14:24:25.227092,-5,0,45,0,0,0,77,79,135,110,68,153.41,122,-78.00,-22.00,-1002.00
2024-06-07 14:24:25.324299,-5,1,44,0,0,0,77,79,134,110,68,153.52,122,-75.00,-33.00,-987.00
2024-06-07 14:24:25.375316,-5,1,43,0,0,0,77,79,135,110,68,153.56,122,-84.00,-29.00,-943.00
2024-06-07 14:24:25.534230,-5,1,43,0,0,0,77,79,136,110,68,153.52,122,-86.00,-52.00,-992.00
2024-06-07 14:24:25.579697,-4,2,42,0,0,0,77,79,136,110,68,153.51,122,-82.00,-42.00,-975.00
2024-06-07 14:24:25.739215,-4,2,42,0,0,0,77,79,137,120,68,153.58,122,-93.00,-41.00,-983.00
2024-06-07 14:24:25.784570,-5,3,42,0,0,0,77,79,137,120,68,153.63,122,-55.00,-29.00,-963.00
2024-06-07 14:24:25.886862,-5,3,41,0,0,0,77,79,138,120,68,153.40,122,-51.00,-48.00,-1017.00
2024-06-07 14:24:25.988765,-5,2,41,0,0,0,77,79,139,120,68,153.29,123,-101.00,-14.00,-999.00
2024-06-07 14:24:26.148814,-5,1,42,0,0,0,77,79,138,120,68,153.31,123,-120.00,-5.00,-1020.00
2024-06-07 14:24:26.192379,-5,1,42,0,0,0,77,79,138,120,68,153.30,123,-113.00,-7.00,-960.00
2024-06-07 14:24:26.353811,-5,1,42,0,0,0,77,79,138,120,68,153.38,123,-105.00,-3.00,-1030.00
2024-06-07 14:24:26.396435,-5,1,42,0,0,0,77,79,137,120,68,153.32,123,-98.00,-37.00,-1020.00
2024-06-07 14:24:26.558987,-5,0,42,0,0,0,77,79,138,120,68,153.14,123,-89.00,-8.00,-960.00
2024-06-07 14:24:26.600789,-5,0,42,0,0,0,77,79,138,120,68,153.30,123,-133.00,-9.00,-941.00
2024-06-07 14:24:26.702737,-5,0,42,0,0,0,77,79,139,120,68,153.36,123,-99.00,-20.00,-987.00
2024-06-07 14:24:26.865659,-5,1,42,0,0,0,77,79,139,120,68,153.34,123,-83.00,-6.00,-958.00
2024-06-07 14:24:26.906568,-5,0,42,0,0,0,77,79,140,120,68,153.41,123,-71.00,-22.00,-1052.00
2024-06-07 14:24:27.070718,-4,0,42,0,0,0,77,79,139,120,68,153.40,124,-88.00,-16.00,-971.00
2024-06-07 14:24:27.110476,-4,0,42,0,0,0,77,79,139,120,68,153.37,124,-81.00,-33.00,-981.00
2024-06-07 14:24:27.277749,-4,1,42,0,0,0,77,79,140,120,68,153.41,124,-87.00,-25.00,-1009.00
2024-06-07 14:24:27.315543,-4,1,42,0,0,0,77,79,138,120,68,153.44,124,-99.00,-24.00,-1009.00
2024-06-07 14:24:27.480051,-4,1,42,0,0,0,77,79,139,120,68,153.44,124,-80.00,-38.00,-964.00
2024-06-07 14:24:27.518849,-4,1,42,0,0,0,77,79,141,120,68,153.42,124,-79.00,-33.00,-1009.00
2024-06-07 14:24:27.684807,-5,1,42,0,0,0,77,79,139,120,68,153.54,124,-60.00,-17.00,-1016.00
2024-06-07 14:24:27.723695,-5,1,42,0,0,0,76,79,141,120,68,153.41,124,-84.00,-17.00,-1036.00
2024-06-07 14:24:27.826100,-4,1,42,0,0,0,76,79,141,120,68,153.39,124,-81.00,-16.00,-997.00
2024-06-07 14:24:27.927024,-3,0,42,0,0,0,76,79,142,120,68,153.31,124,-120.00,26.00,-1554.00
2024-06-07 14:24:28.028394,0,-3,42,0,0,-3,76,79,147,120,68,153.51,125,-115.00,-17.00,-1625.00
2024-06-07 14:24:28.197214,0,-11,42,0,-1,-9,76,79,231,130,68,153.63,125,-99.00,305.00,-998.00
2024-06-07 14:24:28.235041,2,-92,41,2,-6,-10,76,79,6553,140,68,153.74,125,-47.00,707.00,-1028.00
2024-06-07 14:24:28.334301,-3,141,38,5,-11,3,76,79,341,140,68,153.82,125,20.00,548.00,-1182.00
2024-06-07 14:24:28.503978,-2,26,49,1,-7,13,76,79,149,130,68,153.68,125,-85.00,-88.00,-1653.00
2024-06-07 14:24:28.538476,8,-12,50,0,-8,11,76,79,136,120,68,153.45,125,-49.00,46.00,-1395.00
2024-06-07 14:24:28.640358,-2,1,50,0,-10,8,76,79,129,110,68,153.34,125,-125.00,47.00,-1349.00
2024-06-07 14:24:28.813003,-6,4,46,-1,-9,4,77,79,126,100,68,153.27,125,-59.00,-15.00,-1238.00
2024-06-07 14:24:28.848777,-7,4,42,-2,-8,1,77,79,125,100,68,153.32,125,-88.00,-18.00,-1210.00
2024-06-07 14:24:28.946294,-8,3,41,-2,-7,0,77,79,126,100,68,153.32,125,-105.00,-18.00,-1161.00
2024-06-07 14:24:29.048405,-8,3,41,-1,-6,-1,77,79,130,100,68,153.31,126,-119.00,10.00,-1040.00
2024-06-07 14:24:29.220722,-8,3,41,-1,-5,-2,77,79,132,100,68,153.34,126,-103.00,-7.00,-996.00
2024-06-07 14:24:29.252574,-7,2,41,-1,-4,-2,77,79,135,100,68,153.38,126,-93.00,-18.00,-940.00
2024-06-07 14:24:29.303037,-6,2,42,-1,-4,-1,77,79,135,100,68,153.33,126,-104.00,15.00,-921.00
2024-06-07 14:24:29.425410,-7,2,42,-1,-3,-1,77,79,138,100,68,153.42,126,-100.00,21.00,-904.00
2024-06-07 14:24:29.507038,-7,1,42,-1,-3,-1,77,79,140,110,68,153.41,126,-103.00,-4.00,-942.00
2024-06-07 14:24:29.610388,-7,0,41,-1,-3,0,77,79,140,110,68,153.40,126,-112.00,-9.00,-954.00
2024-06-07 14:24:29.762100,-6,1,42,-1,-2,0,77,80,141,110,68,153.43,126,-85.00,-29.00,-974.00
2024-06-07 14:24:29.864358,-6,2,42,0,-2,0,77,80,142,110,68,153.38,126,-114.00,-2.00,-985.00
2024-06-07 14:24:29.915139,-6,2,42,0,-2,0,77,80,142,110,68,153.49,127,-94.00,-21.00,-978.00
2024-06-07 14:24:30.042135,-6,2,42,-1,-2,0,77,80,141,110,68,153.39,127,-119.00,12.00,-998.00
2024-06-07 14:24:30.119683,-6,1,42,-1,-2,0,77,80,143,110,68,153.42,127,-97.00,-40.00,-997.00
2024-06-07 14:24:30.221471,-6,1,42,-1,-2,0,77,80,142,110,68,153.44,127,-155.00,9.00,-1007.00
2024-06-07 14:24:30.323012,-7,1,42,-1,-1,0,77,80,142,110,68,153.54,127,-96.00,-12.00,-995.00
2024-06-07 14:24:30.428337,-7,2,42,-1,-1,0,77,80,144,110,68,153.46,127,-97.00,-17.00,-1004.00
2024-06-07 14:24:30.526941,-7,2,42,0,-1,0,77,80,143,110,68,153.43,127,-99.00,-14.00,-1027.00
2024-06-07 14:24:30.629306,-6,2,42,0,-1,0,77,80,142,110,68,153.48,127,-90.00,-37.00,-999.00
2024-06-07 14:24:30.757544,-6,2,42,0,0,0,78,79,142,110,68,153.39,127,-81.00,-39.00,-975.00
2024-06-07 14:24:30.833126,-5,3,42,0,0,0,78,79,142,110,68,153.43,127,-97.00,-31.00,-1011.00
2024-06-07 14:24:30.962095,-5,2,41,0,0,0,78,79,141,110,68,153.49,128,-126.00,5.00,-996.00
2024-06-07 14:24:31.038879,-5,1,42,0,0,0,78,79,142,110,68,153.33,128,-86.00,-28.00,-987.00
2024-06-07 14:24:31.140248,-5,2,42,0,0,0,78,79,143,110,68,153.39,128,-122.00,-21.00,-1019.00
2024-06-07 14:24:31.268672,-5,1,42,0,0,0,78,79,142,110,68,153.46,128,-89.00,-30.00,-1022.00
2024-06-07 14:24:31.348021,-6,1,42,0,0,0,78,79,142,110,68,153.45,128,-101.00,-24.00,-1019.00
2024-06-07 14:24:31.446989,-6,1,41,0,0,0,78,79,142,110,68,153.52,128,-99.00,-41.00,-973.00
2024-06-07 14:24:31.551453,-6,1,42,0,0,0,78,79,143,110,68,153.48,128,-100.00,-25.00,-990.00
2024-06-07 14:24:31.651853,-5,2,42,0,0,0,78,79,141,110,68,153.52,128,-106.00,-27.00,-993.00
2024-06-07 14:24:31.753992,-4,2,42,0,0,0,78,80,141,110,68,153.44,128,-90.00,-23.00,-1020.00
2024-06-07 14:24:31.854424,-4,1,42,0,0,0,78,80,141,110,68,153.55,128,-74.00,-50.00,-1050.00
2024-06-07 14:24:31.987051,-3,2,42,0,0,0,78,80,141,110,68,153.52,129,-79.00,-19.00,-969.00
2024-06-07 14:24:32.058249,-3,2,42,0,0,0,78,80,139,110,68,153.44,129,-59.00,-58.00,-970.00
2024-06-07 14:24:32.160332,-3,2,42,0,0,0,78,80,139,110,68,153.52,129,-62.00,-41.00,-1014.00
2024-06-07 14:24:32.292781,-3,1,42,0,0,0,78,80,138,110,68,153.43,129,-105.00,-29.00,-990.00
2024-06-07 14:24:32.364584,-3,2,42,0,0,0,78,80,140,110,68,153.49,129,-91.00,-36.00,-1001.00
2024-06-07 14:24:32.499223,-4,1,42,0,0,0,78,80,139,110,68,153.50,129,-102.00,-32.00,-983.00
2024-06-07 14:24:32.573116,-4,1,42,0,0,0,78,80,138,110,68,153.51,129,-70.00,-51.00,-1018.00
2024-06-07 14:24:32.671079,-4,2,42,0,0,0,78,80,139,110,68,153.56,129,-54.00,-74.00,-1037.00
2024-06-07 14:24:32.806803,-4,2,42,0,0,0,76,80,138,110,68,153.54,129,-96.00,-43.00,-977.00
2024-06-07 14:24:32.874988,-4,3,42,0,0,0,76,80,137,110,68,153.47,129,-77.00,-39.00,-992.00
2024-06-07 14:24:32.978102,-3,3,42,0,0,0,76,80,138,110,68,153.46,130,-58.00,-53.00,-1010.00
2024-06-07 14:24:33.030167,-3,3,42,0,0,0,76,80,138,110,68,153.50,130,-76.00,-50.00,-996.00
2024-06-07 14:24:33.130200,-3,3,42,0,0,0,76,80,137,110,68,153.54,130,-91.00,-47.00,-1007.00
2024-06-07 14:24:33.318748,-3,2,42,0,0,0,76,80,138,110,68,153.46,130,-64.00,-49.00,-1034.00
2024-06-07 14:24:33.334229,-3,2,42,0,0,0,76,80,138,110,68,153.48,130,-83.00,-31.00,-1002.00
2024-06-07 14:24:33.523097,-4,2,42,0,0,0,76,80,139,110,68,153.42,130,-97.00,-35.00,-973.00
2024-06-07 14:24:33.538500,-3,2,42,0,0,0,76,80,139,110,68,153.45,130,-84.00,-36.00,-979.00
2024-06-07 14:24:33.726440,-3,1,42,0,0,0,76,80,138,110,68,153.44,130,-79.00,-20.00,-1020.00
2024-06-07 14:24:33.742175,-3,2,42,0,0,0,77,80,139,110,68,153.49,130,-89.00,-41.00,-1012.00
2024-06-07 14:24:33.844206,-3,2,42,0,0,0,77,80,140,110,68,153.49,130,-87.00,-50.00,-978.00
2024-06-07 14:24:34.036750,-3,2,42,0,0,0,77,80,140,110,68,153.55,131,-84.00,-10.00,-994.00
2024-06-07 14:24:34.048044,-3,2,42,0,0,0,77,80,140,110,68,153.35,131,-82.00,-39.00,-1024.00
2024-06-07 14:24:34.238291,-4,1,42,0,0,0,77,80,140,110,68,153.44,131,-89.00,-37.00,-1022.00
2024-06-07 14:24:34.252193,-4,1,42,0,0,0,77,80,141,110,68,153.40,131,-87.00,-25.00,-980.00
2024-06-07 14:24:34.354316,-5,0,42,-1,0,0,77,80,142,110,68,153.43,131,-110.00,-11.00,-1018.00
2024-06-07 14:24:34.547293,-4,0,42,-1,0,0,77,80,142,110,68,153.39,131,-97.00,-28.00,-1019.00
2024-06-07 14:24:34.558056,0,3,41,-1,0,-3,77,80,144,110,68,153.34,131,-86.00,-47.00,-1494.00
2024-06-07 14:24:34.659907,0,8,41,-2,0,-9,77,80,155,120,68,153.64,131,-128.00,-32.00,-1666.00
2024-06-07 14:24:34.854096,0,74,41,-6,3,-11,77,80,404,130,68,153.79,131,-152.00,3.00,-1653.00
2024-06-07 14:24:34.864641,0,-158,43,-11,6,1,77,80,6553,140,68,153.75,131,-121.00,-105.00,-1677.00
2024-06-07 14:24:35.060426,-1,-39,37,-7,1,12,77,80,182,130,68,153.62,132,-86.00,435.00,-1372.00
2024-06-07 14:24:35.068118,6,8,30,-7,0,11,77,80,149,120,68,153.55,132,-85.00,820.00,-919.00
2024-06-07 14:24:35.262197,0,-2,20,-8,0,8,77,80,135,110,68,153.74,132,-152.00,613.00,-1090.00
2024-06-07 14:24:35.273289,-7,0,9,-7,-1,4,77,80,131,100,68,153.61,132,-91.00,49.00,-1132.00
2024-06-07 14:24:35.467347,-6,3,3,-5,-2,1,77,80,128,100,68,153.49,132,35.00,-89.00,-1462.00
2024-06-07 14:24:35.475991,-4,4,6,-4,-1,0,77,80,129,90,68,153.43,132,-4.00,-108.00,-1373.00
2024-06-07 14:24:35.578034,-3,3,17,-3,0,-1,77,80,130,100,68,153.35,132,-4.00,-126.00,-1276.00
2024-06-07 14:24:35.776129,-3,1,29,-4,0,-2,77,80,132,100,68,153.37,132,16.00,-61.00,-1165.00
2024-06-07 14:24:35.781900,-3,0,41,-4,0,-2,77,80,135,100,68,153.45,132,-88.00,-4.00,-1016.00
2024-06-07 14:24:35.954073,-4,0,43,-4,-1,-2,77,80,138,100,68,153.55,132,-67.00,-33.00,-942.00
2024-06-07 14:24:35.985881,-5,0,43,-4,-1,-1,77,80,142,100,68,153.47,133,-67.00,-15.00,-908.00
2024-06-07 14:24:36.186878,-6,0,43,-3,-1,0,77,80,143,100,68,153.44,133,-57.00,-30.00,-943.00
2024-06-07 14:24:36.190061,-6,0,43,-3,-1,0,77,80,142,110,68,153.50,133,-37.00,-28.00,-978.00
2024-06-07 14:24:36.389403,-5,0,43,-2,-1,0,77,80,144,110,68,153.51,133,-58.00,-17.00,-980.00
2024-06-07 14:24:36.393843,-5,0,42,-2,0,0,77,80,144,110,68,153.42,133,-46.00,-31.00,-985.00
2024-06-07 14:24:36.594867,-5,0,43,-2,0,0,77,80,145,110,68,153.55,133,-65.00,7.00,-984.00
2024-06-07 14:24:36.598037,-4,0,43,-1,0,0,77,80,146,110,68,153.49,133,-46.00,-10.00,-936.00
2024-06-07 14:24:36.700088,-4,0,43,-1,0,0,77,80,145,110,68,153.59,133,-33.00,-17.00,-989.00
2024-06-07 14:24:36.900596,-3,0,43,-1,0,0,77,80,144,110,68,153.61,133,-40.00,-3.00,-1007.00
2024-06-07 14:24:36.903871,-3,-1,42,0,0,0,77,80,142,110,68,153.67,133,-22.00,-27.00,-1002.00
2024-06-07 14:24:36.954626,-3,-1,42,0,0,0,77,80,142,110,68,153.51,134,-45.00,-10.00,-997.00
2024-06-07 14:24:37.057071,-2,-1,42,0,0,0,77,80,142,110,68,153.56,134,-55.00,6.00,-1033.00
2024-06-07 14:24:37.209267,-1,-1,42,0,0,0,77,80,140,110,68,153.55,134,-33.00,-16.00,-1013.00
2024-06-07 14:24:37.260743,-1,-1,42,0,0,0,77,80,141,110,67,153.55,134,-43.00,-35.00,-1038.00
2024-06-07 14:24:37.415661,0,0,42,0,0,0,77,80,140,110,67,153.53,134,-51.00,-3.00,-1011.00
