TS,pitch,roll,yaw,vgx,vgy,vgz,templ,temph,tof,h,bat,baro,time,agx,agy,agz
2024-06-07 14:25:29.178221,2,0,48,0,0,0,81,83,10,0,65,152.25,154,48.00,13.00,-996.00
2024-06-07 14:25:29.328940,2,0,48,0,0,0,81,83,10,0,65,152.33,154,47.00,14.00,-999.00
2024-06-07 14:25:29.382180,2,0,48,0,0,0,81,83,10,0,65,152.34,154,47.00,13.00,-998.00
2024-06-07 14:25:29.433194,2,0,48,0,0,0,81,83,10,0,65,152.32,154,49.00,14.00,-1000.00
2024-06-07 14:25:29.636125,2,0,48,0,0,0,81,83,10,0,65,152.29,154,46.00,14.00,-999.00
2024-06-07 14:25:29.637065,2,0,48,0,0,0,81,83,10,0,65,152.27,154,48.00,14.00,-998.00
2024-06-07 14:25:29.739070,2,0,48,0,0,0,81,83,10,0,65,152.32,154,48.00,14.00,-997.00
2024-06-07 14:25:29.841653,2,0,48,0,0,0,81,83,10,0,65,152.33,154,49.00,13.00,-997.00
2024-06-07 14:25:29.943812,2,0,48,0,0,0,81,83,10,0,65,152.32,154,47.00,14.00,-999.00
2024-06-07 14:25:30.046899,2,0,48,0,0,0,82,83,10,0,65,152.30,154,48.00,13.00,-999.00
2024-06-07 14:25:30.149191,2,0,48,0,0,0,82,83,10,0,65,152.35,154,48.00,14.00,-1000.00
2024-06-07 14:25:30.251432,2,0,48,0,0,0,82,83,10,0,65,152.34,154,45.00,13.00,-997.00
2024-06-07 14:25:30.352625,2,0,48,0,0,0,82,83,10,0,65,152.31,154,47.00,14.00,-998.00
2024-06-07 14:25:30.456377,2,0,48,0,0,0,82,83,10,0,65,152.31,154,49.00,14.00,-999.00
2024-06-07 14:25:30.557967,2,0,48,0,0,0,82,83,10,0,65,152.26,154,48.00,15.00,-999.00
2024-06-07 14:25:30.658561,2,0,48,0,0,0,82,83,10,0,65,152.30,154,47.00,13.00,-1002.00
2024-06-07 14:25:30.762631,2,0,48,0,0,0,82,83,10,0,65,152.28,154,48.00,15.00,-997.00
2024-06-07 14:25:30.863140,2,0,48,0,0,0,82,83,10,0,65,152.31,154,48.00,15.00,-994.00
2024-06-07 14:25:30.965633,2,0,48,0,0,0,82,83,10,0,65,152.32,154,48.00,14.00,-999.00
2024-06-07 14:25:31.067717,2,0,48,0,0,0,82,83,10,0,65,152.33,154,48.00,14.00,-999.00
2024-06-07 14:25:31.168305,2,0,48,0,0,0,82,83,10,0,65,152.33,154,48.00,15.00,-996.00
2024-06-07 14:25:31.270123,2,0,48,0,0,0,82,83,10,0,65,152.34,154,47.00,13.00,-998.00
2024-06-07 14:25:31.376945,2,0,48,0,0,0,82,83,10,0,65,152.31,154,48.00,14.00,-997.00
2024-06-07 14:25:31.474076,2,0,48,0,0,0,82,83,10,0,65,152.32,154,47.00,13.00,-998.00
2024-06-07 14:25:31.577067,2,0,48,0,0,0,82,83,10,0,65,152.36,154,47.00,14.00,-999.00
2024-06-07 14:25:31.685501,2,0,48,0,0,0,82,83,10,0,65,152.29,154,47.00,13.00,-998.00
2024-06-07 14:25:31.785064,2,0,48,0,0,0,82,83,10,0,65,152.30,154,47.00,13.00,-1000.00
2024-06-07 14:25:31.888913,2,0,48,0,0,0,82,83,10,0,65,152.29,154,48.00,15.00,-1001.00
2024-06-07 14:25:31.984254,2,0,48,0,0,0,82,83,10,0,65,152.30,154,42.00,17.00,-997.00
2024-06-07 14:25:32.086035,2,0,48,0,0,0,82,84,10,0,65,152.30,154,56.00,2.00,-993.00
2024-06-07 14:25:32.188891,2,0,48,0,0,0,82,84,10,0,65,152.30,154,36.00,15.00,-997.00
2024-06-07 14:25:32.290182,2,0,48,0,0,0,82,84,10,0,65,152.30,154,61.00,20.00,-1005.00
2024-06-07 14:25:32.400960,2,0,48,0,0,0,82,84,10,0,65,152.30,155,105.00,-7.00,-917.00
2024-06-07 14:25:32.493903,3,0,48,0,0,0,82,84,10,0,65,152.30,155,29.00,22.00,-1042.00
2024-06-07 14:25:32.605762,1,0,48,0,0,0,82,84,10,0,65,152.30,155,-14.00,23.00,-1178.00
2024-06-07 14:25:32.698554,1,0,48,0,0,-2,82,84,10,0,65,152.30,155,-3.00,48.00,-1330.00
2024-06-07 14:25:32.812491,0,-1,48,-1,0,-4,82,84,10,0,65,152.30,155,15.00,57.00,-1208.00
2024-06-07 14:25:32.902063,-1,-2,48,-1,0,-6,82,84,16,0,65,152.50,155,11.00,76.00,-1092.00
2024-06-07 14:25:32.958993,-1,-3,48,-1,0,-7,82,84,24,10,65,152.75,155,-40.00,73.00,-1037.00
2024-06-07 14:25:33.106013,-1,-4,48,-1,0,-7,83,84,32,20,65,152.83,155,-34.00,67.00,-951.00
2024-06-07 14:25:33.156829,-2,-4,48,-1,0,-7,83,84,39,20,65,152.80,155,-2.00,48.00,-953.00
2024-06-07 14:25:33.259360,-2,-4,48,-1,0,-7,83,84,46,30,65,152.92,155,-8.00,73.00,-934.00
2024-06-07 14:25:33.426548,-1,-4,48,-1,0,-6,83,84,54,40,65,153.05,156,-29.00,84.00,-911.00
2024-06-07 14:25:33.463342,-3,-5,48,-1,0,-5,83,84,61,40,65,153.00,156,-52.00,66.00,-898.00
2024-06-07 14:25:33.629777,-2,-5,48,-1,0,-4,83,84,67,50,65,153.08,156,-22.00,72.00,-903.00
2024-06-07 14:25:33.668691,-3,-5,48,-1,0,-3,83,84,71,50,65,153.06,156,-20.00,54.00,-919.00
2024-06-07 14:25:33.768976,-3,-5,48,0,0,-2,83,84,74,50,65,153.13,156,-14.00,58.00,-982.00
2024-06-07 14:25:33.936917,-3,-5,48,0,0,-1,83,84,77,60,65,153.14,156,-15.00,73.00,-876.00
2024-06-07 14:25:33.973388,-3,-4,48,0,0,0,83,84,78,60,65,153.12,156,-24.00,57.00,-940.00
2024-06-07 14:25:34.074845,-2,-4,48,0,0,0,81,84,80,60,65,153.19,156,-22.00,72.00,-967.00
2024-06-07 14:25:34.244145,-2,-4,48,0,0,0,81,84,81,60,65,153.21,156,-25.00,66.00,-971.00
2024-06-07 14:25:34.278887,-2,-3,48,0,0,0,81,84,82,60,65,153.20,156,-101.00,93.00,-970.00
2024-06-07 14:25:34.448837,-2,-4,48,0,0,0,81,84,83,60,65,153.18,157,-46.00,73.00,-961.00
2024-06-07 14:25:34.483081,-2,-4,48,0,0,0,81,84,84,60,65,153.26,157,-59.00,84.00,-1021.00
2024-06-07 14:25:34.584775,-2,-4,48,0,0,0,81,84,85,60,65,153.19,157,-45.00,70.00,-985.00
2024-06-07 14:25:34.756154,-1,-4,48,0,0,0,81,84,85,60,65,153.24,157,-31.00,57.00,-994.00
2024-06-07 14:25:34.788817,-1,-4,48,0,0,0,81,84,85,60,65,153.10,157,-49.00,84.00,-948.00
2024-06-07 14:25:34.896119,-2,-4,48,0,0,0,81,84,85,70,65,153.20,157,-26.00,57.00,-969.00
2024-06-07 14:25:34.992753,-1,-3,48,0,0,0,81,84,86,70,65,153.29,157,-28.00,70.00,-980.00
2024-06-07 14:25:35.096130,-1,-3,48,0,0,0,81,84,85,70,65,153.28,157,-58.00,66.00,-1004.00
2024-06-07 14:25:35.198037,-1,-4,48,0,0,0,81,84,85,70,65,153.31,157,-62.00,59.00,-989.00
2024-06-07 14:25:35.373647,-1,-3,48,0,0,0,81,84,85,70,65,153.33,157,-70.00,63.00,-1037.00
2024-06-07 14:25:35.400777,-2,-3,48,0,0,0,81,84,85,70,65,153.33,158,-88.00,65.00,-1030.00
2024-06-07 14:25:35.575267,-4,-3,48,0,0,0,81,84,85,70,65,153.30,158,-106.00,92.00,-958.00
2024-06-07 14:25:35.604749,-5,-4,49,0,0,0,81,84,85,70,65,153.34,158,-55.00,71.00,-1003.00
2024-06-07 14:25:35.780356,-5,-4,49,0,0,0,81,84,83,70,65,153.18,158,-96.00,66.00,-1065.00
2024-06-07 14:25:35.808785,-4,-3,49,0,0,0,81,84,83,70,65,153.17,158,-81.00,98.00,-1002.00
2024-06-07 14:25:35.911376,-4,-4,48,0,0,0,81,84,82,60,65,153.20,158,-41.00,82.00,-1035.00
2024-06-07 14:25:36.087337,-4,-4,48,0,0,0,81,84,81,60,65,153.26,158,-46.00,113.00,-952.00
2024-06-07 14:25:36.114740,-3,-5,48,0,0,0,81,84,81,60,65,153.28,158,-55.00,130.00,-997.00
2024-06-07 14:25:36.216761,-2,-5,48,0,0,0,81,84,81,60,65,153.31,158,-49.00,137.00,-977.00
2024-06-07 14:25:36.318922,-2,-7,48,0,1,0,81,84,80,60,65,153.23,158,-45.00,109.00,-1021.00
2024-06-07 14:25:36.496891,-1,-8,48,0,0,0,81,84,80,60,65,153.23,159,-70.00,109.00,-1064.00
2024-06-07 14:25:36.523476,-2,-7,48,0,0,0,81,84,79,60,65,153.30,159,-60.00,88.00,-1001.00
2024-06-07 14:25:36.624733,-2,-6,48,0,0,0,81,84,79,60,65,153.25,159,-61.00,98.00,-951.00
2024-06-07 14:25:36.804066,-3,-6,48,0,0,0,81,84,78,60,65,153.31,159,-60.00,105.00,-956.00
2024-06-07 14:25:36.804128,-2,-6,49,0,0,0,81,84,78,60,65,153.33,159,-52.00,71.00,-1080.00
2024-06-07 14:25:36.879843,-1,-2,48,0,0,0,81,84,77,60,65,153.41,159,-56.00,124.00,-971.00
2024-06-07 14:25:37.008949,-2,-4,48,0,0,0,81,84,78,60,65,153.41,159,-13.00,106.00,-957.00
2024-06-07 14:25:37.084320,-2,-6,48,0,0,0,81,83,79,60,65,153.27,159,-83.00,82.00,-996.00
2024-06-07 14:25:37.216275,-3,-7,48,0,0,0,81,83,80,60,65,153.31,159,-140.00,89.00,-986.00
2024-06-07 14:25:37.288561,-5,-8,48,0,0,0,81,83,80,60,65,153.09,159,-82.00,49.00,-966.00
2024-06-07 14:25:37.389647,-6,-6,48,0,-1,0,81,83,80,60,65,153.12,160,-60.00,65.00,-1006.00
2024-06-07 14:25:37.521508,-5,-3,48,0,-1,0,81,83,81,60,65,153.16,160,-97.00,79.00,-990.00
2024-06-07 14:25:37.593738,-6,-3,48,0,-1,0,81,83,81,60,65,153.09,160,-60.00,45.00,-1031.00
2024-06-07 14:25:37.695729,-5,-3,48,0,-1,0,81,83,82,60,65,153.09,160,-110.00,44.00,-978.00
2024-06-07 14:25:37.828279,-5,-1,48,0,-1,0,81,83,82,60,65,152.99,160,-80.00,31.00,-995.00
2024-06-07 14:25:37.899731,-5,-1,48,0,-1,0,81,83,82,60,65,153.14,160,-104.00,66.00,-913.00
2024-06-07 14:25:38.001763,-5,-2,48,0,0,0,81,83,83,60,65,153.06,160,-110.00,86.00,-977.00
2024-06-07 14:25:38.103792,-5,-1,49,0,0,0,80,83,83,60,65,153.05,160,-74.00,64.00,-983.00
2024-06-07 14:25:38.237834,-5,-2,49,0,0,0,80,83,82,60,65,153.07,160,-75.00,66.00,-1049.00
2024-06-07 14:25:38.307731,-4,-3,48,0,0,0,80,83,83,60,65,152.97,160,-44.00,38.00,-1024.00
2024-06-07 14:25:38.410046,-3,-4,48,0,0,0,80,83,82,60,65,153.04,161,-90.00,53.00,-1004.00
2024-06-07 14:25:38.546491,-3,-4,48,0,0,0,80,83,83,60,65,152.98,161,-95.00,66.00,-985.00
2024-06-07 14:25:38.613676,-3,-2,48,0,0,0,80,83,83,60,65,152.94,161,-99.00,56.00,-1005.00
2024-06-07 14:25:38.749982,-3,-3,48,0,0,0,80,83,83,60,65,152.97,161,-113.00,76.00,-1004.00
2024-06-07 14:25:38.819355,-4,-3,48,0,0,0,80,83,83,60,65,153.01,161,-85.00,42.00,-1001.00
2024-06-07 14:25:38.919842,-3,-3,48,0,0,0,80,83,82,60,65,152.91,161,-69.00,41.00,-984.00
2024-06-07 14:25:39.021821,-3,-2,48,0,0,0,80,83,83,60,65,152.98,161,-51.00,42.00,-1016.00
2024-06-07 14:25:39.124988,-3,-2,48,0,0,0,80,83,82,60,65,153.00,161,-91.00,60.00,-978.00
2024-06-07 14:25:39.261811,-3,-2,48,0,0,0,80,83,83,60,65,153.03,161,-99.00,62.00,-988.00
2024-06-07 14:25:39.332023,-4,-2,48,0,0,0,80,83,82,60,65,152.90,161,-70.00,17.00,-1041.00
2024-06-07 14:25:39.430133,-4,-2,48,0,0,0,80,83,82,60,65,152.99,162,-64.00,18.00,-971.00
2024-06-07 14:25:39.544294,-3,-3,48,0,0,0,80,83,82,60,65,152.84,162,-105.00,45.00,-1017.00
2024-06-07 14:25:39.634434,-3,-2,48,0,0,0,80,83,82,60,65,152.92,162,-87.00,18.00,-1019.00
2024-06-07 14:25:39.737341,-4,-1,48,0,0,0,80,83,81,60,65,152.89,162,-104.00,39.00,-1027.00
2024-06-07 14:25:39.837818,-4,-1,48,0,0,0,80,83,82,60,65,152.77,162,-83.00,43.00,-1099.00
2024-06-07 14:25:39.978675,-4,0,48,0,0,-1,80,83,83,60,65,152.89,162,-29.00,72.00,-1061.00
2024-06-07 14:25:40.041589,-4,-1,48,0,0,-2,80,83,85,70,65,153.08,162,-86.00,55.00,-1176.00
2024-06-07 14:25:40.143445,-3,-2,48,0,0,-3,79,82,89,70,65,153.05,162,-77.00,73.00,-1056.00
2024-06-07 14:25:40.285853,-3,-2,48,0,0,-3,79,82,94,70,65,153.18,162,-39.00,52.00,-989.00
2024-06-07 14:25:40.347494,-3,-3,48,0,0,-4,79,82,98,80,65,153.24,162,-66.00,79.00,-1046.00
2024-06-07 14:25:40.490474,-3,-3,48,0,0,-4,79,82,102,80,65,153.29,163,-44.00,82.00,-1031.00
2024-06-07 14:25:40.551354,-3,-4,48,0,0,-4,79,82,108,80,65,153.25,163,-53.00,45.00,-1024.00
2024-06-07 14:25:40.604314,-4,-5,48,0,0,-5,79,82,113,90,65,153.29,163,-60.00,59.00,-1004.00
2024-06-07 14:25:40.704833,-3,-5,48,0,0,-5,79,82,119,90,65,153.29,163,-85.00,84.00,-1011.00
2024-06-07 14:25:40.900071,-3,-5,48,0,0,-5,79,82,125,100,65,153.43,163,-82.00,70.00,-1007.00
2024-06-07 14:25:40.908483,-3,-5,48,0,0,-5,79,82,131,110,65,153.46,163,-65.00,87.00,-1003.00
2024-06-07 14:25:41.104932,-3,-4,48,0,0,-5,79,82,136,110,65,153.51,163,-68.00,65.00,-949.00
2024-06-07 14:25:41.163555,-3,-4,48,0,0,-5,80,83,142,120,65,153.59,163,-82.00,78.00,-995.00
2024-06-07 14:25:41.214440,-3,-4,48,0,0,-5,80,83,147,130,65,153.66,163,-60.00,73.00,-987.00
2024-06-07 14:25:41.316466,-3,-4,48,0,0,-4,80,83,153,130,65,153.76,164,-106.00,85.00,-947.00
2024-06-07 14:25:41.514505,-3,-4,48,0,0,-4,80,83,159,140,65,153.73,164,-59.00,53.00,-988.00
2024-06-07 14:25:41.520914,-3,-4,48,0,0,-3,80,83,163,140,65,153.69,164,-104.00,69.00,-965.00
2024-06-07 14:25:41.721755,-4,-4,48,0,0,-3,80,83,168,150,65,153.77,164,-56.00,72.00,-964.00
2024-06-07 14:25:41.725990,-3,-4,48,0,0,-2,80,83,170,150,65,153.65,164,-79.00,60.00,-961.00
2024-06-07 14:25:41.826651,-3,-3,48,0,0,-2,80,83,173,150,65,153.70,164,-76.00,34.00,-1012.00
2024-06-07 14:25:41.930701,-3,-2,48,0,0,-2,80,83,176,150,65,153.73,164,-125.00,43.00,-936.00
2024-06-07 14:25:42.032009,-3,-1,48,0,0,-2,80,83,177,160,65,153.73,164,-102.00,42.00,-956.00
2024-06-07 14:25:42.132486,-3,-1,48,0,0,-1,80,82,180,160,65,153.81,164,-96.00,72.00,-962.00
2024-06-07 14:25:42.234566,-3,-2,48,0,0,-1,80,82,181,160,65,153.86,164,-98.00,90.00,-945.00
2024-06-07 14:25:42.336682,-3,-3,48,0,0,0,80,82,182,160,65,153.82,165,-95.00,39.00,-947.00
2024-06-07 14:25:42.438723,-3,-3,48,0,0,0,80,82,181,160,65,153.83,165,-111.00,55.00,-955.00
2024-06-07 14:25:42.540454,-3,-2,48,0,0,0,80,82,181,160,65,153.87,165,-97.00,48.00,-970.00
2024-06-07 14:25:42.642808,-4,-2,48,0,0,0,80,82,183,160,65,153.93,165,-74.00,38.00,-980.00
2024-06-07 14:25:42.745104,-4,-2,48,0,0,0,80,82,184,160,65,153.88,165,-74.00,51.00,-1011.00
2024-06-07 14:25:42.847286,-4,-2,48,0,0,0,80,82,185,160,65,153.87,165,-57.00,45.00,-988.00
2024-06-07 14:25:42.948553,-4,-2,48,0,0,0,80,82,183,160,65,153.85,165,-91.00,46.00,-1005.00
2024-06-07 14:25:43.053509,-3,-2,48,0,0,0,80,82,186,160,65,153.86,165,-60.00,33.00,-1014.00
2024-06-07 14:25:43.154413,-3,-2,48,0,0,0,80,82,183,160,65,153.84,165,-61.00,56.00,-1003.00
2024-06-07 14:25:43.256573,-3,-3,48,0,0,0,80,82,184,160,65,153.90,165,-80.00,53.00,-1001.00
2024-06-07 14:25:43.358397,-3,-3,48,0,0,0,80,82,182,160,65,153.91,166,-87.00,41.00,-1003.00
2024-06-07 14:25:43.458460,-3,-3,48,0,0,0,80,82,185,160,65,153.86,166,-71.00,45.00,-987.00
2024-06-07 14:25:43.560706,-3,-3,48,0,0,0,80,82,183,160,65,153.90,166,-78.00,61.00,-971.00
2024-06-07 14:25:43.666867,-3,-3,48,0,0,0,80,82,187,160,65,153.84,166,-86.00,68.00,-964.00
2024-06-07 14:25:43.765108,-3,-2,48,0,0,0,80,82,186,160,65,153.82,166,-93.00,57.00,-1008.00
2024-06-07 14:25:43.868085,-3,-2,48,0,0,0,80,82,185,160,65,153.92,166,-75.00,68.00,-949.00
2024-06-07 14:25:43.968680,-3,-2,48,0,0,0,80,82,185,160,65,153.87,166,-76.00,82.00,-990.00
2024-06-07 14:25:44.074533,-2,-3,48,0,0,0,80,82,184,160,65,153.83,166,-68.00,69.00,-982.00
2024-06-07 14:25:44.176633,-2,-3,48,0,0,0,79,82,184,160,65,153.74,166,-57.00,39.00,-952.00
2024-06-07 14:25:44.274353,-1,-2,48,0,0,0,79,82,181,160,65,153.85,166,-74.00,37.00,-1074.00
2024-06-07 14:25:44.381683,-2,-2,48,0,0,0,79,82,184,160,65,153.82,167,-86.00,45.00,-949.00
2024-06-07 14:25:44.479305,-2,-2,48,0,0,0,79,82,184,160,65,153.82,167,-70.00,32.00,-989.00
2024-06-07 14:25:44.580453,-3,-1,48,0,0,1,79,82,182,160,65,153.81,167,-51.00,44.00,-938.00
2024-06-07 14:25:44.682336,-3,-2,48,0,0,1,79,82,182,160,65,153.84,167,-53.00,75.00,-931.00
2024-06-07 14:25:44.793312,-3,-3,48,0,0,2,79,82,179,160,65,153.77,167,-59.00,75.00,-977.00
2024-06-07 14:25:44.886954,-2,-4,48,0,0,2,79,82,177,160,65,153.93,167,-44.00,58.00,-1018.00
2024-06-07 14:25:44.938481,-2,-4,48,0,0,2,79,82,172,150,65,153.79,167,-68.00,52.00,-999.00
2024-06-07 14:25:45.100503,-3,-4,48,0,0,2,79,82,170,150,65,153.82,167,-57.00,64.00,-989.00
2024-06-07 14:25:45.141271,-3,-3,48,0,0,2,79,82,167,150,65,153.77,167,-80.00,68.00,-1011.00
2024-06-07 14:25:45.303295,-3,-3,48,0,0,3,79,82,165,150,65,153.69,167,-110.00,86.00,-962.00
2024-06-07 14:25:45.345458,-3,-3,48,0,0,3,79,82,162,140,65,153.67,168,-84.00,77.00,-955.00
2024-06-07 14:25:45.508073,-2,-4,48,0,0,2,79,82,157,140,65,153.68,168,-63.00,58.00,-958.00
2024-06-07 14:25:45.549285,-2,-3,48,0,0,2,79,82,155,140,65,153.57,168,-59.00,80.00,-976.00
2024-06-07 14:25:45.712926,-2,-3,48,0,0,2,79,82,152,130,65,153.60,168,-75.00,43.00,-1046.00
2024-06-07 14:25:45.753977,-2,-3,48,0,0,2,79,82,149,130,65,153.49,168,-54.00,69.00,-959.00
2024-06-07 14:25:45.918234,-2,-2,48,0,0,1,79,82,147,130,65,153.59,168,-88.00,48.00,-1116.00
2024-06-07 14:25:45.957227,-4,-2,48,0,0,1,79,82,145,130,65,153.54,168,-74.00,36.00,-1013.00
2024-06-07 14:25:46.122440,-4,-1,48,0,0,1,79,82,144,130,65,153.53,168,-106.00,58.00,-1061.00
2024-06-07 14:25:46.161325,-3,-1,48,0,0,1,79,81,143,120,65,153.50,168,-49.00,53.00,-963.00
2024-06-07 14:25:46.330958,-3,-2,48,0,0,1,79,81,142,120,65,153.49,168,-50.00,88.00,-944.00
2024-06-07 14:25:46.365379,-3,-3,48,0,0,1,79,81,140,120,65,153.55,169,-62.00,68.00,-999.00
2024-06-07 14:25:46.468098,-2,-3,48,0,0,1,79,81,138,120,65,153.40,169,-62.00,77.00,-989.00
2024-06-07 14:25:46.572742,-2,-3,48,0,0,1,79,81,136,120,65,153.39,169,-61.00,52.00,-1001.00
2024-06-07 14:25:46.671288,-1,-3,48,0,0,1,79,81,136,120,65,153.43,169,-45.00,48.00,-1047.00
2024-06-07 14:25:46.839576,-1,-2,48,0,0,0,79,81,133,120,65,153.43,169,-32.00,55.00,-1025.00
2024-06-07 14:25:46.875690,-1,-2,48,0,0,0,79,81,134,120,65,153.45,169,-9.00,53.00,-1008.00
2024-06-07 14:25:47.044124,0,-2,48,0,0,0,79,81,134,120,65,153.41,169,-59.00,77.00,-1008.00
2024-06-07 14:25:47.079299,0,-2,48,0,0,0,79,81,133,120,65,153.49,169,-46.00,69.00,-1029.00
2024-06-07 14:25:47.182280,0,-2,48,0,0,0,79,82,132,120,65,153.43,169,-30.00,75.00,-990.00
2024-06-07 14:25:47.353843,-1,-3,48,0,0,0,79,82,134,120,65,153.34,169,-47.00,74.00,-1018.00
2024-06-07 14:25:47.386231,-1,-4,48,0,0,0,79,82,135,120,65,153.44,170,-57.00,70.00,-996.00
2024-06-07 14:25:47.559497,-1,-4,48,0,0,0,79,82,134,120,65,153.44,170,-61.00,62.00,-976.00
2024-06-07 14:25:47.590280,-2,-4,48,0,0,0,79,82,136,120,65,153.51,170,-51.00,60.00,-990.00
2024-06-07 14:25:47.760905,-2,-3,48,0,0,0,79,82,136,120,65,153.37,170,-16.00,69.00,-997.00
2024-06-07 14:25:47.794236,-2,-3,48,0,0,0,79,82,137,120,65,153.48,170,-94.00,92.00,-960.00
2024-06-07 14:25:47.965802,-1,-3,48,0,0,0,79,82,138,120,65,153.49,170,-60.00,63.00,-1028.00
2024-06-07 14:25:47.998241,-1,-3,48,0,0,0,79,82,137,120,65,153.49,170,-53.00,54.00,-985.00
2024-06-07 14:25:48.170962,-1,-3,48,0,0,0,79,82,137,120,65,153.47,170,-72.00,64.00,-1035.00
2024-06-07 14:25:48.202182,-1,-3,48,0,0,0,78,81,137,120,65,153.46,170,-42.00,48.00,-1033.00
2024-06-07 14:25:48.375386,-2,-3,48,0,0,0,78,81,138,120,65,153.57,170,-30.00,38.00,-991.00
2024-06-07 14:25:48.406188,-2,-3,48,0,0,0,78,81,138,120,65,153.47,171,-66.00,54.00,-999.00
2024-06-07 14:25:48.576496,-3,-2,48,0,0,0,78,81,139,120,65,153.45,171,-38.00,55.00,-992.00
2024-06-07 14:25:48.614017,-3,-2,48,0,0,0,78,81,138,120,65,153.57,171,-40.00,26.00,-986.00
2024-06-07 14:25:48.661031,-2,-2,48,0,0,0,78,81,138,120,65,153.61,171,-68.00,61.00,-963.00
2024-06-07 14:25:48.763291,-5,-2,48,0,0,0,78,81,141,120,65,153.50,171,-64.00,75.00,-979.00
2024-06-07 14:25:48.865321,-8,-1,48,0,0,0,78,81,141,120,65,153.64,171,-77.00,63.00,-1000.00
2024-06-07 14:25:48.967042,-8,-1,48,0,1,0,78,81,138,120,65,153.61,171,-97.00,85.00,-964.00
2024-06-07 14:25:49.069345,-8,-2,48,0,1,0,78,81,140,120,65,153.69,171,-58.00,69.00,-973.00
2024-06-07 14:25:49.223813,-8,-2,48,0,2,0,79,82,139,120,65,153.58,171,-91.00,121.00,-971.00
2024-06-07 14:25:49.323987,-8,-3,48,0,3,0,79,82,138,120,65,153.60,171,-101.00,118.00,-1008.00
2024-06-07 14:25:49.375049,-7,-4,48,1,4,0,79,82,137,120,65,153.64,172,-121.00,88.00,-1031.00
2024-06-07 14:25:49.501603,-7,-4,49,1,4,0,79,82,136,120,65,153.69,172,-95.00,94.00,-1007.00
2024-06-07 14:25:49.579093,-7,-4,49,1,5,0,79,82,137,120,65,153.61,172,-84.00,96.00,-988.00
2024-06-07 14:25:49.710433,-6,-5,49,1,6,0,79,82,136,120,65,153.66,172,-89.00,74.00,-990.00
2024-06-07 14:25:49.783113,-5,-6,48,2,6,0,79,82,135,120,65,153.68,172,-120.00,136.00,-964.00
2024-06-07 14:25:49.911268,-4,-7,48,2,6,0,79,82,134,120,65,153.62,172,-101.00,103.00,-985.00
2024-06-07 14:25:49.987064,-2,-8,48,2,5,0,79,82,135,120,65,153.68,172,-102.00,104.00,-972.00
2024-06-07 14:25:50.116241,0,-8,48,2,5,0,79,82,133,120,65,153.66,172,-115.00,122.00,-1018.00
2024-06-07 14:25:50.194469,0,-8,48,2,4,0,80,81,133,120,65,153.68,172,-94.00,106.00,-1028.00
2024-06-07 14:25:50.295201,0,-8,48,2,3,0,80,81,133,120,65,153.63,172,-57.00,86.00,-986.00
2024-06-07 14:25:50.395339,0,-8,48,2,3,0,80,81,133,120,65,153.68,173,-65.00,113.00,-1032.00
2024-06-07 14:25:50.525626,0,-8,48,2,2,0,80,81,133,120,65,153.74,173,-66.00,106.00,-947.00
2024-06-07 14:25:50.600287,0,-8,48,2,1,0,80,81,132,120,65,153.55,173,-59.00,93.00,-973.00
2024-06-07 14:25:50.702350,-2,-7,48,1,1,0,80,81,132,120,65,153.62,173,-44.00,128.00,-965.00
2024-06-07 14:25:50.804855,-3,-7,48,1,1,0,80,81,132,120,65,153.66,173,-26.00,115.00,-982.00
2024-06-07 14:25:50.906042,-2,-7,48,2,1,0,80,81,131,120,65,153.67,173,-116.00,165.00,-922.00
2024-06-07 14:25:51.047573,-2,-7,48,1,1,0,80,81,130,120,65,153.80,173,-43.00,123.00,-965.00
2024-06-07 14:25:51.111403,-2,-8,49,1,1,0,80,81,129,120,65,153.62,173,-65.00,142.00,-965.00
2024-06-07 14:25:51.212030,-1,-9,48,1,1,0,79,81,128,110,65,153.55,173,-44.00,111.00,-1015.00
2024-06-07 14:25:51.314656,0,-9,48,1,0,0,79,81,127,110,65,153.49,173,-45.00,103.00,-1059.00
2024-06-07 14:25:51.416625,0,-8,48,2,0,0,79,81,125,110,65,153.52,174,-52.00,109.00,-996.00
2024-06-07 14:25:51.549681,0,-8,48,2,0,0,79,81,124,110,65,153.48,174,-42.00,117.00,-1023.00
2024-06-07 14:25:51.619972,0,-7,48,2,0,0,79,81,123,110,65,153.46,174,-39.00,102.00,-1045.00
2024-06-07 14:25:51.756519,0,-6,48,2,0,0,79,81,124,110,65,153.50,174,-46.00,123.00,-1027.00
2024-06-07 14:25:51.823988,0,-6,48,2,0,0,79,81,123,110,65,153.41,174,-16.00,107.00,-1015.00
2024-06-07 14:25:51.959817,1,-5,48,2,-1,0,79,81,124,110,65,153.46,174,-15.00,116.00,-972.00
2024-06-07 14:25:52.029145,2,-3,48,1,-1,0,79,81,124,110,65,153.48,174,-15.00,119.00,-1001.00
2024-06-07 14:25:52.130007,1,-4,48,1,-1,0,79,81,124,110,65,153.49,174,-41.00,124.00,-985.00
2024-06-07 14:25:52.232089,0,-5,48,0,-1,0,79,81,124,110,65,153.49,174,-10.00,112.00,-980.00
2024-06-07 14:25:52.368795,0,-5,48,0,-1,0,79,81,125,110,65,153.47,174,-17.00,95.00,-973.00
2024-06-07 14:25:52.436994,-4,-1,48,1,-1,0,79,81,125,110,65,153.49,175,-50.00,114.00,-992.00
2024-06-07 14:25:52.558893,-1,-1,48,1,0,0,79,81,124,110,65,153.50,175,-2.00,74.00,-1013.00
2024-06-07 14:25:52.640359,1,0,49,1,0,0,79,81,124,110,65,153.49,175,-16.00,79.00,-1022.00
2024-06-07 14:25:52.690923,2,0,48,0,0,0,79,81,125,110,65,153.54,175,-22.00,93.00,-1024.00
2024-06-07 14:25:52.880820,1,-3,48,0,1,0,79,81,125,110,65,153.53,175,-2.00,96.00,-971.00
2024-06-07 14:25:52.895305,1,-6,48,-1,1,0,79,81,126,110,65,153.48,175,-13.00,110.00,-1016.00
2024-06-07 14:25:53.085872,2,-8,48,-1,0,0,79,81,127,110,65,153.53,175,-38.00,106.00,-1015.00
2024-06-07 14:25:53.100530,1,-9,48,-1,0,0,79,81,128,110,65,153.64,175,-49.00,118.00,-1027.00
2024-06-07 14:25:53.290550,0,-8,48,-1,0,0,79,80,128,110,65,153.58,175,22.00,89.00,-995.00
2024-06-07 14:25:53.304970,0,-7,48,0,-1,0,79,80,128,110,65,153.57,175,-24.00,102.00,-1017.00
2024-06-07 14:25:53.406959,0,-6,48,0,-1,0,79,80,129,110,65,153.59,176,-24.00,103.00,-982.00
2024-06-07 14:25:53.597719,0,-4,48,0,-1,0,79,80,130,110,65,153.48,176,-35.00,77.00,-997.00
2024-06-07 14:25:53.611702,-1,-4,48,0,-1,0,79,80,131,110,65,153.55,176,-42.00,103.00,-998.00
2024-06-07 14:25:53.712255,-1,-4,48,0,-1,0,79,80,132,110,65,153.56,176,14.00,83.00,-965.00
2024-06-07 14:25:53.814818,-4,-3,48,0,-1,0,79,80,133,110,65,153.50,176,-38.00,103.00,-961.00
2024-06-07 14:25:53.919450,-3,-3,48,0,0,0,79,80,132,110,65,153.54,176,-33.00,97.00,-1034.00
2024-06-07 14:25:54.021514,-2,-4,48,0,0,0,79,80,133,110,65,153.56,176,-77.00,94.00,-1034.00
2024-06-07 14:25:54.123851,-1,-4,48,0,0,0,79,80,133,110,65,153.50,176,-28.00,94.00,-966.00
2024-06-07 14:25:54.225631,-1,-4,48,0,0,0,78,80,133,120,65,153.61,176,-39.00,118.00,-1024.00
2024-06-07 14:25:54.324740,-1,-4,48,0,0,0,78,80,132,120,65,153.63,176,-24.00,108.00,-1002.00
2024-06-07 14:25:54.520750,0,-4,48,0,0,0,78,80,133,120,65,153.61,177,11.00,73.00,-970.00
2024-06-07 14:25:54.528120,0,-4,48,0,0,0,78,80,133,120,65,153.61,177,-20.00,67.00,-1008.00
2024-06-07 14:25:54.636021,0,-5,48,0,0,0,78,80,133,120,65,153.57,177,-1.00,84.00,-978.00
2024-06-07 14:25:54.732038,1,-4,48,0,0,0,78,80,133,120,65,153.56,177,-34.00,78.00,-983.00
2024-06-07 14:25:54.928902,0,-3,48,0,0,0,78,80,134,120,65,153.48,177,-35.00,110.00,-963.00
2024-06-07 14:25:54.938639,0,-3,48,0,0,0,78,80,134,120,65,153.50,177,-8.00,66.00,-977.00
2024-06-07 14:25:55.039252,0,-4,48,0,0,0,78,80,134,120,65,153.54,177,-38.00,86.00,-979.00
2024-06-07 14:25:55.139777,0,-4,48,0,0,0,78,80,134,120,65,153.60,177,-9.00,76.00,-997.00
2024-06-07 14:25:55.241826,1,-3,48,0,0,0,79,81,134,120,65,153.64,177,-14.00,90.00,-990.00
2024-06-07 14:25:55.440778,6,-4,48,0,0,0,79,81,134,120,65,153.57,178,-3.00,80.00,-1025.00
2024-06-07 14:25:55.448032,7,-3,48,0,0,0,79,81,135,120,65,153.60,178,-9.00,53.00,-1040.00
2024-06-07 14:25:55.548465,8,-3,48,-1,-1,0,79,81,134,120,65,153.61,178,8.00,76.00,-1001.00
2024-06-07 14:25:55.649797,8,-3,48,-2,-2,0,79,81,135,120,65,153.62,178,36.00,37.00,-1006.00
2024-06-07 14:25:55.850401,8,-3,48,-2,-3,0,79,81,134,120,65,153.63,178,7.00,51.00,-983.00
2024-06-07 14:25:55.857220,7,-3,48,-3,-4,0,79,81,134,120,65,153.60,178,-10.00,69.00,-1013.00
2024-06-07 14:25:55.956360,6,-3,48,-4,-5,0,79,81,135,120,65,153.63,178,18.00,84.00,-951.00
2024-06-07 14:25:56.058473,4,-2,48,-4,-6,0,79,81,135,110,65,153.65,178,28.00,54.00,-1008.00
2024-06-07 14:25:56.159831,3,-2,48,-5,-6,0,79,81,134,110,65,153.66,178,1.00,63.00,-1016.00
2024-06-07 14:25:56.262322,1,-2,48,-5,-6,0,78,80,134,110,65,153.67,178,30.00,60.00,-1030.00
2024-06-07 14:25:56.363682,-1,-2,48,-5,-5,0,78,80,134,110,65,153.53,179,23.00,70.00,-1006.00
2024-06-07 14:25:56.465769,-3,-2,48,-4,-5,0,78,80,136,120,65,153.62,179,11.00,61.00,-1006.00
2024-06-07 14:25:56.516841,-5,-2,48,-4,-4,0,78,80,137,120,65,153.55,179,10.00,49.00,-1006.00
2024-06-07 14:25:56.618754,-5,-2,48,-3,-3,0,78,80,138,120,65,153.60,179,28.00,44.00,-991.00
2024-06-07 14:25:56.771969,-3,-2,48,-2,-2,0,78,80,138,120,65,153.60,179,50.00,58.00,-988.00
2024-06-07 14:25:56.826249,-2,-2,48,-2,-2,0,78,80,139,120,65,153.65,179,-2.00,75.00,-979.00
2024-06-07 14:25:56.925055,-1,-2,48,-1,-1,0,78,80,139,120,65,153.62,179,10.00,44.00,-1024.00
2024-06-07 14:25:57.079226,0,-3,48,-1,-1,0,78,80,138,120,65,153.53,179,11.00,37.00,-963.00
2024-06-07 14:25:57.130075,0,-3,48,-1,-1,0,78,80,139,120,65,153.53,179,-10.00,58.00,-1001.00
2024-06-07 14:25:57.230779,0,-2,48,-1,-1,0,78,80,141,120,65,153.62,179,-16.00,71.00,-994.00
2024-06-07 14:25:57.386254,0,-2,48,-1,-1,0,78,80,142,120,65,153.73,180,2.00,53.00,-999.00
2024-06-07 14:25:57.434624,0,-2,48,-1,-1,0,78,80,140,120,65,153.65,180,11.00,49.00,-966.00
2024-06-07 14:25:57.591055,1,-3,48,-1,0,0,78,80,142,120,65,153.73,180,11.00,40.00,-987.00
2024-06-07 14:25:57.638576,1,-3,48,-1,0,0,78,80,142,120,65,153.73,180,-5.00,38.00,-1044.00
2024-06-07 14:25:57.796075,1,-3,48,-1,0,0,78,80,143,120,65,153.68,180,-5.00,59.00,-987.00
2024-06-07 14:25:57.842642,1,-3,48,-1,-1,0,78,80,141,120,65,153.64,180,1.00,47.00,-1055.00
2024-06-07 14:25:58.000777,0,-1,48,-1,-1,0,78,80,143,120,65,153.68,180,0.00,49.00,-1011.00
2024-06-07 14:25:58.046786,-1,-1,48,-1,0,0,78,80,144,120,65,153.67,180,-2.00,72.00,-989.00
2024-06-07 14:25:58.148870,-2,-3,48,-1,0,0,78,80,142,120,65,153.71,180,-24.00,54.00,-980.00
2024-06-07 14:25:58.308026,-3,-7,49,-1,0,0,78,80,143,120,65,153.67,180,8.00,33.00,-1004.00
2024-06-07 14:25:58.355453,-1,-5,48,0,0,0,78,80,142,120,65,153.72,181,24.00,32.00,-1007.00
2024-06-07 14:25:58.454594,-1,-4,48,0,0,0,78,80,141,120,65,153.65,181,-51.00,86.00,-965.00
2024-06-07 14:25:58.556651,0,-3,48,0,0,0,78,80,139,120,65,153.64,181,-37.00,70.00,-1003.00
2024-06-07 14:25:58.658607,0,-2,48,0,0,0,78,80,140,120,65,153.67,181,-33.00,82.00,-1004.00
2024-06-07 14:25:58.760782,0,-3,48,0,0,0,78,80,139,120,65,153.72,181,-5.00,55.00,-1052.00
2024-06-07 14:25:58.862736,0,-3,48,0,0,0,78,80,139,120,65,153.64,181,-18.00,58.00,-1000.00
2024-06-07 14:25:59.024732,0,-3,48,0,0,0,78,80,138,120,65,153.64,181,-52.00,90.00,-972.00
2024-06-07 14:25:59.066775,0,-3,48,0,0,0,78,80,138,120,65,153.63,181,-13.00,45.00,-1003.00
2024-06-07 14:25:59.168601,0,-3,48,0,0,0,78,80,140,120,65,153.63,181,-20.00,52.00,-1018.00
2024-06-07 14:25:59.332077,0,-2,48,0,0,0,78,80,139,120,65,153.60,181,-12.00,64.00,-990.00
2024-06-07 14:25:59.372635,0,-2,48,0,0,0,78,80,138,120,64,153.66,182,-14.00,60.00,-995.00
2024-06-07 14:25:59.536875,0,-3,48,0,0,0,78,80,139,120,64,153.62,182,-4.00,52.00,-999.00
2024-06-07 14:25:59.576522,0,-3,48,0,0,0,78,80,139,120,64,153.55,182,-1.00,64.00,-994.00
2024-06-07 14:25:59.741494,0,-3,48,0,0,0,78,80,138,120,64,153.64,182,0.00,39.00,-1029.00
2024-06-07 14:25:59.781590,0,-4,48,0,0,0,78,80,137,120,64,153.62,182,-39.00,86.00,-1007.00
2024-06-07 14:25:59.946500,-1,-4,48,0,0,0,78,80,138,120,64,153.60,182,-18.00,71.00,-992.00
2024-06-07 14:25:59.987399,-1,-4,48,0,0,0,78,80,138,120,64,153.61,182,-17.00,80.00,-979.00
2024-06-07 14:26:00.035592,0,-4,48,0,0,0,78,80,138,120,64,153.63,182,-27.00,80.00,-997.00
2024-06-07 14:26:00.151665,0,-4,48,0,0,0,78,80,137,120,64,153.62,182,-34.00,75.00,-1013.00
2024-06-07 14:26:00.290838,0,-4,48,0,0,0,78,80,137,120,64,153.61,182,-30.00,77.00,-1011.00
2024-06-07 14:26:00.341508,0,-4,48,0,0,0,78,80,136,120,64,153.61,183,-40.00,61.00,-983.00
2024-06-07 14:26:00.446153,0,-4,48,0,0,0,78,80,135,120,64,153.65,183,-36.00,51.00,-1043.00
2024-06-07 14:26:00.545752,-1,-8,48,0,0,0,78,80,136,120,64,153.67,183,-42.00,79.00,-1026.00
2024-06-07 14:26:00.648167,-1,-8,48,0,0,0,78,80,136,120,64,153.64,183,-35.00,78.00,-987.00
2024-06-07 14:26:00.765542,-1,-8,48,1,-1,0,78,80,135,120,64,153.63,183,-34.00,54.00,-1049.00
2024-06-07 14:26:00.851440,-1,-8,48,1,-1,0,78,80,136,120,64,153.72,183,-32.00,88.00,-1026.00
2024-06-07 14:26:00.970429,-1,-7,48,2,-1,0,78,80,136,120,64,153.69,183,-27.00,80.00,-1037.00
2024-06-07 14:26:01.055424,-1,-4,48,2,-2,0,78,80,135,120,64,153.70,183,-21.00,87.00,-979.00
2024-06-07 14:26:01.157455,0,-4,48,2,-1,0,78,80,135,120,64,153.61,183,-51.00,113.00,-992.00
2024-06-07 14:26:01.259510,0,-4,48,1,-1,0,77,81,136,120,64,153.65,183,-21.00,95.00,-964.00
2024-06-07 14:26:01.362029,0,-4,48,1,-1,0,77,81,136,120,64,153.66,184,-13.00,71.00,-1019.00
2024-06-07 14:26:01.464109,-1,-5,48,1,-1,0,77,81,137,120,64,153.68,184,-22.00,92.00,-1041.00
2024-06-07 14:26:01.565508,-1,-4,48,1,-1,0,77,81,136,120,64,153.58,184,-30.00,86.00,-1017.00
2024-06-07 14:26:01.687169,0,-5,48,1,-1,0,77,81,137,120,64,153.71,184,-56.00,92.00,-997.00
2024-06-07 14:26:01.770926,-1,-5,48,1,-1,0,77,81,138,120,64,153.60,184,-74.00,92.00,-1006.00
2024-06-07 14:26:01.891889,-1,-5,48,1,-2,0,77,81,137,120,64,153.64,184,-69.00,102.00,-977.00
2024-06-07 14:26:01.973469,-1,-5,48,1,-2,0,77,81,139,120,64,153.57,184,-35.00,85.00,-955.00
2024-06-07 14:26:02.096811,-1,-5,48,1,-2,0,77,81,139,120,64,153.60,184,-55.00,91.00,-972.00
2024-06-07 14:26:02.177607,-1,-4,48,1,-1,0,77,81,138,120,64,153.60,184,-28.00,79.00,-978.00
2024-06-07 14:26:02.302161,0,-4,48,2,-1,0,78,79,137,120,64,153.64,184,-50.00,50.00,-1080.00
2024-06-07 14:26:09.728214,-1,-5,48,0,0,0,78,79,134,120,62,153.70,192,-40.00,89.00,-1008.00
2024-06-07 14:26:09.828102,-1,-5,48,0,0,0,78,79,136,120,62,153.66,192,-50.00,104.00,-1006.00
2024-06-07 14:26:09.930101,-1,-5,48,0,0,0,78,79,136,120,62,153.72,192,-59.00,117.00,-1057.00
2024-06-07 14:26:10.083796,-1,-5,48,0,0,0,78,79,135,120,62,153.61,192,-38.00,99.00,-1025.00
2024-06-07 14:26:10.134803,-1,-5,48,0,0,0,78,79,136,120,62,153.63,192,-68.00,87.00,-990.00
2024-06-07 14:26:10.288441,-1,-5,48,0,0,0,78,79,136,120,62,153.68,192,-19.00,54.00,-984.00
2024-06-07 14:26:10.338166,-1,-5,48,0,0,0,77,80,137,120,62,153.68,193,-2.00,54.00,-1049.00
2024-06-07 14:26:10.493360,-1,-4,48,0,0,0,77,80,137,120,62,153.66,193,-31.00,67.00,-1025.00
2024-06-07 14:26:10.542843,-2,-4,48,0,0,0,77,80,137,120,62,153.61,193,-40.00,73.00,-1021.00
2024-06-07 14:26:10.644181,-2,-3,48,0,0,0,77,80,137,120,62,153.56,193,-51.00,70.00,-963.00
2024-06-07 14:26:10.746052,-1,-3,48,0,0,0,77,80,137,120,62,153.64,193,-39.00,68.00,-985.00
2024-06-07 14:26:10.903624,-1,-3,48,0,0,0,77,80,136,120,62,153.65,193,-34.00,62.00,-976.00
2024-06-07 14:26:10.950043,-1,-3,48,0,0,0,77,80,135,120,62,153.58,193,-21.00,55.00,-987.00
2024-06-07 14:26:11.107857,-1,-3,48,0,0,0,77,80,137,120,62,153.65,193,-47.00,85.00,-987.00
2024-06-07 14:26:11.153917,-1,-3,48,0,0,0,77,80,135,120,62,153.67,193,-35.00,74.00,-1003.00
2024-06-07 14:26:11.312625,-1,-3,48,0,0,0,77,80,137,120,62,153.60,193,-66.00,89.00,-980.00
2024-06-07 14:26:11.357998,-1,-3,48,0,0,0,77,79,134,120,62,153.60,194,-30.00,62.00,-1041.00
2024-06-07 14:26:11.517417,-1,-3,48,0,0,0,77,79,134,120,62,153.62,194,-38.00,70.00,-999.00
2024-06-07 14:26:11.562011,-1,-3,48,0,0,0,77,79,135,120,62,153.61,194,-43.00,83.00,-1012.00
2024-06-07 14:26:11.722228,-1,-4,48,0,0,0,77,79,136,120,62,153.65,194,-12.00,0.00,-1014.00
2024-06-07 14:26:11.766030,-2,-3,48,0,0,0,77,79,135,120,62,153.72,194,-39.00,99.00,-976.00
2024-06-07 14:26:11.868011,-2,-3,48,0,0,0,77,79,136,120,62,153.63,194,-39.00,78.00,-1039.00
2024-06-07 14:26:12.029473,-1,-4,48,0,0,0,77,79,134,120,62,153.66,194,-23.00,87.00,-1008.00
2024-06-07 14:26:12.071971,-1,-5,48,0,0,0,77,79,135,120,62,153.61,194,-32.00,76.00,-1022.00
2024-06-07 14:26:12.173958,0,-4,48,0,0,0,77,79,136,120,62,153.54,194,-13.00,53.00,-1030.00
2024-06-07 14:26:12.336622,-1,-4,48,0,0,0,77,79,136,120,62,153.68,194,-40.00,70.00,-972.00
2024-06-07 14:26:12.378162,-1,-4,48,0,0,0,77,79,135,120,62,153.64,195,-7.00,59.00,-1010.00
2024-06-07 14:26:12.541467,-1,-4,48,0,0,0,77,79,135,120,62,153.64,195,-37.00,87.00,-945.00
2024-06-07 14:26:12.582317,-1,-4,48,0,0,0,77,79,135,120,62,153.64,195,-55.00,83.00,-1022.00
2024-06-07 14:26:12.632972,-1,-4,48,0,0,0,77,79,135,120,62,153.63,195,-12.00,81.00,-1007.00
2024-06-07 14:26:12.746298,-1,-4,48,0,0,0,77,79,135,120,62,153.61,195,-27.00,81.00,-963.00
2024-06-07 14:26:12.836937,-1,-4,48,0,0,0,77,79,136,120,62,153.74,195,-16.00,65.00,-1004.00
2024-06-07 14:26:12.952586,-1,-4,48,0,0,0,77,79,135,120,62,153.64,195,-28.00,59.00,-1009.00
2024-06-07 14:26:13.040904,0,-4,48,0,0,0,77,79,136,120,62,153.65,195,-23.00,65.00,-998.00
2024-06-07 14:26:13.155840,-1,-4,48,0,0,0,77,79,136,120,62,153.60,195,-64.00,91.00,-991.00
2024-06-07 14:26:13.244891,-1,-3,48,0,0,0,77,79,137,120,62,153.60,195,-28.00,64.00,-981.00
2024-06-07 14:26:13.360636,-1,-3,48,0,0,0,76,79,136,120,61,153.61,196,-21.00,60.00,-1013.00
2024-06-07 14:26:13.448822,-1,-3,48,0,0,0,76,79,135,120,61,153.64,196,-56.00,75.00,-1016.00
2024-06-07 14:26:13.565518,-1,-3,48,0,0,0,76,79,136,120,61,153.61,196,-10.00,71.00,-1017.00
2024-06-07 14:26:13.653012,-1,-3,48,0,0,0,76,79,135,120,61,153.61,196,-65.00,82.00,-1010.00
2024-06-07 14:26:13.770257,-1,-3,48,0,0,0,76,79,136,120,61,153.59,196,-37.00,75.00,-985.00
2024-06-07 14:26:13.856889,-1,-3,48,0,0,0,76,79,135,120,61,153.64,196,-28.00,60.00,-983.00
2024-06-07 14:26:13.974977,-1,-3,48,0,0,0,76,79,135,120,61,153.70,196,-42.00,63.00,-967.00
2024-06-07 14:26:14.060901,-1,-3,48,0,0,0,76,79,135,120,61,153.65,196,-13.00,60.00,-1001.00
2024-06-07 14:26:14.179848,-1,-3,48,0,0,0,76,79,134,120,61,153.66,196,-44.00,70.00,-1012.00
2024-06-07 14:26:14.264856,-1,-3,48,0,0,0,76,79,134,120,61,153.66,196,-14.00,57.00,-990.00
2024-06-07 14:26:14.384633,-1,-3,48,0,0,0,77,79,134,120,61,153.70,197,-30.00,72.00,-998.00
2024-06-07 14:26:14.468853,-1,-3,48,0,0,0,77,79,134,120,61,153.73,197,-31.00,56.00,-1038.00
2024-06-07 14:26:14.589448,-1,-3,48,0,0,0,77,79,135,120,61,153.62,197,-38.00,63.00,-1042.00
2024-06-07 14:26:14.675690,0,-3,48,0,0,0,77,79,135,120,61,153.71,197,1.00,71.00,-999.00
2024-06-07 14:26:14.775855,0,-3,48,0,0,0,77,79,135,120,61,153.61,197,-27.00,85.00,-964.00
2024-06-07 14:26:14.878040,0,-3,48,0,0,0,77,79,134,120,61,153.65,197,-22.00,67.00,-986.00
2024-06-07 14:26:14.998981,-1,-3,48,0,0,0,77,79,134,120,61,153.69,197,-41.00,71.00,-1005.00
2024-06-07 14:26:15.084474,-1,-3,48,0,0,0,77,79,135,120,61,153.56,197,-54.00,74.00,-1014.00
2024-06-07 14:26:15.184177,-1,-3,48,0,0,0,77,79,135,120,61,153.56,197,4.00,59.00,-985.00
2024-06-07 14:26:15.285778,-1,-3,48,0,0,0,77,79,134,120,61,153.65,197,-28.00,49.00,-986.00
2024-06-07 14:26:15.408709,-1,-3,48,0,0,0,77,79,135,120,61,153.64,198,-12.00,57.00,-974.00
2024-06-07 14:26:15.489896,-1,-3,48,0,0,0,77,79,135,120,61,153.65,198,-17.00,62.00,-1008.00
2024-06-07 14:26:15.613825,-1,-3,48,0,0,0,77,79,135,120,61,153.62,198,-41.00,42.00,-971.00
2024-06-07 14:26:15.693909,-1,-2,48,0,0,0,77,79,135,120,61,153.70,198,-43.00,70.00,-1000.00
2024-06-07 14:26:15.818300,-1,-2,48,0,0,0,77,79,134,120,61,153.68,198,-62.00,76.00,-987.00
2024-06-07 14:26:15.900117,-1,-3,48,0,0,0,77,79,134,120,61,153.71,198,-28.00,52.00,-1014.00
2024-06-07 14:26:16.000726,-1,-3,48,0,0,0,77,79,134,120,61,153.73,198,-35.00,60.00,-1022.00
2024-06-07 14:26:16.101918,-1,-3,48,0,0,0,77,79,134,120,61,153.75,198,-8.00,48.00,-1012.00
2024-06-07 14:26:16.204129,-2,-3,48,0,0,0,77,79,134,120,61,153.68,198,-51.00,71.00,-1023.00
2024-06-07 14:26:16.254780,-2,-3,48,0,0,0,77,79,135,120,61,153.63,198,-28.00,60.00,-966.00
2024-06-07 14:26:16.436951,-2,-2,48,0,0,0,77,79,135,120,61,153.70,199,-48.00,57.00,-990.00
2024-06-07 14:26:16.460231,-1,-2,48,0,0,0,77,79,134,120,61,153.65,199,-22.00,54.00,-996.00
2024-06-07 14:26:16.637502,-2,-3,48,0,0,0,77,79,136,120,61,153.71,199,-1.00,28.00,-1011.00
2024-06-07 14:26:16.662974,-1,-3,48,0,0,0,77,79,135,120,61,153.72,199,-24.00,65.00,-1008.00
2024-06-07 14:26:16.842380,-1,-3,48,0,0,0,77,79,134,120,61,153.70,199,3.00,55.00,-982.00
2024-06-07 14:26:16.866768,-1,-3,48,0,0,0,77,79,135,120,61,153.80,199,-10.00,63.00,-997.00
2024-06-07 14:26:17.047159,-1,-3,48,0,0,0,77,79,136,120,61,153.76,199,-15.00,45.00,-1024.00
2024-06-07 14:26:17.071246,-1,-3,48,0,0,0,77,79,136,120,61,153.73,199,-44.00,89.00,-970.00
2024-06-07 14:26:17.252544,-1,-3,48,0,0,0,77,79,137,120,61,153.64,199,-1.00,36.00,-981.00
2024-06-07 14:26:17.275674,-1,-3,48,0,0,0,77,79,138,120,61,153.70,199,-40.00,63.00,-1011.00
2024-06-07 14:26:17.377858,-1,-2,48,0,0,0,76,79,137,120,61,153.76,200,-12.00,54.00,-960.00
2024-06-07 14:26:17.558865,-1,-2,48,0,0,0,76,79,138,120,61,153.76,200,-10.00,44.00,-985.00
2024-06-07 14:26:17.581578,0,0,48,0,0,0,76,79,138,120,61,153.74,200,-39.00,63.00,-993.00
2024-06-07 14:26:17.763672,0,5,48,0,0,0,76,79,139,120,61,153.79,200,-12.00,53.00,-1014.00
2024-06-07 14:26:17.785857,0,4,48,-1,1,0,76,79,138,120,61,153.73,200,-25.00,32.00,-984.00
2024-06-07 14:26:17.968890,-1,1,48,-2,2,0,76,79,138,120,61,153.67,200,-24.00,26.00,-986.00
2024-06-07 14:26:17.989524,-1,-1,48,-2,2,0,76,79,138,120,61,153.79,200,-12.00,27.00,-982.00
2024-06-07 14:26:18.091639,-1,-3,48,-2,2,0,76,79,137,120,61,153.69,200,-6.00,22.00,-1010.00
2024-06-07 14:26:18.194143,-1,-4,48,-2,2,0,76,79,137,120,61,153.76,200,-30.00,42.00,-1023.00
2024-06-07 14:26:18.378104,0,-4,48,-2,2,0,76,79,136,120,61,153.75,200,20.00,33.00,-994.00
2024-06-07 14:26:18.397570,0,-3,48,-1,1,0,77,79,136,120,61,153.75,201,-12.00,29.00,-993.00
2024-06-07 14:26:18.528555,0,-3,48,-1,1,0,77,79,136,120,61,153.82,201,5.00,16.00,-1020.00
2024-06-07 14:26:18.601829,0,-2,48,-1,1,0,77,79,136,120,61,153.75,201,11.00,11.00,-967.00
2024-06-07 14:26:18.704422,0,-2,48,-1,1,0,77,79,136,120,61,153.76,201,-15.00,35.00,-1013.00
2024-06-07 14:26:18.890110,0,-2,48,-1,1,0,77,79,136,120,61,153.84,201,-15.00,39.00,-992.00
2024-06-07 14:26:18.907593,0,-1,48,-1,1,0,77,79,136,120,61,153.81,201,-12.00,33.00,-988.00
2024-06-07 14:26:19.094874,0,-2,48,-1,1,0,77,79,136,120,61,153.80,201,-2.00,18.00,-1039.00
2024-06-07 14:26:19.111470,0,-2,48,-1,1,0,77,79,136,120,61,153.80,201,9.00,26.00,-994.00
2024-06-07 14:26:19.213489,0,-2,48,-1,1,0,77,79,136,120,61,153.75,201,-11.00,46.00,-1000.00
2024-06-07 14:26:19.402119,1,-3,48,-1,1,0,77,79,136,120,61,153.79,201,-17.00,36.00,-1017.00
2024-06-07 14:26:19.418267,2,-4,48,-1,1,0,77,80,137,120,61,153.75,202,-6.00,48.00,-1009.00
2024-06-07 14:26:19.539383,-2,-7,48,-1,0,0,77,80,136,120,61,153.76,202,3.00,36.00,-1020.00
2024-06-07 14:26:19.621599,-1,-6,48,0,0,0,77,80,136,120,61,153.73,202,0.00,34.00,-991.00
2024-06-07 14:26:19.811725,-1,-4,48,0,0,0,77,80,136,120,61,153.76,202,36.00,51.00,-952.00
2024-06-07 14:26:19.825982,0,-3,48,0,0,0,77,80,137,120,61,153.80,202,13.00,46.00,-1001.00
2024-06-07 14:26:19.930178,0,-3,48,0,0,0,77,80,137,120,61,153.77,202,-6.00,52.00,-1015.00
2024-06-07 14:26:20.031226,0,-3,48,0,0,0,77,80,137,120,61,153.85,202,7.00,52.00,-1001.00
2024-06-07 14:26:20.131867,0,-3,48,0,0,0,77,80,137,120,61,153.77,202,-15.00,74.00,-971.00
2024-06-07 14:26:20.235655,0,-3,48,0,0,0,77,80,137,120,61,153.82,202,-17.00,43.00,-993.00
2024-06-07 14:26:20.336360,-1,-3,48,0,0,0,77,80,135,120,60,153.78,202,-6.00,43.00,-977.00
2024-06-07 14:26:20.439179,0,-2,48,0,0,0,77,79,135,120,60,153.83,203,29.00,16.00,-993.00
2024-06-07 14:26:20.540745,0,-2,48,0,0,0,77,79,135,120,60,153.84,203,-21.00,64.00,-997.00
2024-06-07 14:26:20.646723,0,-2,48,0,0,0,77,79,134,120,60,153.72,203,-5.00,52.00,-984.00
2024-06-07 14:26:20.692602,0,-2,48,0,0,0,77,79,134,120,60,153.86,203,-57.00,64.00,-1006.00
2024-06-07 14:26:20.838841,0,-2,48,0,0,0,77,79,132,120,60,153.83,203,-3.00,39.00,-1009.00
2024-06-07 14:26:20.896548,0,-2,48,0,0,0,77,79,132,120,60,153.79,203,-2.00,49.00,-1006.00
2024-06-07 14:26:21.046786,0,-2,48,0,0,0,77,79,132,120,60,153.76,203,-14.00,56.00,-1020.00
2024-06-07 14:26:21.100710,0,-2,48,0,0,0,77,79,132,110,60,153.79,203,-19.00,64.00,-974.00
2024-06-07 14:26:21.246046,0,-2,48,0,0,0,77,79,131,110,60,153.76,203,-13.00,51.00,-1007.00
2024-06-07 14:26:21.304457,0,-3,48,0,0,0,77,79,131,110,60,153.75,203,10.00,57.00,-963.00
2024-06-07 14:26:21.406646,0,-3,48,0,0,0,77,80,131,110,60,153.81,204,-40.00,58.00,-999.00
2024-06-07 14:26:21.508557,0,-3,48,0,0,0,77,80,131,110,60,153.81,204,7.00,54.00,-1028.00
2024-06-07 14:26:21.610498,0,-3,48,0,0,0,77,80,132,110,60,153.88,204,-26.00,62.00,-976.00
2024-06-07 14:26:21.757917,0,-2,48,0,0,0,77,80,132,110,60,153.81,204,38.00,29.00,-994.00
2024-06-07 14:26:21.814490,0,-3,52,0,0,0,77,80,132,110,60,153.78,204,10.00,61.00,-1058.00
2024-06-07 14:26:21.962131,0,-3,58,0,0,0,77,80,132,110,60,153.70,204,12.00,70.00,-1018.00
2024-06-07 14:26:22.018348,0,-3,64,0,0,0,77,80,133,110,60,153.75,204,32.00,77.00,-999.00
2024-06-07 14:26:22.167162,1,-3,70,0,0,0,77,80,134,110,60,153.77,204,42.00,55.00,-994.00
2024-06-07 14:26:22.222347,1,-3,76,0,0,0,77,80,134,120,60,153.86,204,103.00,54.00,-974.00
2024-06-07 14:26:22.371614,2,-3,82,0,0,0,77,80,135,120,60,153.79,204,43.00,60.00,-957.00
2024-06-07 14:26:22.426636,3,-2,94,0,0,0,77,80,136,120,60,153.77,205,50.00,42.00,-1001.00
2024-06-07 14:26:22.541381,3,-2,100,0,0,0,77,80,135,120,60,153.74,205,56.00,28.00,-996.00
2024-06-07 14:26:22.632503,3,-1,107,0,0,0,77,80,136,120,60,153.81,205,35.00,68.00,-990.00
2024-06-07 14:26:22.732570,3,-1,113,0,0,0,77,80,135,120,60,153.74,205,106.00,10.00,-1001.00
2024-06-07 14:26:22.835556,4,0,119,0,0,0,77,80,136,120,60,153.73,205,37.00,40.00,-1035.00
2024-06-07 14:26:22.936332,4,0,125,0,0,0,77,80,137,120,60,153.71,205,87.00,0.00,-987.00
2024-06-07 14:26:23.088428,4,0,132,0,0,0,77,80,135,120,60,153.71,205,68.00,20.00,-1014.00
2024-06-07 14:26:23.140377,4,0,138,0,0,0,77,80,136,120,60,153.77,205,73.00,1.00,-1009.00
2024-06-07 14:26:23.244623,4,1,144,0,0,0,77,80,135,120,60,153.79,205,66.00,-5.00,-1001.00
2024-06-07 14:26:23.344522,4,1,150,0,0,0,77,80,135,120,60,153.79,206,61.00,-15.00,-1010.00
2024-06-07 14:26:23.447020,4,1,156,0,0,0,77,79,136,120,60,153.68,206,44.00,-17.00,-1014.00
2024-06-07 14:26:23.548251,4,2,162,0,0,0,77,79,136,120,60,153.74,206,75.00,-45.00,-1010.00
2024-06-07 14:26:23.702866,4,2,168,0,0,0,77,79,135,120,60,153.78,206,35.00,-18.00,-989.00
2024-06-07 14:26:23.752264,3,3,174,0,0,0,77,79,135,120,60,153.64,206,78.00,-31.00,-967.00
2024-06-07 14:26:23.911917,3,3,-179,0,0,0,77,79,136,120,60,153.71,206,64.00,-44.00,-980.00
2024-06-07 14:26:23.956238,3,3,-174,0,0,0,77,79,136,120,60,153.67,206,71.00,-66.00,-965.00
2024-06-07 14:26:24.112537,2,3,-168,0,0,0,77,79,135,120,60,153.70,206,52.00,-39.00,-998.00
2024-06-07 14:26:24.162741,2,3,-163,0,0,0,77,79,135,120,60,153.72,206,50.00,-66.00,-1018.00
2024-06-07 14:26:24.262304,2,3,-157,0,0,0,77,79,136,120,60,153.69,206,58.00,-65.00,-1011.00
2024-06-07 14:26:24.419714,2,3,-151,0,0,0,77,79,135,120,60,153.73,207,18.00,-29.00,-999.00
2024-06-07 14:26:24.469232,2,3,-145,0,0,0,76,79,135,120,60,153.82,207,41.00,-41.00,-1041.00
2024-06-07 14:26:24.569731,2,3,-139,0,0,0,76,79,134,120,60,153.79,207,29.00,-68.00,-985.00
2024-06-07 14:26:24.619287,1,3,-133,0,0,0,76,79,135,120,60,153.73,207,34.00,-68.00,-975.00
2024-06-07 14:26:24.726829,1,3,-127,0,0,0,76,79,135,120,60,153.68,207,-7.00,-19.00,-983.00
2024-06-07 14:26:24.823675,0,3,-121,0,0,0,76,79,135,120,60,153.67,207,-10.00,-41.00,-981.00
2024-06-07 14:26:24.931732,0,3,-116,0,0,0,76,79,136,120,60,153.76,207,-41.00,-19.00,-960.00
2024-06-07 14:26:25.027489,0,2,-110,0,0,0,76,79,134,120,60,153.75,207,-23.00,-52.00,-1065.00
2024-06-07 14:26:25.137020,-1,2,-104,0,0,0,76,79,135,120,60,153.73,207,-11.00,-59.00,-993.00
2024-06-07 14:26:25.231215,-1,2,-98,0,0,0,76,79,135,120,60,153.67,207,-37.00,-39.00,-987.00
2024-06-07 14:26:25.333212,-2,2,-91,0,0,0,76,79,135,120,60,153.67,208,-52.00,-37.00,-985.00
2024-06-07 14:26:25.443602,-2,2,-85,0,0,0,77,79,135,120,60,153.71,208,-40.00,-27.00,-975.00
2024-06-07 14:26:25.544084,-2,1,-79,0,0,0,77,79,135,120,60,153.66,208,-42.00,-47.00,-1002.00
2024-06-07 14:26:25.639214,-3,1,-73,0,0,0,77,79,135,120,60,153.66,208,-60.00,-8.00,-991.00
2024-06-07 14:26:25.741206,-3,0,-67,0,0,0,77,79,134,120,60,153.63,208,-42.00,-25.00,-1007.00
2024-06-07 14:26:25.843426,-3,0,-61,0,0,0,77,79,135,120,60,153.56,208,-62.00,-2.00,-1011.00
2024-06-07 14:26:25.955609,-3,0,-55,0,0,0,77,79,135,120,60,153.65,208,-23.00,-35.00,-1061.00
2024-06-07 14:26:26.047285,-3,0,-50,0,0,0,77,79,134,120,60,153.73,208,-78.00,0.00,-1011.00
2024-06-07 14:26:26.160519,-4,0,-44,0,0,0,77,79,134,120,60,153.70,208,-85.00,-10.00,-989.00
2024-06-07 14:26:26.251143,-4,0,-38,0,0,0,77,79,134,120,60,153.63,208,-79.00,6.00,-981.00
2024-06-07 14:26:26.365293,-3,0,-32,0,0,0,77,79,134,120,60,153.66,209,-63.00,1.00,-1012.00
2024-06-07 14:26:26.455148,-4,0,-26,0,0,0,78,79,133,120,60,153.52,209,-90.00,22.00,-991.00
2024-06-07 14:26:26.570039,-4,0,-20,0,0,0,78,79,134,120,60,153.61,209,-23.00,7.00,-990.00
2024-06-07 14:26:26.660271,-4,-1,-13,0,0,0,78,79,133,120,60,153.58,209,-87.00,33.00,-962.00
2024-06-07 14:26:26.778642,-3,-1,-7,0,0,0,78,79,134,120,60,153.60,209,-72.00,52.00,-997.00
2024-06-07 14:26:26.863328,-3,-2,-2,0,0,0,78,79,132,120,60,153.49,209,-47.00,33.00,-1003.00
2024-06-07 14:26:26.979596,-3,-2,3,0,0,0,78,79,132,120,60,153.58,209,-63.00,54.00,-957.00
2024-06-07 14:26:27.067132,-3,-3,9,0,0,0,78,79,132,110,60,153.77,209,-53.00,72.00,-990.00
2024-06-07 14:26:27.184441,-3,-3,16,0,0,0,78,79,132,110,60,153.73,209,-28.00,65.00,-1019.00
2024-06-07 14:26:27.271101,-2,-3,22,0,0,0,78,79,132,110,60,153.82,209,-15.00,62.00,-1019.00
2024-06-07 14:26:27.395791,-1,-3,28,0,0,0,78,79,132,110,60,153.81,210,-53.00,97.00,-988.00
2024-06-07 14:26:27.475096,-1,-4,33,0,0,0,78,80,133,110,60,153.85,210,-66.00,79.00,-1031.00
2024-06-07 14:26:27.594096,-1,-4,36,0,0,0,78,80,131,110,60,153.80,210,-38.00,88.00,-993.00
2024-06-07 14:26:27.679120,0,-4,39,0,0,0,78,80,133,110,60,153.89,210,-14.00,69.00,-989.00
2024-06-07 14:26:27.799151,0,-3,41,0,0,0,78,80,132,120,60,153.81,210,-7.00,55.00,-1001.00
2024-06-07 14:26:27.883304,0,-3,43,0,0,0,78,80,132,120,60,153.84,210,-7.00,74.00,-986.00
2024-06-07 14:26:28.003618,0,-3,44,0,0,0,78,80,133,120,60,153.89,210,-3.00,84.00,-992.00
2024-06-07 14:26:28.087079,0,-3,45,0,0,0,78,80,133,120,60,153.85,210,11.00,61.00,-968.00
2024-06-07 14:26:28.208487,0,-3,46,0,0,0,78,80,133,120,60,153.77,210,7.00,55.00,-1007.00
2024-06-07 14:26:28.240493,0,-3,46,0,0,0,78,80,132,120,60,153.82,210,0.00,62.00,-988.00
2024-06-07 14:26:28.413382,0,-3,47,0,0,0,78,80,133,120,59,153.87,211,-16.00,70.00,-994.00
2024-06-07 14:26:28.495098,0,-3,46,0,0,0,78,80,132,120,59,153.84,211,-16.00,63.00,-1016.00
2024-06-07 14:26:28.597574,0,-3,46,0,0,0,78,80,133,120,59,153.74,211,-53.00,79.00,-1003.00
2024-06-07 14:26:28.721881,0,-3,46,0,0,0,78,80,133,120,59,153.70,211,4.00,55.00,-1009.00
2024-06-07 14:26:28.750143,0,-3,46,0,0,0,78,80,133,120,59,153.75,211,0.00,50.00,-1011.00
2024-06-07 14:26:28.926932,0,-3,46,0,0,0,78,80,132,120,59,153.80,211,-6.00,54.00,-1003.00
2024-06-07 14:26:28.958659,0,-3,46,0,0,0,78,80,132,120,59,153.76,211,-36.00,97.00,-974.00
2024-06-07 14:26:29.056141,0,-3,46,0,0,0,78,80,131,110,59,153.74,211,23.00,28.00,-1003.00
2024-06-07 14:26:29.158207,0,-3,46,0,0,0,78,80,130,110,59,153.76,211,12.00,41.00,-1003.00
2024-06-07 14:26:29.261125,0,-3,46,0,0,0,78,80,130,110,59,153.88,211,-7.00,77.00,-1027.00
2024-06-07 14:26:29.437715,-1,-3,47,0,0,0,78,80,130,110,59,153.81,212,12.00,47.00,-1032.00
2024-06-07 14:26:29.475128,0,-3,46,0,0,0,77,80,129,110,59,153.77,212,11.00,60.00,-988.00
2024-06-07 14:26:29.566231,0,-3,46,0,0,0,77,80,129,110,59,153.83,212,14.00,63.00,-994.00
2024-06-07 14:26:29.668092,0,-3,47,0,0,0,77,80,129,110,59,153.93,212,20.00,82.00,-1018.00
2024-06-07 14:26:29.770092,0,-4,47,0,0,0,77,80,130,110,59,153.85,212,5.00,82.00,-1008.00
2024-06-07 14:26:29.949301,0,-4,47,0,0,0,77,80,129,110,59,153.91,212,-24.00,82.00,-1005.00
2024-06-07 14:26:29.974430,0,-4,46,0,0,0,77,80,130,110,59,153.83,212,-38.00,81.00,-1039.00
2024-06-07 14:26:30.155703,0,-5,46,0,0,0,77,80,130,110,59,153.89,212,-8.00,83.00,-991.00
2024-06-07 14:26:30.178047,0,-4,46,0,0,0,77,80,130,110,59,153.83,212,-22.00,71.00,-1007.00
2024-06-07 14:26:30.280062,0,-4,46,0,0,0,77,80,131,110,59,153.73,212,-36.00,103.00,-964.00
2024-06-07 14:26:30.461181,-1,-4,45,0,0,0,77,80,130,110,59,153.76,213,-7.00,91.00,-990.00
2024-06-07 14:26:30.483912,-1,-4,39,0,0,0,77,80,131,110,59,153.81,213,-35.00,82.00,-995.00
2024-06-07 14:26:30.585983,-2,-4,33,0,0,0,77,80,132,110,59,153.73,213,-34.00,72.00,-1015.00
2024-06-07 14:26:30.768563,-2,-4,27,0,0,0,77,80,132,110,59,153.85,213,-68.00,87.00,-1036.00
2024-06-07 14:26:30.789919,-3,-3,21,0,0,0,77,80,131,110,59,153.75,213,-52.00,84.00,-979.00
2024-06-07 14:26:30.975691,-3,-3,16,0,0,0,77,80,132,110,59,153.74,213,-27.00,42.00,-961.00
2024-06-07 14:26:30.993967,-2,-3,10,0,0,0,77,80,132,110,59,153.69,213,-34.00,44.00,-1004.00
2024-06-07 14:26:31.095912,-2,-2,4,0,0,0,77,80,131,110,59,153.64,213,-58.00,48.00,-967.00
2024-06-07 14:26:31.197976,-3,-2,-1,0,0,0,77,80,132,110,59,153.69,213,-20.00,48.00,-1003.00
2024-06-07 14:26:31.301414,-3,-2,-6,0,0,0,77,80,132,110,59,153.64,213,-78.00,39.00,-983.00
2024-06-07 14:26:31.402151,-3,-1,-12,0,0,0,77,80,133,110,59,153.64,214,-44.00,10.00,-1023.00
2024-06-07 14:26:31.503903,-3,-1,-18,0,0,0,77,80,133,110,59,153.62,214,-47.00,32.00,-1014.00
2024-06-07 14:26:31.605980,-3,0,-24,0,0,0,77,80,131,110,59,153.68,214,-72.00,31.00,-1024.00
2024-06-07 14:26:31.709372,-3,0,-30,0,0,0,77,80,131,110,59,153.60,214,-50.00,17.00,-997.00
2024-06-07 14:26:31.813446,-3,0,-36,0,0,0,77,80,131,110,59,153.52,214,-59.00,-2.00,-999.00
2024-06-07 14:26:31.914019,-2,0,-42,0,0,0,77,80,131,110,59,153.58,214,-90.00,17.00,-1030.00
2024-06-07 14:26:32.013852,-3,0,-48,0,0,0,77,80,131,110,59,153.56,214,-65.00,-1.00,-1026.00
2024-06-07 14:26:32.201987,-3,0,-54,0,0,0,77,80,132,110,59,153.58,214,-85.00,6.00,-994.00
2024-06-07 14:26:32.217851,-4,1,-60,0,0,0,77,80,133,110,59,153.64,214,-64.00,-19.00,-1013.00
2024-06-07 14:26:32.320210,-4,1,-66,0,0,0,77,80,133,110,59,153.65,214,-81.00,-15.00,-997.00
2024-06-07 14:26:32.510051,-4,1,-72,0,0,0,77,80,135,120,59,153.73,215,-82.00,-18.00,-931.00
2024-06-07 14:26:32.523832,-4,1,-78,0,0,0,78,79,134,120,59,153.77,215,-79.00,-18.00,-980.00
2024-06-07 14:26:32.575218,-4,2,-84,0,0,0,78,79,135,120,59,153.69,215,-62.00,-49.00,-1005.00
2024-06-07 14:26:32.677775,-3,2,-90,0,0,0,78,79,136,120,59,153.68,215,-39.00,-66.00,-999.00
2024-06-07 14:26:32.816440,-3,3,-96,0,0,0,78,79,136,120,59,153.76,215,-29.00,-54.00,-980.00
2024-06-07 14:26:32.880881,-2,4,-102,0,0,0,78,79,137,120,59,153.78,215,-60.00,-51.00,-961.00
2024-06-07 14:26:33.021483,-1,4,-108,0,0,0,78,79,137,120,59,153.85,215,-42.00,-43.00,-979.00
2024-06-07 14:26:33.084805,-1,4,-114,0,0,0,78,79,135,120,59,153.82,215,-22.00,-77.00,-1010.00
2024-06-07 14:26:33.226068,0,4,-120,0,0,0,78,79,137,120,59,153.86,215,-4.00,-96.00,-1030.00
2024-06-07 14:26:33.288802,0,4,-126,0,0,0,78,79,137,120,59,153.89,215,14.00,-90.00,-982.00
2024-06-07 14:26:33.392071,0,4,-133,0,0,0,78,79,136,120,59,153.92,216,3.00,-78.00,-1004.00
2024-06-07 14:26:33.493516,1,4,-139,0,0,0,77,80,136,120,59,153.93,216,34.00,-111.00,-990.00
2024-06-07 14:26:33.594898,2,5,-145,0,0,0,77,80,136,120,59,154.00,216,20.00,-97.00,-944.00
2024-06-07 14:26:33.737950,2,5,-151,0,0,0,77,80,137,120,59,153.89,216,38.00,-77.00,-1013.00
2024-06-07 14:26:33.798825,3,4,-157,0,0,0,77,80,137,120,59,153.90,216,61.00,-62.00,-1004.00
2024-06-07 14:26:33.946199,4,4,-163,0,0,0,77,80,138,120,59,153.94,216,66.00,-57.00,-999.00
2024-06-07 14:26:34.002962,4,3,-170,0,0,0,77,80,137,120,59,153.90,216,86.00,-82.00,-967.00
2024-06-07 14:26:34.147559,5,2,-176,0,0,0,77,80,137,120,59,153.89,216,99.00,-38.00,-1030.00
2024-06-07 14:26:34.206788,5,1,176,0,0,0,77,80,137,120,59,153.92,216,135.00,-44.00,-986.00
2024-06-07 14:26:34.308829,5,0,170,0,0,0,77,80,138,120,59,153.85,216,130.00,-34.00,-999.00
2024-06-07 14:26:34.458932,6,0,164,0,0,0,77,80,138,120,59,153.77,217,93.00,-43.00,-1034.00
2024-06-07 14:26:34.513575,6,0,158,0,0,0,78,79,139,120,59,153.67,217,112.00,-13.00,-1023.00
2024-06-07 14:26:34.614850,6,0,151,0,0,0,78,79,139,120,59,153.74,217,98.00,20.00,-983.00
2024-06-07 14:26:34.761967,6,0,145,0,0,0,78,79,138,120,59,153.82,217,109.00,30.00,-932.00
2024-06-07 14:26:34.819046,6,-1,140,0,0,0,78,79,138,120,59,153.81,217,85.00,27.00,-974.00
2024-06-07 14:26:34.920765,5,-2,134,0,0,0,78,79,137,120,59,153.84,217,160.00,25.00,-971.00
2024-06-07 14:26:35.075169,5,-3,128,0,0,0,78,79,137,120,59,153.79,217,102.00,19.00,-965.00
2024-06-07 14:26:35.125735,4,-3,122,0,0,0,78,79,137,120,59,153.81,217,93.00,50.00,-1006.00
2024-06-07 14:26:35.226805,4,-3,117,0,0,0,78,79,136,120,59,153.78,217,93.00,56.00,-984.00
2024-06-07 14:26:35.328789,3,-3,111,0,0,0,78,79,136,120,58,153.78,217,117.00,54.00,-1032.00
2024-06-07 14:26:35.430922,3,-4,105,0,0,0,78,79,136,120,58,153.83,218,98.00,55.00,-971.00
2024-06-07 14:26:35.533337,3,-4,99,0,0,0,77,80,136,120,58,153.88,218,89.00,89.00,-1012.00
2024-06-07 14:26:35.685534,3,-4,94,0,0,0,77,80,136,120,58,153.91,218,92.00,44.00,-982.00
2024-06-07 14:26:35.739568,2,-5,88,0,0,0,77,80,135,120,58,153.93,218,53.00,84.00,-1006.00
2024-06-07 14:26:35.839896,2,-4,82,0,0,0,77,80,136,120,58,153.87,218,76.00,68.00,-974.00
2024-06-07 14:26:35.940736,1,-5,76,0,0,0,77,80,135,120,58,153.91,218,71.00,77.00,-1000.00
2024-06-07 14:26:35.991652,1,-6,70,0,0,0,77,80,135,120,58,153.94,218,47.00,112.00,-975.00
2024-06-07 14:26:36.099454,0,-6,65,0,0,0,77,80,134,120,58,153.95,218,30.00,97.00,-975.00
2024-06-07 14:26:36.195763,0,-5,60,0,0,0,77,80,133,110,58,153.84,218,23.00,93.00,-980.00
2024-06-07 14:26:36.298576,0,-5,57,0,0,0,77,80,134,110,58,153.93,218,1.00,96.00,-982.00
2024-06-07 14:26:36.400049,0,-4,54,0,0,0,77,80,135,110,58,153.94,219,-12.00,109.00,-1008.00
2024-06-07 14:26:36.504286,0,-5,53,0,0,0,77,80,134,110,58,153.93,219,12.00,118.00,-981.00
2024-06-07 14:26:36.607560,0,-5,52,0,0,0,77,80,135,120,58,154.02,219,7.00,112.00,-972.00
2024-06-07 14:26:36.705675,0,-5,50,0,0,0,77,80,135,120,58,153.93,219,-5.00,136.00,-977.00
2024-06-07 14:26:36.810094,0,-6,49,0,0,0,77,80,136,120,58,154.01,219,16.00,114.00,-978.00
2024-06-07 14:26:36.909979,0,-6,49,0,0,0,77,80,136,120,58,153.98,219,-28.00,124.00,-987.00
2024-06-07 14:26:37.014900,0,-6,48,0,0,0,77,80,135,120,58,153.92,219,-4.00,116.00,-960.00
2024-06-07 14:26:37.113854,0,-7,48,0,0,0,77,80,136,120,58,153.90,219,-48.00,119.00,-982.00
2024-06-07 14:26:37.219679,0,-7,48,0,0,0,77,80,136,120,58,153.94,219,-3.00,123.00,-992.00
2024-06-07 14:26:37.317813,0,-6,48,0,0,0,77,80,136,120,58,153.91,219,-13.00,131.00,-1002.00
2024-06-07 14:26:37.424890,0,-6,48,0,0,0,77,80,135,120,58,153.95,220,0.00,102.00,-1066.00
2024-06-07 14:26:37.521729,0,-6,48,0,0,0,78,80,136,120,58,153.92,220,-22.00,121.00,-988.00
2024-06-07 14:26:37.625388,0,-6,48,0,0,0,78,80,136,120,58,153.95,220,14.00,135.00,-946.00
2024-06-07 14:26:37.725871,0,-6,48,0,0,0,78,80,136,120,58,153.83,220,-11.00,129.00,-987.00
2024-06-07 14:26:37.834138,0,-6,48,0,0,0,78,80,136,120,58,153.88,220,-16.00,127.00,-971.00
2024-06-07 14:26:37.929978,-1,-6,48,0,0,0,78,80,136,120,58,153.92,220,18.00,122.00,-956.00
2024-06-07 14:26:38.039730,0,-6,48,0,0,0,78,80,136,120,58,153.87,220,-18.00,116.00,-982.00
2024-06-07 14:26:38.133803,0,-6,48,0,0,0,78,80,136,120,58,153.93,220,48.00,99.00,-993.00
2024-06-07 14:26:38.243714,1,-6,48,0,0,0,78,80,136,120,58,153.88,220,-10.00,81.00,-981.00
2024-06-07 14:26:38.338121,0,-6,48,0,0,0,78,80,135,120,58,153.96,221,0.00,111.00,-1024.00
2024-06-07 14:26:38.450799,0,-6,48,0,0,0,78,80,135,120,58,153.89,221,7.00,118.00,-978.00
2024-06-07 14:26:38.541864,0,-6,48,0,0,0,77,79,135,120,58,153.97,221,14.00,82.00,-1002.00
2024-06-07 14:26:38.644206,0,-6,49,0,0,0,77,79,136,120,58,153.98,221,13.00,70.00,-981.00
2024-06-07 14:26:38.745857,0,-5,49,0,0,0,77,79,136,120,58,153.94,221,26.00,96.00,-1022.00
2024-06-07 14:26:38.848704,0,-5,49,0,0,0,77,79,135,120,58,153.92,221,31.00,100.00,-1037.00
2024-06-07 14:26:38.949648,1,-4,48,1,0,0,77,79,135,120,58,153.83,221,45.00,93.00,-1034.00
2024-06-07 14:26:39.062908,1,-4,48,1,0,0,77,79,136,120,58,153.98,221,18.00,95.00,-1112.00
2024-06-07 14:26:39.153595,0,-4,48,1,0,-5,77,79,139,120,58,154.03,221,55.00,94.00,-1575.00
2024-06-07 14:26:39.267454,1,-13,48,0,0,-10,77,79,147,130,58,153.93,221,-32.00,195.00,-1334.00
2024-06-07 14:26:39.357665,1,-88,47,3,-2,-10,77,79,232,140,57,154.01,222,-64.00,450.00,-867.00
2024-06-07 14:26:39.472321,-1,136,47,6,-5,2,77,79,6553,140,57,153.82,222,40.00,819.00,-843.00
2024-06-07 14:26:39.561529,0,14,51,0,-1,11,77,79,160,140,57,153.95,222,-15.00,426.00,-1494.00
2024-06-07 14:26:39.677127,2,-6,53,0,-1,9,77,79,146,130,57,153.66,222,-60.00,-81.00,-1398.00
2024-06-07 14:26:39.765526,0,2,55,0,-1,6,77,79,138,120,57,153.81,222,-29.00,96.00,-1467.00
2024-06-07 14:26:39.881922,-1,2,52,0,0,2,77,79,135,110,57,153.84,222,-33.00,120.00,-1307.00
2024-06-07 14:26:39.970231,0,-1,48,-1,0,0,77,79,133,110,57,153.79,222,33.00,63.00,-1174.00
2024-06-07 14:26:40.088426,0,-3,48,-1,0,0,77,79,134,110,57,153.75,222,20.00,87.00,-1108.00
2024-06-07 14:26:40.173518,0,-3,48,-1,0,-1,77,79,138,110,57,153.81,222,-7.00,85.00,-1032.00
2024-06-07 14:26:40.276556,0,-3,48,0,0,-1,77,79,140,110,57,153.82,222,-21.00,62.00,-979.00
2024-06-07 14:26:40.328701,0,-3,48,0,0,-1,77,79,141,110,57,153.84,223,-17.00,86.00,-936.00
2024-06-07 14:26:40.428469,-1,-3,48,0,0,0,77,79,144,110,57,153.85,223,-16.00,71.00,-968.00
2024-06-07 14:26:40.582608,-1,-3,48,0,0,0,77,80,144,110,57,153.86,223,0.00,92.00,-942.00
2024-06-07 14:26:40.633478,0,-3,48,0,0,0,77,80,146,120,57,153.93,223,-5.00,69.00,-959.00
2024-06-07 14:26:40.803523,0,-3,48,0,0,0,77,80,146,120,57,153.87,223,-6.00,59.00,-974.00
2024-06-07 14:26:40.841010,0,-3,48,0,0,0,77,80,146,120,57,153.90,223,0.00,79.00,-952.00
2024-06-07 14:26:40.939434,0,-3,48,0,0,0,77,80,146,120,57,153.93,223,-11.00,66.00,-969.00
2024-06-07 14:26:41.110663,0,-3,48,0,0,0,77,80,146,120,57,153.90,223,-30.00,59.00,-988.00
2024-06-07 14:26:41.143341,0,-3,48,0,0,0,77,80,146,120,57,153.89,223,-13.00,64.00,-995.00
2024-06-07 14:26:41.316045,0,-3,48,0,0,0,77,80,145,120,57,153.90,223,17.00,51.00,-962.00
2024-06-07 14:26:41.347468,0,-3,48,0,0,0,77,80,146,110,56,153.99,224,-17.00,68.00,-995.00
2024-06-07 14:26:41.449404,-1,-3,48,0,0,0,77,80,144,110,56,153.90,224,-5.00,63.00,-982.00
2024-06-07 14:26:41.622710,-1,-3,48,0,0,0,78,80,144,110,56,153.88,224,-33.00,78.00,-984.00
2024-06-07 14:26:41.656832,0,-3,48,0,0,0,78,80,145,110,56,153.96,224,-43.00,71.00,-1018.00
2024-06-07 14:26:41.755396,0,-3,48,0,0,0,78,80,143,110,56,153.94,224,14.00,65.00,-1017.00
2024-06-07 14:26:41.929877,0,-3,48,0,0,0,78,80,144,110,56,153.84,224,16.00,67.00,-954.00
2024-06-07 14:26:41.961484,0,-2,48,0,0,0,78,80,144,110,56,153.89,224,7.00,61.00,-992.00
2024-06-07 14:26:42.061958,0,-2,48,0,0,0,78,80,144,120,56,153.88,224,0.00,73.00,-1000.00
2024-06-07 14:26:42.163411,0,-3,48,0,0,0,78,80,144,120,56,153.84,224,-1.00,58.00,-997.00
