TS,pitch,roll,yaw,vgx,vgy,vgz,templ,temph,tof,h,bat,baro,time,agx,agy,agz
2024-06-07 14:27:29.346300,2,0,53,0,0,0,80,83,10,0,52,152.56,252,40.00,-2.00,-997.00
2024-06-07 14:27:29.448181,2,0,53,0,0,0,80,83,10,0,52,152.55,252,40.00,-1.00,-997.00
2024-06-07 14:27:29.548722,2,0,53,0,0,0,80,83,10,0,52,152.52,252,40.00,-2.00,-999.00
2024-06-07 14:27:29.651345,2,0,53,0,0,0,80,83,10,0,52,152.57,252,40.00,-1.00,-999.00
2024-06-07 14:27:29.752192,2,0,53,0,0,0,80,83,10,0,52,152.55,252,40.00,-2.00,-1000.00
2024-06-07 14:27:29.954985,2,0,53,0,0,0,80,83,10,0,52,152.56,252,41.00,-2.00,-1000.00
2024-06-07 14:27:29.955905,2,0,53,0,0,0,80,83,10,0,52,152.50,252,39.00,-2.00,-1000.00
2024-06-07 14:27:30.160440,2,0,53,0,0,0,80,83,10,0,52,152.59,252,39.00,-3.00,-997.00
2024-06-07 14:27:30.160663,2,0,53,0,0,0,80,83,10,0,52,152.56,252,39.00,-3.00,-1001.00
2024-06-07 14:27:30.263184,2,0,53,0,0,0,80,83,10,0,52,152.61,252,39.00,-2.00,-998.00
2024-06-07 14:27:30.365500,2,0,53,0,0,0,80,83,10,0,52,152.56,252,39.00,-2.00,-997.00
2024-06-07 14:27:30.466931,2,0,53,0,0,0,80,83,10,0,52,152.57,252,38.00,-1.00,-997.00
2024-06-07 14:27:30.569596,2,0,53,0,0,0,80,83,10,0,52,152.53,252,39.00,-1.00,-999.00
2024-06-07 14:27:30.671823,2,0,53,0,0,0,80,83,10,0,52,152.58,252,40.00,-3.00,-1000.00
2024-06-07 14:27:30.879828,2,0,53,0,0,0,80,83,10,0,52,152.53,252,38.00,-2.00,-998.00
2024-06-07 14:27:30.879949,2,0,53,0,0,0,81,83,10,0,52,152.62,252,37.00,-1.00,-1001.00
2024-06-07 14:27:30.979177,2,0,53,0,0,0,81,83,10,0,52,152.57,252,39.00,-3.00,-995.00
2024-06-07 14:27:31.027015,2,0,53,0,0,0,81,83,10,0,52,152.52,252,39.00,-2.00,-1000.00
2024-06-07 14:27:31.189337,2,0,53,0,0,0,81,83,10,0,52,152.52,252,38.00,-3.00,-999.00
2024-06-07 14:27:31.231195,2,0,53,0,0,0,81,83,10,0,52,152.52,252,39.00,-2.00,-1002.00
2024-06-07 14:27:31.333184,2,0,53,0,0,0,81,83,10,0,52,152.51,252,38.00,-2.00,-999.00
2024-06-07 14:27:31.434980,2,0,53,0,0,0,81,83,10,0,52,152.54,252,40.00,-2.00,-997.00
2024-06-07 14:27:31.593928,2,0,53,0,0,0,81,83,10,0,52,152.57,252,39.00,-2.00,-1000.00
2024-06-07 14:27:31.639178,2,0,53,0,0,0,81,83,10,0,52,152.55,252,40.00,-2.00,-1001.00
2024-06-07 14:27:31.798768,2,0,53,0,0,0,81,83,10,0,52,152.56,252,39.00,-1.00,-999.00
2024-06-07 14:27:31.842823,2,0,53,0,0,0,81,83,10,0,52,152.57,252,39.00,-1.00,-997.00
2024-06-07 14:27:32.003229,2,0,53,0,0,0,81,83,10,0,52,152.58,252,39.00,-2.00,-999.00
2024-06-07 14:27:32.047040,2,0,53,0,0,0,81,83,10,0,52,152.61,252,38.00,-2.00,-1000.00
2024-06-07 14:27:32.149086,2,0,53,0,0,0,81,83,10,0,52,152.58,252,39.00,-3.00,-999.00
2024-06-07 14:27:32.310943,2,0,53,0,0,0,81,83,10,0,52,152.60,252,40.00,0.00,-999.00
2024-06-07 14:27:32.352926,2,0,53,0,0,0,81,83,10,0,52,152.60,252,38.00,-2.00,-1000.00
2024-06-07 14:27:32.455045,2,0,53,0,0,0,81,83,10,0,52,152.60,252,46.00,-2.00,-992.00
2024-06-07 14:27:32.617844,2,0,53,0,0,0,81,83,10,0,52,152.60,252,38.00,0.00,-998.00
2024-06-07 14:27:32.658935,2,0,53,0,0,0,81,83,10,0,52,152.60,253,42.00,-1.00,-1002.00
2024-06-07 14:27:32.822284,2,0,53,0,0,0,81,83,10,0,52,152.60,253,40.00,-2.00,-994.00
2024-06-07 14:27:32.862961,1,0,53,0,0,0,81,84,10,0,52,152.60,253,8.00,-7.00,-1016.00
2024-06-07 14:27:32.964951,1,0,53,0,0,0,81,84,10,0,52,152.60,253,27.00,-12.00,-1010.00
2024-06-07 14:27:33.129513,0,0,53,0,0,0,81,84,10,0,52,152.60,253,24.00,0.00,-1149.00
2024-06-07 14:27:33.170000,0,-1,53,0,0,-2,81,84,10,0,52,152.60,253,16.00,-3.00,-1251.00
2024-06-07 14:27:33.270847,0,-1,53,0,0,-5,81,84,10,0,52,152.60,253,52.00,-30.00,-1295.00
2024-06-07 14:27:33.436745,0,1,53,1,0,-7,81,84,18,10,52,152.85,253,61.00,20.00,-1130.00
2024-06-07 14:27:33.474871,2,2,54,0,0,-8,81,84,26,10,52,152.90,253,45.00,22.00,-1051.00
2024-06-07 14:27:33.641518,2,0,54,0,1,-8,81,84,35,20,52,153.02,253,77.00,8.00,-1028.00
2024-06-07 14:27:33.678820,3,0,54,0,1,-8,81,84,41,30,52,153.03,254,44.00,-21.00,-983.00
2024-06-07 14:27:33.846359,3,0,53,0,0,-7,81,84,49,40,52,153.16,254,41.00,-11.00,-924.00
2024-06-07 14:27:33.887530,3,0,53,0,0,-6,82,84,57,40,52,153.28,254,52.00,-20.00,-979.00
2024-06-07 14:27:33.984996,1,1,53,0,0,-5,82,84,63,50,52,153.30,254,48.00,-15.00,-870.00
2024-06-07 14:27:34.086839,2,1,53,0,0,-4,82,84,68,50,52,153.38,254,10.00,23.00,-908.00
2024-06-07 14:27:34.255882,1,0,53,0,0,-3,82,84,72,60,52,153.40,254,36.00,7.00,-858.00
2024-06-07 14:27:34.290842,1,0,53,0,0,-2,82,84,75,60,52,153.43,254,20.00,-8.00,-850.00
2024-06-07 14:27:34.460736,1,0,53,0,0,-1,82,84,76,60,52,153.40,254,29.00,7.00,-961.00
2024-06-07 14:27:34.494839,1,-1,53,0,0,0,82,84,78,60,52,153.37,254,15.00,54.00,-924.00
2024-06-07 14:27:34.545828,2,-1,53,0,0,0,82,84,78,60,52,153.48,254,63.00,-21.00,-946.00
2024-06-07 14:27:34.647905,2,-1,53,0,0,0,82,84,78,60,52,153.45,255,33.00,45.00,-951.00
2024-06-07 14:27:34.767812,3,0,53,0,0,0,82,84,78,60,52,153.40,255,33.00,43.00,-968.00
2024-06-07 14:27:34.851813,3,0,53,0,0,0,81,84,78,60,52,153.52,255,42.00,-1.00,-1013.00
2024-06-07 14:27:34.972740,3,0,53,0,0,0,81,84,78,60,52,153.43,255,48.00,32.00,-1025.00
2024-06-07 14:27:35.055840,2,0,53,0,0,0,81,84,78,60,52,153.42,255,99.00,5.00,-1032.00
2024-06-07 14:27:35.157834,3,0,53,0,0,0,81,84,78,60,52,153.39,255,42.00,23.00,-1004.00
2024-06-07 14:27:35.259902,3,0,53,0,0,0,81,84,79,60,52,153.42,255,76.00,7.00,-1001.00
2024-06-07 14:27:35.383417,3,0,53,0,0,0,81,84,79,60,52,153.45,255,50.00,55.00,-1024.00
2024-06-07 14:27:35.463812,4,-1,53,0,0,0,81,84,80,60,52,153.55,255,52.00,8.00,-979.00
2024-06-07 14:27:35.587104,3,-1,53,0,0,0,81,84,80,70,52,153.56,255,33.00,-14.00,-1004.00
2024-06-07 14:27:35.667878,3,-1,53,0,0,0,81,84,80,70,52,153.49,256,44.00,19.00,-992.00
2024-06-07 14:27:35.792749,2,0,53,0,0,0,81,84,81,70,52,153.48,256,58.00,30.00,-1011.00
2024-06-07 14:27:35.874395,3,0,53,0,0,0,82,84,81,70,52,153.48,256,58.00,5.00,-1009.00
2024-06-07 14:27:35.973765,3,0,53,0,0,0,82,84,82,70,52,153.43,256,85.00,-6.00,-994.00
2024-06-07 14:27:36.105167,3,-1,54,0,0,0,82,84,82,70,52,153.53,256,107.00,8.00,-981.00
2024-06-07 14:27:36.177762,3,-1,53,0,0,0,82,84,82,70,52,153.42,256,73.00,18.00,-968.00
2024-06-07 14:27:36.303881,3,0,53,0,0,0,82,84,81,70,52,153.42,256,71.00,9.00,-970.00
2024-06-07 14:27:36.381753,3,-1,53,0,0,0,82,84,81,70,52,153.36,256,64.00,23.00,-995.00
2024-06-07 14:27:36.483762,3,-1,53,0,0,0,82,84,80,70,52,153.39,256,93.00,-5.00,-988.00
2024-06-07 14:27:36.586042,3,-1,53,0,0,0,82,84,81,70,52,153.38,256,59.00,24.00,-1009.00
2024-06-07 14:27:36.687856,3,0,54,0,0,0,82,84,81,70,52,153.46,257,68.00,0.00,-999.00
2024-06-07 14:27:36.789913,3,0,54,0,0,0,82,84,81,70,52,153.48,257,36.00,6.00,-979.00
2024-06-07 14:27:36.923661,3,0,53,0,0,0,81,83,81,70,52,153.43,257,52.00,3.00,-983.00
2024-06-07 14:27:36.993893,3,0,54,0,0,0,81,83,82,70,52,153.42,257,62.00,1.00,-1000.00
2024-06-07 14:27:37.123301,2,0,54,0,0,0,81,83,82,70,52,153.52,257,65.00,-5.00,-1024.00
2024-06-07 14:27:37.197879,2,0,54,0,0,0,81,83,82,70,52,153.51,257,45.00,16.00,-989.00
2024-06-07 14:27:37.330778,3,0,53,0,0,0,81,83,81,70,52,153.49,257,66.00,-6.00,-957.00
2024-06-07 14:27:37.402004,3,0,53,0,0,0,81,83,81,70,52,153.39,257,44.00,11.00,-989.00
2024-06-07 14:27:37.532842,3,0,53,0,0,0,81,83,82,70,52,153.39,257,69.00,29.00,-1014.00
2024-06-07 14:27:37.606828,3,0,53,0,0,0,81,83,81,70,52,153.44,257,72.00,21.00,-1003.00
2024-06-07 14:27:37.737521,3,-1,53,0,0,0,81,83,81,70,52,153.51,258,56.00,0.00,-973.00
2024-06-07 14:27:37.810828,2,0,53,0,0,0,81,83,82,70,52,153.57,258,53.00,5.00,-972.00
2024-06-07 14:27:37.942380,2,0,53,0,0,0,81,83,82,70,52,153.54,258,51.00,19.00,-1031.00
2024-06-07 14:27:38.014804,2,0,53,0,0,0,81,83,81,70,52,153.35,258,65.00,7.00,-992.00
2024-06-07 14:27:38.147227,2,0,53,0,0,0,81,83,81,70,52,153.43,258,35.00,13.00,-1017.00
2024-06-07 14:27:38.218817,2,0,53,0,0,0,81,83,81,70,52,153.49,258,44.00,27.00,-1007.00
2024-06-07 14:27:38.353003,2,0,53,0,0,0,81,83,82,70,52,153.48,258,49.00,0.00,-998.00
2024-06-07 14:27:38.372684,3,0,53,0,0,0,81,83,82,70,52,153.48,258,42.00,44.00,-988.00
2024-06-07 14:27:38.473804,2,-1,53,0,0,0,81,83,82,70,52,153.49,258,13.00,31.00,-1013.00
2024-06-07 14:27:38.576891,2,-1,53,0,0,0,81,83,82,70,52,153.42,258,67.00,17.00,-990.00
2024-06-07 14:27:38.677639,2,-1,53,0,0,0,81,83,81,70,52,153.49,259,74.00,-6.00,-1014.00
2024-06-07 14:27:38.870122,2,-1,53,0,0,0,81,83,81,70,52,153.50,259,58.00,13.00,-1095.00
2024-06-07 14:27:38.881617,2,-1,53,0,0,-1,81,83,83,70,52,153.48,259,68.00,16.00,-1120.00
2024-06-07 14:27:38.983629,2,-1,53,0,0,-2,81,83,86,70,52,153.55,259,18.00,52.00,-1088.00
2024-06-07 14:27:39.171073,2,-1,53,0,0,-2,81,83,89,70,52,153.55,259,56.00,27.00,-1086.00
2024-06-07 14:27:39.189532,2,-1,53,0,0,-3,81,83,93,70,52,153.56,259,31.00,31.00,-1068.00
2024-06-07 14:27:39.289623,2,-1,54,0,0,-4,81,83,98,80,52,153.60,259,27.00,26.00,-1055.00
2024-06-07 14:27:39.478253,2,-1,54,0,0,-5,81,83,103,80,52,153.64,259,49.00,17.00,-1020.00
2024-06-07 14:27:39.493586,2,-1,53,0,0,-5,81,83,108,90,52,153.78,259,2.00,30.00,-1020.00
2024-06-07 14:27:39.683089,1,-1,53,0,0,-5,81,83,114,90,52,153.73,259,63.00,0.00,-1020.00
2024-06-07 14:27:39.697593,2,0,53,0,0,-5,81,83,120,100,52,153.77,260,47.00,22.00,-983.00
2024-06-07 14:27:39.799850,2,0,54,0,0,-5,81,83,125,110,52,153.86,260,50.00,-8.00,-1022.00
2024-06-07 14:27:39.990287,3,0,54,0,0,-5,81,83,131,110,52,153.87,260,54.00,5.00,-981.00
2024-06-07 14:27:40.003675,4,0,54,0,0,-5,81,83,139,120,52,153.95,260,73.00,-1.00,-1000.00
2024-06-07 14:27:40.195422,4,0,53,0,0,-5,81,83,141,120,52,153.93,260,103.00,10.00,-1002.00
2024-06-07 14:27:40.207629,4,0,53,0,0,-4,81,83,147,130,52,154.04,260,92.00,1.00,-963.00
2024-06-07 14:27:40.309535,4,0,53,0,0,-4,81,83,152,130,52,154.11,260,53.00,41.00,-970.00
2024-06-07 14:27:40.502266,4,0,53,0,0,-4,81,83,156,140,52,154.09,260,51.00,12.00,-966.00
2024-06-07 14:27:40.514301,4,0,53,0,0,-3,81,83,162,140,52,154.16,260,88.00,8.00,-967.00
2024-06-07 14:27:40.620471,4,-1,53,0,0,-3,81,83,165,140,52,154.27,260,71.00,18.00,-963.00
2024-06-07 14:27:40.717566,5,0,53,0,0,-3,81,83,166,150,52,154.25,261,72.00,12.00,-952.00
2024-06-07 14:27:40.820200,5,-1,53,0,0,-2,81,83,172,150,52,154.25,261,103.00,8.00,-964.00
2024-06-07 14:27:41.014258,5,0,53,0,0,-2,80,82,172,150,52,154.32,261,40.00,67.00,-981.00
2024-06-07 14:27:41.023534,5,-1,53,0,0,-2,80,82,177,160,52,154.39,261,50.00,29.00,-961.00
2024-06-07 14:27:41.126730,5,-1,53,0,0,-2,80,82,178,160,52,154.37,261,77.00,37.00,-981.00
2024-06-07 14:27:41.321450,5,-2,53,0,0,-1,80,82,175,160,52,154.45,261,61.00,36.00,-985.00
2024-06-07 14:27:41.329654,4,-3,53,0,0,-1,80,82,179,160,52,154.34,261,104.00,28.00,-968.00
2024-06-07 14:27:41.431586,5,-3,53,0,0,-1,80,82,182,160,52,154.35,261,88.00,25.00,-969.00
2024-06-07 14:27:41.628933,5,-2,53,0,0,0,80,82,181,160,52,154.49,261,54.00,48.00,-950.00
2024-06-07 14:27:41.635911,5,-2,53,0,0,0,80,82,183,170,52,154.41,261,63.00,61.00,-966.00
2024-06-07 14:27:41.739905,5,-2,53,0,0,0,80,82,182,170,52,154.36,262,92.00,29.00,-996.00
2024-06-07 14:27:41.839662,5,-2,53,0,0,0,80,82,181,170,52,154.38,262,72.00,49.00,-972.00
2024-06-07 14:27:42.038610,6,-1,53,0,0,0,80,83,180,170,52,154.30,262,61.00,40.00,-978.00
2024-06-07 14:27:42.045437,6,-1,53,0,0,0,80,83,181,160,52,154.38,262,77.00,28.00,-1011.00
2024-06-07 14:27:42.146667,6,-1,53,0,0,0,80,83,182,160,52,154.39,262,107.00,9.00,-930.00
2024-06-07 14:27:42.247541,5,-1,53,0,0,0,80,83,180,160,52,154.27,262,76.00,49.00,-980.00
2024-06-07 14:27:42.349592,5,-1,53,0,0,0,80,83,181,160,52,154.30,262,67.00,44.00,-1008.00
2024-06-07 14:27:42.452611,5,-1,53,0,0,0,80,83,182,160,52,154.39,262,73.00,47.00,-1000.00
2024-06-07 14:27:42.554876,5,-1,53,0,0,0,80,83,180,160,52,154.36,262,88.00,43.00,-997.00
2024-06-07 14:27:42.655588,5,-1,53,0,0,0,80,83,179,160,52,154.38,263,73.00,30.00,-1024.00
2024-06-07 14:27:42.706492,5,-2,53,0,0,0,80,83,179,160,52,154.28,263,76.00,43.00,-1026.00
2024-06-07 14:27:42.857587,5,-2,53,0,0,0,80,83,180,160,52,154.29,263,82.00,31.00,-994.00
2024-06-07 14:27:42.910599,5,-2,53,0,0,0,80,83,181,160,52,154.30,263,67.00,58.00,-1014.00
2024-06-07 14:27:43.062655,5,-2,53,0,0,0,80,83,183,160,52,154.36,263,119.00,29.00,-985.00
2024-06-07 14:27:43.115026,5,-2,53,0,0,0,80,83,183,160,52,154.44,263,65.00,49.00,-988.00
2024-06-07 14:27:43.267399,5,-2,53,0,0,0,80,83,181,170,52,154.44,263,78.00,37.00,-990.00
2024-06-07 14:27:43.318751,5,-2,53,0,0,0,80,83,181,170,52,154.46,263,93.00,28.00,-1008.00
2024-06-07 14:27:43.421623,5,-2,53,0,0,0,80,83,184,170,52,154.33,263,79.00,51.00,-991.00
2024-06-07 14:27:43.522439,5,-2,53,0,0,0,80,83,183,170,52,154.32,263,72.00,40.00,-988.00
2024-06-07 14:27:43.676928,5,-2,53,0,0,0,80,83,182,170,52,154.39,264,116.00,21.00,-922.00
2024-06-07 14:27:43.726398,5,-1,53,0,0,1,80,83,180,170,52,154.35,264,92.00,19.00,-897.00
2024-06-07 14:27:43.830842,4,-1,53,0,0,1,80,83,179,160,52,154.29,264,134.00,-8.00,-958.00
2024-06-07 14:27:43.930407,4,-1,53,0,0,1,80,83,179,160,52,154.39,264,96.00,32.00,-934.00
2024-06-07 14:27:44.086906,4,-1,53,0,0,2,80,83,176,160,52,154.33,264,117.00,27.00,-968.00
2024-06-07 14:27:44.134760,5,-1,53,0,0,2,80,83,173,160,52,154.29,264,89.00,32.00,-967.00
2024-06-07 14:27:44.291492,5,-2,53,0,0,2,80,83,172,150,52,154.19,264,98.00,17.00,-970.00
2024-06-07 14:27:44.338323,5,-1,53,0,0,2,80,83,168,150,52,154.14,264,96.00,-2.00,-986.00
2024-06-07 14:27:44.495959,6,-1,53,0,0,3,80,83,167,150,52,154.24,264,113.00,12.00,-999.00
2024-06-07 14:27:44.542375,6,-1,53,0,0,2,80,83,162,150,52,154.05,264,89.00,16.00,-1012.00
2024-06-07 14:27:44.644490,6,0,53,0,0,2,80,83,160,140,52,153.99,265,100.00,31.00,-1033.00
2024-06-07 14:27:44.746315,6,0,53,0,0,2,80,83,158,140,52,154.05,265,88.00,8.00,-1023.00
2024-06-07 14:27:44.905430,6,0,53,0,0,2,80,83,154,140,52,153.99,265,84.00,7.00,-1041.00
2024-06-07 14:27:44.951293,7,0,53,0,0,2,80,83,152,140,52,153.92,265,74.00,27.00,-997.00
2024-06-07 14:27:45.116348,6,-1,53,0,0,2,80,83,150,130,52,153.92,265,94.00,12.00,-992.00
2024-06-07 14:27:45.154387,5,-1,53,0,0,1,80,83,148,130,52,153.98,265,100.00,13.00,-1033.00
2024-06-07 14:27:45.315364,5,-1,53,0,0,1,80,83,146,130,52,153.89,265,89.00,46.00,-1037.00
2024-06-07 14:27:45.358319,5,-2,53,0,0,1,80,83,146,130,52,153.89,265,75.00,30.00,-1000.00
2024-06-07 14:27:45.522079,4,-2,53,0,0,1,80,83,142,130,52,153.93,265,95.00,23.00,-996.00
2024-06-07 14:27:45.562304,4,-2,53,0,0,1,80,83,141,130,52,153.92,265,67.00,19.00,-1021.00
2024-06-07 14:27:45.724981,4,-1,53,0,0,1,80,83,140,120,52,153.95,266,61.00,39.00,-1007.00
2024-06-07 14:27:45.766416,4,-1,53,0,0,1,80,83,141,120,52,153.87,266,108.00,32.00,-977.00
2024-06-07 14:27:45.930797,4,-2,53,0,0,0,80,83,139,120,52,153.83,266,116.00,42.00,-996.00
2024-06-07 14:27:45.970269,4,-2,53,0,0,0,79,82,138,120,52,153.80,266,68.00,20.00,-1017.00
2024-06-07 14:27:46.072254,4,-1,53,0,0,0,79,82,137,120,52,153.75,266,127.00,7.00,-990.00
2024-06-07 14:27:46.175052,5,-1,53,0,0,0,79,82,137,120,52,153.82,266,56.00,55.00,-1010.00
2024-06-07 14:27:46.276428,4,0,53,0,0,0,79,82,136,120,52,153.91,266,53.00,36.00,-996.00
2024-06-07 14:27:46.378742,4,-1,53,0,0,0,79,82,135,120,52,153.84,266,110.00,16.00,-1003.00
2024-06-07 14:27:46.430524,5,-1,53,0,0,0,79,82,136,120,52,153.87,266,99.00,26.00,-1022.00
2024-06-07 14:27:46.531328,6,-1,53,0,0,0,79,82,135,120,52,153.94,266,87.00,21.00,-1017.00
2024-06-07 14:27:46.633373,6,0,53,0,0,0,79,82,135,120,52,153.88,267,83.00,37.00,-988.00
2024-06-07 14:27:46.748707,6,-1,53,0,0,0,79,82,134,120,52,153.91,267,95.00,27.00,-1033.00
2024-06-07 14:27:46.837783,6,-1,53,0,0,0,79,82,135,120,52,153.92,267,77.00,44.00,-990.00
2024-06-07 14:27:46.953587,6,-1,53,0,0,0,79,82,135,120,52,153.83,267,62.00,17.00,-1037.00
2024-06-07 14:27:47.041432,6,-1,53,0,0,0,79,82,136,120,52,153.95,267,107.00,15.00,-964.00
2024-06-07 14:27:47.160185,6,-1,53,0,0,0,79,82,136,120,52,153.96,267,47.00,29.00,-1022.00
2024-06-07 14:27:47.245349,5,-1,53,0,0,0,79,82,137,120,52,153.91,267,68.00,64.00,-1003.00
2024-06-07 14:27:47.364879,5,-1,53,0,0,0,79,82,136,120,52,153.79,267,83.00,7.00,-990.00
2024-06-07 14:27:47.449617,4,-1,53,0,0,0,79,82,136,120,52,153.88,267,92.00,73.00,-937.00
2024-06-07 14:27:47.568904,4,-2,53,0,0,0,79,82,136,120,52,153.94,267,90.00,44.00,-1007.00
2024-06-07 14:27:47.656067,4,-2,53,0,0,0,79,82,135,120,52,153.95,268,46.00,50.00,-1015.00
2024-06-07 14:27:47.755331,4,-2,53,0,0,0,79,82,136,120,52,153.86,268,57.00,16.00,-1001.00
2024-06-07 14:27:47.875277,4,-2,53,0,0,0,79,82,136,120,52,153.76,268,93.00,11.00,-1027.00
2024-06-07 14:27:47.959500,4,-1,53,0,0,0,81,82,137,120,52,153.75,268,100.00,0.00,-980.00
2024-06-07 14:27:48.080908,5,0,53,0,0,0,81,82,136,120,52,153.82,268,108.00,-3.00,-1017.00
2024-06-07 14:27:48.163332,5,0,53,0,0,0,81,82,136,120,52,153.90,268,101.00,39.00,-988.00
2024-06-07 14:27:48.265144,6,-1,53,0,0,0,81,82,138,120,52,153.91,268,113.00,4.00,-1003.00
2024-06-07 14:27:48.389334,5,-1,53,0,0,0,81,82,137,120,52,153.90,268,77.00,13.00,-1046.00
2024-06-07 14:27:48.469384,-1,-1,53,0,0,0,81,82,137,120,52,153.84,268,78.00,0.00,-1005.00
2024-06-07 14:27:48.592670,-4,-1,53,0,0,0,81,82,139,120,52,153.91,268,48.00,26.00,-1000.00
2024-06-07 14:27:48.673125,-4,0,53,1,2,0,81,82,137,120,52,153.87,269,23.00,38.00,-996.00
2024-06-07 14:27:48.797238,-4,-1,53,2,3,0,81,82,139,120,52,153.89,269,-9.00,43.00,-994.00
2024-06-07 14:27:48.877771,-3,-1,53,2,4,0,81,82,138,120,52,153.93,269,44.00,23.00,-999.00
2024-06-07 14:27:48.979275,-3,-1,53,3,4,0,80,82,138,120,52,153.97,269,14.00,40.00,-961.00
2024-06-07 14:27:49.105081,-2,-1,53,3,5,0,80,82,136,120,52,153.94,269,12.00,47.00,-970.00
2024-06-07 14:27:49.183122,-1,-2,53,4,6,0,80,82,137,120,52,153.90,269,-20.00,30.00,-957.00
2024-06-07 14:27:49.308594,0,-2,53,4,6,0,80,82,136,120,52,153.92,269,-2.00,43.00,-984.00
2024-06-07 14:27:49.387207,3,-2,53,4,6,0,80,82,137,120,52,154.00,269,12.00,39.00,-986.00
2024-06-07 14:27:49.489235,6,-2,53,4,5,0,80,82,136,120,52,153.97,269,27.00,37.00,-1020.00
2024-06-07 14:27:49.616154,7,-2,53,3,5,0,80,82,137,120,52,153.95,269,23.00,17.00,-1032.00
2024-06-07 14:27:49.695200,7,-2,53,3,4,0,80,82,136,120,52,153.99,270,34.00,44.00,-1021.00
2024-06-07 14:27:49.795114,7,-2,53,2,3,0,80,82,137,120,52,153.98,270,70.00,25.00,-962.00
2024-06-07 14:27:49.925836,7,-2,53,2,3,0,80,82,135,120,52,153.96,270,28.00,35.00,-1017.00
2024-06-07 14:27:49.999770,5,-1,53,2,2,0,79,82,136,120,52,153.94,270,49.00,28.00,-1014.00
2024-06-07 14:27:50.128847,5,-1,53,1,2,0,79,82,135,120,52,153.96,270,65.00,41.00,-993.00
2024-06-07 14:27:50.203063,4,-1,53,1,2,0,79,82,136,120,52,153.94,270,79.00,15.00,-976.00
2024-06-07 14:27:50.332702,7,0,53,1,2,0,79,82,136,120,52,154.01,270,43.00,41.00,-977.00
2024-06-07 14:27:50.356093,8,-1,53,1,2,0,79,82,136,120,52,154.02,270,63.00,-6.00,-1004.00
2024-06-07 14:27:50.538335,8,-2,53,0,1,0,79,82,135,120,52,153.92,270,104.00,-8.00,-1028.00
2024-06-07 14:27:50.561575,7,-1,54,0,0,0,79,82,135,120,52,153.77,270,81.00,2.00,-1019.00
2024-06-07 14:27:50.672517,6,0,53,0,0,0,79,82,134,120,52,153.97,271,83.00,30.00,-976.00
2024-06-07 14:27:50.765384,5,0,54,0,0,0,79,82,133,120,52,153.90,271,93.00,2.00,-996.00
2024-06-07 14:27:50.947561,5,-1,53,0,0,0,79,82,134,120,52,153.91,271,86.00,23.00,-1011.00
2024-06-07 14:27:50.970604,6,0,53,0,0,0,80,82,134,120,52,153.95,271,66.00,30.00,-1005.00
2024-06-07 14:27:51.071321,6,0,53,0,0,0,80,82,133,120,52,153.93,271,123.00,26.00,-940.00
2024-06-07 14:27:51.258875,6,0,53,0,0,0,80,82,134,120,52,153.91,271,95.00,24.00,-990.00
2024-06-07 14:27:51.275118,6,0,53,0,0,0,80,82,134,120,52,153.93,271,90.00,15.00,-970.00
2024-06-07 14:27:51.377271,5,-1,53,0,0,0,80,82,133,120,52,153.87,271,98.00,47.00,-1009.00
2024-06-07 14:27:51.479495,5,-1,53,0,0,0,80,82,133,120,52,153.82,271,69.00,33.00,-1013.00
2024-06-07 14:27:51.664754,5,-1,53,0,0,0,80,82,133,120,52,153.83,271,46.00,46.00,-1005.00
2024-06-07 14:27:51.683052,5,-2,53,0,0,0,80,82,133,120,52,153.81,272,92.00,15.00,-1016.00
2024-06-07 14:27:51.868941,4,-2,53,0,0,0,80,82,133,120,52,153.91,272,48.00,6.00,-1007.00
2024-06-07 14:27:51.887291,4,0,53,0,0,0,80,82,133,120,52,153.89,272,47.00,36.00,-1025.00
2024-06-07 14:27:51.989147,4,0,53,0,0,0,80,82,133,120,52,153.93,272,82.00,22.00,-984.00
2024-06-07 14:27:52.176403,4,-1,53,0,0,0,80,82,132,120,52,153.71,272,76.00,32.00,-1002.00
2024-06-07 14:27:52.193122,4,-1,53,0,0,0,80,82,133,120,52,153.92,272,89.00,10.00,-990.00
2024-06-07 14:27:52.381053,4,0,53,0,0,0,80,82,134,120,52,153.84,272,97.00,19.00,-995.00
2024-06-07 14:27:52.396975,4,0,54,0,0,0,80,82,135,120,52,153.88,272,83.00,15.00,-1004.00
2024-06-07 14:27:52.499164,4,0,54,0,0,0,80,82,134,120,52,153.88,272,84.00,17.00,-970.00
2024-06-07 14:27:52.601202,5,0,53,0,0,0,80,82,135,120,52,153.94,272,96.00,28.00,-970.00
2024-06-07 14:27:52.792887,5,0,53,0,0,0,80,82,134,120,52,153.91,273,80.00,33.00,-948.00
2024-06-07 14:27:52.805944,8,-1,53,0,0,0,80,82,135,120,52,153.95,273,66.00,15.00,-1027.00
2024-06-07 14:27:52.998125,8,-1,53,0,0,0,80,82,137,120,52,153.95,273,94.00,19.00,-1016.00
2024-06-07 14:27:53.009255,8,0,53,0,0,0,80,82,136,120,52,153.85,273,71.00,38.00,-1019.00
2024-06-07 14:27:53.201785,8,0,53,-1,-1,0,80,82,136,120,52,153.89,273,92.00,24.00,-1038.00
2024-06-07 14:27:53.212891,8,-1,53,-1,-1,0,80,82,137,120,52,153.89,273,124.00,16.00,-986.00
2024-06-07 14:27:53.408067,8,0,53,-2,-1,0,80,82,137,120,52,154.04,273,113.00,43.00,-952.00
2024-06-07 14:27:53.419114,8,-1,53,-2,-1,0,80,82,138,120,52,153.92,273,118.00,62.00,-987.00
2024-06-07 14:27:53.519267,8,-1,53,-2,-2,0,80,82,139,120,52,153.86,273,97.00,24.00,-974.00
2024-06-07 14:27:53.675640,8,-1,53,-2,-2,0,80,82,136,120,52,153.90,273,168.00,19.00,-995.00
2024-06-07 14:27:53.722879,8,-1,53,-2,-2,0,80,82,137,120,52,153.75,274,88.00,21.00,-1037.00
2024-06-07 14:27:53.916870,8,-2,53,-2,-2,0,80,82,137,120,52,153.80,274,124.00,-15.00,-1033.00
2024-06-07 14:27:53.916903,8,-2,53,-2,-3,0,80,82,138,120,52,153.68,274,125.00,-9.00,-1027.00
2024-06-07 14:27:54.028982,8,-1,53,-2,-3,0,80,82,138,120,52,153.90,274,120.00,0.00,-1022.00
2024-06-07 14:27:54.223812,8,-1,53,-2,-4,0,80,82,139,120,52,153.94,274,98.00,29.00,-1022.00
2024-06-07 14:27:54.232864,8,-1,53,-2,-4,0,80,82,139,120,52,153.95,274,83.00,61.00,-986.00
2024-06-07 14:27:54.283880,4,-1,53,-3,-4,0,80,82,139,120,52,154.01,274,107.00,33.00,-982.00
2024-06-07 14:27:54.428534,1,-2,53,-3,-3,0,80,82,139,120,52,154.02,274,116.00,33.00,-979.00
2024-06-07 14:27:54.488083,1,-3,54,-2,-3,0,80,82,139,120,52,153.92,274,70.00,51.00,-1015.00
2024-06-07 14:27:54.590145,2,-3,53,-2,-2,0,80,82,141,120,52,153.97,274,120.00,25.00,-964.00
2024-06-07 14:27:54.691960,4,-2,53,-1,-2,0,80,82,142,120,52,154.05,275,119.00,43.00,-937.00
2024-06-07 14:27:54.840200,5,-2,53,-1,-2,0,80,82,143,120,52,153.99,275,123.00,26.00,-985.00
2024-06-07 14:27:54.896655,5,-2,53,-1,-2,0,80,82,142,120,52,153.92,275,102.00,35.00,-960.00
2024-06-07 14:27:55.046791,5,-1,53,-1,-2,0,80,82,141,120,52,153.90,275,146.00,5.00,-983.00
2024-06-07 14:27:55.099854,6,-1,53,-1,-2,0,80,82,141,120,52,153.97,275,104.00,31.00,-974.00
2024-06-07 14:27:55.201829,6,-1,53,-1,-1,0,80,82,141,120,52,154.01,275,134.00,26.00,-1021.00
2024-06-07 14:27:55.304208,6,-2,53,-1,-1,0,80,82,140,120,52,153.90,275,94.00,52.00,-1003.00
2024-06-07 14:27:55.405780,6,-2,53,-1,-2,0,80,82,140,120,52,153.94,275,89.00,35.00,-1021.00
2024-06-07 14:27:55.507722,5,-2,53,-1,-2,0,80,82,141,120,52,153.95,275,111.00,44.00,-1000.00
2024-06-07 14:27:55.609893,5,-3,53,-1,-2,0,80,82,140,120,52,153.90,275,61.00,71.00,-965.00
2024-06-07 14:27:55.760436,5,-3,53,-1,-1,0,80,82,140,120,52,153.91,276,108.00,36.00,-987.00
2024-06-07 14:27:55.813782,5,-5,53,-1,-1,0,80,82,138,120,52,153.91,276,115.00,49.00,-973.00
2024-06-07 14:27:55.915794,5,-4,53,0,-2,0,80,82,138,120,52,153.90,276,70.00,42.00,-1034.00
2024-06-07 14:27:56.067315,5,-3,53,0,-2,0,80,82,137,120,52,153.88,276,107.00,31.00,-1024.00
2024-06-07 14:27:56.120917,5,-3,53,0,-2,0,80,82,137,120,52,153.89,276,86.00,47.00,-989.00
2024-06-07 14:27:56.221763,2,0,54,0,-2,0,80,82,135,120,52,153.92,276,107.00,40.00,-979.00
2024-06-07 14:27:56.374469,0,0,54,0,-1,0,80,82,134,120,52,153.90,276,82.00,41.00,-1031.00
2024-06-07 14:27:56.425916,2,0,54,0,0,0,80,82,135,120,52,153.91,276,109.00,49.00,-959.00
2024-06-07 14:27:56.530616,4,-1,53,0,0,0,80,82,133,120,52,153.87,276,91.00,7.00,-995.00
2024-06-07 14:27:56.629922,4,-1,53,0,0,0,80,82,134,120,52,153.87,276,101.00,37.00,-1004.00
2024-06-07 14:27:56.731950,4,-1,53,0,0,0,80,82,134,120,52,153.87,277,101.00,13.00,-995.00
2024-06-07 14:27:56.886833,5,-1,53,0,0,0,80,82,133,120,52,153.89,277,93.00,19.00,-983.00
2024-06-07 14:27:56.935825,5,-1,54,0,0,0,80,82,134,120,52,153.89,277,89.00,25.00,-986.00
2024-06-07 14:27:57.091456,4,-2,53,0,0,0,80,82,134,120,52,153.87,277,65.00,43.00,-1018.00
2024-06-07 14:27:57.139812,4,-2,53,0,0,0,80,82,134,120,52,153.82,277,62.00,43.00,-1021.00
2024-06-07 14:27:57.241862,3,-2,53,0,0,0,80,82,133,120,52,153.81,277,96.00,26.00,-992.00
2024-06-07 14:27:57.404577,3,-1,53,0,0,0,80,82,135,120,52,153.94,277,50.00,64.00,-986.00
2024-06-07 14:27:57.445781,3,-2,53,0,0,0,80,82,135,120,52,153.88,277,64.00,46.00,-983.00
2024-06-07 14:27:57.547852,3,-2,54,0,0,0,80,82,135,120,52,153.93,277,69.00,22.00,-1000.00
2024-06-07 14:27:57.649820,3,-1,53,0,0,0,80,82,136,120,52,153.93,278,44.00,37.00,-973.00
2024-06-07 14:27:57.808346,4,-1,53,0,0,0,80,82,136,120,52,153.89,278,59.00,40.00,-979.00
2024-06-07 14:27:57.853809,4,-1,53,0,0,0,80,82,136,120,52,153.87,278,53.00,25.00,-1017.00
2024-06-07 14:27:58.018306,4,-1,53,0,0,0,80,82,135,120,52,153.86,278,72.00,32.00,-990.00
2024-06-07 14:27:58.059453,4,-1,53,0,0,0,79,82,136,120,52,153.87,278,61.00,21.00,-979.00
2024-06-07 14:27:58.160294,4,-1,53,0,0,0,79,82,136,120,52,153.91,278,66.00,38.00,-1029.00
2024-06-07 14:27:58.217694,4,-1,53,0,0,0,79,82,136,120,52,153.87,278,64.00,32.00,-1001.00
2024-06-07 14:27:58.314324,4,-1,53,0,0,0,79,82,136,120,52,153.95,278,54.00,37.00,-981.00
2024-06-07 14:27:58.414638,4,-1,53,0,0,0,79,82,138,120,52,153.87,278,65.00,22.00,-998.00
2024-06-07 14:27:58.516644,4,-3,53,0,0,0,79,82,137,120,52,153.91,278,68.00,51.00,-985.00
2024-06-07 14:27:58.619385,3,-8,53,0,0,0,79,82,139,120,52,153.87,279,96.00,-7.00,-1009.00
2024-06-07 14:27:58.722857,4,-7,53,1,0,0,79,82,138,120,52,153.87,279,63.00,54.00,-968.00
2024-06-07 14:27:58.822660,5,-7,53,2,-1,0,79,82,139,120,52,153.91,279,72.00,42.00,-1002.00
2024-06-07 14:27:58.935017,5,-5,53,3,-2,0,79,82,139,120,52,153.91,279,101.00,20.00,-1018.00
2024-06-07 14:27:59.026714,5,-1,53,3,-2,0,79,82,139,120,52,154.00,279,39.00,47.00,-1000.00
2024-06-07 14:27:59.128668,4,0,53,2,-2,0,79,82,139,120,52,153.98,279,56.00,79.00,-988.00
2024-06-07 14:27:59.241489,4,-1,53,2,-2,0,79,82,139,120,52,153.92,279,41.00,60.00,-1027.00
2024-06-07 14:27:59.332658,4,-1,53,2,-1,0,79,82,137,120,51,153.92,279,54.00,40.00,-964.00
2024-06-07 14:27:59.446612,4,-2,53,2,-1,0,79,82,137,120,51,153.96,279,76.00,31.00,-977.00
2024-06-07 14:27:59.537893,4,-2,53,2,-1,0,79,82,138,120,51,153.98,279,74.00,33.00,-1026.00
2024-06-07 14:27:59.639336,4,-2,53,2,-2,0,79,82,136,120,51,153.87,280,59.00,17.00,-1008.00
2024-06-07 14:27:59.740652,4,-1,53,2,-2,0,79,82,137,120,51,153.90,280,84.00,16.00,-1012.00
2024-06-07 14:27:59.859317,5,-1,53,2,-1,0,79,82,137,120,51,153.88,280,57.00,57.00,-976.00
2024-06-07 14:27:59.944877,5,-1,53,2,-1,0,79,82,135,120,51,153.91,280,52.00,46.00,-1030.00
2024-06-07 14:28:00.061808,5,-1,53,1,-1,0,79,82,135,120,51,153.90,280,76.00,30.00,-1003.00
2024-06-07 14:28:00.148549,5,0,53,2,-2,0,79,82,134,120,51,153.85,280,51.00,15.00,-1060.00
2024-06-07 14:28:00.270232,3,4,53,1,-1,0,79,82,136,120,51,153.85,280,69.00,65.00,-955.00
2024-06-07 14:28:00.352716,4,2,53,0,0,0,79,82,135,120,51,153.86,280,83.00,6.00,-986.00
2024-06-07 14:28:00.470451,4,0,53,0,0,0,79,82,134,120,51,153.93,280,83.00,-5.00,-1011.00
2024-06-07 14:28:00.556655,4,0,53,0,0,0,79,82,135,120,51,153.88,280,82.00,7.00,-1028.00
2024-06-07 14:28:00.675336,4,0,54,0,0,0,79,82,135,120,51,153.78,281,71.00,33.00,-1000.00
2024-06-07 14:28:00.760711,4,-1,53,0,0,0,79,82,135,120,51,153.81,281,60.00,26.00,-1021.00
2024-06-07 14:28:00.862553,3,-1,53,0,0,0,79,82,136,120,51,153.94,281,78.00,57.00,-970.00
2024-06-07 14:28:00.964803,3,-1,53,0,0,0,79,82,136,120,51,153.89,281,61.00,30.00,-982.00
2024-06-07 14:28:01.066796,3,-1,53,0,0,0,79,82,137,120,51,153.83,281,50.00,26.00,-1014.00
2024-06-07 14:28:01.188826,4,0,53,0,0,0,79,82,138,120,51,153.86,281,101.00,11.00,-972.00
2024-06-07 14:28:01.270549,4,-1,53,0,0,0,79,82,137,120,51,153.83,281,58.00,38.00,-974.00
2024-06-07 14:28:01.392241,4,0,53,0,0,0,79,82,137,120,51,153.96,281,44.00,15.00,-983.00
2024-06-07 14:28:01.474533,4,0,54,0,0,0,79,82,138,120,51,153.79,281,67.00,14.00,-1006.00
2024-06-07 14:28:01.596724,4,0,53,0,0,0,79,82,137,120,51,153.83,281,42.00,26.00,-972.00
2024-06-07 14:28:01.627622,4,0,53,0,0,0,79,82,139,120,51,153.83,282,64.00,2.00,-989.00
2024-06-07 14:28:01.729770,3,0,53,0,0,0,79,82,138,120,51,153.89,282,62.00,-15.00,-1014.00
2024-06-07 14:28:01.903999,4,0,53,0,0,0,79,82,138,120,51,153.81,282,68.00,-8.00,-991.00
2024-06-07 14:28:01.933544,3,0,53,0,0,0,79,82,139,120,51,153.97,282,58.00,8.00,-1021.00
2024-06-07 14:28:02.035880,3,0,53,0,0,0,79,82,138,120,51,154.06,282,58.00,25.00,-999.00
2024-06-07 14:28:02.211333,4,0,53,0,0,0,79,82,139,120,51,153.93,282,59.00,10.00,-971.00
2024-06-07 14:28:02.239501,4,0,53,0,0,0,79,82,139,120,51,153.92,282,91.00,7.00,-964.00
2024-06-07 14:28:02.356108,4,0,53,0,0,0,79,82,139,120,50,153.97,282,42.00,17.00,-999.00
2024-06-07 14:28:02.443486,3,0,53,0,0,0,79,82,138,120,50,153.94,282,40.00,10.00,-971.00
2024-06-07 14:28:02.545446,3,4,54,0,0,0,79,82,140,120,50,153.89,282,51.00,7.00,-1022.00
2024-06-07 14:28:02.647426,3,8,54,0,0,0,79,82,140,120,50,153.94,283,104.00,15.00,-946.00
2024-06-07 14:28:02.749328,4,5,54,-2,1,0,79,82,140,120,50,153.92,283,55.00,24.00,-1017.00
2024-06-07 14:28:02.928269,4,3,53,-2,1,0,79,82,138,120,50,153.87,283,34.00,7.00,-995.00
2024-06-07 14:28:02.953513,4,0,53,-3,2,0,79,82,137,120,50,153.82,283,48.00,10.00,-999.00
2024-06-07 14:28:03.132929,3,-1,53,-3,2,0,80,82,138,120,50,153.94,283,41.00,27.00,-1010.00
2024-06-07 14:28:03.157452,3,-2,53,-3,2,0,80,82,138,120,50,154.01,283,62.00,-15.00,-996.00
2024-06-07 14:28:03.337736,3,-1,53,-2,1,0,80,82,138,120,50,153.96,283,71.00,-2.00,-974.00
2024-06-07 14:28:03.361519,4,-1,53,-2,1,0,80,82,137,120,50,154.05,283,66.00,-41.00,-983.00
2024-06-07 14:28:03.542606,4,-1,53,-2,1,0,80,82,137,120,50,153.89,283,80.00,-10.00,-964.00
2024-06-07 14:28:03.567387,3,0,53,-2,1,0,80,82,136,120,50,153.94,283,71.00,-12.00,-1004.00
2024-06-07 14:28:03.667387,3,0,53,-2,1,0,80,82,136,120,50,153.86,284,52.00,21.00,-967.00
2024-06-07 14:28:03.769367,3,0,53,-2,1,0,80,82,135,120,50,153.90,284,60.00,15.00,-1011.00
2024-06-07 14:28:03.953302,4,0,53,-1,1,0,80,82,134,120,50,153.94,284,71.00,-9.00,-1036.00
2024-06-07 14:28:03.977188,5,0,53,-1,1,0,80,82,135,120,50,153.86,284,77.00,6.00,-963.00
2024-06-07 14:28:04.077543,6,-1,53,-2,1,0,80,81,135,120,50,153.90,284,80.00,8.00,-988.00
2024-06-07 14:28:04.178711,7,-2,53,-2,1,0,80,81,136,120,50,153.71,284,72.00,27.00,-1024.00
2024-06-07 14:28:04.368282,4,-3,53,-2,0,0,80,81,135,120,50,153.96,284,100.00,-10.00,-1010.00
2024-06-07 14:28:04.381348,2,-6,53,-1,0,0,80,81,134,120,50,153.86,284,57.00,11.00,-1022.00
2024-06-07 14:28:04.483422,3,-3,53,0,0,0,80,81,135,120,50,153.89,284,61.00,9.00,-992.00
2024-06-07 14:28:04.585426,3,-2,53,0,0,0,80,81,134,120,50,153.87,284,54.00,23.00,-1016.00
2024-06-07 14:28:04.771255,4,-1,53,0,0,0,80,81,135,120,50,153.89,285,61.00,6.00,-967.00
2024-06-07 14:28:04.789952,4,0,53,0,0,0,80,81,135,120,50,153.98,285,94.00,15.00,-941.00
2024-06-07 14:28:04.977872,4,0,53,0,0,0,80,81,135,120,50,153.91,285,64.00,1.00,-987.00
2024-06-07 14:28:04.993483,4,0,53,0,0,0,80,81,134,120,50,153.87,285,63.00,16.00,-991.00
2024-06-07 14:28:05.180897,4,0,53,0,0,0,78,82,134,120,50,153.90,285,67.00,41.00,-1004.00
2024-06-07 14:28:05.197465,4,-1,53,0,0,0,78,82,135,120,50,153.97,285,62.00,17.00,-1015.00
2024-06-07 14:28:05.385563,4,-1,53,0,0,0,78,82,134,120,50,153.86,285,73.00,22.00,-972.00
2024-06-07 14:28:05.401428,4,-1,53,0,0,0,78,82,134,120,50,153.88,285,35.00,21.00,-1015.00
2024-06-07 14:28:05.452594,4,-1,53,0,0,0,78,82,135,120,50,153.81,285,70.00,19.00,-1013.00
2024-06-07 14:28:05.554868,4,-1,53,0,0,0,78,82,135,120,50,153.82,285,97.00,12.00,-993.00
2024-06-07 14:28:05.657980,4,-1,53,0,0,0,78,82,135,120,50,153.93,286,50.00,20.00,-998.00
2024-06-07 14:28:05.758848,4,-1,53,0,0,0,78,82,135,120,50,153.88,286,47.00,20.00,-981.00
2024-06-07 14:28:05.860749,3,-1,53,0,0,0,78,82,136,120,50,153.92,286,58.00,23.00,-997.00
2024-06-07 14:28:05.962453,3,0,53,0,0,0,78,82,135,120,50,153.87,286,66.00,17.00,-1007.00
2024-06-07 14:28:06.064973,3,0,53,0,0,0,79,82,135,120,50,153.97,286,33.00,30.00,-1055.00
2024-06-07 14:28:06.166501,3,0,53,0,0,0,79,82,135,120,50,153.93,286,66.00,11.00,-1027.00
2024-06-07 14:28:06.307558,3,0,53,0,0,0,79,82,135,120,50,153.97,286,63.00,40.00,-987.00
2024-06-07 14:28:06.374865,3,-1,53,0,0,0,79,82,135,120,50,153.90,286,84.00,8.00,-1008.00
2024-06-07 14:28:06.473611,3,-1,53,0,0,0,79,82,135,120,50,153.89,286,62.00,8.00,-1022.00
2024-06-07 14:28:06.574532,3,-1,54,0,0,0,79,82,134,120,50,153.92,286,107.00,-44.00,-1025.00
2024-06-07 14:28:06.721285,3,0,59,0,0,0,79,82,134,120,50,153.87,287,35.00,39.00,-1007.00
2024-06-07 14:28:06.778442,4,0,65,0,0,0,79,82,133,120,50,154.01,287,56.00,0.00,-1005.00
2024-06-07 14:28:06.923714,3,0,71,0,0,0,79,82,132,120,50,153.89,287,79.00,-5.00,-1055.00
2024-06-07 14:28:06.982228,3,0,77,0,0,0,79,82,133,120,50,153.81,287,77.00,-18.00,-1009.00
2024-06-07 14:28:07.131041,3,0,83,0,0,0,80,82,134,120,50,153.85,287,65.00,9.00,-1004.00
2024-06-07 14:28:07.186840,3,0,89,0,0,0,80,82,132,120,50,153.91,287,47.00,-20.00,-1007.00
2024-06-07 14:28:07.330958,3,1,95,0,0,0,80,82,134,120,49,153.91,287,77.00,-38.00,-997.00
2024-06-07 14:28:07.391898,2,1,101,0,0,0,80,82,133,120,49,153.83,287,53.00,-35.00,-991.00
2024-06-07 14:28:07.492209,2,1,106,0,0,0,80,82,133,120,49,153.96,287,58.00,-21.00,-1006.00
2024-06-07 14:28:07.594551,2,2,112,0,0,0,80,82,133,120,49,153.93,287,18.00,-45.00,-1011.00
2024-06-07 14:28:07.740972,2,2,118,0,0,0,80,82,132,120,49,153.95,288,27.00,-34.00,-1008.00
2024-06-07 14:28:07.798399,1,2,124,0,0,0,80,82,132,120,49,153.97,288,-22.00,-27.00,-1018.00
2024-06-07 14:28:07.947195,1,2,130,0,0,0,80,82,133,120,49,154.04,288,-1.00,-27.00,-985.00
2024-06-07 14:28:08.002138,0,3,137,0,0,0,80,82,131,120,49,153.98,288,7.00,-58.00,-982.00
2024-06-07 14:28:08.150651,0,3,142,0,0,0,80,82,132,120,49,154.00,288,14.00,-52.00,-1033.00
2024-06-07 14:28:08.210641,0,3,149,0,0,0,80,82,132,120,49,153.96,288,-1.00,-65.00,-978.00
2024-06-07 14:28:08.309967,0,3,155,0,0,0,80,82,132,120,49,153.97,288,-10.00,-55.00,-1001.00
2024-06-07 14:28:08.410148,-1,3,161,0,0,0,80,82,131,120,49,154.02,288,0.00,-58.00,-976.00
2024-06-07 14:28:08.559802,-1,2,167,0,0,0,80,82,131,120,49,154.00,288,-42.00,-59.00,-1022.00
2024-06-07 14:28:08.614160,-2,2,173,0,0,0,80,82,131,120,49,153.98,288,-37.00,-35.00,-997.00
2024-06-07 14:28:08.764660,-2,2,179,0,0,0,80,82,130,120,49,153.95,289,-25.00,-50.00,-981.00
2024-06-07 14:28:08.818508,-2,2,-174,0,0,0,80,82,131,120,49,153.92,289,-38.00,-57.00,-1018.00
2024-06-07 14:28:08.920208,-2,2,-168,0,0,0,80,82,131,120,49,153.89,289,-43.00,-43.00,-966.00
2024-06-07 14:28:09.072633,-2,1,-162,0,0,0,80,82,131,120,49,153.84,289,-46.00,-17.00,-992.00
2024-06-07 14:28:09.131637,-3,1,-156,0,0,0,80,81,132,120,49,153.92,289,-49.00,-31.00,-1019.00
2024-06-07 14:28:09.226165,-3,1,-149,0,0,0,80,81,131,120,49,153.91,289,-57.00,-24.00,-1034.00
2024-06-07 14:28:09.380233,-3,1,-143,0,0,0,80,81,132,120,49,153.85,289,-67.00,8.00,-983.00
2024-06-07 14:28:09.430184,-3,0,-137,0,0,0,80,81,132,120,49,153.94,289,-56.00,-4.00,-970.00
2024-06-07 14:28:09.532355,-3,0,-131,0,0,0,80,81,132,120,49,153.90,289,-62.00,0.00,-1009.00
2024-06-07 14:28:09.585898,-3,0,-125,0,0,0,80,81,132,120,49,153.87,289,-66.00,14.00,-978.00
2024-06-07 14:28:09.688865,-3,0,-119,0,0,0,80,81,133,120,49,153.92,290,-53.00,0.00,-995.00
2024-06-07 14:28:09.788512,-3,0,-113,0,0,0,80,81,133,120,49,153.93,290,-45.00,15.00,-960.00
2024-06-07 14:28:09.891379,-3,-1,-107,0,0,0,80,81,134,120,49,153.88,290,-65.00,37.00,-1008.00
2024-06-07 14:28:09.991052,-3,-1,-101,0,0,0,80,81,133,120,49,154.02,290,-35.00,15.00,-974.00
2024-06-07 14:28:10.097622,-3,-1,-95,0,0,0,80,82,134,120,49,153.95,290,-54.00,32.00,-995.00
2024-06-07 14:28:10.195864,-3,-1,-89,0,0,0,80,82,136,120,49,153.97,290,-43.00,31.00,-1015.00
2024-06-07 14:28:10.300411,-3,-2,-83,0,0,0,80,82,136,120,49,153.92,290,-67.00,53.00,-999.00
2024-06-07 14:28:10.399318,-3,-2,-77,0,0,0,80,82,137,120,49,153.98,290,-39.00,46.00,-965.00
2024-06-07 14:28:10.502236,-2,-2,-71,0,0,0,80,82,138,120,49,154.07,290,-51.00,58.00,-968.00
2024-06-07 14:28:10.604974,-2,-3,-65,0,0,0,80,82,138,120,49,154.03,290,-14.00,43.00,-999.00
2024-06-07 14:28:10.710061,-2,-3,-60,0,0,0,80,82,138,120,49,154.01,291,0.00,29.00,-1033.00
2024-06-07 14:28:10.815701,-1,-3,-54,0,0,0,80,82,138,120,49,154.05,291,-64.00,64.00,-1016.00
2024-06-07 14:28:10.916485,-1,-3,-48,0,0,0,80,82,138,120,49,154.14,291,-33.00,70.00,-1020.00
2024-06-07 14:28:11.018132,-1,-3,-42,0,0,0,80,82,139,120,49,154.14,291,-31.00,58.00,-962.00
2024-06-07 14:28:11.119611,-1,-2,-36,0,0,0,79,82,140,120,49,154.22,291,-20.00,69.00,-997.00
2024-06-07 14:28:11.215033,-1,-3,-30,0,0,0,79,82,139,120,49,154.21,291,-29.00,77.00,-992.00
2024-06-07 14:28:11.324859,0,-3,-24,0,0,0,79,82,139,120,49,154.24,291,0.00,67.00,-977.00
2024-06-07 14:28:11.419028,0,-3,-18,0,0,0,79,82,138,120,49,154.19,291,9.00,66.00,-965.00
2024-06-07 14:28:11.534967,1,-3,-12,0,0,0,79,82,139,120,49,154.12,291,-10.00,76.00,-1016.00
2024-06-07 14:28:11.624119,1,-2,-5,0,0,0,79,82,138,120,49,154.12,291,30.00,54.00,-955.00
2024-06-07 14:28:11.725062,2,-2,0,0,0,0,79,82,139,120,49,154.11,292,26.00,60.00,-1003.00
2024-06-07 14:28:11.836530,2,-2,6,0,0,0,79,82,138,120,49,154.03,292,33.00,67.00,-997.00
2024-06-07 14:28:11.930406,3,-2,12,0,0,0,79,82,138,120,49,154.08,292,45.00,47.00,-1002.00
2024-06-07 14:28:12.042848,3,-1,18,0,0,0,79,82,138,120,49,153.97,292,28.00,52.00,-990.00
2024-06-07 14:28:12.133106,3,-1,30,0,0,0,79,82,136,120,49,154.00,292,91.00,26.00,-1016.00
2024-06-07 14:28:12.237444,3,0,36,0,0,0,79,82,136,120,49,154.01,292,49.00,12.00,-970.00
2024-06-07 14:28:12.336957,3,0,40,0,0,0,79,82,136,120,48,154.01,292,73.00,5.00,-1005.00
2024-06-07 14:28:12.450824,3,0,43,0,0,0,79,82,137,120,48,154.01,292,67.00,7.00,-1018.00
2024-06-07 14:28:12.540988,3,0,46,0,0,0,79,82,136,120,48,154.03,292,61.00,13.00,-1004.00
2024-06-07 14:28:12.642959,3,0,47,0,0,0,79,82,137,120,48,154.00,293,60.00,26.00,-979.00
2024-06-07 14:28:12.758462,4,0,49,0,0,0,79,82,135,120,48,153.99,293,65.00,17.00,-1017.00
2024-06-07 14:28:12.848046,4,0,50,0,0,0,79,82,135,120,48,153.85,293,39.00,-3.00,-968.00
2024-06-07 14:28:12.963013,4,0,51,0,0,0,79,82,136,120,48,153.97,293,67.00,11.00,-1025.00
2024-06-07 14:28:13.051210,4,0,52,0,0,0,79,82,135,120,48,153.93,293,58.00,13.00,-1017.00
2024-06-07 14:28:13.169650,4,0,52,0,0,0,80,82,133,120,48,153.96,293,65.00,9.00,-991.00
2024-06-07 14:28:13.255191,4,0,52,0,0,0,80,82,134,120,48,153.94,293,79.00,-5.00,-996.00
2024-06-07 14:28:13.373031,4,0,52,0,0,0,80,82,134,120,48,153.97,293,70.00,12.00,-1005.00
2024-06-07 14:28:13.459219,4,0,52,0,0,0,80,82,133,120,48,153.99,293,81.00,10.00,-1016.00
2024-06-07 14:28:13.584374,4,0,52,0,0,0,80,82,134,120,48,154.05,293,88.00,-14.00,-976.00
2024-06-07 14:28:13.611857,5,0,52,0,0,0,80,82,134,120,48,153.96,294,88.00,-9.00,-983.00
2024-06-07 14:28:13.783646,5,0,52,0,0,0,80,82,134,120,48,153.87,294,67.00,2.00,-1008.00
2024-06-07 14:28:13.815874,4,0,52,0,0,0,80,82,134,120,48,153.85,294,70.00,2.00,-998.00
2024-06-07 14:28:13.987440,4,0,52,0,0,0,80,82,135,120,48,153.94,294,69.00,4.00,-997.00
2024-06-07 14:28:14.020122,3,0,52,0,0,0,80,82,134,120,48,153.91,294,70.00,4.00,-998.00
2024-06-07 14:28:14.195173,3,0,52,0,0,0,80,81,135,120,48,153.85,294,109.00,6.00,-971.00
2024-06-07 14:28:14.224469,4,0,52,0,0,0,80,81,133,120,48,153.95,294,91.00,19.00,-1029.00
2024-06-07 14:28:14.398575,4,0,52,0,0,0,80,81,134,120,48,153.90,294,89.00,7.00,-982.00
2024-06-07 14:28:14.428392,4,0,52,0,0,0,80,81,133,120,48,153.89,294,85.00,-11.00,-998.00
2024-06-07 14:28:14.605151,4,-1,52,0,0,0,80,81,135,120,48,153.93,294,78.00,5.00,-1016.00
2024-06-07 14:28:14.636037,4,0,52,0,0,0,80,81,134,120,48,153.93,295,80.00,18.00,-995.00
2024-06-07 14:28:14.733910,4,0,52,0,0,0,80,81,135,120,48,153.93,295,51.00,8.00,-996.00
2024-06-07 14:28:14.835819,4,0,52,0,0,0,80,81,135,120,48,153.97,295,87.00,-15.00,-1002.00
2024-06-07 14:28:14.937982,4,0,52,0,0,0,80,81,134,120,48,154.01,295,72.00,-13.00,-972.00
2024-06-07 14:28:15.041514,3,0,52,0,0,0,80,81,134,120,48,153.99,295,52.00,0.00,-1023.00
2024-06-07 14:28:15.141893,3,0,52,0,0,0,79,82,133,120,48,153.87,295,42.00,-35.00,-986.00
2024-06-07 14:28:15.321759,2,1,47,0,0,0,79,82,133,120,48,154.00,295,77.00,-31.00,-1005.00
2024-06-07 14:28:15.345844,3,1,41,0,0,0,79,82,134,120,48,154.00,295,57.00,-19.00,-1000.00
2024-06-07 14:28:15.531462,3,1,35,0,0,0,79,82,133,120,48,153.97,295,67.00,-11.00,-998.00
2024-06-07 14:28:15.550123,3,0,29,0,0,0,79,82,134,120,48,153.87,295,38.00,9.00,-1015.00
2024-06-07 14:28:15.727796,3,0,23,0,0,0,79,82,134,120,48,153.83,296,82.00,37.00,-996.00
2024-06-07 14:28:15.755905,3,-1,17,0,0,0,79,82,133,120,48,153.98,296,27.00,32.00,-1040.00
2024-06-07 14:28:15.856398,3,-1,11,0,0,0,79,82,134,120,48,154.02,296,46.00,31.00,-977.00
2024-06-07 14:28:15.958367,2,-2,5,0,0,0,79,82,135,120,48,153.99,296,48.00,26.00,-968.00
2024-06-07 14:28:16.059839,2,-2,0,0,0,0,79,82,137,120,48,153.93,296,21.00,57.00,-1016.00
2024-06-07 14:28:16.240265,1,-2,-6,0,0,0,80,82,136,120,48,154.03,296,46.00,57.00,-1013.00
2024-06-07 14:28:16.263691,1,-2,-12,0,0,0,80,82,136,120,48,154.08,296,38.00,66.00,-983.00
2024-06-07 14:28:16.449812,1,-2,-18,0,0,0,80,82,136,120,47,154.08,296,11.00,69.00,-995.00
2024-06-07 14:28:16.467774,0,-3,-23,0,0,0,80,82,136,120,47,154.10,296,-3.00,61.00,-985.00
2024-06-07 14:28:16.654895,0,-3,-29,0,0,0,80,82,136,120,47,154.12,296,-13.00,63.00,-1003.00
2024-06-07 14:28:16.671848,0,-3,-35,0,0,0,80,82,135,120,47,154.02,297,17.00,44.00,-1023.00
2024-06-07 14:28:16.854228,0,-3,-41,0,0,0,80,82,136,120,47,154.08,297,-23.00,80.00,-982.00
2024-06-07 14:28:16.875857,-1,-3,-47,0,0,0,80,82,134,120,47,154.09,297,-10.00,64.00,-1012.00
2024-06-07 14:28:17.060979,-1,-3,-53,0,0,0,80,82,135,120,47,154.11,297,-7.00,67.00,-975.00
2024-06-07 14:28:17.083806,-1,-3,-59,0,0,0,80,82,135,120,47,154.10,297,-36.00,88.00,-1009.00
2024-06-07 14:28:17.181727,-1,-3,-65,0,0,0,80,81,135,120,47,154.07,297,22.00,69.00,-999.00
2024-06-07 14:28:17.326433,-1,-3,-71,0,0,0,80,81,135,120,47,154.05,297,-24.00,89.00,-982.00
2024-06-07 14:28:17.386018,-1,-3,-78,0,0,0,80,81,135,120,47,154.07,297,-12.00,78.00,-998.00
2024-06-07 14:28:17.488755,-2,-3,-84,0,0,0,80,81,134,120,47,154.01,297,-40.00,65.00,-1006.00
2024-06-07 14:28:17.590598,-2,-2,-90,0,0,0,80,81,135,120,47,153.94,297,-46.00,59.00,-1005.00
2024-06-07 14:28:17.777760,-2,-2,-96,0,0,0,80,81,134,120,47,153.92,298,-42.00,57.00,-995.00
2024-06-07 14:28:17.793852,-3,-1,-102,0,0,0,80,81,134,120,47,153.91,298,-53.00,39.00,-993.00
2024-06-07 14:28:17.845407,-3,0,-108,0,0,0,80,81,134,120,47,153.91,298,-77.00,35.00,-1021.00
2024-06-07 14:28:17.980824,-3,0,-114,0,0,0,80,81,135,120,47,153.84,298,-44.00,13.00,-975.00
2024-06-07 14:28:18.049986,-3,0,-120,0,0,0,80,81,134,120,47,153.89,298,-66.00,31.00,-985.00
2024-06-07 14:28:18.201880,-3,0,-126,0,0,0,79,82,134,120,47,153.83,298,-53.00,30.00,-985.00
2024-06-07 14:28:18.255124,-3,0,-132,0,0,0,79,82,134,120,47,153.89,298,-29.00,-22.00,-1016.00
2024-06-07 14:28:18.354591,-3,0,-138,0,0,0,79,82,134,120,47,153.87,298,-96.00,22.00,-1001.00
2024-06-07 14:28:18.456586,-3,0,-145,0,0,0,79,82,132,120,47,153.99,298,-17.00,-31.00,-1040.00
2024-06-07 14:28:18.594964,-3,0,-151,0,0,0,79,82,133,120,47,153.90,298,-97.00,-2.00,-973.00
2024-06-07 14:28:18.660912,-2,1,-157,0,0,0,79,82,132,120,47,154.04,299,-39.00,-25.00,-974.00
2024-06-07 14:28:18.799914,-2,1,-163,0,0,0,79,82,134,120,47,154.01,299,-54.00,-30.00,-942.00
2024-06-07 14:28:18.864697,-2,2,-169,0,0,0,79,82,134,120,47,153.95,299,-37.00,-30.00,-1006.00
2024-06-07 14:28:19.004433,-2,2,-175,0,0,0,79,82,132,120,47,153.97,299,-32.00,-34.00,-1011.00
2024-06-07 14:28:19.068586,-1,2,178,0,0,0,79,82,132,120,47,154.03,299,-20.00,-58.00,-1031.00
2024-06-07 14:28:19.209196,-1,2,172,0,0,0,79,82,133,120,47,154.02,299,-60.00,-36.00,-1031.00
2024-06-07 14:28:19.272539,0,2,166,0,0,0,79,82,133,120,47,154.09,299,-18.00,-44.00,-1001.00
2024-06-07 14:28:19.413904,0,3,160,0,0,0,79,82,134,120,47,154.09,299,-5.00,-59.00,-987.00
2024-06-07 14:28:19.476804,0,3,154,0,0,0,79,82,134,120,47,154.06,299,19.00,-70.00,-1032.00
2024-06-07 14:28:19.619838,0,3,149,0,0,0,79,82,135,120,47,154.07,299,4.00,-63.00,-971.00
2024-06-07 14:28:19.680611,0,3,143,0,0,0,79,82,135,120,47,154.17,300,33.00,-74.00,-1000.00
2024-06-07 14:28:19.782626,1,3,137,0,0,0,79,82,135,120,47,154.10,300,14.00,-40.00,-995.00
2024-06-07 14:28:19.927870,1,3,130,0,0,0,79,82,134,120,47,154.07,300,33.00,-65.00,-994.00
2024-06-07 14:28:19.986772,2,2,124,0,0,0,79,82,136,120,47,153.94,300,19.00,-32.00,-1007.00
2024-06-07 14:28:20.131570,2,2,118,0,0,0,79,82,136,120,47,154.00,300,12.00,-27.00,-976.00
2024-06-07 14:28:20.191621,2,2,113,0,0,0,79,82,135,120,47,154.02,300,35.00,-43.00,-989.00
2024-06-07 14:28:20.335770,3,2,107,0,0,0,79,82,135,120,47,154.03,300,29.00,-33.00,-976.00
2024-06-07 14:28:20.395911,3,2,100,0,0,0,79,82,135,120,47,154.00,300,38.00,-31.00,-996.00
2024-06-07 14:28:20.512345,2,2,94,0,0,0,79,82,134,120,47,153.97,300,92.00,-30.00,-1029.00
2024-06-07 14:28:20.599902,3,1,88,0,0,0,79,82,136,120,47,153.94,300,62.00,-31.00,-994.00
2024-06-07 14:28:20.700599,3,1,82,0,0,0,79,82,135,120,47,154.01,301,44.00,-16.00,-1015.00
2024-06-07 14:28:20.802575,3,0,75,0,0,0,79,82,134,120,47,154.06,301,68.00,-26.00,-1033.00
2024-06-07 14:28:20.952827,2,0,70,0,0,0,79,82,133,120,47,154.08,301,59.00,2.00,-1003.00
2024-06-07 14:28:21.006542,3,0,65,0,0,0,79,82,135,120,47,154.04,301,55.00,-15.00,-990.00
2024-06-07 14:28:21.155383,3,0,62,0,0,0,79,82,135,120,47,154.07,301,61.00,-3.00,-988.00
2024-06-07 14:28:21.210663,3,0,60,0,0,0,80,82,133,120,47,154.02,301,63.00,5.00,-1000.00
2024-06-07 14:28:21.328251,3,0,58,0,0,0,80,82,134,120,46,154.01,301,87.00,-18.00,-1001.00
2024-06-07 14:28:21.414844,3,0,56,0,0,0,80,82,133,120,46,153.97,301,64.00,1.00,-1013.00
2024-06-07 14:28:21.568076,3,0,55,0,0,0,80,82,131,120,46,153.94,301,42.00,27.00,-991.00
2024-06-07 14:28:21.624279,3,0,54,0,0,0,80,82,133,120,46,153.98,301,37.00,3.00,-998.00
2024-06-07 14:28:21.720682,3,0,54,0,0,0,80,82,133,120,46,154.01,302,47.00,31.00,-1001.00
2024-06-07 14:28:21.873066,3,0,54,0,0,0,80,82,133,120,46,154.03,302,48.00,34.00,-1036.00
2024-06-07 14:28:21.924643,3,0,54,0,0,0,80,82,134,120,46,154.08,302,75.00,2.00,-1007.00
2024-06-07 14:28:22.081974,3,0,53,0,0,0,80,82,133,120,46,154.00,302,50.00,15.00,-988.00
2024-06-07 14:28:22.128650,3,0,53,0,0,0,80,82,134,120,46,153.98,302,30.00,33.00,-1006.00
2024-06-07 14:28:22.283588,3,0,53,0,0,0,79,81,134,120,46,153.99,302,61.00,25.00,-1038.00
2024-06-07 14:28:22.334197,3,-1,53,0,0,0,79,81,133,120,46,153.97,302,40.00,37.00,-1020.00
2024-06-07 14:28:22.384148,3,-1,54,0,0,0,79,81,134,120,46,153.97,302,55.00,8.00,-974.00
2024-06-07 14:28:22.487399,3,-1,54,0,0,0,79,81,134,120,46,153.96,302,69.00,5.00,-1000.00
2024-06-07 14:28:22.589074,3,-1,54,0,0,0,79,81,135,120,46,153.97,302,66.00,13.00,-982.00
2024-06-07 14:28:22.690408,3,0,54,0,0,0,79,81,135,120,46,154.06,303,87.00,8.00,-1023.00
2024-06-07 14:28:22.794784,3,-1,54,0,0,0,79,81,136,120,46,153.96,303,58.00,18.00,-992.00
2024-06-07 14:28:22.893558,3,-1,54,0,0,0,79,81,136,120,46,154.04,303,85.00,1.00,-989.00
2024-06-07 14:28:22.999557,3,-1,54,0,0,0,79,81,136,120,46,153.99,303,80.00,-5.00,-987.00
2024-06-07 14:28:23.097686,3,-1,54,0,0,0,79,81,137,120,46,154.09,303,45.00,3.00,-983.00
2024-06-07 14:28:23.199618,3,0,53,0,0,0,78,82,136,120,46,154.03,303,35.00,15.00,-946.00
2024-06-07 14:28:23.305301,3,0,54,0,0,0,78,82,138,120,46,154.03,303,62.00,17.00,-983.00
2024-06-07 14:28:23.403550,3,-1,54,0,0,0,78,82,136,120,46,153.96,303,71.00,7.00,-986.00
2024-06-07 14:28:23.512282,3,-1,54,0,0,0,78,82,137,120,46,153.97,303,60.00,31.00,-1016.00
2024-06-07 14:28:23.612690,3,-1,54,0,0,0,78,82,136,120,46,154.08,303,76.00,39.00,-1000.00
2024-06-07 14:28:23.712216,3,-1,54,0,0,0,78,82,135,120,46,154.06,304,46.00,49.00,-995.00
2024-06-07 14:28:23.813148,3,-1,54,0,0,0,78,82,135,120,46,153.96,304,44.00,23.00,-973.00
2024-06-07 14:28:23.916470,3,-1,54,0,0,0,78,82,135,120,46,154.00,304,61.00,49.00,-1003.00
2024-06-07 14:28:24.018847,3,-1,54,0,0,0,78,82,136,120,46,153.98,304,55.00,0.00,-992.00
2024-06-07 14:28:24.117655,3,-1,54,0,0,0,78,82,135,120,46,154.01,304,69.00,12.00,-1011.00
2024-06-07 14:28:24.230790,3,-1,54,0,0,0,78,81,136,120,46,154.00,304,48.00,11.00,-1022.00
2024-06-07 14:28:24.321405,3,-1,54,0,0,0,78,81,136,120,46,153.97,304,96.00,-3.00,-990.00
2024-06-07 14:28:24.425054,4,-1,54,0,0,0,78,81,136,120,46,154.08,304,73.00,27.00,-968.00
2024-06-07 14:28:24.525515,4,-1,54,0,0,0,78,81,136,120,46,154.01,304,27.00,60.00,-981.00
2024-06-07 14:28:24.627472,4,0,54,0,0,0,78,81,136,120,46,154.04,304,79.00,23.00,-1013.00
2024-06-07 14:28:24.740286,4,-1,54,0,0,0,78,81,137,120,46,153.92,305,61.00,39.00,-966.00
2024-06-07 14:28:24.831406,4,0,54,0,0,0,78,81,136,120,46,153.97,305,78.00,12.00,-991.00
2024-06-07 14:28:24.944358,4,0,54,0,0,0,78,81,135,120,46,154.02,305,71.00,9.00,-990.00
2024-06-07 14:28:25.035320,4,0,54,0,0,0,78,81,136,120,46,153.97,305,87.00,14.00,-1005.00
2024-06-07 14:28:25.149509,4,0,54,0,0,0,78,81,135,120,46,153.86,305,78.00,12.00,-996.00
2024-06-07 14:28:25.239421,4,0,54,0,0,0,79,82,137,120,46,153.96,305,68.00,-7.00,-973.00
2024-06-07 14:28:25.354783,4,0,54,0,0,0,79,82,136,120,45,153.88,305,80.00,5.00,-1010.00
2024-06-07 14:28:25.447612,4,0,54,0,0,0,79,82,136,120,45,154.00,305,73.00,19.00,-935.00
2024-06-07 14:28:25.545352,4,0,54,0,0,0,79,82,137,120,45,153.93,305,63.00,12.00,-1000.00
2024-06-07 14:28:25.648276,4,0,54,0,0,0,79,82,136,120,45,153.91,306,114.00,7.00,-978.00
2024-06-07 14:28:25.762974,4,0,54,0,0,0,79,82,134,120,45,153.91,306,86.00,0.00,-989.00
2024-06-07 14:28:25.851455,4,0,54,0,0,0,79,82,137,120,45,153.92,306,50.00,30.00,-1010.00
2024-06-07 14:28:25.971183,4,0,54,0,0,0,79,82,135,120,45,153.97,306,44.00,14.00,-1022.00
2024-06-07 14:28:26.004692,4,0,54,0,0,0,79,82,134,120,45,153.97,306,56.00,18.00,-992.00
2024-06-07 14:28:26.173522,4,0,54,0,0,0,79,82,136,120,45,153.96,306,69.00,-1.00,-1007.00
2024-06-07 14:28:26.210219,4,0,54,0,0,0,80,81,135,120,45,153.98,306,82.00,-1.00,-971.00
2024-06-07 14:28:26.310275,4,0,54,0,0,0,80,81,136,120,45,154.00,306,54.00,10.00,-994.00
2024-06-07 14:28:26.485325,4,0,54,0,0,0,80,81,135,120,45,153.87,306,53.00,20.00,-1014.00
2024-06-07 14:28:26.514247,4,0,54,0,0,0,80,81,136,120,45,153.94,306,58.00,10.00,-1007.00
2024-06-07 14:28:26.616407,4,0,54,0,0,0,80,81,136,120,45,154.00,307,59.00,10.00,-1026.00
2024-06-07 14:28:26.721947,3,0,54,0,0,0,80,81,135,120,45,153.94,307,79.00,2.00,-992.00
2024-06-07 14:28:26.820399,4,0,54,0,0,0,80,81,135,120,45,153.94,307,51.00,18.00,-1017.00
2024-06-07 14:28:26.994041,4,0,54,0,0,0,80,81,135,120,45,153.92,307,28.00,28.00,-986.00
2024-06-07 14:28:27.024281,4,0,54,0,0,0,80,81,135,120,45,153.89,307,39.00,21.00,-1017.00
2024-06-07 14:28:27.196705,3,0,54,0,0,0,80,81,135,120,45,153.92,307,31.00,4.00,-966.00
2024-06-07 14:28:27.228293,3,0,54,0,0,0,80,81,135,120,45,153.99,307,62.00,4.00,-991.00
2024-06-07 14:28:27.335928,3,0,54,0,0,0,80,81,134,120,45,153.99,307,56.00,0.00,-1010.00
2024-06-07 14:28:27.432366,3,0,54,0,0,0,80,81,133,120,45,153.96,307,63.00,8.00,-969.00
2024-06-07 14:28:27.606206,4,0,54,0,0,0,80,81,134,120,45,153.97,307,52.00,32.00,-1000.00
2024-06-07 14:28:27.636302,3,0,54,0,0,0,80,81,133,120,45,153.92,308,42.00,11.00,-975.00
2024-06-07 14:28:27.812262,3,0,54,0,0,0,80,81,133,120,45,153.96,308,30.00,5.00,-1023.00
2024-06-07 14:28:27.840200,3,0,54,0,0,0,80,81,132,120,45,154.02,308,53.00,-7.00,-1018.00
2024-06-07 14:28:28.022877,3,0,54,0,0,0,80,81,133,120,45,154.01,308,61.00,-3.00,-996.00
2024-06-07 14:28:28.044204,3,0,54,0,0,0,80,81,133,120,45,153.97,308,80.00,18.00,-942.00
2024-06-07 14:28:28.220664,3,0,54,0,0,0,80,81,133,120,45,153.93,308,76.00,0.00,-986.00
2024-06-07 14:28:28.248807,3,0,54,0,0,0,79,81,132,120,45,153.98,308,41.00,0.00,-989.00
2024-06-07 14:28:28.425397,2,0,54,0,0,0,79,81,132,120,45,153.95,308,63.00,7.00,-1010.00
2024-06-07 14:28:28.452344,2,0,54,0,0,0,79,81,133,120,45,153.93,308,51.00,13.00,-953.00
2024-06-07 14:28:28.630780,3,0,54,0,0,0,79,81,133,120,45,153.98,308,34.00,16.00,-1008.00
2024-06-07 14:28:28.656537,3,0,54,0,0,0,79,81,133,120,45,153.93,309,39.00,21.00,-1008.00
2024-06-07 14:28:28.759551,3,0,54,0,0,0,79,81,132,120,45,154.00,309,47.00,37.00,-1022.00
2024-06-07 14:28:28.860470,3,0,54,0,0,0,79,81,134,120,45,153.94,309,39.00,8.00,-968.00
2024-06-07 14:28:28.962821,3,0,54,0,0,0,79,81,134,120,45,153.98,309,79.00,21.00,-995.00
2024-06-07 14:28:29.142548,3,0,54,0,0,0,79,81,133,120,45,153.97,309,62.00,3.00,-984.00
2024-06-07 14:28:29.166407,3,0,54,0,0,0,79,81,133,120,45,154.04,309,99.00,-16.00,-996.00
2024-06-07 14:28:29.350673,3,0,54,0,0,0,78,82,134,120,45,153.95,309,26.00,5.00,-1011.00
2024-06-07 14:28:29.370174,3,0,54,0,0,0,78,82,133,120,45,153.98,309,60.00,-8.00,-992.00
2024-06-07 14:28:29.554894,3,0,54,0,0,0,78,82,134,120,45,154.01,309,58.00,-9.00,-1034.00
2024-06-07 14:28:29.574223,3,0,54,0,0,0,78,82,133,120,45,153.94,309,42.00,15.00,-978.00
2024-06-07 14:28:29.676219,3,0,54,0,0,0,78,82,135,120,45,154.09,310,52.00,-13.00,-991.00
2024-06-07 14:28:29.727427,2,0,54,0,0,0,78,82,134,120,45,154.04,310,21.00,-11.00,-969.00
2024-06-07 14:28:29.862639,2,0,54,0,0,0,78,82,134,120,45,154.03,310,51.00,-3.00,-985.00
2024-06-07 14:28:29.931310,2,0,54,0,0,0,78,82,135,120,45,153.99,310,55.00,7.00,-1004.00
2024-06-07 14:28:30.067400,2,0,54,0,0,0,78,82,133,120,45,154.04,310,71.00,-5.00,-1033.00
2024-06-07 14:28:30.135142,2,0,54,0,0,0,78,82,134,120,45,154.02,310,26.00,7.00,-1004.00
2024-06-07 14:28:30.270291,2,0,54,0,0,0,79,82,134,120,45,154.02,310,48.00,15.00,-991.00
2024-06-07 14:28:30.339385,2,0,54,0,0,0,79,82,135,120,45,154.07,310,61.00,12.00,-989.00
2024-06-07 14:28:30.475560,2,0,54,0,0,0,79,82,135,120,45,154.13,310,39.00,38.00,-1013.00
2024-06-07 14:28:30.544555,3,0,54,0,0,0,79,82,135,120,45,154.03,310,37.00,21.00,-1002.00
2024-06-07 14:28:30.645372,3,0,54,0,0,0,79,82,134,120,45,154.03,311,43.00,24.00,-957.00
2024-06-07 14:28:30.782916,3,-1,54,0,0,0,79,82,134,120,45,154.07,311,41.00,10.00,-1025.00
2024-06-07 14:28:30.849551,2,-1,54,0,0,0,79,82,134,120,45,154.03,311,76.00,21.00,-968.00
2024-06-07 14:28:30.985426,3,-1,54,0,0,0,79,82,136,120,45,154.06,311,51.00,31.00,-1026.00
2024-06-07 14:28:31.053228,2,-1,54,0,0,0,79,82,136,120,45,154.01,311,45.00,18.00,-1012.00
2024-06-07 14:28:31.155380,2,-1,54,0,0,0,79,82,136,120,45,154.05,311,46.00,16.00,-994.00
2024-06-07 14:28:31.292919,2,-1,54,0,0,0,80,81,135,120,45,154.06,311,40.00,18.00,-1001.00
2024-06-07 14:28:31.359432,2,-1,54,0,0,0,80,81,136,120,45,154.03,311,50.00,4.00,-987.00
2024-06-07 14:28:31.499013,2,-1,54,0,0,0,80,81,135,120,45,154.09,311,39.00,14.00,-1006.00
2024-06-07 14:28:31.563163,2,-1,54,0,0,0,80,81,137,120,45,154.01,311,55.00,-1.00,-1006.00
2024-06-07 14:28:31.666573,2,-1,54,0,0,0,80,81,137,120,45,154.05,312,55.00,12.00,-1029.00
2024-06-07 14:28:31.805253,2,-1,54,0,0,0,80,81,137,120,45,153.98,312,34.00,34.00,-997.00
2024-06-07 14:28:31.869257,2,-1,54,0,0,0,80,81,137,120,45,154.02,312,57.00,11.00,-962.00
2024-06-07 14:28:31.971192,2,-1,54,0,0,0,80,81,137,120,45,154.03,312,52.00,6.00,-1002.00
2024-06-07 14:28:32.216272,2,-1,54,0,0,0,80,81,136,120,45,154.00,312,64.00,14.00,-1003.00
2024-06-07 14:28:32.216402,2,-1,54,0,0,0,80,81,137,120,45,154.07,312,46.00,12.00,-994.00
2024-06-07 14:28:32.277322,3,-1,54,0,0,0,79,81,136,120,44,154.07,312,29.00,42.00,-1005.00
2024-06-07 14:28:32.419343,3,0,54,0,0,0,79,81,136,120,44,154.11,312,37.00,29.00,-1047.00
2024-06-07 14:28:32.481239,3,0,54,0,0,0,79,81,135,120,44,154.05,312,53.00,8.00,-1014.00
2024-06-07 14:28:32.624038,3,0,54,0,0,0,79,81,137,120,44,154.04,312,53.00,23.00,-979.00
2024-06-07 14:28:32.687452,2,0,54,0,0,0,79,81,137,120,44,154.03,313,21.00,16.00,-997.00
2024-06-07 14:28:32.787446,3,0,54,0,0,0,79,81,137,120,44,154.12,313,74.00,22.00,-974.00
2024-06-07 14:28:32.932001,3,0,54,0,0,0,79,81,136,120,44,154.11,313,65.00,3.00,-1028.00
2024-06-07 14:28:32.991488,3,0,54,0,0,0,79,81,137,120,44,154.06,313,32.00,19.00,-1000.00
2024-06-07 14:28:33.137544,2,0,54,0,0,0,79,81,136,120,44,154.04,313,59.00,-1.00,-977.00
2024-06-07 14:28:33.198689,2,0,54,0,0,0,79,81,135,120,44,154.06,313,29.00,6.00,-998.00
2024-06-07 14:28:33.298003,2,0,54,0,0,0,79,81,136,120,44,153.99,313,39.00,5.00,-1012.00
2024-06-07 14:28:33.399126,2,0,54,0,0,0,79,81,136,120,44,154.05,313,49.00,20.00,-992.00
2024-06-07 14:28:33.546241,2,0,54,0,0,0,79,81,134,120,44,154.05,313,30.00,35.00,-1021.00
2024-06-07 14:28:33.552761,3,0,54,0,0,0,79,81,135,120,44,154.10,313,47.00,-5.00,-1022.00
2024-06-07 14:28:33.654920,2,0,54,0,0,0,79,81,135,120,44,154.11,314,69.00,19.00,-1019.00
2024-06-07 14:28:33.854332,3,0,54,0,0,0,79,81,135,120,44,154.12,314,70.00,-5.00,-1030.00
2024-06-07 14:28:33.859339,3,0,54,0,0,0,79,81,134,120,44,154.15,314,41.00,38.00,-977.00
2024-06-07 14:28:34.060569,2,-1,54,0,0,0,79,81,133,120,44,154.10,314,79.00,2.00,-969.00
2024-06-07 14:28:34.064617,2,-1,54,0,0,0,79,81,135,120,44,153.96,314,55.00,-3.00,-1000.00
2024-06-07 14:28:34.164000,2,0,54,0,0,0,79,81,135,120,44,154.09,314,48.00,1.00,-988.00
2024-06-07 14:28:34.265972,2,0,54,0,0,0,79,81,135,120,44,154.10,314,50.00,4.00,-1009.00
2024-06-07 14:28:34.468322,2,0,54,0,0,0,79,81,135,120,44,154.15,314,28.00,18.00,-1004.00
2024-06-07 14:28:34.473838,2,0,54,0,0,0,79,81,134,120,44,154.11,314,53.00,15.00,-997.00
2024-06-07 14:28:34.572303,2,0,54,0,0,0,79,81,135,120,44,154.03,314,46.00,21.00,-1013.00
2024-06-07 14:28:34.673936,2,0,54,0,0,0,79,81,135,120,44,154.02,315,36.00,8.00,-970.00
2024-06-07 14:28:34.876454,2,0,54,0,0,0,79,81,135,120,44,154.11,315,44.00,11.00,-1008.00
2024-06-07 14:28:34.877932,2,0,54,0,0,0,79,81,135,120,44,154.11,315,-1.00,37.00,-998.00
2024-06-07 14:28:35.082236,2,0,54,0,0,0,79,81,134,120,44,154.12,315,39.00,-9.00,-997.00
2024-06-07 14:28:35.082400,2,0,54,0,0,0,79,81,134,120,44,154.04,315,56.00,4.00,-997.00
2024-06-07 14:28:35.187618,2,0,54,0,0,0,79,81,133,120,44,154.09,315,34.00,32.00,-968.00
2024-06-07 14:28:35.289155,2,0,54,0,0,0,80,82,134,120,44,154.03,315,44.00,11.00,-990.00
2024-06-07 14:28:35.390182,2,0,54,0,0,0,80,82,133,120,44,154.04,315,34.00,2.00,-1014.00
2024-06-07 14:28:35.491007,2,0,54,0,0,0,80,82,134,120,44,154.06,315,11.00,21.00,-988.00
2024-06-07 14:28:35.593943,2,0,54,0,0,0,80,82,132,120,44,154.08,315,47.00,-7.00,-1000.00
2024-06-07 14:28:35.695495,2,0,54,0,0,0,80,82,132,120,44,154.05,316,51.00,8.00,-991.00
2024-06-07 14:28:35.798299,2,0,54,0,0,0,80,82,133,120,44,154.11,316,28.00,-1.00,-1008.00
2024-06-07 14:28:35.899970,2,0,54,0,0,0,80,82,134,120,44,154.07,316,21.00,15.00,-1002.00
2024-06-07 14:28:36.000863,2,0,54,0,0,0,80,82,133,120,44,154.08,316,81.00,0.00,-975.00
2024-06-07 14:28:36.101871,2,0,54,0,0,0,80,82,134,120,44,154.08,316,23.00,26.00,-1014.00
2024-06-07 14:28:36.212328,1,0,54,0,0,0,80,82,134,120,44,154.07,316,31.00,2.00,-990.00
