TS,pitch,roll,yaw,vgx,vgy,vgz,templ,temph,tof,h,bat,baro,time,agx,agy,agz
2024-05-17 16:55:13.087795,0,0,-1,0,0,0,73,76,10,0,67,190.68,111,11.00,6.00,-997.00
2024-05-17 16:55:13.117719,0,0,-1,0,0,0,73,76,10,0,67,190.66,111,9.00,6.00,-1001.00
2024-05-17 16:55:13.228715,0,0,-1,0,0,0,73,76,10,0,67,190.65,111,8.00,8.00,-1003.00
2024-05-17 16:55:13.321964,0,0,-1,0,0,0,73,76,10,0,67,190.70,111,11.00,7.00,-1000.00
2024-05-17 16:55:13.497186,0,0,-1,0,0,0,73,76,10,0,67,190.68,111,11.00,8.00,-999.00
2024-05-17 16:55:13.497374,0,0,-1,0,0,0,73,76,10,0,67,190.66,111,9.00,9.00,-1001.00
2024-05-17 16:55:13.576729,0,0,-1,0,0,0,73,76,10,0,67,190.63,111,10.00,8.00,-999.00
2024-05-17 16:55:13.702099,0,0,-1,0,0,0,73,76,10,0,67,190.65,111,11.00,8.00,-998.00
2024-05-17 16:55:13.780917,0,0,-1,0,0,0,73,76,10,0,67,190.66,111,12.00,7.00,-998.00
2024-05-17 16:55:13.906862,0,0,-1,0,0,0,73,76,10,0,67,190.69,111,11.00,6.00,-998.00
2024-05-17 16:55:13.985246,0,0,-1,0,0,0,73,76,10,0,67,190.65,111,9.00,8.00,-997.00
2024-05-17 16:55:14.111650,0,0,-1,0,0,0,73,76,10,0,67,190.65,111,9.00,7.00,-1001.00
2024-05-17 16:55:14.188835,0,0,-1,0,0,0,73,76,10,0,67,190.64,111,10.00,9.00,-1000.00
2024-05-17 16:55:14.316541,0,0,-1,0,0,0,73,76,10,0,67,190.65,111,11.00,8.00,-1004.00
2024-05-17 16:55:14.392821,0,0,-1,0,0,0,73,76,10,0,67,190.63,111,9.00,7.00,-1002.00
2024-05-17 16:55:14.494785,0,0,-1,0,0,0,73,76,10,0,67,190.62,111,10.00,8.00,-1000.00
2024-05-17 16:55:14.623591,0,0,-1,0,0,0,73,76,10,0,67,190.64,111,8.00,8.00,-1002.00
2024-05-17 16:55:14.698737,0,0,-1,0,0,0,73,76,10,0,67,190.62,111,9.00,7.00,-999.00
2024-05-17 16:55:14.832819,0,0,-1,0,0,0,73,76,10,0,67,190.63,111,10.00,8.00,-1000.00
2024-05-17 16:55:14.903095,0,0,-1,0,0,0,73,76,10,0,67,190.63,111,8.00,7.00,-1000.00
2024-05-17 16:55:15.036255,0,0,-1,0,0,0,73,76,10,0,67,190.61,111,10.00,7.00,-999.00
2024-05-17 16:55:15.106738,0,0,-1,0,0,0,73,76,10,0,67,190.61,111,8.00,8.00,-999.00
2024-05-17 16:55:15.238105,0,0,-1,0,0,0,73,76,10,0,67,190.63,111,8.00,8.00,-1001.00
2024-05-17 16:55:15.310879,0,0,-1,0,0,0,73,76,10,0,67,190.60,111,10.00,8.00,-1001.00
2024-05-17 16:55:15.442794,0,0,-1,0,0,0,73,76,10,0,67,190.57,111,10.00,7.00,-1002.00
2024-05-17 16:55:15.514772,0,0,-1,0,0,0,73,76,10,0,67,190.59,111,10.00,8.00,-999.00
2024-05-17 16:55:15.647738,0,0,-1,0,0,0,73,76,10,0,67,190.62,111,10.00,9.00,-997.00
2024-05-17 16:55:15.718859,0,0,-1,0,0,0,73,76,10,0,67,190.62,111,9.00,8.00,-999.00
2024-05-17 16:55:15.852477,0,0,-1,0,0,0,74,76,10,0,67,190.65,111,11.00,7.00,-999.00
2024-05-17 16:55:15.922745,0,0,-1,0,0,0,74,76,10,0,67,190.65,111,10.00,8.00,-1002.00
2024-05-17 16:55:16.057336,0,0,-1,0,0,0,74,76,10,0,67,190.60,111,10.00,7.00,-998.00
2024-05-17 16:55:16.126831,0,0,-1,0,0,0,74,76,10,0,67,190.64,111,10.00,7.00,-1003.00
2024-05-17 16:55:16.228543,0,0,-1,0,0,0,74,76,10,0,67,190.63,111,11.00,8.00,-1001.00
2024-05-17 16:55:16.364369,0,0,-1,0,0,0,74,76,10,0,67,190.63,112,11.00,7.00,-1002.00
2024-05-17 16:55:16.432554,0,0,-1,0,0,0,74,76,10,0,67,190.63,112,5.00,0.00,-998.00
2024-05-17 16:55:16.534499,0,0,-1,0,0,0,74,76,10,0,67,190.63,112,9.00,12.00,-998.00
2024-05-17 16:55:16.671531,0,0,-1,0,0,0,74,76,10,0,67,190.63,112,-3.00,-18.00,-1009.00
2024-05-17 16:55:16.738528,0,0,0,0,0,0,74,76,10,0,67,190.63,112,10.00,20.00,-1013.00
2024-05-17 16:55:16.876283,0,0,0,0,0,0,74,76,10,0,67,190.63,112,-10.00,-5.00,-976.00
2024-05-17 16:55:16.942598,1,-1,0,0,0,-1,74,76,10,0,67,190.63,112,2.00,0.00,-1139.00
2024-05-17 16:55:17.086820,0,0,0,0,0,-3,74,76,10,0,67,190.63,112,0.00,-13.00,-1346.00
2024-05-17 16:55:17.095459,0,0,0,0,0,-6,74,76,13,10,67,190.63,112,-10.00,-6.00,-1242.00
2024-05-17 16:55:17.286705,0,1,0,0,0,-8,74,76,20,20,67,190.78,112,-5.00,-7.00,-1101.00
2024-05-17 16:55:17.299364,0,1,0,0,0,-8,74,76,28,20,67,190.98,113,-9.00,0.00,-1032.00
2024-05-17 16:55:17.401960,0,1,0,0,0,-8,74,76,36,30,67,191.07,113,6.00,0.00,-988.00
2024-05-17 16:55:17.504008,0,0,0,0,0,-8,74,76,44,40,67,191.14,113,-10.00,2.00,-932.00
2024-05-17 16:55:17.606357,0,0,0,0,0,-7,74,76,50,50,67,191.15,113,-19.00,14.00,-892.00
2024-05-17 16:55:17.798329,0,0,0,0,0,-6,74,76,56,60,67,191.29,113,14.00,-28.00,-876.00
2024-05-17 16:55:17.809625,0,0,0,0,0,-4,74,77,61,60,67,191.23,113,-5.00,27.00,-884.00
2024-05-17 16:55:18.002688,0,0,0,0,0,-3,74,77,63,60,67,191.36,113,-17.00,29.00,-897.00
2024-05-17 16:55:18.013336,0,0,0,0,0,-2,74,77,65,70,67,191.35,113,-5.00,-8.00,-899.00
2024-05-17 16:55:18.115506,0,0,0,0,0,-1,74,77,66,70,67,191.33,113,32.00,-14.00,-931.00
2024-05-17 16:55:18.310023,0,0,0,0,0,-1,74,77,66,70,67,191.36,113,1.00,-2.00,-951.00
2024-05-17 16:55:18.319322,0,0,0,0,0,0,74,77,67,70,67,191.40,114,-5.00,0.00,-990.00
2024-05-17 16:55:18.514658,0,0,0,0,0,0,74,77,67,70,67,191.34,114,-6.00,11.00,-986.00
2024-05-17 16:55:18.523321,0,0,0,0,0,0,74,77,67,70,67,191.38,114,-15.00,3.00,-997.00
2024-05-17 16:55:18.724417,0,0,0,0,0,0,74,77,67,70,67,191.38,114,-6.00,2.00,-1019.00
2024-05-17 16:55:18.727294,0,0,0,0,0,0,74,77,68,70,67,191.38,114,-7.00,2.00,-1029.00
2024-05-17 16:55:18.924276,0,0,0,0,0,-1,74,76,69,70,67,191.44,114,4.00,0.00,-1029.00
2024-05-17 16:55:18.932742,0,0,0,0,0,-1,74,76,70,70,67,191.42,114,-20.00,5.00,-1032.00
2024-05-17 16:55:19.033286,0,0,0,0,0,-1,74,76,71,70,67,191.44,114,0.00,7.00,-1009.00
2024-05-17 16:55:19.234459,0,0,0,0,0,-1,74,76,72,70,67,191.50,114,-1.00,4.00,-1021.00
2024-05-17 16:55:19.237206,0,0,0,0,0,-1,74,76,74,70,67,191.46,114,-14.00,13.00,-996.00
2024-05-17 16:55:19.436674,0,0,0,0,0,-1,74,76,75,80,67,191.44,115,6.00,10.00,-1022.00
2024-05-17 16:55:19.441273,0,0,0,0,0,-1,74,76,76,80,67,191.45,115,-8.00,1.00,-997.00
2024-05-17 16:55:19.641061,0,0,0,0,0,-1,74,76,78,80,67,191.49,115,4.00,-12.00,-981.00
2024-05-17 16:55:19.646770,0,0,0,0,0,-1,74,76,79,80,67,191.63,115,-2.00,-4.00,-984.00
2024-05-17 16:55:19.845894,0,0,0,0,0,0,74,76,80,80,67,191.50,115,-18.00,29.00,-1003.00
2024-05-17 16:55:19.850483,0,0,0,0,0,0,73,76,81,80,67,191.52,115,-11.00,-7.00,-965.00
2024-05-17 16:55:20.050680,0,0,0,0,0,0,73,76,82,80,67,191.53,115,-12.00,1.00,-994.00
2024-05-17 16:55:20.054462,0,0,0,0,0,0,73,76,83,80,67,191.52,115,-7.00,0.00,-980.00
2024-05-17 16:55:20.156452,0,0,0,0,0,0,73,76,83,80,67,191.51,115,0.00,-22.00,-996.00
2024-05-17 16:55:20.258410,0,0,0,0,0,0,73,76,84,80,67,191.56,115,-12.00,10.00,-987.00
2024-05-17 16:55:20.460268,0,0,0,0,0,0,73,76,84,80,67,191.54,116,14.00,8.00,-992.00
2024-05-17 16:55:20.462435,0,0,0,0,0,0,73,76,84,80,67,191.48,116,-3.00,-5.00,-992.00
2024-05-17 16:55:20.565219,0,0,0,0,0,0,73,76,84,80,67,191.54,116,-4.00,1.00,-993.00
2024-05-17 16:55:20.616454,0,0,0,0,0,0,73,76,84,80,67,191.53,116,-4.00,-7.00,-1004.00
2024-05-17 16:55:20.720234,0,0,0,0,0,0,73,76,85,80,67,191.59,116,1.00,-1.00,-982.00
2024-05-17 16:55:20.871177,0,0,0,0,0,0,73,75,85,80,67,191.54,116,-1.00,11.00,-999.00
2024-05-17 16:55:20.922349,0,0,0,0,0,0,73,75,85,80,67,191.57,116,-7.00,24.00,-1005.00
2024-05-17 16:55:21.074854,0,0,0,0,0,0,73,75,86,80,67,191.53,116,9.00,8.00,-986.00
2024-05-17 16:55:21.126407,0,0,0,0,0,0,73,75,86,90,67,191.46,116,2.00,16.00,-1006.00
2024-05-17 16:55:21.279460,0,0,0,0,0,0,73,75,86,90,67,191.47,116,21.00,6.00,-993.00
2024-05-17 16:55:21.333977,0,0,0,0,0,0,73,75,86,90,67,191.58,117,7.00,14.00,-994.00
2024-05-17 16:55:21.432325,0,0,0,0,0,0,73,75,86,90,67,191.56,117,5.00,15.00,-999.00
2024-05-17 16:55:21.586802,0,0,0,0,0,0,73,75,87,90,67,191.61,117,-23.00,31.00,-995.00
2024-05-17 16:55:21.636390,0,0,0,0,0,0,73,75,86,90,67,191.55,117,-7.00,13.00,-1022.00
2024-05-17 16:55:21.791666,0,0,0,0,0,0,73,75,87,90,67,191.54,117,6.00,16.00,-1000.00
2024-05-17 16:55:21.842068,0,-1,0,0,0,0,73,76,86,90,67,191.55,117,-2.00,14.00,-996.00
2024-05-17 16:55:21.942527,0,-1,0,0,0,0,73,76,86,90,67,191.56,117,-4.00,17.00,-1013.00
2024-05-17 16:55:22.044350,0,0,0,0,0,0,73,76,86,90,67,191.55,117,-7.00,22.00,-999.00
2024-05-17 16:55:22.201212,0,0,0,0,0,0,73,76,86,90,67,191.52,117,-15.00,15.00,-980.00
2024-05-17 16:55:22.248429,0,0,0,0,0,0,73,76,85,90,67,191.51,117,-24.00,16.00,-1034.00
2024-05-17 16:55:22.408465,0,0,0,0,0,0,73,76,85,80,67,191.56,118,-19.00,10.00,-993.00
2024-05-17 16:55:22.453113,0,-1,0,0,0,0,73,76,85,80,67,191.48,118,15.00,8.00,-1005.00
2024-05-17 16:55:22.610667,0,0,0,0,0,0,73,76,84,80,67,191.52,118,-7.00,13.00,-1004.00
2024-05-17 16:55:22.656312,0,0,0,0,0,0,73,76,84,80,67,191.51,118,-8.00,23.00,-1006.00
2024-05-17 16:55:22.815782,0,0,0,0,0,0,73,76,83,80,67,191.54,118,5.00,24.00,-989.00
2024-05-17 16:55:22.860230,0,0,0,0,0,0,73,75,83,80,67,191.43,118,-1.00,29.00,-1006.00
2024-05-17 16:55:23.020576,0,0,0,0,0,0,73,75,83,80,67,191.44,118,6.00,1.00,-990.00
2024-05-17 16:55:23.064325,0,-1,0,0,0,0,73,75,83,80,67,191.42,118,1.00,13.00,-1005.00
2024-05-17 16:55:23.225055,0,-1,0,0,0,0,73,75,83,80,67,191.49,118,-7.00,14.00,-1010.00
2024-05-17 16:55:23.268334,0,0,0,0,0,0,73,75,82,80,67,191.41,118,-3.00,14.00,-997.00
2024-05-17 16:55:23.429802,0,0,0,0,0,0,73,75,82,80,67,191.48,119,-7.00,21.00,-1007.00
2024-05-17 16:55:23.472209,0,0,0,0,0,0,73,75,82,80,67,191.44,119,5.00,1.00,-996.00
2024-05-17 16:55:23.574181,0,0,0,0,0,0,73,75,82,80,67,191.42,119,0.00,16.00,-990.00
2024-05-17 16:55:23.737768,0,0,0,0,0,0,73,75,82,80,67,191.43,119,-24.00,0.00,-973.00
2024-05-17 16:55:23.778283,0,0,0,0,0,0,73,75,83,80,67,191.48,119,-18.00,29.00,-1013.00
2024-05-17 16:55:23.942722,0,0,0,0,0,0,72,75,83,80,67,191.45,119,-5.00,4.00,-1016.00
2024-05-17 16:55:23.986495,0,0,0,0,0,0,72,75,82,80,67,191.45,119,-15.00,23.00,-998.00
2024-05-17 16:55:24.084300,0,0,0,0,0,0,72,75,82,80,67,191.52,119,-39.00,21.00,-1000.00
2024-05-17 16:55:24.186393,0,0,0,0,0,0,72,75,82,80,67,191.47,119,-14.00,13.00,-1001.00
2024-05-17 16:55:24.351881,0,-1,0,0,0,0,72,75,82,80,67,191.45,119,-3.00,8.00,-995.00
2024-05-17 16:55:24.390244,0,0,0,0,0,0,72,75,82,80,67,191.40,120,13.00,3.00,-1008.00
2024-05-17 16:55:24.441250,0,0,0,0,0,0,72,75,81,80,67,191.47,120,-18.00,20.00,-1006.00
2024-05-17 16:55:24.543060,0,0,0,0,0,0,72,75,82,80,67,191.53,120,3.00,2.00,-993.00
2024-05-17 16:55:24.645316,0,0,0,0,0,0,72,75,82,80,67,191.45,120,30.00,-1.00,-1036.00
2024-05-17 16:55:24.747941,0,0,0,0,0,0,72,75,81,80,67,191.49,120,-11.00,16.00,-996.00
2024-05-17 16:55:24.901318,0,0,0,0,0,0,73,74,81,80,67,191.44,120,-11.00,15.00,-1004.00
2024-05-17 16:55:25.004038,0,0,0,0,0,0,73,74,81,80,67,191.44,120,30.00,7.00,-1012.00
2024-05-17 16:55:25.054747,0,0,0,0,0,0,73,74,81,80,67,191.44,120,-3.00,16.00,-1003.00
2024-05-17 16:55:25.157403,0,0,0,0,0,0,73,74,81,80,67,191.48,120,-6.00,20.00,-1029.00
2024-05-17 16:55:25.259761,0,0,0,0,0,0,73,74,82,80,67,191.47,120,-3.00,23.00,-1012.00
2024-05-17 16:55:25.359835,0,0,0,0,0,0,73,74,82,80,67,191.43,121,0.00,12.00,-995.00
2024-05-17 16:55:25.464897,0,0,0,0,0,0,73,74,82,80,67,191.45,121,-1.00,4.00,-990.00
2024-05-17 16:55:25.564363,0,0,0,0,0,0,73,74,82,80,67,191.44,121,-14.00,14.00,-994.00
2024-05-17 16:55:25.666628,0,-1,0,0,0,0,73,74,82,80,67,191.36,121,9.00,17.00,-995.00
2024-05-17 16:55:25.775300,0,-1,0,0,0,0,73,74,82,80,67,191.48,121,-39.00,44.00,-991.00
2024-05-17 16:55:25.869051,0,0,0,0,0,0,72,74,82,80,67,191.39,121,-3.00,18.00,-989.00
2024-05-17 16:55:25.990222,0,0,0,0,0,0,72,74,82,80,67,191.41,121,2.00,34.00,-1033.00
2024-05-17 16:55:26.073206,0,0,0,0,0,0,72,74,83,80,67,191.47,121,-8.00,24.00,-976.00
2024-05-17 16:55:26.175518,0,0,0,0,0,0,72,74,83,80,67,191.42,121,1.00,25.00,-993.00
2024-05-17 16:55:26.297214,0,-1,0,0,0,0,72,74,83,80,67,191.50,121,-22.00,49.00,-1007.00
2024-05-17 16:55:26.379153,0,-1,0,0,0,0,72,74,83,80,67,191.43,122,-3.00,8.00,-993.00
2024-05-17 16:55:26.503450,0,0,0,0,0,0,72,74,83,80,67,191.43,122,-8.00,42.00,-989.00
2024-05-17 16:55:26.584502,0,0,0,0,0,0,72,74,83,80,67,191.45,122,-1.00,7.00,-997.00
2024-05-17 16:55:26.706787,0,0,0,0,0,0,72,74,83,80,67,191.42,122,16.00,13.00,-1007.00
2024-05-17 16:55:26.788306,0,0,0,0,0,0,72,74,83,80,67,191.46,122,-4.00,32.00,-1009.00
2024-05-17 16:55:26.904835,0,0,0,0,0,0,72,74,83,80,67,191.45,122,-15.00,30.00,-996.00
2024-05-17 16:55:26.992257,0,0,0,0,0,0,72,74,83,80,67,191.45,122,-7.00,17.00,-1001.00
2024-05-17 16:55:27.118184,0,0,0,0,0,0,72,74,83,80,67,191.45,122,-9.00,16.00,-1014.00
2024-05-17 16:55:27.196171,0,0,0,0,0,0,72,74,84,80,67,191.56,122,3.00,19.00,-1103.00
2024-05-17 16:55:27.321086,0,0,0,0,0,-1,72,74,85,80,67,191.55,122,-15.00,8.00,-1145.00
2024-05-17 16:55:27.400203,0,0,0,0,0,-2,72,74,87,80,67,191.51,123,-8.00,21.00,-1104.00
2024-05-17 16:55:27.526746,0,0,0,0,0,-3,72,74,91,90,67,191.56,123,2.00,12.00,-1079.00
2024-05-17 16:55:27.606192,0,0,0,0,0,-3,72,74,96,90,67,191.61,123,6.00,7.00,-1054.00
2024-05-17 16:55:27.706938,0,0,0,0,0,-4,72,74,99,100,67,191.66,123,-27.00,31.00,-1060.00
2024-05-17 16:55:27.808173,0,0,0,0,0,-5,72,74,104,100,67,191.69,123,2.00,11.00,-1032.00
2024-05-17 16:55:27.910242,0,0,0,0,0,-5,72,74,111,110,67,191.75,123,-14.00,12.00,-1016.00
2024-05-17 16:55:28.037882,0,0,0,0,0,-5,72,74,116,120,67,191.75,123,6.00,7.00,-986.00
2024-05-17 16:55:28.114219,0,0,0,0,0,-5,72,74,122,120,67,191.91,123,7.00,10.00,-1000.00
2024-05-17 16:55:28.242699,0,0,0,0,0,-5,72,74,128,130,67,191.98,123,2.00,-1.00,-983.00
2024-05-17 16:55:28.318135,0,0,0,0,0,-5,72,74,134,130,67,191.97,124,3.00,19.00,-972.00
2024-05-17 16:55:28.448598,0,0,0,0,0,-5,72,74,139,140,67,192.06,124,-1.00,-5.00,-948.00
2024-05-17 16:55:28.522105,0,0,0,0,0,-4,72,74,144,140,67,192.12,124,2.00,6.00,-956.00
2024-05-17 16:55:28.572903,0,0,0,0,0,-4,72,74,149,150,67,192.14,124,-3.00,3.00,-964.00
2024-05-17 16:55:28.754727,0,0,0,0,0,-4,72,74,154,150,67,192.12,124,-17.00,28.00,-974.00
2024-05-17 16:55:28.777831,0,0,0,0,0,-3,72,74,158,160,67,192.25,124,-29.00,55.00,-977.00
2024-05-17 16:55:28.878905,0,0,0,0,0,-3,71,74,162,160,67,192.26,124,3.00,18.00,-978.00
2024-05-17 16:55:29.070619,0,0,0,0,0,-3,71,74,165,160,67,192.26,124,12.00,1.00,-967.00
2024-05-17 16:55:29.082953,0,0,0,0,0,-2,71,74,169,170,67,192.27,124,9.00,9.00,-970.00
2024-05-17 16:55:29.267565,0,0,0,0,0,-2,71,74,172,170,67,192.34,124,11.00,26.00,-977.00
2024-05-17 16:55:29.287369,0,0,0,0,0,-2,71,74,174,170,67,192.35,125,29.00,17.00,-967.00
2024-05-17 16:55:29.471776,0,0,0,0,0,-1,71,74,177,170,67,192.38,125,-1.00,32.00,-975.00
2024-05-17 16:55:29.491006,0,-1,0,0,0,-1,71,74,179,180,67,192.44,125,6.00,18.00,-978.00
2024-05-17 16:55:29.593129,0,-1,0,0,0,-1,71,74,181,180,67,192.36,125,2.00,10.00,-974.00
2024-05-17 16:55:29.778789,0,-1,0,0,0,-1,71,74,182,180,67,192.42,125,28.00,13.00,-963.00
2024-05-17 16:55:29.797024,0,-1,0,0,0,0,71,74,183,180,67,192.47,125,10.00,9.00,-958.00
2024-05-17 16:55:29.983644,0,-1,0,0,0,0,71,74,184,180,67,192.42,125,5.00,19.00,-978.00
2024-05-17 16:55:30.000974,0,-1,0,0,0,0,71,74,184,180,67,192.46,125,16.00,11.00,-984.00
2024-05-17 16:55:30.188672,0,0,0,0,0,0,71,74,185,180,67,192.41,125,-6.00,14.00,-981.00
2024-05-17 16:55:30.205541,0,0,0,0,0,0,71,74,185,180,67,192.43,125,28.00,13.00,-980.00
2024-05-17 16:55:30.393400,0,0,0,0,0,0,71,74,185,180,67,192.48,126,15.00,19.00,-984.00
2024-05-17 16:55:30.408985,0,0,0,0,0,0,71,74,185,180,67,192.46,126,5.00,4.00,-1002.00
2024-05-17 16:55:30.598102,0,0,0,0,0,0,71,74,185,180,67,192.46,126,2.00,8.00,-1001.00
2024-05-17 16:55:30.613597,0,0,0,0,0,0,71,74,184,180,67,192.50,126,0.00,9.00,-1006.00
2024-05-17 16:55:30.796595,0,0,0,0,0,0,71,74,185,180,67,192.53,126,0.00,10.00,-989.00
2024-05-17 16:55:30.816827,0,0,0,0,0,0,71,74,184,180,67,192.54,126,-10.00,20.00,-1014.00
2024-05-17 16:55:31.010891,0,0,0,0,0,0,71,74,184,180,67,192.55,126,12.00,12.00,-1007.00
2024-05-17 16:55:31.020976,0,0,0,0,0,0,71,74,184,180,67,192.53,126,13.00,3.00,-1008.00
2024-05-17 16:55:31.123178,0,0,0,0,0,0,71,74,184,180,67,192.48,126,7.00,19.00,-1011.00
2024-05-17 16:55:31.314769,1,0,0,0,0,0,71,74,183,180,67,192.49,126,-24.00,27.00,-997.00
2024-05-17 16:55:31.326763,0,0,0,0,0,0,71,74,183,180,67,192.49,127,19.00,7.00,-1018.00
2024-05-17 16:55:31.519549,0,0,0,0,0,0,71,74,183,180,67,192.44,127,10.00,1.00,-987.00
2024-05-17 16:55:31.530906,0,0,0,0,0,0,71,74,183,180,67,192.56,127,-1.00,28.00,-1009.00
2024-05-17 16:55:31.633462,1,0,0,0,0,0,71,74,182,180,67,192.49,127,4.00,-3.00,-1008.00
2024-05-17 16:55:31.775434,1,0,0,0,0,0,71,74,183,180,67,192.47,127,19.00,7.00,-987.00
2024-05-17 16:55:31.836672,1,0,0,0,0,0,71,74,182,180,67,192.48,127,1.00,13.00,-973.00
2024-05-17 16:55:32.040221,0,0,0,0,0,0,71,74,181,180,67,192.43,127,0.00,17.00,-937.00
2024-05-17 16:55:32.045353,0,0,0,0,0,1,71,74,179,180,67,192.49,127,3.00,17.00,-934.00
2024-05-17 16:55:32.142649,0,0,0,0,0,1,71,74,178,180,67,192.50,127,19.00,-4.00,-960.00
2024-05-17 16:55:32.338589,0,0,0,0,0,2,71,74,176,180,67,192.40,127,-10.00,24.00,-960.00
2024-05-17 16:55:32.346674,0,0,0,0,0,2,71,74,173,170,67,192.44,128,31.00,-9.00,-980.00
2024-05-17 16:55:32.404938,1,0,0,0,0,2,71,74,171,170,67,192.33,128,-22.00,18.00,-989.00
2024-05-17 16:55:32.501117,1,0,0,0,0,2,71,74,168,170,67,192.44,128,-34.00,17.00,-992.00
2024-05-17 16:55:32.645827,1,0,0,0,0,2,71,74,165,170,67,192.26,128,46.00,-2.00,-1003.00
2024-05-17 16:55:32.703749,1,0,0,0,0,2,71,74,161,160,67,192.27,128,10.00,7.00,-1003.00
2024-05-17 16:55:32.850658,1,0,0,0,0,2,71,74,159,160,67,192.31,128,0.00,6.00,-990.00
2024-05-17 16:55:32.908811,1,0,0,0,0,2,71,73,156,160,67,192.26,128,26.00,2.00,-1016.00
2024-05-17 16:55:33.055376,1,0,0,0,0,2,71,73,153,150,67,192.15,128,11.00,15.00,-1009.00
2024-05-17 16:55:33.111878,1,0,0,0,0,2,71,73,150,150,67,192.05,128,30.00,10.00,-1014.00
2024-05-17 16:55:33.260579,1,0,0,0,0,2,71,73,148,150,67,192.18,128,-3.00,35.00,-1018.00
2024-05-17 16:55:33.316014,0,0,0,0,0,2,71,73,146,150,67,192.16,129,16.00,-13.00,-1001.00
2024-05-17 16:55:33.465000,0,0,0,0,0,1,71,73,145,150,67,192.09,129,-4.00,30.00,-1010.00
2024-05-17 16:55:33.522255,0,0,0,0,0,1,71,73,143,140,67,192.07,129,18.00,10.00,-1021.00
2024-05-17 16:55:33.622622,0,0,0,0,0,1,71,73,141,140,67,192.11,129,19.00,2.00,-1012.00
2024-05-17 16:55:33.772175,0,0,0,0,0,1,71,73,139,140,67,192.05,129,49.00,-4.00,-983.00
2024-05-17 16:55:33.826804,0,0,0,0,0,1,71,73,138,140,67,192.17,129,21.00,-10.00,-1010.00
2024-05-17 16:55:33.976929,0,0,0,0,0,1,71,73,137,140,67,192.05,129,12.00,15.00,-1036.00
2024-05-17 16:55:34.030875,0,0,0,0,0,1,71,73,135,140,67,192.02,129,6.00,21.00,-1005.00
2024-05-17 16:55:34.181932,0,0,0,0,0,0,71,73,135,140,67,192.00,129,32.00,-14.00,-1029.00
2024-05-17 16:55:34.237258,0,0,0,0,0,0,71,73,134,130,67,192.02,129,-11.00,42.00,-1044.00
2024-05-17 16:55:34.336667,0,0,0,0,0,0,71,73,135,130,67,192.04,130,4.00,3.00,-1007.00
2024-05-17 16:55:34.490186,0,0,0,0,0,0,71,73,133,130,67,191.99,130,24.00,-1.00,-1001.00
2024-05-17 16:55:34.541041,0,0,0,0,0,0,71,73,133,130,67,192.02,130,-9.00,6.00,-1024.00
2024-05-17 16:55:34.693987,0,0,0,0,0,0,71,73,133,130,67,192.04,130,0.00,29.00,-1004.00
2024-05-17 16:55:34.744637,0,0,0,0,0,0,71,73,133,130,67,192.02,130,2.00,-1.00,-984.00
2024-05-17 16:55:34.846744,0,0,0,0,0,0,71,73,133,130,67,192.01,130,10.00,22.00,-1014.00
2024-05-17 16:55:34.988475,0,0,0,0,0,0,71,73,133,130,67,192.08,130,-5.00,19.00,-1011.00
2024-05-17 16:55:35.050735,0,0,0,0,0,0,71,73,133,130,67,191.98,130,31.00,-13.00,-980.00
2024-05-17 16:55:35.206313,0,0,0,0,0,0,71,73,133,130,67,192.10,130,-11.00,31.00,-1012.00
2024-05-17 16:55:35.254915,0,0,0,0,0,0,71,73,133,130,67,192.04,130,-5.00,21.00,-1010.00
2024-05-17 16:55:35.410721,0,0,0,0,0,0,71,73,133,130,67,192.02,131,0.00,25.00,-992.00
2024-05-17 16:55:35.458589,0,0,0,0,0,0,71,73,133,130,67,192.06,131,-4.00,28.00,-994.00
2024-05-17 16:55:35.560867,0,0,0,0,0,0,71,73,133,130,67,192.07,131,-13.00,28.00,-1007.00
2024-05-17 16:55:35.717844,0,0,0,0,0,0,71,73,133,130,67,192.03,131,-15.00,27.00,-1003.00
2024-05-17 16:55:35.764704,0,0,0,0,0,0,71,73,133,130,67,192.06,131,-7.00,20.00,-988.00
2024-05-17 16:55:35.815806,0,0,0,0,0,0,71,73,133,130,67,192.06,131,1.00,12.00,-1006.00
2024-05-17 16:55:35.968694,0,0,0,0,0,0,71,73,133,130,67,192.10,131,11.00,3.00,-997.00
2024-05-17 16:55:36.070543,0,0,0,0,0,0,71,73,133,130,67,192.07,131,5.00,22.00,-997.00
2024-05-17 16:55:36.230481,0,0,0,0,0,0,71,73,134,130,67,192.08,131,20.00,-18.00,-952.00
2024-05-17 16:55:36.230735,0,0,0,0,0,0,71,73,134,130,67,191.97,131,-1.00,18.00,-1008.00
2024-05-17 16:55:36.325912,0,0,0,0,0,0,71,73,134,130,67,192.00,132,13.00,12.00,-1005.00
2024-05-17 16:55:36.427710,0,0,0,0,0,0,71,73,134,130,67,192.04,132,11.00,-1.00,-990.00
2024-05-17 16:55:36.537557,0,0,0,0,0,0,71,73,134,130,67,192.02,132,1.00,32.00,-1020.00
2024-05-17 16:55:36.631795,0,0,0,0,0,0,71,73,135,130,67,192.03,132,16.00,19.00,-1020.00
2024-05-17 16:55:36.741902,0,0,0,0,0,0,71,73,135,130,67,192.04,132,24.00,21.00,-1027.00
2024-05-17 16:55:36.835860,0,0,0,0,0,0,71,73,135,130,67,192.03,132,10.00,16.00,-985.00
2024-05-17 16:55:36.947371,0,0,0,0,0,0,70,73,135,130,67,192.06,132,-3.00,20.00,-1013.00
2024-05-17 16:55:37.039729,0,0,0,0,0,0,70,73,135,130,67,192.00,132,4.00,16.00,-1009.00
2024-05-17 16:55:37.151408,0,0,0,0,0,0,70,73,135,130,67,192.01,132,0.00,23.00,-1004.00
2024-05-17 16:55:37.243788,0,0,0,0,0,0,70,73,135,130,67,192.01,132,-8.00,14.00,-982.00
2024-05-17 16:55:37.356310,0,0,0,0,0,0,70,73,135,130,67,192.08,133,3.00,11.00,-1012.00
2024-05-17 16:55:37.447860,0,0,0,0,0,0,70,73,135,130,67,192.00,133,-19.00,43.00,-1013.00
2024-05-17 16:55:37.550021,0,0,0,0,0,0,70,73,135,130,67,192.00,133,-1.00,18.00,-1002.00
2024-05-17 16:55:37.663639,0,0,0,0,0,0,70,73,135,130,67,192.07,133,20.00,0.00,-969.00
2024-05-17 16:55:37.755949,0,0,0,0,0,0,70,73,135,130,67,192.03,133,-11.00,21.00,-1029.00
2024-05-17 16:55:37.855758,0,0,0,0,0,0,70,73,135,130,67,192.05,133,10.00,11.00,-1001.00
2024-05-17 16:55:37.970662,0,0,0,0,0,0,70,73,135,130,67,192.03,133,12.00,31.00,-1023.00
2024-05-17 16:55:38.061403,0,0,0,0,0,0,70,73,136,130,67,192.00,133,17.00,-10.00,-1007.00
2024-05-17 16:55:38.162049,0,0,0,0,0,0,70,73,136,130,67,192.10,133,20.00,-6.00,-996.00
2024-05-17 16:55:38.277778,3,0,0,0,0,0,70,73,138,130,67,192.08,133,-2.00,7.00,-1000.00
2024-05-17 16:55:38.365575,8,0,0,-1,0,0,70,73,138,130,67,192.10,134,-2.00,15.00,-1028.00
2024-05-17 16:55:38.482570,8,0,0,-2,0,0,70,73,138,130,67,192.08,134,15.00,11.00,-1026.00
2024-05-17 16:55:38.574142,8,0,0,-3,0,0,70,73,138,130,67,192.06,134,30.00,18.00,-1012.00
2024-05-17 16:55:38.671770,8,0,0,-4,0,0,70,73,139,130,67,191.95,134,32.00,2.00,-1003.00
2024-05-17 16:55:38.774106,8,0,0,-6,0,0,70,73,138,140,67,192.07,134,14.00,32.00,-1015.00
2024-05-17 16:55:38.876297,7,0,0,-6,0,0,70,73,137,140,67,192.09,134,42.00,22.00,-1013.00
2024-05-17 16:55:38.977630,5,0,0,-7,0,0,70,73,139,140,67,192.05,134,47.00,8.00,-1004.00
2024-05-17 16:55:39.080990,4,0,0,-8,0,0,70,73,139,140,67,192.02,134,39.00,13.00,-999.00
2024-05-17 16:55:39.183228,1,0,0,-8,0,0,70,73,137,140,67,191.96,134,42.00,-2.00,-992.00
2024-05-17 16:55:39.286576,-1,0,0,-7,0,0,70,73,139,140,67,192.00,134,51.00,-6.00,-1006.00
2024-05-17 16:55:39.387456,-3,0,0,-6,0,0,70,73,138,140,67,191.98,135,42.00,5.00,-1012.00
2024-05-17 16:55:39.488046,-4,0,0,-5,0,0,70,73,139,140,67,192.01,135,45.00,-23.00,-991.00
2024-05-17 16:55:39.589527,-3,0,0,-4,0,0,70,73,140,140,67,191.98,135,38.00,-13.00,-999.00
2024-05-17 16:55:39.712961,-1,0,0,-3,0,0,70,73,139,140,67,192.06,135,29.00,-10.00,-985.00
2024-05-17 16:55:39.742927,0,0,0,-3,0,0,70,73,138,140,67,191.99,135,31.00,3.00,-995.00
2024-05-17 16:55:39.916184,0,0,0,-2,0,0,70,73,139,140,67,192.03,135,33.00,-10.00,-982.00
2024-05-17 16:55:39.997497,0,0,0,-2,0,0,70,72,139,140,67,192.00,135,11.00,3.00,-1021.00
2024-05-17 16:55:40.120967,0,0,0,-2,0,0,70,72,139,140,67,192.04,135,8.00,-16.00,-1010.00
2024-05-17 16:55:40.201393,0,0,0,-2,0,0,70,72,139,140,67,192.03,135,51.00,-22.00,-1013.00
2024-05-17 16:55:40.252285,0,0,0,-2,0,0,70,72,139,140,67,192.02,135,3.00,1.00,-996.00
2024-05-17 16:55:40.428472,0,0,0,-2,0,0,70,72,140,140,67,192.08,136,0.00,19.00,-1007.00
2024-05-17 16:55:40.456291,-2,0,0,-1,0,0,70,72,140,140,67,192.04,136,33.00,2.00,-993.00
2024-05-17 16:55:40.558361,-3,0,0,-1,0,0,70,72,141,140,67,192.02,136,11.00,0.00,-987.00
2024-05-17 16:55:40.660883,-1,0,0,0,0,0,70,72,141,140,67,192.05,136,-3.00,6.00,-990.00
2024-05-17 16:55:40.783711,0,0,0,0,0,0,70,72,140,140,67,192.06,136,-10.00,10.00,-979.00
2024-05-17 16:55:40.865452,0,0,0,0,0,0,70,72,140,140,67,192.12,136,-5.00,6.00,-994.00
2024-05-17 16:55:41.042690,0,0,0,0,0,0,70,72,140,140,67,192.08,136,4.00,1.00,-1002.00
2024-05-17 16:55:41.070196,0,0,0,0,0,0,70,72,140,140,67,192.06,136,4.00,0.00,-982.00
2024-05-17 16:55:41.170728,0,0,0,0,0,0,70,72,139,140,67,192.13,136,14.00,1.00,-1001.00
2024-05-17 16:55:41.272436,0,0,0,0,0,0,70,72,139,140,67,192.11,136,20.00,8.00,-1025.00
2024-05-17 16:55:41.452266,1,0,0,0,0,0,70,72,139,140,67,192.11,137,-10.00,8.00,-1024.00
2024-05-17 16:55:41.476354,1,0,0,0,0,0,70,72,139,140,67,192.12,137,18.00,-2.00,-984.00
2024-05-17 16:55:41.578430,1,0,0,0,0,0,70,72,138,140,67,192.04,137,14.00,1.00,-1004.00
2024-05-17 16:55:41.680403,0,0,0,0,0,0,70,72,138,140,67,192.15,137,-2.00,10.00,-1010.00
2024-05-17 16:55:41.782491,1,0,0,0,0,0,70,72,138,140,67,192.14,137,-7.00,1.00,-1000.00
2024-05-17 16:55:41.964413,1,0,0,0,0,0,70,72,137,140,67,192.03,137,8.00,9.00,-1002.00
2024-05-17 16:55:41.986410,1,0,0,0,0,0,70,72,137,140,67,192.06,137,21.00,14.00,-1010.00
2024-05-17 16:55:42.169224,1,0,0,0,0,0,70,72,137,140,67,192.08,137,9.00,7.00,-1003.00
2024-05-17 16:55:42.193202,1,0,0,0,0,0,70,72,137,140,67,192.17,137,0.00,8.00,-991.00
2024-05-17 16:55:42.292381,1,0,0,0,0,0,70,72,137,140,67,192.02,138,8.00,20.00,-1013.00
2024-05-17 16:55:42.476315,1,0,0,0,0,0,70,72,138,140,67,192.08,138,11.00,9.00,-1000.00
2024-05-17 16:55:42.496236,1,0,0,0,0,0,70,72,138,140,67,192.09,138,31.00,3.00,-996.00
2024-05-17 16:55:42.598482,1,0,0,0,0,0,70,72,137,140,67,192.06,138,11.00,7.00,-1011.00
2024-05-17 16:55:42.700213,1,0,0,0,0,0,70,72,137,140,67,192.08,138,0.00,20.00,-1001.00
2024-05-17 16:55:42.885779,0,-6,0,0,0,0,70,72,138,140,67,192.09,138,-22.00,27.00,-996.00
2024-05-17 16:55:42.904150,0,-8,0,0,-1,0,70,72,139,140,67,192.11,138,9.00,0.00,-1032.00
2024-05-17 16:55:43.091528,0,-6,0,0,-2,0,70,72,139,140,67,192.07,138,26.00,28.00,-996.00
2024-05-17 16:55:43.108208,0,-4,0,0,-3,0,70,72,138,140,67,192.12,138,12.00,38.00,-1012.00
2024-05-17 16:55:43.210238,0,-1,0,0,-3,0,70,72,138,140,67,192.10,138,-15.00,39.00,-1011.00
2024-05-17 16:55:43.397781,0,0,0,0,-3,0,70,72,137,140,67,192.00,139,34.00,32.00,-1010.00
2024-05-17 16:55:43.414345,0,0,0,0,-3,0,70,72,137,140,67,192.09,139,8.00,31.00,-998.00
2024-05-17 16:55:43.617373,0,0,0,0,-2,0,70,72,136,140,67,192.07,139,4.00,28.00,-995.00
2024-05-17 16:55:43.618739,1,0,0,0,-2,0,70,72,136,140,67,192.09,139,14.00,23.00,-996.00
2024-05-17 16:55:43.786901,0,-1,0,0,-2,0,70,72,137,140,67,192.12,139,4.00,25.00,-997.00
2024-05-17 16:55:43.822277,1,-1,0,0,-2,0,70,72,137,140,67,192.01,139,7.00,25.00,-1004.00
2024-05-17 16:55:44.012202,0,-1,0,0,-2,0,70,72,137,140,67,192.07,139,14.00,14.00,-991.00
2024-05-17 16:55:44.026507,1,0,0,0,-2,0,69,73,136,140,67,192.05,139,8.00,27.00,-1002.00
2024-05-17 16:55:44.216988,1,0,0,0,-2,0,69,73,135,140,67,192.09,139,22.00,26.00,-1021.00
2024-05-17 16:55:44.230047,1,0,0,0,-2,0,69,73,135,130,67,192.01,139,13.00,15.00,-1013.00
2024-05-17 16:55:44.281598,3,0,0,0,-2,0,69,73,136,130,66,191.99,140,26.00,0.00,-977.00
2024-05-17 16:55:44.421788,4,0,0,0,-2,0,69,73,136,130,66,192.09,140,-14.00,4.00,-987.00
2024-05-17 16:55:44.485446,3,0,0,-1,-1,0,69,73,136,130,66,192.03,140,6.00,16.00,-995.00
2024-05-17 16:55:44.587487,0,0,0,-1,-1,0,69,73,136,130,66,192.08,140,0.00,-8.00,-1043.00
2024-05-17 16:55:44.730262,-2,3,0,0,-1,0,69,73,135,130,66,192.00,140,17.00,19.00,-968.00
2024-05-17 16:55:44.791373,0,1,0,0,0,0,69,73,136,130,66,191.95,140,0.00,6.00,-1021.00
2024-05-17 16:55:44.893537,0,0,0,0,0,0,69,73,134,130,66,192.04,140,3.00,15.00,-1009.00
2024-05-17 16:55:45.036254,0,0,0,0,0,0,71,72,134,130,66,191.98,140,-4.00,8.00,-1021.00
2024-05-17 16:55:45.097411,0,0,0,0,0,0,71,72,134,130,66,192.04,140,16.00,-5.00,-1006.00
2024-05-17 16:55:45.241125,0,0,0,0,0,0,71,72,134,130,66,192.05,140,9.00,-2.00,-1002.00
2024-05-17 16:55:45.301422,0,0,0,0,0,0,71,72,134,130,66,192.06,141,5.00,9.00,-1007.00
2024-05-17 16:55:45.445938,0,0,0,0,0,0,71,72,134,130,66,192.03,141,17.00,9.00,-987.00
2024-05-17 16:55:45.505502,0,0,0,0,0,0,71,72,135,130,66,192.03,141,-2.00,12.00,-994.00
2024-05-17 16:55:45.607272,0,0,0,0,0,0,71,72,135,130,66,192.08,141,3.00,2.00,-990.00
2024-05-17 16:55:45.753286,0,0,0,0,0,0,71,72,135,130,66,192.05,141,-18.00,14.00,-955.00
2024-05-17 16:55:45.811678,0,0,0,0,0,0,71,72,136,130,66,192.08,141,6.00,7.00,-991.00
2024-05-17 16:55:45.958094,0,0,0,0,0,0,71,72,136,130,66,192.08,141,6.00,9.00,-1027.00
2024-05-17 16:55:46.015548,0,0,0,0,0,0,70,73,136,130,66,192.07,141,5.00,1.00,-1005.00
2024-05-17 16:55:46.166988,0,0,0,0,0,0,70,73,137,130,66,192.07,141,2.00,0.00,-997.00
2024-05-17 16:55:46.219491,0,0,0,0,0,0,70,73,137,140,66,192.09,141,7.00,3.00,-1004.00
2024-05-17 16:55:46.321455,0,0,0,0,0,0,70,73,138,140,66,192.08,142,1.00,11.00,-996.00
2024-05-17 16:55:46.469977,0,0,0,0,0,0,70,73,138,140,66,192.11,142,1.00,4.00,-983.00
2024-05-17 16:55:46.525457,0,0,0,0,0,0,70,73,138,140,66,192.08,142,8.00,3.00,-996.00
2024-05-17 16:55:46.674688,0,0,0,0,0,0,70,73,138,140,66,192.08,142,6.00,-6.00,-976.00
2024-05-17 16:55:46.729508,0,0,0,0,0,0,70,73,138,140,66,192.09,142,13.00,13.00,-984.00
2024-05-17 16:55:46.831358,0,0,0,0,0,0,70,73,139,140,66,192.08,142,5.00,-6.00,-993.00
2024-05-17 16:55:46.934294,0,0,0,0,0,0,70,73,139,140,66,192.08,142,2.00,7.00,-1001.00
2024-05-17 16:55:47.084154,0,2,0,0,0,0,70,72,139,140,66,192.16,142,-19.00,-13.00,-1018.00
2024-05-17 16:55:47.139343,0,8,0,0,0,0,70,72,142,140,66,192.14,142,0.00,29.00,-974.00
2024-05-17 16:55:47.239667,0,6,0,0,2,0,70,72,140,140,66,192.11,142,10.00,3.00,-1015.00
2024-05-17 16:55:47.341087,0,4,0,0,3,0,70,72,138,140,66,192.07,143,-40.00,10.00,-1007.00
2024-05-17 16:55:47.496188,0,1,0,0,3,0,70,72,139,140,66,192.08,143,-12.00,-4.00,-1013.00
2024-05-17 16:55:47.548605,0,0,0,0,3,0,70,72,137,140,66,192.08,143,-9.00,-7.00,-1017.00
2024-05-17 16:55:47.648029,0,-1,0,0,3,0,70,72,137,140,66,192.06,143,-4.00,-15.00,-997.00
2024-05-17 16:55:47.800993,0,-1,0,0,3,0,70,72,137,140,66,192.14,143,-11.00,-8.00,-1000.00
2024-05-17 16:55:47.801154,0,0,0,0,2,0,70,72,138,140,66,192.09,143,22.00,-14.00,-998.00
2024-05-17 16:55:47.903599,0,0,0,0,2,0,70,72,137,140,66,192.09,143,19.00,-28.00,-1001.00
2024-05-17 16:55:48.055907,0,0,0,0,2,0,70,72,136,140,66,192.07,143,17.00,-5.00,-1001.00
2024-05-17 16:55:48.210546,0,0,0,0,2,0,70,72,136,140,66,192.08,143,-42.00,-16.00,-1000.00
2024-05-17 16:55:48.210588,0,0,0,0,2,0,70,72,135,130,65,192.11,143,-4.00,-15.00,-1004.00
2024-05-17 16:55:48.312669,0,0,0,0,2,0,70,72,135,130,65,192.11,144,-17.00,0.00,-997.00
2024-05-17 16:55:48.413287,0,0,0,0,2,0,70,72,135,130,65,192.09,144,-5.00,-22.00,-996.00
2024-05-17 16:55:48.517661,0,0,0,0,2,0,70,72,135,130,65,192.11,144,-8.00,-4.00,-1011.00
2024-05-17 16:55:48.617431,0,0,0,0,2,0,70,72,135,130,65,192.06,144,0.00,-2.00,-1014.00
2024-05-17 16:55:48.722574,0,-2,0,0,2,0,70,72,135,130,65,192.08,144,-3.00,-5.00,-987.00
2024-05-17 16:55:48.821189,0,-5,0,0,1,0,70,72,136,130,65,192.05,144,-5.00,-23.00,-1040.00
2024-05-17 16:55:48.927896,0,-2,0,0,0,0,70,72,135,130,65,192.10,144,3.00,1.00,-999.00
2024-05-17 16:55:49.025476,0,-1,0,0,0,0,70,72,136,130,65,192.14,144,-11.00,3.00,-1031.00
2024-05-17 16:55:49.132265,0,0,0,0,0,0,70,72,136,130,65,192.13,144,0.00,-4.00,-1004.00
2024-05-17 16:55:49.229276,0,0,0,0,0,0,70,72,136,130,65,192.14,144,-27.00,0.00,-999.00
2024-05-17 16:55:49.338390,0,0,0,0,0,0,70,72,136,130,65,192.13,145,-8.00,8.00,-989.00
2024-05-17 16:55:49.433119,0,0,0,0,0,0,70,72,136,130,65,192.05,145,2.00,-4.00,-994.00
2024-05-17 16:55:49.535438,0,0,0,0,0,0,70,72,137,140,65,192.13,145,4.00,8.00,-1000.00
2024-05-17 16:55:49.644293,0,0,0,0,0,0,70,72,138,140,65,192.11,145,-2.00,3.00,-992.00
2024-05-17 16:55:49.739144,0,0,0,0,0,0,70,72,137,140,65,192.16,145,17.00,-18.00,-969.00
2024-05-17 16:55:49.841404,0,0,0,0,0,0,70,72,137,140,65,192.12,145,-11.00,0.00,-990.00
2024-05-17 16:55:49.951409,0,0,0,0,0,0,70,72,137,140,65,192.11,145,-6.00,2.00,-1001.00
2024-05-17 16:55:50.045212,0,0,0,0,0,0,70,71,137,140,65,192.11,145,5.00,-3.00,-978.00
2024-05-17 16:55:50.158168,0,0,0,0,0,0,70,71,137,140,65,192.12,145,1.00,8.00,-1013.00
2024-05-17 16:55:50.249287,0,0,0,0,0,0,70,71,137,140,65,192.10,145,-7.00,0.00,-1001.00
2024-05-17 16:55:50.361014,0,0,0,0,0,0,70,71,136,140,65,192.13,146,4.00,0.00,-1031.00
2024-05-17 16:55:50.453283,0,0,0,0,0,0,70,71,136,140,65,192.12,146,0.00,-1.00,-986.00
2024-05-17 16:55:50.566220,0,0,0,0,0,0,70,71,137,140,65,192.10,146,23.00,-3.00,-1002.00
2024-05-17 16:55:50.657415,0,0,0,0,0,0,70,71,137,140,65,192.07,146,-7.00,-1.00,-998.00
2024-05-17 16:55:50.771258,0,0,0,0,0,0,70,71,137,140,65,192.09,146,2.00,-7.00,-992.00
2024-05-17 16:55:50.862398,1,0,0,0,0,0,70,71,138,140,65,192.07,146,0.00,0.00,-990.00
2024-05-17 16:55:50.963014,1,0,0,0,0,0,70,71,138,140,65,192.14,146,6.00,-4.00,-990.00
2024-05-17 16:55:51.077697,1,0,0,0,0,0,69,72,137,140,65,192.18,146,34.00,-11.00,-1004.00
2024-05-17 16:55:51.167198,0,0,5,0,0,0,69,72,136,140,65,192.10,146,32.00,-25.00,-1004.00
2024-05-17 16:55:51.288371,0,0,11,0,0,0,69,72,136,140,65,192.08,146,23.00,-16.00,-1001.00
2024-05-17 16:55:51.370859,0,0,16,0,0,0,69,72,136,140,65,192.09,147,22.00,-8.00,-1003.00
2024-05-17 16:55:51.487282,0,0,22,0,0,0,69,72,136,140,65,192.12,147,0.00,-3.00,-984.00
2024-05-17 16:55:51.575224,0,0,28,0,0,0,69,72,136,130,65,192.13,147,-39.00,25.00,-988.00
2024-05-17 16:55:51.692060,0,0,34,0,0,0,69,72,135,130,65,192.03,147,6.00,16.00,-1000.00
2024-05-17 16:55:51.779005,0,0,40,0,0,0,69,72,135,130,65,192.09,147,-1.00,-8.00,-986.00
2024-05-17 16:55:51.881153,0,0,46,0,0,0,69,72,135,130,65,192.14,147,-21.00,23.00,-988.00
2024-05-17 16:55:51.931736,0,0,52,0,0,0,69,72,135,130,65,192.15,147,-1.00,10.00,-1000.00
2024-05-17 16:55:52.101685,0,0,58,0,0,0,69,72,136,130,65,192.08,147,8.00,4.00,-999.00
2024-05-17 16:55:52.135706,0,0,63,0,0,0,69,72,135,130,65,192.09,147,3.00,-9.00,-1002.00
2024-05-17 16:55:52.306482,0,0,69,0,0,0,69,72,135,130,64,192.01,147,10.00,8.00,-997.00
2024-05-17 16:55:52.339697,0,0,75,0,0,0,69,72,135,130,64,192.06,148,0.00,14.00,-1010.00
2024-05-17 16:55:52.513147,0,0,81,0,0,0,69,72,136,130,64,192.14,148,0.00,1.00,-998.00
2024-05-17 16:55:52.543995,0,0,87,0,0,0,69,72,135,140,64,192.09,148,11.00,-18.00,-979.00
2024-05-17 16:55:52.716430,0,0,93,0,0,0,69,72,135,140,64,192.04,148,-9.00,28.00,-994.00
2024-05-17 16:55:52.747748,0,0,98,0,0,0,69,72,135,130,64,192.07,148,4.00,-2.00,-1005.00
2024-05-17 16:55:52.849813,0,0,104,0,0,0,69,72,135,130,64,192.03,148,1.00,-7.00,-994.00
2024-05-17 16:55:53.023271,0,0,110,0,0,0,69,72,135,130,64,192.03,148,-6.00,7.00,-1006.00
2024-05-17 16:55:53.054210,0,0,116,0,0,0,69,72,135,130,64,192.08,148,-13.00,10.00,-990.00
2024-05-17 16:55:53.228066,0,0,121,0,0,0,69,72,135,130,64,192.08,148,-6.00,-24.00,-985.00
2024-05-17 16:55:53.257648,0,0,127,0,0,0,69,72,135,130,64,192.08,148,0.00,28.00,-1011.00
2024-05-17 16:55:53.435534,0,0,133,0,0,0,69,72,135,130,64,192.08,149,35.00,-31.00,-984.00
2024-05-17 16:55:53.461726,0,0,138,0,0,0,69,72,135,130,64,192.08,149,37.00,-33.00,-964.00
2024-05-17 16:55:53.563973,0,0,144,0,0,0,69,72,135,130,64,192.06,149,3.00,6.00,-1014.00
2024-05-17 16:55:53.740069,0,0,150,0,0,0,69,72,135,130,64,192.11,149,-9.00,36.00,-1037.00
2024-05-17 16:55:53.767610,0,0,156,0,0,0,69,72,134,130,64,192.08,149,-21.00,28.00,-1020.00
2024-05-17 16:55:53.944875,0,0,161,0,0,0,69,72,134,130,64,192.11,149,42.00,-22.00,-1024.00
2024-05-17 16:55:53.971628,0,0,167,0,0,0,69,72,134,130,64,192.13,149,7.00,-10.00,-994.00
2024-05-17 16:55:54.151088,0,0,173,0,0,0,70,72,134,130,64,192.12,149,-24.00,31.00,-1006.00
2024-05-17 16:55:54.175679,0,0,178,0,0,0,70,72,134,130,64,192.14,149,24.00,-33.00,-1003.00
2024-05-17 16:55:54.354538,0,0,-175,0,0,0,70,72,135,130,64,192.11,149,13.00,0.00,-1002.00
2024-05-17 16:55:54.381026,0,0,-169,0,0,0,70,72,135,130,64,192.10,150,-18.00,27.00,-1005.00
2024-05-17 16:55:54.559753,0,0,-164,0,0,0,70,72,136,130,64,192.07,150,-24.00,31.00,-1008.00
2024-05-17 16:55:54.583790,0,0,-158,0,0,0,70,72,137,130,64,192.07,150,38.00,-11.00,-1026.00
2024-05-17 16:55:54.764078,0,1,-152,0,0,0,70,72,137,130,64,192.05,150,-12.00,-3.00,-1002.00
2024-05-17 16:55:54.787598,0,1,-146,0,0,0,70,72,137,130,64,192.10,150,24.00,-38.00,-1007.00
2024-05-17 16:55:54.968884,0,1,-140,0,0,0,70,72,137,130,64,192.06,150,-13.00,23.00,-998.00
2024-05-17 16:55:54.991513,0,1,-134,0,0,0,70,72,137,130,64,192.03,150,-39.00,-13.00,-1001.00
2024-05-17 16:55:55.094226,0,0,-128,0,0,0,70,72,137,130,64,192.09,150,-12.00,-21.00,-1007.00
2024-05-17 16:55:55.276018,0,0,-122,0,0,0,70,72,136,130,64,192.08,150,7.00,-18.00,-1001.00
2024-05-17 16:55:55.297535,0,0,-116,0,0,0,70,72,136,130,64,192.11,150,-23.00,6.00,-1000.00
2024-05-17 16:55:55.481681,0,0,-110,0,0,0,70,72,136,140,64,192.08,151,-25.00,12.00,-1006.00
2024-05-17 16:55:55.501566,0,0,-103,0,0,0,70,72,136,140,64,192.16,151,-53.00,40.00,-1001.00
2024-05-17 16:55:55.603578,0,0,-97,0,0,0,70,72,137,140,64,192.09,151,-15.00,-4.00,-995.00
2024-05-17 16:55:55.789278,0,0,-90,0,0,0,70,72,136,140,64,192.10,151,-2.00,4.00,-979.00
2024-05-17 16:55:55.789358,0,0,-84,0,0,0,70,72,136,130,64,192.10,151,-8.00,4.00,-1017.00
2024-05-17 16:55:55.859940,0,0,-78,0,0,0,70,72,136,130,64,192.14,151,0.00,-4.00,-991.00
2024-05-17 16:55:55.962010,0,0,-71,0,0,0,70,72,137,130,64,192.07,151,-11.00,-6.00,-1020.00
2024-05-17 16:55:56.062963,0,0,-65,0,0,0,70,72,136,130,64,192.02,151,1.00,-1.00,-1006.00
2024-05-17 16:55:56.164744,0,0,-59,0,0,0,70,72,137,130,64,192.11,151,16.00,-10.00,-1002.00
2024-05-17 16:55:56.299983,0,0,-53,0,0,0,70,72,136,130,64,192.08,151,-31.00,18.00,-1005.00
2024-05-17 16:55:56.368751,0,0,-46,0,0,0,70,72,137,130,64,192.09,152,-17.00,-8.00,-983.00
2024-05-17 16:55:56.507656,0,0,-40,0,0,0,70,72,137,140,64,192.08,152,-3.00,7.00,-987.00
2024-05-17 16:55:56.579633,0,0,-34,0,0,0,70,72,137,140,64,192.16,152,-8.00,-9.00,-1000.00
2024-05-17 16:55:56.675932,0,0,-27,0,0,0,70,72,137,140,64,192.17,152,0.00,-7.00,-998.00
2024-05-17 16:55:56.812024,0,0,-21,0,0,0,70,72,136,140,64,192.08,152,-25.00,23.00,-993.00
2024-05-17 16:55:56.880292,0,0,-16,0,0,0,70,72,137,140,64,192.14,152,-7.00,3.00,-993.00
2024-05-17 16:55:56.982900,0,0,-11,0,0,0,70,72,137,140,64,192.14,152,-4.00,-4.00,-1005.00
2024-05-17 16:55:57.082752,-1,0,-5,0,0,0,70,72,137,140,64,192.06,152,-6.00,-19.00,-989.00
2024-05-17 16:55:57.221592,-1,0,-4,0,0,0,70,72,137,140,64,192.06,152,-48.00,15.00,-1017.00
2024-05-17 16:55:57.286718,-1,0,-2,0,0,0,70,72,137,140,64,192.16,153,-20.00,15.00,-1011.00
2024-05-17 16:55:57.426780,0,0,-1,0,0,0,70,72,137,140,64,192.14,153,-17.00,3.00,-1021.00
2024-05-17 16:55:57.490755,0,0,-1,0,0,0,70,72,136,140,64,192.09,153,13.00,-10.00,-1016.00
2024-05-17 16:55:57.593388,0,0,0,0,0,0,70,72,135,140,64,192.11,153,7.00,-7.00,-989.00
2024-05-17 16:55:57.735337,0,0,0,0,0,0,70,72,135,140,64,192.10,153,-17.00,6.00,-1019.00
2024-05-17 16:55:57.797258,0,0,0,0,0,0,70,72,135,130,64,192.11,153,-4.00,0.00,-1006.00
2024-05-17 16:55:57.938560,0,0,0,0,0,0,70,72,134,130,64,192.11,153,-12.00,8.00,-1020.00
2024-05-17 16:55:58.000798,0,0,0,0,0,0,70,72,134,130,64,192.12,153,15.00,-3.00,-1015.00
2024-05-17 16:55:58.143370,0,0,0,0,0,0,68,71,133,130,64,192.05,153,-4.00,7.00,-1018.00
2024-05-17 16:55:58.204843,0,0,1,0,0,0,68,71,133,130,64,192.05,153,9.00,-4.00,-1000.00
2024-05-17 16:55:58.350383,0,0,1,0,0,0,68,71,133,130,63,192.05,154,-4.00,6.00,-1006.00
2024-05-17 16:55:58.409077,0,0,1,0,0,0,68,71,132,130,63,192.08,154,7.00,5.00,-1010.00
2024-05-17 16:55:58.553100,0,0,1,0,0,0,68,71,132,130,63,192.09,154,-6.00,9.00,-1009.00
2024-05-17 16:55:58.613182,0,0,1,0,0,0,68,71,132,130,63,192.08,154,13.00,-11.00,-1028.00
2024-05-17 16:55:58.757833,0,0,1,0,0,0,68,71,132,130,63,192.08,154,8.00,3.00,-999.00
2024-05-17 16:55:58.817994,0,0,1,0,0,0,68,71,132,130,63,192.08,154,3.00,-2.00,-1006.00
2024-05-17 16:55:58.962643,0,0,1,0,0,0,68,71,132,130,63,192.07,154,-12.00,8.00,-1018.00
2024-05-17 16:55:59.020843,0,0,1,0,0,0,68,71,132,130,63,192.12,154,-6.00,10.00,-1006.00
2024-05-17 16:55:59.167481,0,0,0,0,0,0,69,71,133,130,63,192.05,154,-5.00,13.00,-1017.00
2024-05-17 16:55:59.224769,0,0,0,0,0,0,69,71,133,130,63,192.08,154,-13.00,1.00,-1001.00
2024-05-17 16:55:59.326762,0,0,1,0,0,0,69,71,134,130,63,192.11,155,-15.00,33.00,-1011.00
2024-05-17 16:55:59.442900,0,0,1,0,0,0,69,71,134,130,63,192.09,155,-10.00,6.00,-982.00
2024-05-17 16:55:59.530671,0,0,1,0,0,0,69,71,134,130,63,192.17,155,-11.00,29.00,-981.00
2024-05-17 16:55:59.581560,0,0,-2,0,0,0,69,71,134,130,63,192.14,155,0.00,9.00,-992.00
2024-05-17 16:55:59.686475,0,0,-8,0,0,0,69,71,135,130,63,192.12,155,-9.00,15.00,-996.00
2024-05-17 16:55:59.786019,0,0,-15,0,0,0,69,71,135,130,63,192.11,155,-3.00,19.00,-1000.00
2024-05-17 16:55:59.887696,0,0,-21,0,0,0,69,71,135,130,63,192.10,155,-4.00,25.00,-1005.00
2024-05-17 16:55:59.989445,0,0,-27,0,0,0,69,71,135,130,63,192.13,155,21.00,12.00,-978.00
2024-05-17 16:56:00.091313,0,0,-33,0,0,0,69,71,136,140,63,192.11,155,0.00,7.00,-1000.00
2024-05-17 16:56:00.193575,0,0,-39,0,0,0,69,71,136,140,63,192.11,155,-4.00,14.00,-1002.00
2024-05-17 16:56:00.295187,0,0,-45,0,0,0,69,71,136,140,63,192.12,156,-13.00,5.00,-998.00
2024-05-17 16:56:00.498963,0,0,-51,0,0,0,69,71,136,140,63,192.09,156,-10.00,14.00,-995.00
2024-05-17 16:56:00.499156,0,0,-57,0,0,0,69,71,137,140,63,192.12,156,-2.00,2.00,-986.00
2024-05-17 16:56:00.703683,0,0,-64,0,0,0,69,71,136,140,63,192.10,156,-4.00,4.00,-1002.00
2024-05-17 16:56:00.703888,0,0,-70,0,0,0,69,71,136,140,63,192.23,156,-22.00,13.00,-998.00
2024-05-17 16:56:00.805331,0,0,-76,0,0,0,69,71,136,140,63,192.15,156,-29.00,29.00,-1011.00
2024-05-17 16:56:00.908018,0,0,-82,0,0,0,69,71,136,140,63,192.18,156,-11.00,10.00,-992.00
2024-05-17 16:56:01.009967,0,0,-88,0,0,0,69,71,136,140,63,192.16,156,-9.00,3.00,-993.00
2024-05-17 16:56:01.112837,0,0,-94,0,0,0,69,72,136,140,63,192.18,156,-22.00,6.00,-1028.00
2024-05-17 16:56:01.215189,0,0,-100,0,0,0,69,72,135,140,63,192.12,156,0.00,-2.00,-1000.00
2024-05-17 16:56:01.315258,0,0,-106,0,0,0,69,72,136,140,63,192.11,157,-2.00,5.00,-986.00
2024-05-17 16:56:01.420013,0,0,-112,0,0,0,69,72,135,140,63,192.14,157,-8.00,-3.00,-996.00
2024-05-17 16:56:01.519305,0,0,-118,0,0,0,69,72,135,140,63,192.05,157,-25.00,3.00,-996.00
2024-05-17 16:56:01.621249,0,0,-124,0,0,0,69,72,135,140,63,192.06,157,-19.00,18.00,-1002.00
2024-05-17 16:56:01.727213,0,0,-130,0,0,0,69,72,135,140,63,192.19,157,-29.00,2.00,-995.00
2024-05-17 16:56:01.830695,0,0,-137,0,0,0,69,72,135,130,63,192.19,157,18.00,-16.00,-999.00
2024-05-17 16:56:01.927311,0,0,-143,0,0,0,69,72,135,130,63,192.18,157,8.00,0.00,-988.00
2024-05-17 16:56:02.034420,0,0,-149,0,0,0,69,72,135,130,63,192.15,157,-10.00,-6.00,-969.00
2024-05-17 16:56:02.131212,0,0,-155,0,0,0,69,71,135,130,63,192.16,157,-4.00,-8.00,-1004.00
2024-05-17 16:56:02.239309,0,0,-161,0,0,0,69,71,135,130,63,192.19,157,-6.00,-12.00,-1001.00
2024-05-17 16:56:02.335188,0,0,-167,0,0,0,69,71,136,130,63,192.16,158,-7.00,-5.00,-1006.00
2024-05-17 16:56:02.445807,0,0,-173,0,0,0,69,71,136,130,63,192.17,158,-12.00,-5.00,-1005.00
2024-05-17 16:56:02.539925,0,0,-179,0,0,0,69,71,136,130,63,192.15,158,1.00,-3.00,-993.00
2024-05-17 16:56:02.641176,0,0,175,0,0,0,69,71,136,130,63,192.17,158,-1.00,4.00,-992.00
2024-05-17 16:56:02.751206,0,0,169,0,0,0,69,71,136,130,63,192.16,158,7.00,-6.00,-989.00
2024-05-17 16:56:02.845325,0,0,163,0,0,0,69,71,136,130,63,192.16,158,16.00,-5.00,-967.00
2024-05-17 16:56:02.955999,0,0,158,0,0,0,69,71,135,130,63,192.23,158,-6.00,0.00,-1008.00
2024-05-17 16:56:03.049130,0,0,152,0,0,0,69,71,136,130,63,192.10,158,-34.00,18.00,-997.00
2024-05-17 16:56:03.160799,0,0,147,0,0,0,69,72,136,130,63,192.17,158,15.00,-9.00,-967.00
2024-05-17 16:56:03.253383,0,0,141,0,0,0,69,72,136,130,63,192.18,158,-15.00,17.00,-1002.00
2024-05-17 16:56:03.357213,0,0,135,0,0,0,69,72,137,140,63,192.19,159,15.00,-1.00,-1016.00
2024-05-17 16:56:03.457216,0,0,130,0,0,0,69,72,137,140,63,192.19,159,-9.00,18.00,-996.00
2024-05-17 16:56:03.508465,0,0,124,0,0,0,69,72,137,140,63,192.16,159,-1.00,2.00,-1007.00
2024-05-17 16:56:03.610987,0,0,119,0,0,0,69,72,138,140,63,192.22,159,-2.00,6.00,-974.00
2024-05-17 16:56:03.775723,0,0,113,0,0,0,69,72,138,140,63,192.23,159,-8.00,3.00,-996.00
2024-05-17 16:56:03.815207,0,0,108,0,0,0,69,72,138,140,63,192.13,159,-22.00,-3.00,-1021.00
2024-05-17 16:56:03.980526,0,0,102,0,0,0,69,72,138,140,63,192.12,159,-7.00,0.00,-976.00
2024-05-17 16:56:04.019222,0,0,96,0,0,0,69,72,138,140,63,192.23,159,23.00,-15.00,-998.00
2024-05-17 16:56:04.184848,0,0,91,0,0,0,70,71,138,140,63,192.21,159,-16.00,10.00,-968.00
2024-05-17 16:56:04.223506,0,0,85,0,0,0,70,71,138,140,62,192.22,159,14.00,-15.00,-1009.00
2024-05-17 16:56:04.389621,0,0,79,0,0,0,70,71,137,140,62,192.16,160,2.00,-18.00,-972.00
2024-05-17 16:56:04.428185,0,0,73,0,0,0,70,71,137,140,62,192.22,160,24.00,-6.00,-994.00
2024-05-17 16:56:04.594496,0,0,68,0,0,0,70,71,137,140,62,192.19,160,-29.00,12.00,-994.00
2024-05-17 16:56:04.631167,0,0,62,0,0,0,70,71,137,140,62,192.16,160,-45.00,11.00,-1028.00
2024-05-17 16:56:04.799925,0,0,56,0,0,0,70,71,137,140,62,192.17,160,4.00,-1.00,-990.00
2024-05-17 16:56:04.836720,0,0,50,0,0,0,70,71,137,140,62,192.15,160,-38.00,-1.00,-1007.00
2024-05-17 16:56:04.937271,0,0,44,0,0,0,70,71,136,140,62,192.19,160,-19.00,-5.00,-995.00
2024-05-17 16:56:05.108064,0,0,38,0,0,0,70,71,136,140,62,192.13,160,24.00,-8.00,-989.00
2024-05-17 16:56:05.145063,0,0,32,0,0,0,70,71,136,130,62,192.16,160,-5.00,-18.00,-1011.00
2024-05-17 16:56:05.243135,0,0,26,0,0,0,70,71,136,130,62,192.18,160,5.00,-8.00,-1002.00
2024-05-17 16:56:05.413659,0,0,20,0,0,0,70,71,136,140,62,192.13,161,39.00,-17.00,-991.00
2024-05-17 16:56:05.447201,0,0,15,0,0,0,70,71,136,140,62,192.17,161,16.00,-14.00,-1008.00
2024-05-17 16:56:05.619411,0,0,11,0,0,0,70,71,137,140,62,192.20,161,6.00,-26.00,-983.00
2024-05-17 16:56:05.651746,0,0,8,0,0,0,70,71,137,140,62,192.20,161,11.00,-26.00,-978.00
2024-05-17 16:56:05.823249,0,0,6,0,0,0,70,71,136,140,62,192.16,161,12.00,-29.00,-1003.00
2024-05-17 16:56:05.855118,0,0,4,0,0,0,70,71,137,140,62,192.20,161,-20.00,26.00,-985.00
2024-05-17 16:56:06.028571,0,0,3,0,0,0,70,71,137,140,62,192.09,161,32.00,-30.00,-1005.00
2024-05-17 16:56:06.059601,0,0,2,0,0,0,70,71,137,140,62,192.14,161,-20.00,5.00,-984.00
2024-05-17 16:56:06.233361,0,0,1,0,0,0,69,71,136,140,62,192.14,161,12.00,8.00,-984.00
2024-05-17 16:56:06.263105,0,0,1,0,0,0,69,71,136,140,62,192.17,161,-23.00,1.00,-986.00
2024-05-17 16:56:06.438093,0,0,1,0,0,0,69,71,136,140,62,192.24,162,-11.00,15.00,-1000.00
2024-05-17 16:56:06.467100,0,0,0,0,0,0,69,71,136,140,62,192.15,162,0.00,-2.00,-1003.00
2024-05-17 16:56:06.642418,0,0,0,0,0,0,69,71,136,140,62,192.20,162,2.00,11.00,-1008.00
2024-05-17 16:56:06.670981,0,0,1,0,0,0,69,71,135,140,62,192.19,162,0.00,9.00,-1007.00
2024-05-17 16:56:06.848766,0,0,1,0,0,0,69,71,135,130,62,192.22,162,8.00,7.00,-985.00
2024-05-17 16:56:06.875396,0,0,1,0,0,0,69,71,135,130,62,192.18,162,-5.00,18.00,-1011.00
2024-05-17 16:56:07.052137,0,0,1,0,0,0,69,71,135,130,62,192.11,162,0.00,11.00,-1002.00
2024-05-17 16:56:07.079216,0,0,1,0,0,0,69,71,135,130,62,192.14,162,-1.00,6.00,-995.00
2024-05-17 16:56:07.256960,0,0,1,0,0,0,69,71,134,130,62,192.19,162,-7.00,10.00,-1013.00
2024-05-17 16:56:07.283131,0,0,1,0,0,0,69,71,134,130,62,192.13,162,12.00,-2.00,-1005.00
2024-05-17 16:56:07.461804,0,0,1,0,0,0,69,71,134,130,62,192.12,163,0.00,4.00,-1003.00
2024-05-17 16:56:07.462008,0,0,1,0,0,0,69,71,135,130,62,192.14,163,3.00,0.00,-989.00
2024-05-17 16:56:07.539857,0,0,1,0,0,0,69,71,135,130,62,192.16,163,-6.00,24.00,-990.00
2024-05-17 16:56:07.640356,0,0,1,0,0,0,69,71,135,130,62,192.12,163,38.00,-4.00,-1011.00
2024-05-17 16:56:07.768789,0,0,1,0,0,0,69,71,135,130,62,192.11,163,-7.00,5.00,-1012.00
2024-05-17 16:56:07.844500,0,0,1,0,0,0,69,71,135,130,62,192.10,163,4.00,8.00,-983.00
2024-05-17 16:56:07.979969,0,0,1,0,0,0,69,71,135,130,62,192.16,163,1.00,0.00,-997.00
2024-05-17 16:56:08.048262,0,0,1,0,0,0,69,71,135,130,62,192.15,163,7.00,-9.00,-979.00
2024-05-17 16:56:08.178369,0,0,1,0,0,0,68,71,135,130,62,192.23,163,-27.00,17.00,-1315.00
2024-05-17 16:56:08.252238,0,0,0,0,0,-2,68,71,140,130,62,192.23,163,32.00,3.00,-1655.00
2024-05-17 16:56:08.383178,0,-1,0,0,0,-9,68,71,162,140,62,192.38,164,18.00,131.00,-1199.00
2024-05-17 16:56:08.456074,0,-55,0,0,-2,-12,68,71,239,150,62,192.53,164,-31.00,610.00,-978.00
2024-05-17 16:56:08.587967,0,-179,0,0,-10,-2,68,71,345,160,62,192.55,164,-3.00,561.00,-931.00
2024-05-17 16:56:08.660270,1,60,0,0,-6,11,68,71,153,160,62,192.67,164,45.00,155.00,-1454.00
2024-05-17 16:56:08.762433,0,-3,-1,0,-2,11,68,71,139,140,62,192.29,164,25.00,-46.00,-1246.00
2024-05-17 16:56:08.895174,0,1,-1,0,-3,9,68,71,133,130,62,192.05,164,-1.00,-4.00,-1451.00
2024-05-17 16:56:08.966082,0,3,0,0,-2,4,68,71,130,130,62,192.09,164,8.00,17.00,-1331.00
2024-05-17 16:56:09.100577,0,1,0,0,-1,1,68,71,129,120,62,192.03,164,-31.00,23.00,-1193.00
2024-05-17 16:56:09.170524,0,0,0,0,-1,0,68,71,130,120,62,192.03,164,13.00,-13.00,-1077.00
2024-05-17 16:56:09.304752,0,0,1,0,-1,-1,68,71,132,120,62,192.17,164,-18.00,38.00,-1043.00
2024-05-17 16:56:09.377394,0,0,0,0,0,-1,68,71,135,120,62,192.16,165,-28.00,33.00,-996.00
2024-05-17 16:56:09.476139,0,0,0,0,0,-1,68,71,138,130,62,192.22,165,23.00,19.00,-938.00
2024-05-17 16:56:09.580076,0,1,0,0,0,-1,68,71,138,130,62,192.14,165,-2.00,3.00,-946.00
2024-05-17 16:56:09.680087,0,0,1,0,0,0,68,71,140,130,62,192.16,165,-12.00,32.00,-968.00
2024-05-17 16:56:09.816761,0,0,1,0,0,0,68,71,142,130,62,192.19,165,5.00,22.00,-967.00
2024-05-17 16:56:09.884168,0,0,1,0,0,0,68,71,142,130,62,192.20,165,-6.00,7.00,-985.00
2024-05-17 16:56:10.021579,0,0,1,0,0,0,68,71,142,130,62,192.26,165,4.00,23.00,-976.00
2024-05-17 16:56:10.088077,0,0,1,0,0,0,68,71,142,130,62,192.20,165,-8.00,23.00,-984.00
2024-05-17 16:56:10.226350,0,0,1,0,0,0,69,71,142,130,62,192.23,165,5.00,2.00,-1009.00
2024-05-17 16:56:10.292855,0,0,1,0,0,0,69,71,141,130,61,192.23,165,-4.00,15.00,-988.00
2024-05-17 16:56:10.431337,0,0,1,0,0,0,69,71,141,130,61,192.16,166,-9.00,25.00,-994.00
2024-05-17 16:56:10.495826,0,0,1,0,0,0,69,71,140,130,61,192.15,166,6.00,0.00,-984.00
2024-05-17 16:56:10.637021,0,0,1,0,0,0,69,71,140,130,61,192.25,166,-10.00,6.00,-989.00
2024-05-17 16:56:10.703110,0,0,0,0,0,0,69,71,139,130,61,192.20,166,-14.00,26.00,-1008.00
2024-05-17 16:56:10.803579,0,0,0,0,0,0,69,71,139,130,61,192.19,166,10.00,-2.00,-1019.00
2024-05-17 16:56:10.907293,0,0,1,0,0,0,69,71,139,130,61,192.14,166,11.00,11.00,-994.00
2024-05-17 16:56:10.956230,0,0,1,0,0,0,69,71,139,130,61,192.20,166,21.00,-2.00,-985.00
2024-05-17 16:56:11.147950,0,0,1,0,0,0,69,71,139,130,61,192.20,166,-22.00,21.00,-994.00
2024-05-17 16:56:11.210758,0,0,1,0,0,0,69,71,140,130,61,192.20,166,8.00,13.00,-1005.00
2024-05-17 16:56:11.264836,0,0,1,0,0,0,69,71,140,130,61,192.24,166,23.00,12.00,-1013.00
2024-05-17 16:56:11.363943,0,0,1,0,0,0,69,71,139,130,61,192.21,167,-8.00,26.00,-987.00
2024-05-17 16:56:11.557486,0,0,1,0,0,0,69,71,139,130,61,192.22,167,-32.00,15.00,-999.00
2024-05-17 16:56:11.568315,0,0,1,0,0,0,69,71,139,130,61,192.19,167,-46.00,35.00,-1006.00
2024-05-17 16:56:11.674237,0,0,1,0,0,0,69,71,139,130,61,192.20,167,4.00,2.00,-992.00
2024-05-17 16:56:11.772105,0,0,1,0,0,0,69,71,139,130,61,192.17,167,32.00,-5.00,-996.00
2024-05-17 16:56:11.967469,0,0,1,0,0,0,69,71,139,130,61,192.22,167,19.00,9.00,-992.00
2024-05-17 16:56:11.976142,0,0,1,0,0,0,69,71,139,130,61,192.24,167,0.00,18.00,-1000.00
2024-05-17 16:56:12.172935,0,0,1,0,0,0,69,71,139,130,61,192.26,167,-38.00,31.00,-1026.00
2024-05-17 16:56:12.180672,0,0,1,0,0,0,69,71,139,130,61,192.19,167,1.00,18.00,-1011.00
2024-05-17 16:56:12.377297,0,0,1,0,0,0,69,71,138,130,60,192.15,168,-5.00,16.00,-986.00
2024-05-17 16:56:12.385344,0,0,1,0,0,0,69,71,138,130,60,192.20,168,-14.00,20.00,-992.00
2024-05-17 16:56:12.486795,0,0,1,0,0,0,69,71,138,130,60,192.23,168,9.00,8.00,-1010.00
2024-05-17 16:56:12.588588,0,0,1,0,0,0,69,71,138,130,60,192.14,168,-24.00,17.00,-1008.00
2024-05-17 16:56:12.691153,0,0,1,0,0,0,69,71,138,130,60,192.20,168,-34.00,34.00,-1037.00
2024-05-17 16:56:12.889352,0,0,1,0,0,0,69,71,138,130,60,192.20,168,-2.00,14.00,-1040.00
2024-05-17 16:56:12.896603,0,0,1,0,0,0,69,71,138,130,60,192.27,168,21.00,1.00,-992.00
2024-05-17 16:56:12.997126,0,0,1,0,0,0,69,71,138,130,60,192.23,168,13.00,-7.00,-1017.00
2024-05-17 16:56:13.098585,0,0,1,0,0,0,69,71,137,130,60,192.20,168,2.00,4.00,-990.00
2024-05-17 16:56:13.201493,0,0,1,0,0,0,69,70,137,130,60,192.18,168,-16.00,15.00,-1004.00
2024-05-17 16:56:13.302126,0,0,1,0,0,0,69,70,137,130,60,192.20,169,23.00,4.00,-973.00
2024-05-17 16:56:13.404099,0,0,1,0,0,0,69,70,137,130,60,192.15,169,-5.00,15.00,-1032.00
2024-05-17 16:56:13.506119,0,0,1,0,0,0,69,70,138,130,60,192.21,169,-20.00,29.00,-1025.00
2024-05-17 16:56:13.609810,0,0,1,0,0,0,69,70,138,130,60,192.18,169,-45.00,27.00,-1034.00
2024-05-17 16:56:13.710124,0,0,1,0,0,0,69,70,139,130,60,192.17,169,-14.00,15.00,-1003.00
2024-05-17 16:56:13.912892,0,0,1,0,0,0,69,70,139,130,60,192.20,169,25.00,-4.00,-989.00
2024-05-17 16:56:13.914187,0,0,1,0,0,0,69,70,140,130,60,192.14,169,12.00,2.00,-993.00
2024-05-17 16:56:14.016450,0,-1,1,0,0,0,69,70,140,130,60,192.22,169,-3.00,27.00,-982.00
2024-05-17 16:56:14.118697,0,-1,1,0,0,0,69,70,140,130,60,192.20,169,18.00,6.00,-1002.00
2024-05-17 16:56:14.220827,0,-1,1,0,0,0,68,71,140,130,60,192.24,169,18.00,7.00,-992.00
2024-05-17 16:56:14.322227,0,-1,1,0,0,0,68,71,140,130,60,192.27,170,41.00,1.00,-1000.00
2024-05-17 16:56:14.424950,0,-1,1,0,0,0,68,71,141,130,60,192.28,170,16.00,14.00,-982.00
2024-05-17 16:56:14.527537,0,-1,1,0,0,0,68,71,141,130,60,192.27,170,6.00,6.00,-994.00
2024-05-17 16:56:14.627817,0,-1,0,0,0,0,68,71,141,130,60,192.27,170,24.00,13.00,-962.00
2024-05-17 16:56:14.729676,0,0,0,0,0,0,68,71,142,130,60,192.30,170,0.00,38.00,-1196.00
2024-05-17 16:56:14.780788,0,1,0,0,0,-5,68,71,145,140,60,192.33,170,11.00,26.00,-1591.00
2024-05-17 16:56:14.936967,0,15,0,0,1,-11,68,71,153,140,60,192.37,170,-1.00,-54.00,-1657.00
2024-05-17 16:56:14.986108,1,111,0,0,8,-10,68,71,321,160,60,192.54,170,-24.00,596.00,-1213.00
2024-05-17 16:56:15.086664,1,-124,1,0,10,4,68,71,155,160,60,192.57,170,-24.00,752.00,-861.00
2024-05-17 16:56:15.239758,0,-16,2,0,4,12,69,70,162,150,60,192.74,170,-24.00,674.00,-1028.00
2024-05-17 16:56:15.291389,1,5,1,0,5,11,69,70,148,140,60,192.16,171,-5.00,65.00,-1089.00
2024-05-17 16:56:15.449017,0,-3,1,0,5,7,69,70,140,130,60,192.10,171,2.00,-14.00,-1461.00
2024-05-17 16:56:15.494669,0,-5,1,0,4,3,69,70,137,120,60,192.06,171,-27.00,-12.00,-1380.00
2024-05-17 16:56:15.596599,0,-3,1,0,3,0,69,70,135,120,60,192.12,171,-37.00,14.00,-1247.00
2024-05-17 16:56:15.698504,-1,-2,0,0,2,0,69,70,136,120,60,192.14,171,-5.00,-2.00,-1100.00
2024-05-17 16:56:15.858328,-1,-1,0,0,2,-1,69,70,139,120,60,192.16,171,-2.00,1.00,-1034.00
2024-05-17 16:56:15.902640,0,-1,0,0,1,-1,69,70,141,120,60,192.19,171,-5.00,7.00,-994.00
2024-05-17 16:56:16.063114,0,0,0,0,1,-1,69,70,142,130,60,192.16,171,-16.00,17.00,-969.00
2024-05-17 16:56:16.106532,0,0,0,0,1,-1,69,70,143,130,60,192.14,171,3.00,0.00,-963.00
2024-05-17 16:56:16.267907,0,0,0,0,1,0,68,71,145,130,60,192.26,171,5.00,9.00,-958.00
2024-05-17 16:56:16.310549,0,-3,0,0,1,0,68,71,147,130,59,192.27,172,-16.00,10.00,-950.00
2024-05-17 16:56:16.472779,0,-4,0,0,1,0,68,71,147,130,59,192.24,172,-4.00,5.00,-981.00
2024-05-17 16:56:16.514540,0,-3,0,0,0,0,68,71,147,130,59,192.23,172,9.00,5.00,-974.00
2024-05-17 16:56:16.677410,0,-2,0,0,0,0,68,71,146,130,59,192.27,172,-3.00,5.00,-984.00
2024-05-17 16:56:16.719721,0,-2,0,0,0,0,68,71,146,130,59,192.20,172,-26.00,14.00,-981.00
2024-05-17 16:56:16.882420,0,-1,1,0,0,0,68,71,146,130,59,192.22,172,-8.00,-11.00,-975.00
2024-05-17 16:56:16.923767,0,-1,1,0,0,0,68,71,146,130,59,192.20,172,1.00,17.00,-995.00
2024-05-17 16:56:17.087109,0,-1,1,0,0,0,68,71,146,130,59,192.14,172,-4.00,12.00,-1004.00
2024-05-17 16:56:17.127450,0,-1,1,0,0,0,68,71,146,130,59,192.16,172,-9.00,8.00,-1001.00
2024-05-17 16:56:17.292255,0,-1,1,0,0,0,68,71,147,130,59,192.30,172,-24.00,17.00,-1003.00
2024-05-17 16:56:17.331447,0,-1,1,0,0,0,68,71,146,130,59,192.19,173,3.00,7.00,-1004.00
2024-05-17 16:56:17.497491,0,-1,1,0,0,0,68,71,146,130,59,192.18,173,-3.00,10.00,-1020.00
2024-05-17 16:56:17.535556,0,0,1,0,0,0,68,71,146,130,59,192.20,173,-2.00,7.00,-1011.00
2024-05-17 16:56:17.640947,0,0,1,0,0,0,68,71,146,130,59,192.17,173,-5.00,10.00,-1000.00
2024-05-17 16:56:17.739445,0,0,0,0,0,0,68,71,146,130,59,192.22,173,-7.00,5.00,-989.00
2024-05-17 16:56:17.906313,0,0,0,0,0,0,68,71,146,130,59,192.21,173,-19.00,16.00,-1028.00
2024-05-17 16:56:17.943789,0,0,0,0,0,0,68,71,146,130,59,192.23,173,6.00,3.00,-1010.00
2024-05-17 16:56:18.111111,0,0,0,0,0,0,68,71,147,130,59,192.18,173,-23.00,28.00,-1007.00
2024-05-17 16:56:18.147893,0,0,0,0,0,0,68,71,147,130,59,192.27,173,4.00,15.00,-1003.00
2024-05-17 16:56:18.250001,0,0,0,0,0,0,68,71,147,130,59,192.23,173,1.00,7.00,-1001.00
2024-05-17 16:56:18.418442,0,0,0,0,0,0,68,71,147,130,59,192.19,174,0.00,-13.00,-975.00
2024-05-17 16:56:18.455364,0,0,1,0,0,0,68,71,147,130,59,192.20,174,-11.00,13.00,-987.00
2024-05-17 16:56:18.623545,0,0,1,0,0,0,68,71,146,130,59,192.25,174,-11.00,8.00,-996.00
2024-05-17 16:56:18.657837,0,0,1,0,0,0,68,71,146,130,59,192.15,174,23.00,-7.00,-984.00
2024-05-17 16:56:18.828120,0,0,1,0,0,0,68,71,147,130,59,192.26,174,0.00,9.00,-982.00
2024-05-17 16:56:18.828300,0,0,1,0,0,0,68,71,147,130,59,192.30,174,4.00,9.00,-1002.00
2024-05-17 16:56:18.914073,0,0,1,0,0,0,68,71,147,130,59,192.17,174,-10.00,14.00,-990.00
2024-05-17 16:56:19.014587,0,0,1,0,0,0,68,71,147,130,59,192.18,174,12.00,-6.00,-999.00
2024-05-17 16:56:19.118681,0,0,1,0,0,0,68,71,147,130,59,192.22,174,-2.00,8.00,-995.00
2024-05-17 16:56:19.218615,0,0,1,0,0,0,68,70,147,130,59,192.23,174,19.00,-6.00,-991.00
2024-05-17 16:56:19.340411,0,0,1,0,0,0,68,70,147,130,59,192.21,175,-4.00,11.00,-999.00
2024-05-17 16:56:19.422502,0,0,1,0,0,0,68,70,147,130,59,192.20,175,2.00,6.00,-992.00
2024-05-17 16:56:19.548369,0,0,1,0,0,0,68,70,147,130,59,192.22,175,20.00,-1.00,-989.00
2024-05-17 16:56:19.626592,0,0,1,0,0,0,68,70,148,130,59,192.24,175,-5.00,6.00,-995.00
2024-05-17 16:56:19.752135,0,0,1,0,0,0,68,70,147,130,59,192.24,175,-14.00,5.00,-1030.00
2024-05-17 16:56:19.830538,0,0,1,0,0,0,68,70,147,130,59,192.23,175,-2.00,10.00,-1032.00
2024-05-17 16:56:19.954458,0,0,1,0,0,0,68,70,147,130,59,192.23,175,1.00,6.00,-1013.00
2024-05-17 16:56:20.034694,0,0,1,0,0,0,68,70,147,130,59,192.27,175,-20.00,8.00,-997.00
2024-05-17 16:56:20.159523,0,0,1,0,0,0,68,70,147,130,59,192.27,175,-23.00,28.00,-983.00
2024-05-17 16:56:20.238471,0,0,1,0,0,0,69,70,147,130,59,192.22,175,1.00,11.00,-1002.00
2024-05-17 16:56:20.366038,0,0,1,0,0,0,69,70,147,130,59,192.22,176,6.00,5.00,-992.00
2024-05-17 16:56:20.442507,0,0,1,0,0,0,69,70,147,130,59,192.22,176,2.00,-5.00,-984.00
2024-05-17 16:56:20.570699,0,0,0,0,0,0,69,70,147,130,59,192.18,176,-5.00,20.00,-1005.00
2024-05-17 16:56:20.646939,0,0,0,0,0,0,69,70,147,130,59,192.18,176,1.00,0.00,-986.00
2024-05-17 16:56:20.775495,0,0,0,0,0,0,69,70,147,130,59,192.22,176,3.00,14.00,-996.00
2024-05-17 16:56:20.851031,0,0,0,0,0,0,69,70,147,130,59,192.20,176,-7.00,24.00,-1009.00
2024-05-17 16:56:20.979998,0,0,0,0,0,0,69,70,146,130,59,192.23,176,21.00,13.00,-999.00
2024-05-17 16:56:21.054482,0,0,0,0,0,0,69,70,147,130,59,192.20,176,-10.00,11.00,-1010.00
