TS,pitch,roll,yaw,vgx,vgy,vgz,templ,temph,tof,h,bat,baro,time,agx,agy,agz
2024-06-07 14:29:02.633780,1,0,48,0,0,0,82,85,10,0,44,152.88,320,24.00,15.00,-998.00
2024-06-07 14:29:02.726064,1,0,48,0,0,0,82,85,10,0,44,152.87,320,24.00,15.00,-995.00
2024-06-07 14:29:02.831857,1,0,48,0,0,0,82,85,10,0,44,152.82,320,23.00,13.00,-999.00
2024-06-07 14:29:02.930258,1,0,48,0,0,0,82,85,10,0,44,152.89,320,25.00,14.00,-1000.00
2024-06-07 14:29:03.038867,1,0,48,0,0,0,82,85,10,0,44,152.86,320,26.00,15.00,-999.00
2024-06-07 14:29:03.142050,1,0,48,0,0,0,82,85,10,0,44,152.86,320,24.00,14.00,-999.00
2024-06-07 14:29:03.236711,1,0,48,0,0,0,82,85,10,0,44,152.87,320,24.00,14.00,-997.00
2024-06-07 14:29:03.343249,1,0,48,0,0,0,82,85,10,0,44,152.82,320,24.00,16.00,-1002.00
2024-06-07 14:29:03.439939,1,0,48,0,0,0,82,85,10,0,44,152.91,320,26.00,14.00,-999.00
2024-06-07 14:29:03.548321,1,0,48,0,0,0,82,85,10,0,44,152.85,320,24.00,15.00,-1000.00
2024-06-07 14:29:03.643454,1,0,48,0,0,0,82,85,10,0,44,152.84,320,24.00,14.00,-1001.00
2024-06-07 14:29:03.746322,1,0,48,0,0,0,82,85,10,0,44,152.86,320,26.00,15.00,-999.00
2024-06-07 14:29:03.855343,1,0,48,0,0,0,82,85,10,0,44,152.88,320,25.00,15.00,-1000.00
2024-06-07 14:29:03.949568,1,0,48,0,0,0,82,85,10,0,44,152.91,320,24.00,15.00,-997.00
2024-06-07 14:29:04.063465,1,0,48,0,0,0,82,85,10,0,44,152.84,320,24.00,16.00,-999.00
2024-06-07 14:29:04.153663,1,0,48,0,0,0,82,85,10,0,44,152.89,320,25.00,15.00,-998.00
2024-06-07 14:29:04.276739,1,0,48,0,0,0,82,85,10,0,44,152.86,320,23.00,16.00,-1000.00
2024-06-07 14:29:04.357562,1,0,48,0,0,0,82,85,10,0,44,152.87,320,23.00,15.00,-1000.00
2024-06-07 14:29:04.473246,1,0,48,0,0,0,82,84,10,0,44,152.90,320,24.00,14.00,-997.00
2024-06-07 14:29:04.564682,1,0,48,0,0,0,82,84,10,0,44,152.91,320,24.00,14.00,-998.00
2024-06-07 14:29:04.612444,1,0,48,0,0,0,82,84,10,0,44,152.82,320,25.00,16.00,-1000.00
2024-06-07 14:29:04.722775,1,0,48,0,0,0,82,84,10,0,44,152.89,320,24.00,16.00,-1000.00
2024-06-07 14:29:04.816395,1,0,48,0,0,0,82,84,10,0,44,152.90,320,28.00,17.00,-1001.00
2024-06-07 14:29:04.984782,1,0,48,0,0,0,82,84,10,0,44,152.90,320,31.00,11.00,-1002.00
2024-06-07 14:29:05.020268,1,0,48,0,0,0,82,84,10,0,44,152.90,320,30.00,15.00,-998.00
2024-06-07 14:29:05.187601,1,0,48,0,0,0,82,84,10,0,44,152.90,321,42.00,5.00,-991.00
2024-06-07 14:29:05.224315,1,0,48,0,0,0,82,84,10,0,44,152.90,321,22.00,20.00,-1002.00
2024-06-07 14:29:05.391228,1,0,47,0,0,0,82,84,10,0,44,152.90,321,-10.00,2.00,-970.00
2024-06-07 14:29:05.428308,0,0,47,0,0,0,82,85,10,0,44,152.90,321,8.00,7.00,-1115.00
2024-06-07 14:29:05.595856,1,0,47,0,0,-1,82,85,10,0,44,152.90,321,6.00,10.00,-1151.00
2024-06-07 14:29:05.632499,0,0,47,0,0,-4,82,85,10,0,44,152.90,321,58.00,13.00,-1265.00
2024-06-07 14:29:05.735227,0,0,47,0,0,-6,82,85,16,0,44,152.94,321,-44.00,35.00,-1156.00
2024-06-07 14:29:05.836257,0,0,47,0,0,-7,82,85,24,0,44,153.19,321,41.00,2.00,-1082.00
2024-06-07 14:29:06.008139,0,0,47,0,0,-7,82,85,32,10,44,153.22,321,25.00,10.00,-1037.00
2024-06-07 14:29:06.045029,0,0,47,0,0,-7,82,85,39,10,44,153.31,321,21.00,24.00,-989.00
2024-06-07 14:29:06.142230,0,0,47,0,0,-7,82,85,47,20,44,153.38,322,16.00,27.00,-948.00
2024-06-07 14:29:06.313020,1,0,47,0,0,-6,82,85,55,20,44,153.49,322,28.00,3.00,-925.00
2024-06-07 14:29:06.347233,1,0,47,0,0,-5,82,85,63,30,44,153.53,322,38.00,5.00,-896.00
2024-06-07 14:29:06.517459,0,0,47,0,0,-4,82,85,70,30,44,153.66,322,14.00,35.00,-878.00
2024-06-07 14:29:06.550306,1,0,47,0,0,-3,82,85,75,40,44,153.75,322,17.00,24.00,-901.00
2024-06-07 14:29:06.657876,1,-1,47,0,0,-2,82,85,79,40,44,153.73,322,10.00,11.00,-893.00
2024-06-07 14:29:06.757848,0,-1,47,0,0,-1,82,85,83,50,44,153.82,322,-41.00,37.00,-906.00
2024-06-07 14:29:06.856189,0,0,47,0,0,0,82,85,86,50,44,153.82,322,19.00,20.00,-955.00
2024-06-07 14:29:07.031397,0,0,47,0,0,0,82,85,88,50,44,153.91,322,17.00,-3.00,-935.00
2024-06-07 14:29:07.060175,0,0,47,0,0,0,82,85,89,50,44,153.87,322,21.00,-10.00,-930.00
2024-06-07 14:29:07.235584,0,0,47,0,0,0,82,85,91,50,44,153.82,323,-6.00,13.00,-963.00
2024-06-07 14:29:07.264259,0,0,47,0,0,0,82,85,92,50,44,153.82,323,20.00,11.00,-993.00
2024-06-07 14:29:07.366132,0,0,47,0,0,0,82,85,92,50,44,153.88,323,22.00,1.00,-991.00
2024-06-07 14:29:07.541503,0,0,47,0,0,0,83,84,93,50,44,153.91,323,-13.00,25.00,-1005.00
2024-06-07 14:29:07.570105,0,0,47,0,0,0,83,84,94,60,44,153.97,323,-11.00,9.00,-947.00
2024-06-07 14:29:07.747521,0,-1,47,0,0,0,83,84,94,60,44,153.87,323,31.00,1.00,-997.00
2024-06-07 14:29:07.774217,0,-1,47,0,0,0,83,84,94,60,44,153.89,323,-20.00,29.00,-1018.00
2024-06-07 14:29:07.876384,0,-1,47,0,0,0,83,84,94,60,44,153.85,323,8.00,34.00,-978.00
2024-06-07 14:29:08.055583,0,0,47,0,0,0,83,84,93,60,44,153.89,323,30.00,0.00,-969.00
2024-06-07 14:29:08.084365,0,0,47,0,0,0,83,84,93,60,44,153.85,323,31.00,4.00,-960.00
2024-06-07 14:29:08.184901,0,-1,47,0,0,0,83,84,92,60,44,153.89,324,8.00,5.00,-977.00
2024-06-07 14:29:08.238852,0,-1,47,0,0,1,83,84,91,60,44,153.88,324,-4.00,16.00,-979.00
2024-06-07 14:29:08.335439,0,0,47,0,0,1,83,84,90,60,44,153.89,324,20.00,11.00,-1016.00
2024-06-07 14:29:08.488115,0,0,47,0,0,1,82,84,88,60,44,153.86,324,18.00,15.00,-1002.00
2024-06-07 14:29:08.672886,0,0,47,0,0,1,82,84,87,60,44,153.91,324,46.00,-2.00,-963.00
2024-06-07 14:29:08.692203,0,0,47,0,0,1,82,84,86,50,44,153.87,324,15.00,4.00,-1009.00
2024-06-07 14:29:08.743433,0,0,47,0,0,1,82,84,84,50,44,153.81,324,20.00,-8.00,-988.00
2024-06-07 14:29:08.880043,0,0,47,0,0,1,82,84,83,50,44,153.82,324,32.00,-9.00,-989.00
2024-06-07 14:29:08.947349,0,0,47,0,0,0,82,84,81,50,44,153.70,324,33.00,3.00,-1028.00
2024-06-07 14:29:09.079366,0,0,47,0,0,0,82,84,80,50,44,153.77,324,14.00,9.00,-1029.00
2024-06-07 14:29:09.151217,0,0,47,0,0,0,82,84,79,50,44,153.79,325,-4.00,19.00,-1011.00
2024-06-07 14:29:09.287788,0,0,47,0,0,0,82,84,78,50,44,153.69,325,43.00,-17.00,-1028.00
2024-06-07 14:29:09.356874,0,0,47,0,0,0,82,84,77,50,44,153.69,325,12.00,23.00,-1029.00
2024-06-07 14:29:09.457399,0,0,47,0,0,0,82,85,77,50,44,153.79,325,8.00,40.00,-1013.00
2024-06-07 14:29:09.597372,0,0,47,0,0,0,82,85,76,50,44,153.70,325,27.00,7.00,-1007.00
2024-06-07 14:29:09.661260,0,0,47,0,0,0,82,85,75,50,44,153.72,325,4.00,17.00,-1019.00
2024-06-07 14:29:09.763235,0,0,47,0,0,0,82,85,75,50,44,153.72,325,21.00,1.00,-1002.00
2024-06-07 14:29:09.896912,0,0,47,0,0,0,82,85,74,50,44,153.78,325,1.00,19.00,-1020.00
2024-06-07 14:29:09.967297,0,-1,47,0,0,0,82,85,74,40,44,153.79,325,1.00,41.00,-1006.00
2024-06-07 14:29:10.105226,0,0,47,0,0,0,82,85,73,40,44,153.71,325,20.00,5.00,-1005.00
2024-06-07 14:29:10.171207,0,0,47,0,0,0,82,85,74,40,44,153.69,326,27.00,13.00,-1023.00
2024-06-07 14:29:10.307250,0,0,47,0,0,0,82,85,73,40,44,153.75,326,4.00,22.00,-1000.00
2024-06-07 14:29:10.375243,1,0,47,0,0,0,82,85,73,40,44,153.74,326,19.00,13.00,-1027.00
2024-06-07 14:29:10.511018,1,0,47,0,0,0,82,84,74,40,44,153.73,326,36.00,8.00,-1015.00
2024-06-07 14:29:10.579305,1,0,47,0,0,0,82,84,74,40,44,153.76,326,-16.00,49.00,-986.00
2024-06-07 14:29:10.681157,0,0,47,0,0,0,82,84,74,40,44,153.78,326,18.00,-2.00,-1018.00
2024-06-07 14:29:10.783436,0,0,47,0,0,0,82,84,74,40,44,153.77,326,26.00,23.00,-1010.00
2024-06-07 14:29:10.885276,1,0,47,0,0,0,82,84,75,40,44,153.77,326,0.00,-3.00,-997.00
2024-06-07 14:29:11.023991,1,0,47,0,0,0,82,84,76,40,44,153.75,326,8.00,3.00,-1005.00
2024-06-07 14:29:11.090334,1,0,47,0,0,0,82,84,76,40,44,153.78,326,27.00,6.00,-1009.00
2024-06-07 14:29:11.193438,0,0,47,0,0,0,82,84,77,50,44,153.76,327,0.00,11.00,-981.00
2024-06-07 14:29:11.293156,0,0,47,0,0,0,82,84,77,50,44,153.74,327,4.00,24.00,-1006.00
2024-06-07 14:29:11.433731,0,0,47,0,0,0,82,84,77,50,44,153.82,327,-4.00,16.00,-1005.00
2024-06-07 14:29:11.497193,0,0,47,0,0,0,82,84,78,50,44,153.76,327,28.00,-1.00,-995.00
2024-06-07 14:29:11.637437,0,0,47,0,0,0,82,84,78,50,44,153.74,327,19.00,19.00,-1005.00
2024-06-07 14:29:11.701194,0,0,47,0,0,0,82,84,78,50,44,153.78,327,10.00,12.00,-985.00
2024-06-07 14:29:11.803087,0,0,47,0,0,0,82,84,78,50,44,153.76,327,-3.00,16.00,-1030.00
2024-06-07 14:29:11.946180,0,0,47,0,0,0,82,84,79,50,44,153.75,327,46.00,-8.00,-971.00
2024-06-07 14:29:12.007015,0,0,47,0,0,0,82,84,79,50,44,153.75,327,-14.00,18.00,-1025.00
2024-06-07 14:29:12.150191,0,-1,47,0,0,0,82,84,79,50,44,153.72,327,34.00,13.00,-1014.00
2024-06-07 14:29:12.210998,0,-1,47,0,0,0,82,84,79,50,44,153.78,328,27.00,6.00,-995.00
2024-06-07 14:29:12.354210,0,-1,47,0,0,0,82,84,79,50,44,153.77,328,11.00,2.00,-1009.00
2024-06-07 14:29:12.419508,0,-1,47,0,0,0,82,84,79,50,44,153.75,328,22.00,13.00,-989.00
2024-06-07 14:29:12.517084,0,-1,47,0,0,0,82,84,79,50,44,153.76,328,23.00,43.00,-989.00
2024-06-07 14:29:12.569033,0,-1,47,0,0,0,82,84,78,50,44,153.80,328,-12.00,3.00,-1005.00
2024-06-07 14:29:12.763761,0,-1,47,0,0,0,82,84,79,50,44,153.81,328,0.00,25.00,-1018.00
2024-06-07 14:29:12.773018,1,0,47,0,0,0,82,84,78,50,44,153.78,328,3.00,25.00,-993.00
2024-06-07 14:29:12.875139,0,0,47,0,0,0,82,84,78,50,44,153.77,328,9.00,8.00,-973.00
2024-06-07 14:29:13.074622,1,0,47,0,0,0,82,84,78,50,44,153.75,328,0.00,21.00,-1020.00
2024-06-07 14:29:13.078978,1,0,47,0,0,0,82,84,78,50,44,153.77,328,-4.00,6.00,-1002.00
2024-06-07 14:29:13.276404,1,0,47,0,0,0,82,84,78,50,44,153.78,329,-8.00,13.00,-1007.00
2024-06-07 14:29:13.283208,0,0,47,0,0,0,82,84,77,50,44,153.74,329,31.00,-1.00,-993.00
2024-06-07 14:29:13.481077,0,0,47,0,0,0,82,84,77,50,44,153.72,329,22.00,30.00,-1007.00
2024-06-07 14:29:13.487220,0,0,47,0,0,0,81,83,77,50,44,153.77,329,11.00,9.00,-1038.00
2024-06-07 14:29:13.685595,0,-1,47,0,0,0,81,83,76,50,44,153.76,329,11.00,13.00,-989.00
2024-06-07 14:29:13.691177,0,-1,47,0,0,0,81,83,76,50,44,153.72,329,7.00,0.00,-1007.00
2024-06-07 14:29:13.793444,0,-1,47,0,0,0,81,83,76,50,44,153.68,329,19.00,4.00,-997.00
2024-06-07 14:29:13.994646,0,-1,47,0,0,0,81,83,75,50,44,153.71,329,22.00,1.00,-998.00
2024-06-07 14:29:13.997255,0,-1,47,0,0,0,81,83,75,50,44,153.71,329,1.00,25.00,-985.00
2024-06-07 14:29:14.198363,0,-1,47,0,0,0,81,83,75,50,44,153.71,329,10.00,1.00,-993.00
2024-06-07 14:29:14.201258,0,-1,47,0,0,0,81,83,74,50,44,153.75,330,17.00,16.00,-995.00
2024-06-07 14:29:14.303215,0,-1,47,0,0,0,81,83,74,40,44,153.70,330,-6.00,43.00,-1020.00
2024-06-07 14:29:14.405867,0,-1,47,0,0,0,81,83,74,40,44,153.75,330,-7.00,24.00,-1011.00
2024-06-07 14:29:14.507096,0,-1,47,0,0,0,81,84,74,40,44,153.77,330,40.00,27.00,-986.00
2024-06-07 14:29:14.611693,0,-1,47,0,0,0,81,84,74,40,44,153.72,330,53.00,19.00,-1028.00
2024-06-07 14:29:14.711164,0,-1,47,0,0,0,81,84,74,40,44,153.70,330,23.00,6.00,-1017.00
2024-06-07 14:29:14.813576,1,-1,47,0,0,0,81,84,75,40,44,153.73,330,-9.00,27.00,-1007.00
2024-06-07 14:29:15.021053,1,-1,47,0,0,0,81,84,75,40,44,153.76,330,-25.00,37.00,-1025.00
2024-06-07 14:29:15.021235,1,-1,47,0,0,0,81,84,75,40,44,153.73,330,3.00,19.00,-989.00
2024-06-07 14:29:15.119222,0,-1,47,0,0,0,81,84,75,50,44,153.70,330,45.00,-8.00,-1000.00
2024-06-07 14:29:15.222163,1,0,47,0,0,0,81,84,75,50,44,153.71,331,17.00,8.00,-992.00
2024-06-07 14:29:15.323409,1,0,47,0,0,0,81,84,76,50,44,153.78,331,9.00,24.00,-1044.00
2024-06-07 14:29:15.426496,1,0,47,0,0,0,81,84,77,50,44,153.73,331,10.00,13.00,-1100.00
2024-06-07 14:29:15.528298,1,-1,47,0,0,-1,81,83,79,50,44,153.83,331,-2.00,11.00,-1085.00
2024-06-07 14:29:15.629254,0,0,47,0,0,-2,81,83,81,50,44,153.84,331,7.00,33.00,-1085.00
2024-06-07 14:29:15.731032,0,-1,47,0,0,-3,81,83,85,50,44,153.91,331,-22.00,20.00,-1078.00
2024-06-07 14:29:15.833125,0,-1,47,0,0,-4,81,83,90,60,44,153.96,331,24.00,3.00,-1073.00
2024-06-07 14:29:15.940881,0,-1,47,0,0,-4,81,83,95,60,44,153.93,331,44.00,9.00,-1036.00
2024-06-07 14:29:15.985948,1,-1,47,0,0,-5,81,83,100,60,44,153.91,331,7.00,34.00,-1026.00
2024-06-07 14:29:16.148890,1,-1,47,0,0,-5,81,83,105,70,44,153.99,331,16.00,19.00,-1012.00
2024-06-07 14:29:16.189743,1,-1,47,0,0,-5,81,83,111,80,44,154.13,332,32.00,25.00,-1016.00
2024-06-07 14:29:16.351376,1,-1,47,0,0,-5,81,83,116,80,44,154.17,332,14.00,24.00,-1016.00
2024-06-07 14:29:16.393779,1,-1,47,0,0,-5,81,83,122,90,44,154.19,332,20.00,21.00,-1009.00
2024-06-07 14:29:16.552791,1,-1,47,0,0,-5,80,83,129,90,44,154.29,332,0.00,30.00,-972.00
2024-06-07 14:29:16.597974,1,-1,47,0,0,-5,80,83,135,100,44,154.30,332,8.00,20.00,-974.00
2024-06-07 14:29:16.758027,1,-1,47,0,0,-5,80,83,139,100,44,154.33,332,0.00,21.00,-1002.00
2024-06-07 14:29:16.802135,1,-1,47,0,0,-4,80,83,143,110,44,154.39,332,4.00,40.00,-990.00
2024-06-07 14:29:16.904310,1,0,47,0,0,-4,80,83,147,110,44,154.42,332,31.00,15.00,-928.00
2024-06-07 14:29:17.005668,1,0,47,0,0,-4,80,83,151,120,44,154.43,332,9.00,14.00,-967.00
2024-06-07 14:29:17.107667,1,0,47,0,0,-3,80,83,154,120,44,154.55,332,7.00,20.00,-968.00
2024-06-07 14:29:17.269838,1,0,47,0,0,-3,80,83,158,120,44,154.53,333,-10.00,18.00,-976.00
2024-06-07 14:29:17.312951,1,0,47,0,0,-2,80,83,163,130,44,154.51,333,-2.00,12.00,-1022.00
2024-06-07 14:29:17.476212,0,-1,47,0,0,-2,80,83,165,130,44,154.53,333,16.00,-4.00,-977.00
2024-06-07 14:29:17.515677,1,-1,47,0,0,-2,82,83,168,130,44,154.55,333,16.00,18.00,-956.00
2024-06-07 14:29:17.679604,1,-1,47,0,0,-1,82,83,171,140,44,154.64,333,10.00,18.00,-946.00
2024-06-07 14:29:17.719651,1,-1,47,0,0,-1,82,83,171,140,44,154.63,333,-2.00,4.00,-987.00
2024-06-07 14:29:17.821708,1,-1,47,0,0,-1,82,83,174,140,44,154.68,333,18.00,13.00,-984.00
2024-06-07 14:29:17.925419,1,-1,47,0,0,-1,82,83,175,140,44,154.63,333,12.00,22.00,-975.00
2024-06-07 14:29:18.025891,1,-1,47,0,0,0,82,83,175,140,44,154.65,333,19.00,10.00,-934.00
2024-06-07 14:29:18.190995,1,-1,47,0,0,0,82,83,178,140,44,154.71,334,7.00,27.00,-985.00
2024-06-07 14:29:18.229811,1,-1,47,0,0,0,82,83,177,140,44,154.68,334,19.00,8.00,-963.00
2024-06-07 14:29:18.396008,1,-1,47,0,0,0,82,83,179,140,44,154.65,334,12.00,11.00,-1010.00
2024-06-07 14:29:18.433899,1,-1,47,0,0,0,82,83,179,140,44,154.70,334,-4.00,37.00,-985.00
2024-06-07 14:29:18.600770,1,-1,47,0,0,0,80,83,177,140,44,154.70,334,-2.00,25.00,-972.00
2024-06-07 14:29:18.637755,1,-1,47,0,0,0,80,83,178,140,44,154.67,334,-3.00,29.00,-980.00
2024-06-07 14:29:18.805789,1,-1,47,0,0,0,80,83,179,140,44,154.66,334,7.00,28.00,-978.00
2024-06-07 14:29:18.845671,1,-1,47,0,0,0,80,83,177,140,44,154.69,334,6.00,27.00,-1005.00
2024-06-07 14:29:18.945399,1,-1,47,0,0,0,80,83,178,140,44,154.70,334,0.00,32.00,-1002.00
2024-06-07 14:29:19.045849,1,-1,47,0,0,0,80,83,178,140,44,154.72,334,-3.00,37.00,-982.00
2024-06-07 14:29:19.215420,1,-1,47,0,0,0,80,83,180,140,44,154.71,335,5.00,21.00,-967.00
2024-06-07 14:29:19.249872,1,-1,47,0,0,0,80,83,177,150,44,154.73,335,20.00,26.00,-1005.00
2024-06-07 14:29:19.351708,0,-1,47,0,0,0,80,83,179,150,44,154.66,335,-3.00,38.00,-994.00
2024-06-07 14:29:19.522766,0,-1,47,0,0,0,80,83,180,150,44,154.70,335,35.00,10.00,-996.00
2024-06-07 14:29:19.555651,0,-1,47,0,0,0,80,83,179,150,44,154.64,335,-11.00,49.00,-983.00
2024-06-07 14:29:19.657803,1,-1,47,0,0,0,80,83,178,150,44,154.69,335,8.00,42.00,-986.00
2024-06-07 14:29:19.829458,1,-1,47,0,0,0,80,83,177,150,44,154.65,335,38.00,15.00,-993.00
2024-06-07 14:29:19.861746,1,-1,47,0,0,0,80,83,178,150,44,154.66,335,0.00,34.00,-1000.00
2024-06-07 14:29:19.963648,1,-1,47,0,0,0,80,83,176,150,44,154.71,335,-36.00,35.00,-1042.00
2024-06-07 14:29:20.136767,1,-1,47,0,0,0,80,83,177,140,44,154.69,335,21.00,23.00,-976.00
2024-06-07 14:29:20.167645,1,-1,47,0,0,0,80,83,177,140,44,154.69,336,31.00,37.00,-968.00
2024-06-07 14:29:20.341560,1,-1,47,0,0,1,80,83,175,140,44,154.71,336,8.00,17.00,-944.00
2024-06-07 14:29:20.371587,1,-1,47,0,0,1,80,83,176,140,44,154.67,336,29.00,30.00,-957.00
2024-06-07 14:29:20.548584,1,-1,47,0,0,1,80,83,173,140,44,154.63,336,3.00,27.00,-954.00
2024-06-07 14:29:20.575639,1,-1,47,0,0,2,81,83,170,140,44,154.60,336,38.00,18.00,-946.00
2024-06-07 14:29:20.677601,1,-1,47,0,0,2,81,83,167,140,44,154.61,336,8.00,39.00,-1015.00
2024-06-07 14:29:20.855305,1,-1,47,0,0,2,81,83,164,130,44,154.54,336,28.00,20.00,-1004.00
2024-06-07 14:29:20.855801,2,-1,47,0,0,2,81,83,162,130,44,154.50,336,5.00,28.00,-1006.00
2024-06-07 14:29:20.932950,2,-1,47,0,0,2,81,83,160,130,44,154.55,336,2.00,34.00,-985.00
2024-06-07 14:29:21.058507,2,-1,47,0,0,2,81,83,156,130,44,154.52,336,46.00,23.00,-983.00
2024-06-07 14:29:21.136764,2,-1,47,0,0,2,81,83,155,120,44,154.42,337,33.00,15.00,-1015.00
2024-06-07 14:29:21.263483,2,-1,47,0,0,2,81,83,151,120,44,154.40,337,12.00,47.00,-996.00
2024-06-07 14:29:21.341048,2,-1,47,0,0,2,81,83,150,120,44,154.48,337,14.00,44.00,-993.00
2024-06-07 14:29:21.442740,2,-1,47,0,0,2,81,83,147,120,44,154.32,337,23.00,43.00,-1014.00
2024-06-07 14:29:21.570991,2,-1,47,0,0,2,80,82,144,110,44,154.36,337,36.00,35.00,-991.00
2024-06-07 14:29:21.646701,2,-1,47,0,0,2,80,82,142,110,44,154.42,337,34.00,26.00,-1003.00
2024-06-07 14:29:21.776616,2,-1,47,0,0,1,80,82,139,110,44,154.31,337,60.00,28.00,-1013.00
2024-06-07 14:29:21.850951,2,-1,47,0,0,1,80,82,138,110,44,154.31,337,62.00,20.00,-1002.00
2024-06-07 14:29:21.979722,2,-1,47,0,0,1,80,82,136,110,44,154.28,337,44.00,29.00,-972.00
2024-06-07 14:29:22.056532,2,-2,47,0,0,1,80,82,135,100,44,154.29,337,34.00,25.00,-1010.00
2024-06-07 14:29:22.157925,2,-2,47,0,0,1,80,82,133,100,44,154.34,338,27.00,34.00,-1023.00
2024-06-07 14:29:22.258669,1,-2,47,0,0,1,80,82,131,100,44,154.32,338,40.00,36.00,-993.00
2024-06-07 14:29:22.363125,1,-2,47,0,0,1,80,82,131,100,44,154.24,338,9.00,7.00,-1055.00
2024-06-07 14:29:22.462738,1,-1,47,0,0,0,80,82,130,100,44,154.25,338,3.00,35.00,-1033.00
2024-06-07 14:29:22.596123,1,-2,47,0,0,0,80,83,129,100,44,154.25,338,15.00,48.00,-1016.00
2024-06-07 14:29:22.666830,1,-2,47,0,0,0,80,83,129,100,44,154.32,338,48.00,45.00,-1016.00
2024-06-07 14:29:22.800743,1,-2,47,0,0,0,80,83,127,100,44,154.21,338,15.00,25.00,-1034.00
2024-06-07 14:29:22.872968,1,-2,47,0,0,0,80,83,128,100,44,154.17,338,23.00,39.00,-1023.00
2024-06-07 14:29:22.972671,2,-2,47,0,0,0,80,83,127,100,44,154.20,338,-1.00,51.00,-1009.00
2024-06-07 14:29:23.106740,2,-2,47,0,0,0,80,83,127,100,44,154.28,338,34.00,35.00,-1009.00
2024-06-07 14:29:23.177317,2,-1,47,0,0,0,80,83,127,100,44,154.30,339,18.00,20.00,-1022.00
2024-06-07 14:29:23.278580,2,-1,47,0,0,0,80,83,129,100,44,154.20,339,27.00,32.00,-993.00
2024-06-07 14:29:23.414084,2,-1,47,0,0,0,80,83,129,100,44,154.20,339,39.00,13.00,-1018.00
2024-06-07 14:29:23.482701,1,-1,47,0,0,0,80,83,129,100,44,154.24,339,12.00,28.00,-998.00
2024-06-07 14:29:23.585000,1,-2,47,0,0,0,80,82,129,100,44,154.25,339,1.00,39.00,-984.00
2024-06-07 14:29:23.686743,1,-2,47,0,0,0,80,82,131,100,44,154.30,339,19.00,43.00,-993.00
2024-06-07 14:29:23.790680,1,-2,47,0,0,0,80,82,130,100,44,154.23,339,17.00,53.00,-971.00
2024-06-07 14:29:23.890707,1,-2,47,0,0,0,80,82,130,100,44,154.26,339,22.00,36.00,-990.00
2024-06-07 14:29:23.992724,1,-2,47,0,0,0,80,82,130,100,44,154.25,339,50.00,17.00,-987.00
2024-06-07 14:29:24.130764,1,-1,47,0,0,0,80,82,130,100,44,154.29,339,41.00,20.00,-987.00
2024-06-07 14:29:24.196690,1,-1,47,0,0,0,80,82,131,100,44,154.26,340,0.00,45.00,-1023.00
2024-06-07 14:29:24.336058,1,-1,47,0,0,0,80,82,129,100,44,154.25,340,34.00,37.00,-1002.00
2024-06-07 14:29:24.400789,1,-2,47,0,0,0,80,82,130,100,44,154.28,340,61.00,38.00,-970.00
2024-06-07 14:29:24.502776,1,-2,47,0,0,0,80,82,129,100,44,154.27,340,28.00,30.00,-1007.00
2024-06-07 14:29:24.606832,1,-2,47,0,0,0,80,82,130,100,44,154.30,340,10.00,46.00,-1031.00
2024-06-07 14:29:24.707749,-4,-2,47,0,0,0,80,82,132,100,44,154.31,340,15.00,39.00,-1005.00
2024-06-07 14:29:24.808505,-7,-2,47,0,1,0,80,82,132,100,44,154.27,340,24.00,29.00,-996.00
2024-06-07 14:29:24.950925,-7,-2,47,1,2,0,80,82,131,100,44,154.30,340,-37.00,65.00,-994.00
2024-06-07 14:29:25.013069,-6,-2,47,2,3,0,80,82,131,100,44,154.34,340,3.00,37.00,-1012.00
2024-06-07 14:29:25.063301,-6,-2,47,3,4,0,80,82,131,100,44,154.25,340,-9.00,45.00,-959.00
2024-06-07 14:29:25.167000,-5,-2,47,4,4,0,80,82,130,100,44,154.32,341,-18.00,43.00,-962.00
2024-06-07 14:29:25.267382,-4,-2,47,4,5,0,80,82,131,100,44,154.32,341,-21.00,52.00,-991.00
2024-06-07 14:29:25.462173,-3,-3,47,5,5,0,80,82,131,100,44,154.29,341,-35.00,45.00,-998.00
2024-06-07 14:29:25.474862,-1,-3,47,5,5,0,80,82,129,100,44,154.32,341,-40.00,38.00,-1005.00
2024-06-07 14:29:25.573662,1,-2,47,5,5,0,80,82,129,100,44,154.37,341,-37.00,39.00,-998.00
2024-06-07 14:29:25.768489,4,-2,47,4,5,0,80,82,127,100,44,154.29,341,-68.00,56.00,-1001.00
2024-06-07 14:29:25.779643,5,-2,47,3,4,0,80,82,127,100,44,154.31,341,-30.00,50.00,-1017.00
2024-06-07 14:29:25.879231,4,-2,47,3,3,0,80,82,127,100,44,154.34,341,-29.00,56.00,-997.00
2024-06-07 14:29:26.075799,3,-2,47,2,2,0,80,82,126,100,44,154.32,341,-2.00,53.00,-1036.00
2024-06-07 14:29:26.083278,2,-2,47,2,2,0,80,82,126,100,44,154.30,341,-8.00,43.00,-993.00
2024-06-07 14:29:26.185369,1,-2,47,2,2,0,80,82,126,100,44,154.28,342,-13.00,46.00,-1009.00
2024-06-07 14:29:26.287752,0,-2,47,2,2,0,80,82,125,100,43,154.27,342,-4.00,49.00,-993.00
2024-06-07 14:29:26.390397,0,-2,47,2,1,0,80,82,126,100,43,154.27,342,17.00,28.00,-965.00
2024-06-07 14:29:26.491377,1,-3,47,2,1,0,80,82,126,100,43,154.30,342,6.00,46.00,-1005.00
2024-06-07 14:29:26.593596,6,-2,47,1,1,0,80,83,126,100,43,154.35,342,-25.00,58.00,-996.00
2024-06-07 14:29:26.697418,5,0,47,1,0,0,80,83,126,100,43,154.29,342,27.00,37.00,-998.00
2024-06-07 14:29:26.800127,3,-2,47,0,0,0,80,83,126,100,43,154.25,342,-2.00,51.00,-1002.00
2024-06-07 14:29:26.899395,2,-2,47,0,0,0,80,83,126,100,43,154.25,342,0.00,48.00,-996.00
2024-06-07 14:29:27.100582,1,-2,47,0,0,0,80,83,124,100,43,154.35,342,35.00,28.00,-1015.00
2024-06-07 14:29:27.103354,1,-2,47,0,0,0,80,83,125,90,43,154.25,342,4.00,42.00,-1021.00
2024-06-07 14:29:27.205353,1,-2,47,0,0,0,80,83,126,90,43,154.28,343,-2.00,53.00,-983.00
2024-06-07 14:29:27.307434,1,-2,47,0,0,0,80,83,126,90,43,154.28,343,8.00,58.00,-1010.00
2024-06-07 14:29:27.409757,1,-2,47,0,0,0,80,83,127,90,43,154.25,343,28.00,49.00,-993.00
2024-06-07 14:29:27.511175,1,-2,47,0,0,0,80,83,129,90,43,154.31,343,31.00,31.00,-1018.00
2024-06-07 14:29:27.718177,1,-2,47,0,0,0,80,82,129,100,43,154.26,343,8.00,59.00,-969.00
2024-06-07 14:29:27.718343,1,-3,47,0,0,0,80,82,130,100,43,154.35,343,8.00,60.00,-984.00
2024-06-07 14:29:27.818651,1,-3,47,0,0,0,80,82,132,100,43,154.23,343,14.00,55.00,-1011.00
2024-06-07 14:29:27.919909,1,-2,47,0,0,0,80,82,131,100,43,154.31,343,39.00,35.00,-951.00
2024-06-07 14:29:28.022092,1,-2,47,0,0,0,80,82,131,100,43,154.28,343,8.00,43.00,-990.00
2024-06-07 14:29:28.123964,1,-2,47,0,0,0,80,82,132,100,43,154.34,343,16.00,43.00,-988.00
2024-06-07 14:29:28.226149,2,-2,47,0,0,0,80,82,132,100,43,154.31,344,34.00,65.00,-919.00
2024-06-07 14:29:28.330859,2,-2,47,0,0,0,80,82,133,100,42,154.29,344,26.00,53.00,-990.00
2024-06-07 14:29:28.432057,2,-2,47,0,0,0,80,82,132,100,42,154.35,344,40.00,37.00,-1009.00
2024-06-07 14:29:28.480442,2,-2,47,0,0,0,80,82,132,100,42,154.27,344,20.00,72.00,-1006.00
2024-06-07 14:29:28.635430,1,-2,47,0,0,0,80,81,133,100,42,154.34,344,28.00,44.00,-996.00
2024-06-07 14:29:28.737973,1,-2,47,0,0,0,80,81,131,100,42,154.33,344,23.00,61.00,-995.00
2024-06-07 14:29:28.786673,1,-2,47,0,0,0,80,81,134,100,42,154.28,344,22.00,55.00,-997.00
2024-06-07 14:29:28.949183,2,-2,47,0,0,0,80,81,132,100,42,154.28,344,45.00,49.00,-974.00
2024-06-07 14:29:28.990410,7,-2,47,0,0,0,80,81,133,100,42,154.38,344,14.00,54.00,-1014.00
2024-06-07 14:29:29.147874,8,-2,47,-1,-1,0,80,81,133,100,42,154.29,344,27.00,47.00,-1015.00
2024-06-07 14:29:29.194533,8,-2,47,-2,-1,0,80,81,132,100,42,154.33,345,38.00,39.00,-979.00
2024-06-07 14:29:29.354534,8,-2,47,-2,-2,0,80,81,133,100,42,154.27,345,50.00,45.00,-1038.00
2024-06-07 14:29:29.401203,8,-2,47,-3,-3,0,80,81,132,100,42,154.32,345,42.00,43.00,-1009.00
2024-06-07 14:29:29.500298,8,-2,47,-3,-3,0,80,81,131,100,42,154.27,345,57.00,39.00,-994.00
2024-06-07 14:29:29.602484,8,-2,47,-4,-4,0,79,82,132,100,42,154.21,345,100.00,30.00,-979.00
2024-06-07 14:29:29.765080,8,-3,47,-4,-4,0,79,82,132,100,42,154.33,345,87.00,29.00,-1007.00
2024-06-07 14:29:29.806539,7,-3,47,-5,-5,0,79,82,132,100,42,154.29,345,52.00,49.00,-1020.00
2024-06-07 14:29:29.913863,5,-3,47,-5,-5,0,79,82,131,100,42,154.31,345,50.00,47.00,-1024.00
2024-06-07 14:29:30.010765,1,-3,47,-5,-5,0,79,82,132,100,42,154.25,345,74.00,50.00,-987.00
2024-06-07 14:29:30.173295,-1,-2,47,-4,-5,0,79,82,131,100,42,154.31,345,85.00,53.00,-976.00
2024-06-07 14:29:30.219639,-3,-2,47,-3,-4,0,79,82,131,100,42,154.28,346,66.00,52.00,-977.00
2024-06-07 14:29:30.316429,-2,-2,47,-3,-3,0,79,82,131,100,42,154.24,346,21.00,62.00,-1001.00
2024-06-07 14:29:30.447733,0,-2,47,-2,-3,0,79,82,131,100,42,154.28,346,76.00,52.00,-998.00
2024-06-07 14:29:30.520429,0,-2,47,-2,-2,0,79,82,131,100,42,154.30,346,46.00,62.00,-1005.00
2024-06-07 14:29:30.622243,1,-2,47,-1,-2,0,80,81,131,100,42,154.23,346,12.00,63.00,-976.00
2024-06-07 14:29:30.786605,1,-2,47,-2,-1,0,80,81,132,100,42,154.26,346,37.00,52.00,-1008.00
2024-06-07 14:29:30.826358,1,-3,47,-1,-1,0,80,81,133,100,42,154.28,346,40.00,42.00,-1003.00
2024-06-07 14:29:30.990843,2,-3,47,-1,-1,0,80,81,131,100,42,154.30,346,32.00,30.00,-1012.00
2024-06-07 14:29:31.030939,2,-3,47,-1,-1,0,80,81,132,100,42,154.33,346,29.00,61.00,-985.00
2024-06-07 14:29:31.196024,2,-4,47,-1,-1,0,80,81,132,100,42,154.29,347,22.00,62.00,-1001.00
2024-06-07 14:29:31.237360,0,-6,47,-1,-1,0,80,81,134,100,42,154.25,347,17.00,47.00,-1025.00
2024-06-07 14:29:31.336740,-2,-1,47,0,-1,0,80,81,133,100,41,154.33,347,26.00,78.00,-973.00
2024-06-07 14:29:31.438269,-1,-1,47,0,0,0,80,81,133,100,41,154.31,347,28.00,51.00,-971.00
2024-06-07 14:29:31.540861,0,-2,47,0,0,0,80,81,133,100,41,154.29,347,36.00,59.00,-1011.00
2024-06-07 14:29:31.708189,0,-2,47,0,0,0,80,82,134,100,41,154.31,347,5.00,57.00,-1001.00
2024-06-07 14:29:31.745583,1,-3,47,0,0,0,80,82,133,100,41,154.26,347,15.00,29.00,-986.00
2024-06-07 14:29:31.846938,1,-2,47,0,0,0,80,82,133,100,41,154.41,347,18.00,57.00,-999.00
2024-06-07 14:29:32.016487,1,-3,47,0,0,0,80,82,132,100,41,154.29,347,1.00,65.00,-989.00
2024-06-07 14:29:32.050319,1,-3,47,0,0,0,80,82,132,100,41,154.37,347,7.00,62.00,-1004.00
2024-06-07 14:29:32.221768,1,-3,47,0,0,0,80,82,133,100,41,154.36,348,12.00,51.00,-1016.00
2024-06-07 14:29:32.254367,1,-3,47,0,0,0,80,82,133,100,41,154.37,348,-8.00,70.00,-997.00
2024-06-07 14:29:32.424791,1,-2,47,0,0,0,80,82,133,100,41,154.31,348,-10.00,90.00,-1022.00
2024-06-07 14:29:32.459419,1,-3,47,0,0,0,80,82,133,100,41,154.35,348,7.00,55.00,-1018.00
2024-06-07 14:29:32.630743,1,-3,47,0,0,0,80,82,135,100,41,154.28,348,-9.00,80.00,-1002.00
2024-06-07 14:29:32.662224,1,-3,47,0,0,0,79,81,134,100,41,154.32,348,21.00,53.00,-991.00
2024-06-07 14:29:32.834353,2,-3,47,0,0,0,79,81,133,100,41,154.38,348,19.00,68.00,-1014.00
2024-06-07 14:29:32.869736,2,-3,47,0,0,0,79,81,135,100,41,154.32,348,43.00,37.00,-986.00
2024-06-07 14:29:32.968557,2,-2,47,0,0,0,79,81,135,100,41,154.36,348,30.00,63.00,-983.00
2024-06-07 14:29:33.142317,2,-3,47,0,0,0,79,81,134,100,41,154.33,348,9.00,57.00,-991.00
2024-06-07 14:29:33.142568,2,-3,47,0,0,0,79,81,133,100,41,154.36,349,6.00,60.00,-969.00
2024-06-07 14:29:33.222974,2,-3,47,0,0,0,79,81,134,100,41,154.33,349,20.00,58.00,-990.00
2024-06-07 14:29:33.346394,2,-3,47,0,0,0,79,81,135,100,41,154.34,349,8.00,71.00,-1032.00
2024-06-07 14:29:33.427017,2,-3,47,0,0,0,79,81,134,100,41,154.34,349,30.00,57.00,-1000.00
2024-06-07 14:29:33.528898,1,-3,47,0,0,0,79,81,134,100,41,154.31,349,-5.00,65.00,-992.00
2024-06-07 14:29:33.632196,1,-3,47,0,0,0,79,81,134,100,41,154.31,349,7.00,85.00,-1009.00
2024-06-07 14:29:33.732860,0,-8,47,0,0,0,79,81,135,100,41,154.32,349,19.00,49.00,-1017.00
2024-06-07 14:29:33.834925,1,-8,47,0,0,0,79,81,135,100,41,154.40,349,33.00,63.00,-1004.00
2024-06-07 14:29:33.961144,1,-8,47,1,-1,0,79,81,135,100,41,154.42,349,13.00,85.00,-1005.00
2024-06-07 14:29:34.043405,1,-8,47,1,-1,0,79,81,135,100,41,154.43,349,31.00,70.00,-1003.00
2024-06-07 14:29:34.140875,1,-5,47,2,-2,0,79,81,133,100,41,154.48,350,8.00,88.00,-997.00
2024-06-07 14:29:34.267985,1,-3,47,2,-2,0,79,81,133,100,41,154.39,350,17.00,81.00,-1013.00
2024-06-07 14:29:34.344804,1,-3,47,2,-2,0,79,81,132,100,40,154.35,350,16.00,71.00,-986.00
2024-06-07 14:29:34.476177,1,-3,47,1,-1,0,79,81,132,100,40,154.42,350,12.00,71.00,-997.00
2024-06-07 14:29:34.549303,1,-3,47,1,-1,0,79,81,133,100,40,154.45,350,22.00,62.00,-984.00
2024-06-07 14:29:34.650911,1,-4,47,1,-1,0,79,81,131,100,40,154.32,350,-12.00,89.00,-986.00
2024-06-07 14:29:34.784804,1,-3,47,1,-1,0,79,81,131,100,40,154.40,350,13.00,74.00,-984.00
2024-06-07 14:29:34.855953,1,-3,47,1,-1,0,79,81,131,100,40,154.37,350,19.00,79.00,-1008.00
2024-06-07 14:29:34.984684,1,-3,47,1,-1,0,79,81,130,100,40,154.37,350,48.00,66.00,-991.00
2024-06-07 14:29:35.058887,1,-3,47,1,-2,0,79,81,130,100,40,154.37,350,23.00,79.00,-992.00
2024-06-07 14:29:35.190258,2,-3,47,1,-2,0,79,81,130,100,40,154.32,351,21.00,80.00,-989.00
2024-06-07 14:29:35.262918,2,-3,47,1,-2,0,79,81,130,100,40,154.36,351,-4.00,95.00,-993.00
2024-06-07 14:29:35.394716,3,-2,47,1,-2,0,79,81,129,100,40,154.39,351,52.00,56.00,-969.00
2024-06-07 14:29:35.466894,4,-1,47,0,-2,0,79,81,131,100,40,154.40,351,2.00,80.00,-989.00
2024-06-07 14:29:35.603009,0,0,47,0,-2,0,79,81,131,100,40,154.33,351,17.00,63.00,-1040.00
2024-06-07 14:29:35.670956,-1,0,47,0,-1,0,79,82,131,100,40,154.42,351,35.00,88.00,-933.00
2024-06-07 14:29:35.772955,0,-1,47,0,0,0,79,82,130,100,40,154.40,351,2.00,65.00,-1005.00
2024-06-07 14:29:35.874807,0,-2,47,0,0,0,79,82,132,100,40,154.36,351,24.00,55.00,-987.00
2024-06-07 14:29:35.976963,1,-2,47,0,0,0,79,82,131,100,40,154.31,351,4.00,55.00,-1017.00
2024-06-07 14:29:36.079371,1,-2,47,0,0,0,79,82,131,100,40,154.28,351,1.00,70.00,-996.00
2024-06-07 14:29:36.215278,1,-2,47,0,0,0,79,82,132,100,40,154.27,352,46.00,59.00,-978.00
2024-06-07 14:29:36.282929,1,-3,47,0,0,0,79,82,132,100,40,154.28,352,8.00,59.00,-1013.00
2024-06-07 14:29:36.419206,1,-3,47,0,0,0,79,82,133,100,40,154.29,352,9.00,55.00,-1010.00
2024-06-07 14:29:36.487002,1,-3,47,0,0,0,79,82,133,100,40,154.33,352,21.00,53.00,-991.00
2024-06-07 14:29:36.623059,1,-3,47,0,0,0,79,82,133,100,40,154.36,352,2.00,58.00,-1016.00
2024-06-07 14:29:36.692951,1,-3,47,0,0,0,79,81,133,100,40,154.50,352,2.00,67.00,-991.00
2024-06-07 14:29:36.792898,0,-3,47,0,0,0,79,81,135,100,40,154.46,352,-6.00,73.00,-1001.00
2024-06-07 14:29:36.844122,0,-3,47,0,0,0,79,81,133,100,40,154.44,352,-11.00,71.00,-1002.00
2024-06-07 14:29:37.033202,0,-3,47,0,0,0,79,81,134,100,40,154.36,352,0.00,57.00,-999.00
2024-06-07 14:29:37.047961,0,-3,47,0,0,0,79,81,133,100,40,154.35,352,-22.00,80.00,-988.00
2024-06-07 14:29:37.237491,0,-3,47,0,0,0,79,81,133,100,40,154.35,353,-22.00,85.00,-987.00
2024-06-07 14:29:37.252126,0,-3,47,0,0,0,79,81,132,100,39,154.27,353,-3.00,47.00,-1011.00
2024-06-07 14:29:37.442225,1,-3,47,0,0,0,79,81,131,100,39,154.30,353,10.00,52.00,-989.00
2024-06-07 14:29:37.455950,1,-3,47,0,0,0,79,81,132,100,39,154.32,353,4.00,62.00,-971.00
2024-06-07 14:29:37.648689,1,-3,47,0,0,0,79,81,132,100,39,154.33,353,-3.00,63.00,-1007.00
2024-06-07 14:29:37.663133,1,-3,47,0,0,0,79,81,132,100,39,154.30,353,54.00,52.00,-1005.00
2024-06-07 14:29:37.761907,1,-3,47,0,0,0,79,81,131,100,39,154.32,353,8.00,56.00,-996.00
2024-06-07 14:29:37.868200,0,-3,47,0,0,0,79,81,132,100,39,154.25,353,12.00,69.00,-991.00
2024-06-07 14:29:37.965902,0,3,47,0,0,0,79,81,132,100,39,154.28,353,-9.00,70.00,-1003.00
2024-06-07 14:29:38.159845,0,5,47,-1,0,0,79,81,133,100,39,154.31,353,-20.00,52.00,-1021.00
2024-06-07 14:29:38.174211,0,2,47,-2,1,0,79,81,131,100,39,154.34,354,23.00,73.00,-967.00
2024-06-07 14:29:38.274609,0,0,47,-2,2,0,79,81,131,100,39,154.39,354,8.00,26.00,-995.00
2024-06-07 14:29:38.376012,0,-2,47,-2,2,0,79,81,132,100,39,154.31,354,-4.00,35.00,-1028.00
2024-06-07 14:29:38.475848,0,-3,47,-2,2,0,79,81,132,100,39,154.29,354,25.00,23.00,-980.00
2024-06-07 14:29:38.670943,1,-3,47,-2,2,0,79,81,131,100,39,154.33,354,38.00,23.00,-1005.00
2024-06-07 14:29:38.680126,1,-3,47,-2,2,0,77,80,132,100,39,154.36,354,50.00,7.00,-995.00
2024-06-07 14:29:38.875571,1,-3,47,-2,1,0,77,80,131,100,39,154.35,354,-24.00,69.00,-1008.00
2024-06-07 14:29:38.883951,1,-2,47,-1,1,0,77,80,131,100,39,154.41,354,61.00,2.00,-989.00
2024-06-07 14:29:38.986001,1,-2,47,-1,1,0,77,80,130,100,39,154.34,354,-26.00,50.00,-1014.00
2024-06-07 14:29:39.183111,1,-2,47,-1,1,0,77,80,131,100,39,154.36,354,0.00,67.00,-1004.00
2024-06-07 14:29:39.189907,1,-2,47,-1,1,0,77,80,132,100,39,154.36,355,20.00,31.00,-989.00
2024-06-07 14:29:39.295088,1,-2,47,-1,1,0,77,80,132,100,38,154.30,355,12.00,35.00,-997.00
2024-06-07 14:29:39.395009,1,-2,47,-1,1,0,77,80,130,100,38,154.26,355,18.00,39.00,-993.00
2024-06-07 14:29:39.497342,1,-2,47,-1,1,0,77,80,130,100,38,154.33,355,2.00,47.00,-1028.00
2024-06-07 14:29:39.600693,2,-2,47,-1,1,0,77,80,130,100,38,154.37,355,14.00,43.00,-986.00
2024-06-07 14:29:39.702408,4,-4,47,-1,1,0,79,80,130,100,38,154.37,355,34.00,34.00,-1012.00
2024-06-07 14:29:39.804445,2,-4,47,-1,0,0,79,80,130,100,38,154.30,355,44.00,32.00,-976.00
2024-06-07 14:29:39.907848,-1,-7,47,-1,0,0,79,80,133,100,38,154.38,355,-8.00,43.00,-1004.00
2024-06-07 14:29:40.009698,0,-4,47,0,0,0,79,80,132,100,38,154.34,355,-19.00,95.00,-998.00
2024-06-07 14:29:40.107877,0,-4,47,0,0,0,79,80,131,100,38,154.37,355,33.00,52.00,-968.00
2024-06-07 14:29:40.211227,0,-3,47,0,0,0,79,80,131,100,38,154.38,356,22.00,48.00,-996.00
2024-06-07 14:29:40.313410,1,-3,47,0,0,0,79,80,131,100,38,154.36,356,-11.00,63.00,-1000.00
2024-06-07 14:29:40.362721,1,-2,47,0,0,0,79,80,131,100,38,154.33,356,31.00,50.00,-993.00
2024-06-07 14:29:40.514646,2,-2,47,0,0,0,79,80,130,100,38,154.36,356,14.00,72.00,-967.00
2024-06-07 14:29:40.566845,2,-2,47,0,0,0,79,80,130,100,38,154.36,356,0.00,63.00,-1005.00
2024-06-07 14:29:40.719841,2,-3,47,0,0,0,78,81,130,100,38,154.39,356,53.00,45.00,-984.00
2024-06-07 14:29:40.770551,2,-3,47,0,0,0,78,81,130,100,38,154.33,356,40.00,38.00,-1018.00
2024-06-07 14:29:40.872643,2,-3,47,0,0,0,78,81,131,100,38,154.28,356,49.00,53.00,-1002.00
2024-06-07 14:29:41.027436,2,-3,47,0,0,0,78,81,131,100,38,154.38,356,35.00,60.00,-980.00
2024-06-07 14:29:41.076715,2,-3,47,0,0,0,78,81,131,100,38,154.40,356,40.00,54.00,-976.00
2024-06-07 14:29:41.230864,2,-3,47,0,0,0,78,81,132,100,38,154.30,357,26.00,67.00,-979.00
2024-06-07 14:29:41.280784,2,-3,47,0,0,0,78,81,131,100,38,154.30,357,19.00,67.00,-993.00
2024-06-07 14:29:41.382651,1,-3,47,0,0,0,78,81,130,100,38,154.41,357,14.00,87.00,-963.00
2024-06-07 14:29:41.538167,1,-3,47,0,0,0,78,81,131,100,38,154.39,357,1.00,68.00,-1019.00
2024-06-07 14:29:41.591799,1,-3,47,0,0,0,78,81,130,100,38,154.40,357,-2.00,70.00,-995.00
2024-06-07 14:29:41.688701,0,-4,47,0,0,0,79,80,130,100,38,154.46,357,20.00,76.00,-1001.00
2024-06-07 14:29:41.845674,0,-4,47,0,0,0,79,80,130,100,38,154.44,357,-9.00,103.00,-959.00
2024-06-07 14:29:41.893174,0,-4,47,0,0,0,79,80,130,100,38,154.44,357,38.00,57.00,-992.00
2024-06-07 14:29:41.994574,0,-4,47,0,0,0,79,80,129,100,38,154.42,357,9.00,70.00,-1018.00
2024-06-07 14:29:42.096502,1,-4,47,0,0,0,79,80,129,100,38,154.43,357,76.00,45.00,-997.00
2024-06-07 14:29:42.256594,1,-3,50,0,0,0,79,80,128,100,38,154.30,358,18.00,71.00,-1016.00
2024-06-07 14:29:42.300419,1,-3,56,0,0,0,79,80,128,100,38,154.25,358,39.00,63.00,-1035.00
2024-06-07 14:29:42.402407,2,-3,62,0,0,0,79,80,128,100,38,154.29,358,57.00,63.00,-995.00
2024-06-07 14:29:42.504512,2,-3,68,0,0,0,79,80,128,100,38,154.31,358,33.00,55.00,-1021.00
2024-06-07 14:29:42.607052,2,-3,73,0,0,0,79,80,127,100,38,154.28,358,59.00,55.00,-991.00
2024-06-07 14:29:42.708344,3,-2,79,0,0,0,78,80,128,100,38,154.25,358,63.00,72.00,-1002.00
2024-06-07 14:29:42.810443,3,-2,85,0,0,0,78,80,127,100,38,154.26,358,87.00,40.00,-994.00
2024-06-07 14:29:42.971886,3,-2,91,0,0,0,78,80,127,100,38,154.23,358,43.00,57.00,-1010.00
2024-06-07 14:29:43.014377,4,-1,97,0,0,0,78,80,127,100,38,154.27,358,79.00,24.00,-1003.00
2024-06-07 14:29:43.178356,4,-1,103,0,0,0,78,80,127,100,38,154.23,358,61.00,24.00,-996.00
2024-06-07 14:29:43.218597,4,-1,109,0,0,0,78,80,127,100,38,154.12,359,78.00,48.00,-1004.00
2024-06-07 14:29:43.381723,4,0,115,0,0,0,78,80,128,100,38,154.15,359,88.00,27.00,-1008.00
2024-06-07 14:29:43.422527,4,0,120,0,0,0,78,80,128,100,38,154.14,359,85.00,0.00,-1000.00
2024-06-07 14:29:43.587794,5,0,126,0,0,0,78,80,129,100,38,154.17,359,62.00,21.00,-971.00
2024-06-07 14:29:43.627220,4,0,132,0,0,0,78,80,129,100,38,154.16,359,91.00,13.00,-1016.00
2024-06-07 14:29:43.730332,4,0,138,0,0,0,77,80,130,100,38,154.12,359,81.00,-17.00,-1027.00
2024-06-07 14:29:43.830530,4,1,143,0,0,0,77,80,130,100,38,154.22,359,62.00,-17.00,-973.00
2024-06-07 14:29:43.995626,4,2,149,0,0,0,77,80,129,100,38,154.27,359,41.00,-16.00,-986.00
2024-06-07 14:29:44.034357,4,2,155,0,0,0,77,80,130,100,38,154.26,359,64.00,-45.00,-1007.00
2024-06-07 14:29:44.085581,3,3,161,0,0,0,77,80,130,100,38,154.23,359,65.00,-36.00,-987.00
2024-06-07 14:29:44.303065,3,3,166,0,0,0,77,80,131,100,38,154.18,360,51.00,-35.00,-1014.00
2024-06-07 14:29:44.303118,2,3,172,0,0,0,77,80,131,100,38,154.27,360,40.00,-44.00,-995.00
2024-06-07 14:29:44.391618,2,3,178,0,0,0,77,80,131,100,38,154.31,360,24.00,-51.00,-1002.00
2024-06-07 14:29:44.508647,2,3,-175,0,0,0,77,80,130,100,38,154.35,360,75.00,-74.00,-968.00
2024-06-07 14:29:44.595971,1,3,-170,0,0,0,77,80,130,100,38,154.33,360,38.00,-46.00,-1026.00
2024-06-07 14:29:44.712429,1,3,-164,0,0,0,78,80,132,100,38,154.36,360,19.00,-53.00,-1000.00
2024-06-07 14:29:44.799658,1,3,-158,0,0,0,78,80,131,100,38,154.32,360,37.00,-64.00,-982.00
2024-06-07 14:29:44.901639,0,3,-152,0,0,0,78,80,130,100,38,154.32,360,-14.00,-52.00,-994.00
2024-06-07 14:29:45.019853,0,3,-146,0,0,0,78,80,130,100,38,154.33,360,12.00,-67.00,-980.00
2024-06-07 14:29:45.107262,0,3,-140,0,0,0,78,80,130,100,38,154.28,360,-14.00,-51.00,-1003.00
2024-06-07 14:29:45.207464,0,3,-134,0,0,0,78,80,131,100,38,154.28,361,-1.00,-56.00,-1011.00
2024-06-07 14:29:45.309600,-1,3,-128,0,0,0,78,80,130,100,37,154.26,361,-15.00,-71.00,-1011.00
2024-06-07 14:29:45.429810,-1,3,-122,0,0,0,78,80,130,100,37,154.17,361,-23.00,-43.00,-1001.00
2024-06-07 14:29:45.514086,-1,2,-116,0,0,0,78,80,130,100,37,154.23,361,-32.00,-46.00,-1009.00
2024-06-07 14:29:45.634468,-2,2,-110,0,0,0,78,80,131,100,37,154.18,361,-13.00,-66.00,-1038.00
2024-06-07 14:29:45.718032,-2,2,-98,0,0,0,79,80,131,100,37,154.15,361,-43.00,-43.00,-975.00
2024-06-07 14:29:45.839226,-3,2,-92,0,0,0,79,80,131,100,37,154.09,361,-43.00,-19.00,-973.00
2024-06-07 14:29:45.922181,-3,1,-86,0,0,0,79,80,132,100,37,154.13,361,-68.00,-29.00,-998.00
2024-06-07 14:29:46.043904,-4,1,-80,0,0,0,79,80,133,100,37,154.15,361,-72.00,-33.00,-995.00
2024-06-07 14:29:46.125603,-5,0,-74,0,0,0,79,80,133,100,37,154.08,362,-79.00,-20.00,-1006.00
2024-06-07 14:29:46.251439,-5,0,-68,0,0,0,79,80,133,100,37,154.13,362,-58.00,-22.00,-922.00
2024-06-07 14:29:46.329547,-5,0,-62,0,0,0,79,80,134,100,37,154.07,362,-77.00,-14.00,-976.00
2024-06-07 14:29:46.431624,-5,0,-56,0,0,0,79,80,136,100,37,154.06,362,-99.00,22.00,-1010.00
2024-06-07 14:29:46.555745,-5,-1,-49,0,0,0,79,80,136,100,37,154.15,362,-90.00,19.00,-977.00
2024-06-07 14:29:46.635668,-5,-1,-43,0,0,0,79,80,135,100,37,154.22,362,-91.00,27.00,-1009.00
2024-06-07 14:29:46.761450,-5,-2,-37,0,0,0,79,81,135,100,37,154.19,362,-62.00,20.00,-954.00
2024-06-07 14:29:46.839579,-4,-2,-32,0,0,0,79,81,137,100,37,154.18,362,-106.00,20.00,-1003.00
2024-06-07 14:29:46.966001,-4,-2,-26,0,0,0,79,81,137,100,37,154.21,362,-85.00,30.00,-966.00
2024-06-07 14:29:47.045464,-4,-2,-20,0,0,0,79,81,136,100,37,154.31,362,-68.00,62.00,-979.00
2024-06-07 14:29:47.145812,-3,-3,-14,0,0,0,79,81,136,100,37,154.31,363,-76.00,54.00,-976.00
2024-06-07 14:29:47.247432,-3,-3,-8,0,0,0,79,81,135,100,37,154.30,363,-32.00,37.00,-1006.00
2024-06-07 14:29:47.349586,-3,-3,-2,0,0,0,79,81,134,100,37,154.28,363,-47.00,62.00,-1006.00
2024-06-07 14:29:47.477970,-3,-3,3,0,0,0,79,81,134,100,37,154.27,363,-59.00,68.00,-978.00
2024-06-07 14:29:47.554358,-2,-4,9,0,0,0,79,81,133,100,37,154.29,363,-44.00,67.00,-985.00
2024-06-07 14:29:47.655523,-2,-4,15,0,0,0,79,81,133,100,37,154.29,363,-25.00,63.00,-993.00
2024-06-07 14:29:47.784430,-1,-4,21,0,0,0,78,81,132,100,37,154.35,363,-32.00,88.00,-1026.00
2024-06-07 14:29:47.859453,-1,-4,26,0,0,0,78,81,131,100,37,154.32,363,-16.00,76.00,-1001.00
2024-06-07 14:29:47.989255,-1,-4,31,0,0,0,78,81,130,100,37,154.36,363,-29.00,97.00,-1013.00
2024-06-07 14:29:48.063564,0,-4,35,0,0,0,78,81,129,100,37,154.33,363,13.00,96.00,-1017.00
2024-06-07 14:29:48.165471,0,-4,38,0,0,0,78,81,129,100,37,154.37,364,-25.00,89.00,-1028.00
2024-06-07 14:29:48.296569,0,-4,40,0,0,0,78,81,129,100,37,154.40,364,6.00,84.00,-1003.00
2024-06-07 14:29:48.369413,0,-4,42,0,0,0,78,81,129,100,37,154.41,364,-1.00,82.00,-1006.00
2024-06-07 14:29:48.420337,0,-4,43,0,0,0,78,81,129,100,37,154.32,364,12.00,76.00,-1005.00
2024-06-07 14:29:48.522201,0,-4,44,0,0,0,78,81,127,100,37,154.40,364,-3.00,75.00,-996.00
2024-06-07 14:29:48.624276,0,-4,45,0,0,0,78,81,128,100,37,154.42,364,14.00,94.00,-979.00
2024-06-07 14:29:48.726361,0,-4,45,0,0,0,78,82,128,100,37,154.40,364,-10.00,97.00,-976.00
2024-06-07 14:29:48.828442,0,-4,45,0,0,0,78,82,127,100,37,154.37,364,21.00,81.00,-997.00
2024-06-07 14:29:49.013571,0,-4,45,0,0,0,78,82,128,100,37,154.40,364,12.00,58.00,-1017.00
2024-06-07 14:29:49.032208,0,-4,45,0,0,0,78,82,128,100,37,154.37,364,2.00,64.00,-1033.00
2024-06-07 14:29:49.219914,0,-4,45,0,0,0,78,82,129,100,37,154.38,365,5.00,76.00,-999.00
2024-06-07 14:29:49.241590,0,-4,45,0,0,0,78,82,128,100,37,154.37,365,2.00,82.00,-1000.00
2024-06-07 14:29:49.338350,0,-4,45,0,0,0,78,82,128,100,36,154.35,365,6.00,81.00,-992.00
2024-06-07 14:29:49.527152,0,-4,45,0,0,0,78,82,128,100,36,154.38,365,19.00,79.00,-981.00
2024-06-07 14:29:49.542343,0,-4,45,0,0,0,78,82,128,100,36,154.41,365,12.00,73.00,-977.00
2024-06-07 14:29:49.644357,0,-4,45,0,0,0,78,82,128,100,36,154.34,365,-16.00,86.00,-999.00
2024-06-07 14:29:49.834371,0,-4,45,0,0,0,79,81,128,100,36,154.39,365,24.00,57.00,-995.00
2024-06-07 14:29:49.848469,0,-4,45,0,0,0,79,81,128,100,36,154.43,365,0.00,58.00,-1005.00
2024-06-07 14:29:50.039325,0,-4,45,0,0,0,79,81,127,100,36,154.35,365,19.00,78.00,-984.00
2024-06-07 14:29:50.052138,0,-4,45,0,0,0,79,81,127,100,36,154.36,365,14.00,72.00,-994.00
2024-06-07 14:29:50.243903,0,-4,45,0,0,0,79,81,127,100,36,154.36,366,5.00,75.00,-994.00
2024-06-07 14:29:50.256030,0,-4,45,0,0,0,79,81,127,100,36,154.36,366,1.00,82.00,-1017.00
2024-06-07 14:29:50.358219,0,-4,45,0,0,0,79,81,125,100,36,154.41,366,4.00,92.00,-996.00
2024-06-07 14:29:50.555347,0,-4,45,0,0,0,79,81,126,100,36,154.32,366,6.00,82.00,-984.00
2024-06-07 14:29:50.563378,0,-5,45,0,0,0,79,81,126,100,36,154.38,366,2.00,88.00,-1024.00
2024-06-07 14:29:50.664115,0,-4,45,0,0,0,79,81,126,100,36,154.37,366,19.00,75.00,-1013.00
2024-06-07 14:29:50.766085,0,-5,45,0,0,0,78,81,125,100,36,154.40,366,10.00,84.00,-951.00
2024-06-07 14:29:50.961188,0,-4,42,0,0,0,78,81,126,100,36,154.30,366,-46.00,119.00,-1025.00
2024-06-07 14:29:50.971704,0,-4,37,0,0,0,78,81,125,100,36,154.32,366,-16.00,85.00,-1010.00
2024-06-07 14:29:51.072060,0,-5,31,0,0,0,78,81,126,100,36,154.33,366,-4.00,75.00,-980.00
2024-06-07 14:29:51.266634,-1,-4,25,0,0,0,78,81,125,100,36,154.34,367,-45.00,108.00,-970.00
2024-06-07 14:29:51.276066,-1,-4,19,0,0,0,78,81,126,100,36,154.22,367,-26.00,73.00,-1018.00
2024-06-07 14:29:51.463777,-2,-4,12,0,0,0,78,81,127,100,36,154.21,367,-61.00,89.00,-949.00
2024-06-07 14:29:51.480233,-2,-3,6,0,0,0,78,81,127,100,36,154.20,367,-46.00,79.00,-987.00
2024-06-07 14:29:51.582016,-3,-3,0,0,0,0,78,81,128,100,36,154.21,367,-57.00,87.00,-997.00
2024-06-07 14:29:51.778877,-3,-3,-5,0,0,0,78,81,128,100,36,154.20,367,-48.00,69.00,-1006.00
2024-06-07 14:29:51.786142,-3,-3,-11,0,0,0,77,80,128,100,36,154.14,367,-43.00,44.00,-984.00
2024-06-07 14:29:51.888102,-3,-2,-17,0,0,0,77,80,129,100,36,154.25,367,-62.00,77.00,-974.00
2024-06-07 14:29:51.990073,-3,-2,-23,0,0,0,77,80,131,100,36,154.18,367,-115.00,63.00,-1004.00
2024-06-07 14:29:52.187704,-4,-2,-29,0,0,0,77,80,131,100,36,154.17,367,-77.00,33.00,-1006.00
2024-06-07 14:29:52.194038,-4,-1,-35,0,0,0,77,80,130,100,36,154.13,368,-140.00,57.00,-997.00
2024-06-07 14:29:52.245211,-5,-1,-41,0,0,0,77,80,130,100,35,154.03,368,-76.00,3.00,-1001.00
2024-06-07 14:29:52.394614,-5,0,-47,0,0,0,77,80,132,100,35,154.19,368,-78.00,0.00,-1007.00
2024-06-07 14:29:52.449321,-5,0,-53,0,0,0,77,80,131,100,35,153.91,368,-78.00,2.00,-985.00
2024-06-07 14:29:52.597307,-5,0,-59,0,0,0,77,80,131,100,35,153.92,368,-75.00,-16.00,-992.00
2024-06-07 14:29:52.653460,-5,0,-65,0,0,0,77,80,131,100,35,154.01,368,-95.00,-13.00,-1026.00
2024-06-07 14:29:52.802002,-4,1,-70,0,0,0,78,81,132,100,35,154.15,368,-103.00,5.00,-963.00
2024-06-07 14:29:52.858797,-4,1,-76,0,0,0,78,81,130,100,35,154.12,368,-74.00,-18.00,-1000.00
2024-06-07 14:29:52.959258,-4,2,-82,0,0,0,78,81,132,100,35,154.19,368,-72.00,-43.00,-1029.00
2024-06-07 14:29:53.114724,-4,2,-88,0,0,0,78,81,130,100,35,154.17,368,-97.00,-15.00,-955.00
2024-06-07 14:29:53.164666,-3,2,-94,0,0,0,78,81,131,100,35,154.19,369,-68.00,-24.00,-983.00
2024-06-07 14:29:53.314099,-3,3,-100,0,0,0,78,81,131,100,35,154.20,369,-69.00,-39.00,-955.00
2024-06-07 14:29:53.367488,-2,3,-105,0,0,0,78,81,131,100,35,154.17,369,-30.00,-73.00,-1008.00
2024-06-07 14:29:53.469262,-2,3,-111,0,0,0,78,81,130,100,35,154.25,369,-65.00,-45.00,-1013.00
2024-06-07 14:29:53.621265,-1,4,-117,0,0,0,78,81,131,100,35,154.23,369,-31.00,-70.00,-1012.00
2024-06-07 14:29:53.673408,0,4,-123,0,0,0,78,81,131,100,35,154.24,369,-17.00,-72.00,-1001.00
2024-06-07 14:29:53.775230,0,3,-129,0,0,0,79,80,130,100,35,154.33,369,15.00,-65.00,-992.00
2024-06-07 14:29:53.932288,0,3,-135,0,0,0,79,80,130,100,35,154.34,369,17.00,-72.00,-994.00
2024-06-07 14:29:53.979205,0,3,-142,0,0,0,79,80,131,100,35,154.33,369,27.00,-68.00,-937.00
2024-06-07 14:29:54.133412,1,3,-148,0,0,0,79,80,132,100,35,154.36,369,14.00,-42.00,-1006.00
2024-06-07 14:29:54.189214,1,3,-154,0,0,0,79,80,132,100,35,154.33,370,20.00,-61.00,-983.00
2024-06-07 14:29:54.289782,2,3,-160,0,0,0,79,80,131,100,35,154.31,370,-5.00,-33.00,-1002.00
2024-06-07 14:29:54.387654,2,2,-166,0,0,0,79,80,132,100,35,154.40,370,19.00,-54.00,-999.00
2024-06-07 14:29:54.489161,2,2,-172,0,0,0,79,80,132,100,35,154.35,370,59.00,-62.00,-1010.00
2024-06-07 14:29:54.646598,2,3,-179,0,0,0,79,80,132,100,35,154.30,370,46.00,-34.00,-989.00
2024-06-07 14:29:54.694661,3,2,174,0,0,0,79,80,132,100,35,154.32,370,83.00,-31.00,-989.00
2024-06-07 14:29:54.795441,3,1,168,0,0,0,79,81,133,100,35,154.34,370,102.00,-61.00,-964.00
2024-06-07 14:29:54.897168,4,1,162,0,0,0,79,81,133,100,35,154.28,370,54.00,-17.00,-980.00
2024-06-07 14:29:55.054697,4,0,156,0,0,0,79,81,133,100,35,154.33,370,73.00,2.00,-1016.00
2024-06-07 14:29:55.101673,5,0,149,0,0,0,79,81,132,100,35,154.22,370,91.00,18.00,-1038.00
2024-06-07 14:29:55.259749,5,0,143,0,0,0,79,81,133,100,35,154.22,371,97.00,-7.00,-1010.00
2024-06-07 14:29:55.305079,5,0,137,0,0,0,79,81,132,100,35,154.03,371,87.00,45.00,-996.00
2024-06-07 14:29:55.464764,5,0,131,0,0,0,79,81,133,100,35,154.28,371,76.00,34.00,-1003.00
2024-06-07 14:29:55.509060,5,-1,125,0,0,0,79,81,133,100,35,154.35,371,76.00,42.00,-970.00
2024-06-07 14:29:55.669831,5,-2,119,0,0,0,79,81,134,100,35,154.23,371,105.00,8.00,-997.00
2024-06-07 14:29:55.713799,5,-2,114,0,0,0,79,81,133,100,35,154.27,371,64.00,56.00,-1008.00
2024-06-07 14:29:55.816829,4,-3,108,0,0,0,79,81,133,100,35,154.26,371,51.00,64.00,-1012.00
2024-06-07 14:29:55.917146,4,-2,102,0,0,0,79,81,133,100,35,154.26,371,77.00,56.00,-973.00
2024-06-07 14:29:56.019522,3,-3,96,0,0,0,79,81,132,100,35,154.31,371,60.00,69.00,-1003.00
2024-06-07 14:29:56.070762,3,-3,90,0,0,0,79,81,132,100,35,154.35,371,65.00,61.00,-971.00
2024-06-07 14:29:56.181288,3,-3,85,0,0,0,79,81,132,100,35,154.37,372,40.00,80.00,-1015.00
2024-06-07 14:29:56.274101,3,-4,79,0,0,0,79,81,132,100,35,154.39,372,38.00,66.00,-1005.00
2024-06-07 14:29:56.386138,2,-4,73,0,0,0,79,81,132,100,35,154.40,372,-13.00,94.00,-991.00
2024-06-07 14:29:56.477813,1,-4,67,0,0,0,79,81,131,100,35,154.35,372,14.00,109.00,-990.00
2024-06-07 14:29:56.591195,1,-4,62,0,0,0,79,81,131,100,35,154.40,372,-31.00,97.00,-1032.00
2024-06-07 14:29:56.682302,0,-4,59,0,0,0,79,81,131,100,35,154.34,372,6.00,72.00,-996.00
2024-06-07 14:29:56.798125,0,-4,55,0,0,0,79,81,131,100,35,154.36,372,16.00,86.00,-938.00
2024-06-07 14:29:56.888474,0,-4,53,0,0,0,79,81,130,100,35,154.43,372,44.00,97.00,-985.00
2024-06-07 14:29:57.004061,0,-4,51,0,0,0,79,81,129,100,35,154.53,372,6.00,91.00,-1005.00
2024-06-07 14:29:57.091028,0,-4,50,0,0,0,79,81,130,100,35,154.52,372,-9.00,84.00,-992.00
2024-06-07 14:29:57.206441,0,-5,48,0,0,0,79,81,130,100,35,154.47,373,9.00,88.00,-993.00
2024-06-07 14:29:57.295017,0,-5,48,0,0,0,79,81,129,100,35,154.54,373,-1.00,94.00,-994.00
2024-06-07 14:29:57.398929,0,-5,47,0,0,0,79,81,130,100,35,154.45,373,55.00,80.00,-993.00
2024-06-07 14:29:57.499354,0,-5,47,0,0,0,79,81,130,100,35,154.45,373,15.00,56.00,-1006.00
2024-06-07 14:29:57.616325,1,-4,47,0,0,0,79,81,129,100,35,154.48,373,22.00,95.00,-983.00
2024-06-07 14:29:57.707721,1,-4,47,0,0,0,79,81,129,100,35,154.43,373,58.00,95.00,-953.00
2024-06-07 14:29:57.807222,1,-4,47,0,0,0,78,81,129,100,35,154.38,373,-2.00,82.00,-998.00
2024-06-07 14:29:57.907130,1,-4,47,0,0,0,78,81,130,100,35,154.37,373,6.00,86.00,-1007.00
2024-06-07 14:29:58.009080,1,-4,47,0,0,0,78,81,130,100,35,154.48,373,0.00,85.00,-1014.00
2024-06-07 14:29:58.128723,0,-4,47,0,0,0,78,81,130,100,35,154.40,373,-2.00,95.00,-1006.00
2024-06-07 14:29:58.218438,0,-5,47,0,0,0,78,81,130,100,35,154.47,374,-38.00,89.00,-993.00
2024-06-07 14:29:58.315486,0,-4,47,0,0,0,78,81,130,100,35,154.44,374,5.00,78.00,-992.00
2024-06-07 14:29:58.434155,0,-5,47,0,0,0,78,81,130,100,35,154.45,374,24.00,89.00,-998.00
2024-06-07 14:29:58.519208,0,-4,47,0,0,0,78,81,130,100,35,154.44,374,-2.00,89.00,-997.00
2024-06-07 14:29:58.621217,0,-4,47,0,0,0,78,81,131,100,35,154.42,374,-12.00,94.00,-1020.00
2024-06-07 14:29:58.741379,0,-4,47,0,0,0,78,81,129,100,35,154.47,374,-3.00,75.00,-1000.00
2024-06-07 14:29:58.825122,0,-4,47,0,0,0,77,80,130,100,35,154.43,374,30.00,76.00,-974.00
2024-06-07 14:29:58.927080,0,-4,47,0,0,0,77,80,129,100,35,154.45,374,26.00,85.00,-970.00
2024-06-07 14:29:59.048365,0,-4,47,0,0,0,77,80,130,100,35,154.48,374,5.00,85.00,-998.00
2024-06-07 14:29:59.130981,0,-4,47,0,0,0,77,80,130,100,35,154.38,374,26.00,75.00,-978.00
2024-06-07 14:29:59.254908,0,-4,47,0,0,0,77,80,129,100,35,154.42,375,5.00,78.00,-1003.00
2024-06-07 14:29:59.334916,0,-4,47,0,0,0,77,80,130,100,35,154.41,375,-10.00,80.00,-1005.00
2024-06-07 14:29:59.386596,0,-4,47,0,0,0,77,80,129,100,35,154.48,375,30.00,75.00,-1009.00
2024-06-07 14:29:59.560330,0,-4,47,0,0,0,77,80,130,100,35,154.49,375,-4.00,95.00,-992.00
2024-06-07 14:29:59.590957,0,-4,47,0,0,0,77,80,129,100,35,154.47,375,-9.00,88.00,-995.00
2024-06-07 14:29:59.765792,0,-4,47,0,0,0,77,80,129,100,35,154.46,375,-7.00,80.00,-995.00
2024-06-07 14:29:59.794996,0,-4,47,0,0,0,77,80,130,100,35,154.52,375,43.00,67.00,-1018.00
2024-06-07 14:29:59.971188,0,-4,47,0,0,0,77,80,129,100,35,154.46,375,19.00,80.00,-987.00
2024-06-07 14:29:59.998979,0,-4,47,0,0,0,77,80,129,100,35,154.44,375,-6.00,83.00,-990.00
2024-06-07 14:30:00.176587,1,-4,47,0,0,0,77,80,128,100,35,154.38,375,-23.00,80.00,-1011.00
2024-06-07 14:30:00.202920,0,-4,47,0,0,0,77,80,129,100,35,154.43,376,-5.00,106.00,-995.00
2024-06-07 14:30:00.384003,0,-4,47,0,0,0,77,80,130,100,34,154.43,376,34.00,105.00,-983.00
2024-06-07 14:30:00.408230,0,-4,47,0,0,0,77,80,130,100,34,154.45,376,1.00,79.00,-1011.00
2024-06-07 14:30:00.508921,0,-5,47,0,0,0,77,80,129,100,34,154.39,376,14.00,89.00,-994.00
2024-06-07 14:30:00.611369,0,-5,47,0,0,0,77,80,129,100,34,154.41,376,-16.00,94.00,-997.00
2024-06-07 14:30:00.792899,0,-5,47,0,0,0,77,80,129,100,34,154.48,376,-12.00,92.00,-1000.00
2024-06-07 14:30:00.814928,0,-4,47,0,0,0,77,80,129,100,34,154.44,376,5.00,78.00,-994.00
2024-06-07 14:30:00.920466,0,-4,47,0,0,0,77,80,129,100,34,154.40,376,38.00,75.00,-947.00
2024-06-07 14:30:01.019620,0,-4,47,0,0,0,77,80,129,100,34,154.42,376,-2.00,89.00,-1001.00
2024-06-07 14:30:01.200779,0,-4,47,0,0,0,77,80,129,100,34,154.40,377,24.00,75.00,-1000.00
2024-06-07 14:30:01.222903,0,-5,47,0,0,0,77,80,129,100,34,154.44,377,7.00,88.00,-989.00
2024-06-07 14:30:01.407795,0,-5,47,0,0,0,77,80,130,100,34,154.43,377,8.00,109.00,-953.00
2024-06-07 14:30:01.427841,0,-4,47,0,0,0,77,80,130,100,34,154.46,377,-8.00,99.00,-1009.00
2024-06-07 14:30:01.610309,1,-4,47,0,0,0,77,80,130,100,34,154.45,377,15.00,86.00,-1005.00
2024-06-07 14:30:01.633389,0,-5,47,0,0,0,77,80,130,100,34,154.42,377,2.00,80.00,-987.00
2024-06-07 14:30:01.733601,0,-5,47,0,0,0,77,80,131,100,34,154.41,377,4.00,100.00,-971.00
2024-06-07 14:30:01.919547,0,-5,47,0,0,0,78,80,131,100,34,154.49,377,19.00,91.00,-993.00
2024-06-07 14:30:01.938249,0,-5,47,0,0,0,78,80,131,100,34,154.45,377,4.00,104.00,-986.00
2024-06-07 14:30:02.120811,0,-5,47,0,0,0,78,80,131,100,34,154.36,377,-9.00,97.00,-1030.00
2024-06-07 14:30:02.141786,0,-5,47,0,0,0,78,80,131,100,34,154.43,378,1.00,89.00,-1006.00
2024-06-07 14:30:02.242767,0,-5,47,0,0,0,78,80,132,100,34,154.44,378,-20.00,102.00,-970.00
2024-06-07 14:30:02.390545,0,-5,47,0,0,0,78,80,131,100,34,154.42,378,1.00,81.00,-971.00
2024-06-07 14:30:02.446766,0,-5,47,0,0,0,78,80,131,100,34,154.40,378,-9.00,92.00,-975.00
2024-06-07 14:30:02.633579,0,-5,47,0,0,0,78,80,130,100,34,154.45,378,0.00,75.00,-982.00
2024-06-07 14:30:02.650724,0,-4,47,0,0,0,78,80,131,100,34,154.42,378,-9.00,91.00,-960.00
2024-06-07 14:30:02.838321,0,-4,47,0,0,0,78,80,130,100,34,154.43,378,13.00,65.00,-982.00
2024-06-07 14:30:02.854744,0,-4,47,0,0,0,77,80,130,100,34,154.31,378,16.00,62.00,-1001.00
2024-06-07 14:30:02.956818,1,-4,47,0,0,0,77,80,130,100,34,154.36,378,-13.00,80.00,-997.00
2024-06-07 14:30:03.146152,0,-4,47,0,0,0,77,80,129,100,34,154.43,378,17.00,75.00,-1014.00
2024-06-07 14:30:03.146337,0,-3,47,0,0,0,77,80,129,100,34,154.35,379,0.00,76.00,-1007.00
2024-06-07 14:30:03.211477,0,-3,47,0,0,0,77,80,129,100,34,154.40,379,-1.00,67.00,-995.00
2024-06-07 14:30:03.313681,0,-4,47,0,0,0,77,80,129,100,34,154.36,379,-20.00,79.00,-1030.00
2024-06-07 14:30:03.451572,0,-4,47,0,0,0,77,80,129,100,34,154.38,379,-8.00,79.00,-998.00
2024-06-07 14:30:03.517743,0,-4,47,0,0,0,77,80,130,100,34,154.38,379,31.00,59.00,-993.00
2024-06-07 14:30:03.656280,0,-3,47,0,0,0,77,80,129,100,34,154.37,379,9.00,64.00,-980.00
2024-06-07 14:30:03.721792,0,-3,47,0,0,0,77,80,129,100,34,154.38,379,18.00,67.00,-973.00
2024-06-07 14:30:03.823753,1,-3,47,0,0,0,77,80,130,100,34,154.39,379,21.00,48.00,-1000.00
2024-06-07 14:30:03.926048,1,-3,47,0,0,0,77,80,129,100,34,154.38,379,25.00,72.00,-988.00
2024-06-07 14:30:04.067436,1,-3,47,0,0,0,77,80,131,100,34,154.33,379,-12.00,86.00,-975.00
2024-06-07 14:30:04.129765,0,-3,47,0,0,0,77,80,129,100,34,154.37,380,-14.00,89.00,-966.00
2024-06-07 14:30:04.231476,0,-4,47,0,0,0,77,80,129,100,34,154.43,380,-15.00,81.00,-986.00
2024-06-07 14:30:04.373662,0,-4,47,0,0,0,77,80,129,100,33,154.43,380,-8.00,70.00,-993.00
2024-06-07 14:30:04.438310,0,-4,47,0,0,0,77,80,128,100,33,154.46,380,-5.00,77.00,-1006.00
2024-06-07 14:30:04.537453,0,-4,47,0,0,0,77,80,129,100,33,154.32,380,-8.00,80.00,-991.00
2024-06-07 14:30:04.639528,0,-4,47,0,0,0,77,80,129,100,33,154.41,380,-57.00,93.00,-1014.00
2024-06-07 14:30:04.783645,0,-4,47,0,0,0,77,80,129,100,33,154.40,380,-14.00,78.00,-985.00
2024-06-07 14:30:04.843407,0,-4,47,0,0,0,77,80,129,100,33,154.32,380,-24.00,67.00,-1028.00
2024-06-07 14:30:04.945377,0,-4,47,0,0,0,77,80,129,100,33,154.32,380,9.00,59.00,-1019.00
2024-06-07 14:30:05.090114,0,-4,47,0,0,0,77,80,129,100,33,154.32,380,12.00,62.00,-978.00
2024-06-07 14:30:05.150748,0,-3,47,0,0,0,77,80,129,100,33,154.38,381,-3.00,58.00,-985.00
2024-06-07 14:30:05.295419,0,-3,47,0,0,0,77,80,129,100,33,154.36,381,-11.00,61.00,-1022.00
2024-06-07 14:30:05.353694,0,-3,47,0,0,0,77,80,129,100,33,154.32,381,-21.00,55.00,-1007.00
2024-06-07 14:30:05.455488,0,-3,47,0,0,0,77,80,128,100,33,154.37,381,-41.00,81.00,-1009.00
2024-06-07 14:30:05.605669,0,-3,47,0,0,0,77,80,128,100,33,154.43,381,-43.00,70.00,-1008.00
2024-06-07 14:30:05.659466,0,-3,47,0,0,0,77,80,128,100,33,154.33,381,-17.00,68.00,-1021.00
2024-06-07 14:30:05.807455,0,-3,47,0,0,0,77,80,129,100,33,154.37,381,2.00,66.00,-1003.00
2024-06-07 14:30:05.863388,0,-3,47,0,0,0,78,80,128,100,33,154.41,381,16.00,50.00,-1002.00
2024-06-07 14:30:05.965529,0,-3,47,0,0,0,78,80,129,100,33,154.36,381,-3.00,54.00,-1009.00
2024-06-07 14:30:06.114204,0,-3,47,0,0,0,78,80,131,100,33,154.35,381,15.00,39.00,-988.00
2024-06-07 14:30:06.169840,0,-2,47,0,0,0,78,80,130,100,33,154.37,382,-15.00,59.00,-1004.00
2024-06-07 14:30:06.271529,0,-2,47,0,0,0,78,80,130,100,33,154.41,382,-18.00,59.00,-990.00
2024-06-07 14:30:06.373314,0,-2,47,0,0,0,78,80,130,100,33,154.44,382,37.00,38.00,-1015.00
2024-06-07 14:30:06.523697,0,-2,47,0,0,0,78,80,130,100,33,154.45,382,0.00,49.00,-990.00
2024-06-07 14:30:06.582626,0,-2,47,0,0,0,78,80,129,100,33,154.36,382,33.00,32.00,-997.00
2024-06-07 14:30:06.682923,0,-2,47,0,0,0,78,80,130,100,33,154.38,382,1.00,63.00,-993.00
2024-06-07 14:30:06.730939,0,-2,47,0,0,0,78,80,130,100,33,154.33,382,0.00,51.00,-978.00
2024-06-07 14:30:06.933843,0,-2,47,0,0,0,78,79,129,100,33,154.36,382,-16.00,50.00,-970.00
2024-06-07 14:30:06.985283,0,-2,47,0,0,0,78,79,129,100,33,154.35,382,13.00,41.00,-998.00
2024-06-07 14:30:07.139930,0,-2,47,0,0,0,78,79,129,100,33,154.33,382,8.00,55.00,-1010.00
2024-06-07 14:30:07.140134,0,-2,47,0,0,0,78,79,129,100,33,154.36,383,-2.00,45.00,-1019.00
2024-06-07 14:30:07.240662,0,-2,47,0,0,0,78,79,130,100,33,154.36,383,6.00,34.00,-1000.00
2024-06-07 14:30:07.342898,0,-2,47,0,0,0,78,79,130,100,33,154.41,383,-4.00,69.00,-957.00
2024-06-07 14:30:07.445701,0,-2,47,0,0,0,78,79,129,100,33,154.45,383,-9.00,43.00,-986.00
2024-06-07 14:30:07.547554,0,-2,47,0,0,0,78,79,130,100,33,154.36,383,0.00,58.00,-1003.00
2024-06-07 14:30:07.650793,1,-2,47,0,0,0,78,79,130,100,33,154.39,383,13.00,52.00,-1012.00
2024-06-07 14:30:07.752869,0,-2,47,0,0,0,78,79,130,100,33,154.41,383,1.00,49.00,-1004.00
2024-06-07 14:30:07.854598,0,-2,47,0,0,0,77,79,132,100,33,154.44,383,61.00,20.00,-982.00
2024-06-07 14:30:07.958145,0,-2,47,0,0,0,77,79,131,100,33,154.46,383,28.00,61.00,-943.00
2024-06-07 14:30:08.060042,1,-2,47,0,0,0,77,79,131,100,33,154.45,383,15.00,60.00,-988.00
2024-06-07 14:30:08.158778,1,-2,47,0,0,0,77,79,131,100,33,154.37,384,15.00,56.00,-985.00
2024-06-07 14:30:08.266771,1,-3,47,0,0,0,77,79,131,100,33,154.44,384,8.00,59.00,-999.00
2024-06-07 14:30:08.362573,1,-3,47,0,0,0,77,79,132,100,33,154.50,384,20.00,48.00,-991.00
2024-06-07 14:30:08.465464,1,-2,47,0,0,0,77,79,132,100,33,154.44,384,-10.00,58.00,-985.00
2024-06-07 14:30:08.573265,0,-2,47,0,0,0,77,79,130,100,33,154.44,384,-13.00,51.00,-966.00
2024-06-07 14:30:08.669283,0,-3,47,0,0,0,77,79,131,100,33,154.42,384,-20.00,50.00,-982.00
2024-06-07 14:30:08.777078,0,-3,47,0,0,0,77,79,131,100,33,154.42,384,-44.00,76.00,-994.00
2024-06-07 14:30:08.873172,0,-3,47,0,0,0,77,80,130,100,33,154.48,384,-23.00,60.00,-968.00
2024-06-07 14:30:08.975294,0,-3,47,0,0,0,77,80,130,100,33,154.41,384,-22.00,56.00,-994.00
2024-06-07 14:30:09.077233,-1,-3,47,0,0,0,77,80,131,100,33,154.44,384,-24.00,60.00,-1004.00
2024-06-07 14:30:09.186922,-1,-3,47,0,0,0,77,80,131,100,33,154.48,385,-10.00,63.00,-996.00
2024-06-07 14:30:09.281213,-1,-3,47,0,0,0,77,80,131,100,32,154.48,385,-9.00,65.00,-995.00
2024-06-07 14:30:09.392482,0,-3,47,0,0,0,77,80,132,100,32,154.48,385,-15.00,56.00,-1004.00
