TS,pitch,roll,yaw,vgx,vgy,vgz,templ,temph,tof,h,bat,baro,time,agx,agy,agz
2024-06-07 14:30:39.807693,1,0,56,0,0,0,81,84,10,0,31,153.17,391,28.00,7.00,-997.00
2024-06-07 14:30:39.830597,1,0,56,0,0,0,81,84,10,0,31,153.13,391,26.00,6.00,-998.00
2024-06-07 14:30:39.932688,1,0,56,0,0,0,81,84,10,0,31,153.08,391,27.00,6.00,-1000.00
2024-06-07 14:30:40.034702,1,0,56,0,0,0,81,84,10,0,31,153.10,391,28.00,6.00,-999.00
2024-06-07 14:30:40.213261,1,0,56,0,0,0,81,84,10,0,31,153.09,391,28.00,6.00,-999.00
2024-06-07 14:30:40.238628,1,0,56,0,0,0,81,84,10,0,31,153.12,391,28.00,5.00,-1000.00
2024-06-07 14:30:40.340672,1,0,56,0,0,0,81,84,10,0,31,153.15,391,26.00,4.00,-999.00
2024-06-07 14:30:40.521871,1,0,56,0,0,0,81,84,10,0,31,153.10,391,28.00,6.00,-1000.00
2024-06-07 14:30:40.544697,1,0,56,0,0,0,81,84,10,0,31,153.12,391,29.00,6.00,-998.00
2024-06-07 14:30:40.646773,1,0,56,0,0,0,81,84,10,0,31,153.10,391,28.00,6.00,-998.00
2024-06-07 14:30:40.829291,1,0,56,0,0,0,81,84,10,0,31,153.15,391,27.00,4.00,-996.00
2024-06-07 14:30:40.850958,1,0,56,0,0,0,81,84,10,0,31,153.13,391,27.00,5.00,-998.00
2024-06-07 14:30:41.035846,1,0,56,0,0,0,81,84,10,0,31,153.12,391,27.00,6.00,-999.00
2024-06-07 14:30:41.054627,1,0,56,0,0,0,82,84,10,0,31,153.14,391,28.00,5.00,-999.00
2024-06-07 14:30:41.236789,1,0,56,0,0,0,82,84,10,0,31,153.14,391,27.00,6.00,-999.00
2024-06-07 14:30:41.258829,1,0,56,0,0,0,82,84,10,0,31,153.09,391,29.00,5.00,-1000.00
2024-06-07 14:30:41.441741,1,0,56,0,0,0,82,84,10,0,31,153.11,391,28.00,7.00,-999.00
2024-06-07 14:30:41.462454,1,0,56,0,0,0,82,84,10,0,31,153.11,391,28.00,6.00,-1000.00
2024-06-07 14:30:41.564587,1,0,56,0,0,0,82,84,10,0,31,153.12,391,27.00,6.00,-999.00
2024-06-07 14:30:41.749922,1,0,56,0,0,0,82,84,10,0,31,153.11,391,26.00,5.00,-999.00
2024-06-07 14:30:41.768419,1,0,56,0,0,0,82,84,10,0,31,153.13,391,29.00,5.00,-1001.00
2024-06-07 14:30:41.819566,1,0,56,0,0,0,82,84,10,0,31,153.12,391,26.00,5.00,-998.00
2024-06-07 14:30:41.921470,1,0,56,0,0,0,82,84,10,0,31,153.12,391,27.00,5.00,-1001.00
2024-06-07 14:30:42.023966,1,0,56,0,0,0,81,84,10,0,31,153.12,391,20.00,13.00,-1002.00
2024-06-07 14:30:42.159840,1,0,56,0,0,0,81,84,10,0,31,153.12,391,16.00,9.00,-1001.00
2024-06-07 14:30:42.227867,1,0,56,0,0,0,81,84,10,0,31,153.12,391,31.00,7.00,-999.00
2024-06-07 14:30:42.364269,1,0,56,0,0,0,81,84,10,0,31,153.12,392,20.00,-9.00,-1005.00
2024-06-07 14:30:42.431525,1,0,56,0,0,0,81,84,10,0,31,153.12,392,-9.00,20.00,-1007.00
2024-06-07 14:30:42.568302,1,0,55,0,0,0,81,84,10,0,31,153.12,392,0.00,-4.00,-1018.00
2024-06-07 14:30:42.635507,1,0,55,0,0,0,81,84,10,0,31,153.12,392,17.00,-8.00,-1133.00
2024-06-07 14:30:42.774019,1,0,55,0,0,-1,81,84,10,0,31,153.12,392,24.00,1.00,-1141.00
2024-06-07 14:30:42.839476,0,1,55,0,0,-3,81,84,10,0,31,153.12,392,-16.00,40.00,-1265.00
2024-06-07 14:30:42.979516,-1,0,55,0,0,-5,81,84,15,0,31,153.19,392,35.00,26.00,-1161.00
2024-06-07 14:30:43.043542,-1,-1,55,0,0,-6,82,84,23,0,31,153.44,392,4.00,11.00,-1100.00
2024-06-07 14:30:43.182382,0,0,55,0,0,-6,82,84,32,0,31,153.55,392,-10.00,4.00,-1071.00
2024-06-07 14:30:43.249053,0,0,55,0,0,-7,82,84,39,0,31,153.65,392,16.00,5.00,-1016.00
2024-06-07 14:30:43.349581,0,0,55,0,0,-6,82,84,48,10,31,153.71,393,15.00,6.00,-987.00
2024-06-07 14:30:43.495525,0,0,55,0,0,-6,82,84,57,20,31,153.79,393,-6.00,25.00,-940.00
2024-06-07 14:30:43.555256,0,-1,55,-1,0,-5,82,84,65,20,31,153.91,393,18.00,25.00,-922.00
2024-06-07 14:30:43.655906,-2,-2,55,0,0,-4,82,84,73,30,31,153.97,393,-2.00,-7.00,-893.00
2024-06-07 14:30:43.797252,-1,-1,55,0,0,-3,82,84,79,30,31,154.08,393,-8.00,25.00,-879.00
2024-06-07 14:30:43.873343,-1,-2,55,0,0,-2,82,84,85,40,31,154.09,393,-35.00,57.00,-884.00
2024-06-07 14:30:43.963264,-1,-2,55,0,0,-1,82,84,89,40,31,154.12,393,-15.00,32.00,-876.00
2024-06-07 14:30:44.063436,-1,-2,55,0,0,0,83,84,92,40,31,154.19,393,-15.00,43.00,-922.00
2024-06-07 14:30:44.208212,-1,-2,55,0,0,0,83,84,94,40,31,154.17,393,12.00,16.00,-933.00
2024-06-07 14:30:44.267315,-1,-2,55,0,0,0,83,84,96,50,31,154.16,393,-14.00,19.00,-974.00
2024-06-07 14:30:44.370775,-1,-2,55,0,0,0,83,84,97,50,31,154.15,394,-3.00,52.00,-966.00
2024-06-07 14:30:44.471374,-1,-2,55,0,0,1,83,84,98,50,31,154.25,394,-8.00,43.00,-947.00
2024-06-07 14:30:44.573510,-1,-2,55,0,0,1,83,84,99,50,31,154.26,394,-26.00,47.00,-970.00
2024-06-07 14:30:44.676401,-1,-2,55,0,0,1,83,84,99,50,31,154.24,394,-69.00,50.00,-962.00
2024-06-07 14:30:44.820684,-1,-1,55,0,0,1,83,84,99,50,31,154.24,394,0.00,14.00,-967.00
2024-06-07 14:30:44.880348,-1,-1,55,0,0,1,83,84,99,50,31,154.20,394,-8.00,24.00,-994.00
2024-06-07 14:30:45.028162,-1,-1,55,0,0,1,83,84,98,50,31,154.26,394,-3.00,27.00,-988.00
2024-06-07 14:30:45.084400,-1,-1,55,0,0,1,82,84,98,50,31,154.20,394,0.00,31.00,-968.00
2024-06-07 14:30:45.231100,-1,-1,55,0,0,1,82,84,97,50,31,154.22,394,-12.00,24.00,-983.00
2024-06-07 14:30:45.288390,-1,-1,55,0,0,1,82,84,96,50,31,154.17,394,-24.00,24.00,-985.00
2024-06-07 14:30:45.436371,-1,-1,55,0,0,1,82,84,95,50,31,154.18,395,-32.00,42.00,-976.00
2024-06-07 14:30:45.441300,0,-1,55,0,0,1,82,84,93,50,31,154.24,395,-32.00,31.00,-1011.00
2024-06-07 14:30:45.643692,0,-1,55,0,0,1,82,84,92,50,31,154.20,395,-15.00,35.00,-968.00
2024-06-07 14:30:45.645748,-1,-1,55,0,0,1,82,84,91,50,31,154.22,395,-9.00,32.00,-992.00
2024-06-07 14:30:45.849473,-1,-1,55,0,0,1,82,84,90,50,31,154.15,395,11.00,15.00,-993.00
2024-06-07 14:30:45.849671,0,-1,55,0,0,1,82,84,87,50,31,154.17,395,-21.00,10.00,-1018.00
2024-06-07 14:30:46.050719,0,-1,55,0,0,1,82,84,86,40,31,154.07,395,-6.00,20.00,-996.00
2024-06-07 14:30:46.055670,0,-1,55,0,0,1,81,84,84,40,31,154.10,395,-3.00,21.00,-993.00
2024-06-07 14:30:46.156075,0,-1,55,0,0,1,81,84,82,40,31,154.09,395,-18.00,33.00,-1000.00
2024-06-07 14:30:46.257447,0,-1,55,0,0,1,81,84,81,40,31,154.05,395,-5.00,22.00,-1007.00
2024-06-07 14:30:46.359357,0,-1,55,0,0,1,81,84,80,40,31,154.08,396,-27.00,23.00,-1007.00
2024-06-07 14:30:46.461737,0,-1,55,0,0,0,81,84,78,40,31,154.02,396,30.00,-6.00,-1017.00
2024-06-07 14:30:46.639852,0,0,55,0,0,0,81,84,77,40,31,154.04,396,10.00,23.00,-1002.00
2024-06-07 14:30:46.665310,0,0,55,0,0,0,81,84,76,40,31,154.08,396,1.00,15.00,-1004.00
2024-06-07 14:30:46.876575,0,0,55,0,0,0,81,84,75,40,31,153.99,396,-8.00,32.00,-1020.00
2024-06-07 14:30:46.876623,0,0,55,0,0,0,81,84,75,40,31,154.01,396,10.00,22.00,-1001.00
2024-06-07 14:30:46.972404,0,-1,55,0,0,0,81,84,74,30,31,153.97,396,6.00,18.00,-1010.00
2024-06-07 14:30:47.077344,0,-1,55,0,0,0,81,84,73,30,31,154.03,396,-6.00,14.00,-1014.00
2024-06-07 14:30:47.178240,0,-1,55,0,0,0,81,84,72,30,31,154.03,396,6.00,1.00,-1017.00
2024-06-07 14:30:47.277973,0,0,55,0,0,0,81,84,71,30,31,153.96,396,6.00,20.00,-1060.00
2024-06-07 14:30:47.385766,0,0,55,0,0,0,81,84,71,30,31,153.96,397,16.00,-2.00,-993.00
2024-06-07 14:30:47.485076,0,-1,55,0,0,0,81,84,71,30,31,154.02,397,-15.00,26.00,-1002.00
2024-06-07 14:30:47.585453,0,-1,55,0,0,0,81,84,71,30,31,154.00,397,-11.00,28.00,-1028.00
2024-06-07 14:30:47.686028,0,-1,55,0,0,0,81,84,70,30,31,153.97,397,-24.00,59.00,-1009.00
2024-06-07 14:30:47.787282,0,-1,55,0,0,0,81,84,70,30,31,154.01,397,-30.00,29.00,-1015.00
2024-06-07 14:30:47.896653,0,-1,55,0,0,0,81,84,70,30,31,153.94,397,24.00,26.00,-991.00
2024-06-07 14:30:47.991397,0,-1,55,0,0,0,81,84,70,30,31,153.98,397,0.00,26.00,-996.00
2024-06-07 14:30:48.093251,0,-1,55,0,0,0,82,84,70,30,31,153.99,397,-23.00,18.00,-1007.00
2024-06-07 14:30:48.195256,0,-1,55,0,0,0,82,84,71,30,31,154.05,397,-11.00,27.00,-993.00
2024-06-07 14:30:48.302528,0,-1,55,0,0,0,82,84,71,30,31,153.94,397,16.00,7.00,-1014.00
2024-06-07 14:30:48.399289,0,-1,55,0,0,0,82,84,71,30,31,154.01,398,18.00,3.00,-1027.00
2024-06-07 14:30:48.507365,0,-1,55,0,0,0,82,84,71,30,31,154.00,398,-3.00,28.00,-998.00
2024-06-07 14:30:48.603257,0,-1,55,0,0,0,82,84,72,30,31,154.03,398,-14.00,24.00,-984.00
2024-06-07 14:30:48.712738,0,-1,55,0,0,0,82,84,72,30,31,153.97,398,-18.00,27.00,-1022.00
2024-06-07 14:30:48.807369,0,0,55,0,0,0,82,84,72,30,31,154.05,398,-5.00,21.00,-1000.00
2024-06-07 14:30:48.916657,0,-1,55,0,0,0,82,84,72,30,31,154.04,398,-10.00,5.00,-1000.00
2024-06-07 14:30:49.011279,0,-1,55,0,0,0,82,84,72,30,31,154.00,398,-16.00,18.00,-971.00
2024-06-07 14:30:49.114304,0,0,55,0,0,0,81,84,73,30,31,154.09,398,-9.00,22.00,-996.00
2024-06-07 14:30:49.215289,0,0,55,0,0,0,81,84,73,30,31,154.02,398,-10.00,11.00,-1005.00
2024-06-07 14:30:49.317186,0,0,55,0,0,0,81,84,74,30,31,153.99,398,-5.00,15.00,-997.00
2024-06-07 14:30:49.368197,0,0,55,0,0,0,81,84,74,30,31,153.99,399,-10.00,16.00,-989.00
2024-06-07 14:30:49.531717,0,0,55,0,0,0,81,84,74,30,31,154.12,399,-53.00,22.00,-995.00
2024-06-07 14:30:49.572261,0,0,55,0,0,0,81,84,75,30,31,154.03,399,-22.00,16.00,-1031.00
2024-06-07 14:30:49.739840,0,0,55,0,0,0,81,84,76,30,31,154.03,399,8.00,5.00,-1000.00
2024-06-07 14:30:49.776138,0,0,55,0,0,0,81,84,76,40,31,154.02,399,-39.00,19.00,-1001.00
2024-06-07 14:30:49.878177,0,0,55,0,0,0,81,84,76,40,31,154.06,399,5.00,11.00,-995.00
2024-06-07 14:30:50.042978,0,0,55,0,0,0,81,84,77,40,31,154.03,399,-24.00,24.00,-997.00
2024-06-07 14:30:50.082175,0,0,55,0,0,0,81,83,77,40,31,154.08,399,-25.00,21.00,-1011.00
2024-06-07 14:30:50.184341,0,0,55,0,0,0,81,83,76,40,31,154.10,399,-55.00,47.00,-997.00
2024-06-07 14:30:50.286232,0,0,55,0,0,0,81,83,76,40,31,154.09,399,-17.00,24.00,-988.00
2024-06-07 14:30:50.388260,0,0,55,0,0,0,81,83,76,40,31,154.05,400,-1.00,17.00,-1002.00
2024-06-07 14:30:50.555272,0,0,55,0,0,0,81,83,76,40,31,154.04,400,-21.00,28.00,-998.00
2024-06-07 14:30:50.593070,0,0,55,0,0,0,81,83,76,40,31,154.06,400,-59.00,34.00,-1024.00
2024-06-07 14:30:50.759862,0,-1,55,0,0,0,81,83,76,40,31,154.03,400,4.00,14.00,-1016.00
2024-06-07 14:30:50.796114,0,-1,55,0,0,0,81,83,75,40,31,153.99,400,21.00,2.00,-996.00
2024-06-07 14:30:50.965316,0,-1,55,0,0,0,81,83,75,40,31,154.12,400,-3.00,3.00,-986.00
2024-06-07 14:30:51.000251,0,0,55,0,0,0,81,83,75,40,31,154.12,400,20.00,8.00,-1000.00
2024-06-07 14:30:51.103727,0,0,55,0,0,0,80,83,75,30,31,154.03,400,-29.00,28.00,-1015.00
2024-06-07 14:30:51.204212,0,0,55,0,0,0,80,83,75,30,31,154.05,400,14.00,17.00,-1008.00
2024-06-07 14:30:51.306293,0,0,55,0,0,0,80,83,75,30,31,154.02,400,5.00,2.00,-1004.00
2024-06-07 14:30:51.477196,0,0,55,0,0,0,80,83,75,30,31,154.11,401,-6.00,29.00,-965.00
2024-06-07 14:30:51.510671,0,-1,55,0,0,0,80,83,75,30,31,154.08,401,-13.00,8.00,-985.00
2024-06-07 14:30:51.612370,0,-1,55,0,0,0,80,83,75,30,31,154.07,401,-7.00,15.00,-1000.00
2024-06-07 14:30:51.793636,0,0,55,0,0,0,80,83,74,30,31,154.07,401,-16.00,26.00,-988.00
2024-06-07 14:30:51.816062,0,0,55,0,0,0,80,83,74,30,31,154.07,401,-5.00,12.00,-982.00
2024-06-07 14:30:51.989041,0,0,55,0,0,0,80,83,74,30,31,154.07,401,-12.00,24.00,-1013.00
2024-06-07 14:30:52.020263,0,0,55,0,0,0,80,83,74,30,31,154.05,401,-45.00,12.00,-998.00
2024-06-07 14:30:52.196926,0,0,55,0,0,0,81,83,74,30,31,154.04,401,-26.00,29.00,-1004.00
2024-06-07 14:30:52.225564,0,0,55,0,0,0,81,83,74,30,31,154.06,401,18.00,2.00,-1001.00
2024-06-07 14:30:52.328150,0,0,55,0,0,0,81,83,73,30,31,154.06,401,21.00,-18.00,-1015.00
2024-06-07 14:30:52.428194,0,0,55,0,0,0,81,83,73,30,31,154.16,402,-7.00,0.00,-1000.00
2024-06-07 14:30:52.603597,0,0,55,0,0,0,81,83,73,30,31,154.09,402,16.00,1.00,-998.00
2024-06-07 14:30:52.632453,0,0,55,0,0,0,81,83,73,30,31,154.08,402,-19.00,17.00,-1006.00
2024-06-07 14:30:52.767220,0,0,55,0,0,0,81,83,73,30,31,154.05,402,-29.00,22.00,-987.00
2024-06-07 14:30:52.785825,0,0,55,0,0,0,81,83,72,30,31,154.08,402,-10.00,-8.00,-1036.00
2024-06-07 14:30:52.910146,0,0,55,0,0,0,81,83,72,30,31,154.05,402,-18.00,16.00,-1000.00
2024-06-07 14:30:52.988951,0,0,55,0,0,0,81,83,73,30,31,154.05,402,-26.00,11.00,-1061.00
2024-06-07 14:30:53.218960,0,0,55,0,0,-1,80,83,74,30,31,154.16,402,7.00,13.00,-1095.00
2024-06-07 14:30:53.243949,0,0,55,0,0,-2,80,83,75,40,31,154.03,402,2.00,-3.00,-1101.00
2024-06-07 14:30:53.424245,0,0,55,0,0,-3,80,83,79,40,31,154.11,403,40.00,2.00,-1092.00
2024-06-07 14:30:53.424443,0,0,55,0,0,-4,80,83,82,40,31,154.16,403,-9.00,21.00,-1103.00
2024-06-07 14:30:53.499125,0,0,55,0,0,-4,80,83,88,50,31,154.12,403,-23.00,7.00,-1058.00
2024-06-07 14:30:53.600903,0,0,55,0,0,-5,80,83,92,50,31,154.25,403,52.00,-5.00,-1046.00
2024-06-07 14:30:53.729967,0,0,55,0,0,-5,80,83,98,60,31,154.27,403,-2.00,16.00,-1027.00
2024-06-07 14:30:53.805182,0,0,55,0,0,-5,80,83,104,60,31,154.30,403,-18.00,16.00,-1013.00
2024-06-07 14:30:53.934487,0,0,55,0,0,-5,80,83,110,70,31,154.41,403,-14.00,6.00,-1012.00
2024-06-07 14:30:54.011708,0,0,55,0,0,-5,80,83,116,80,31,154.48,403,-4.00,7.00,-994.00
2024-06-07 14:30:54.110944,0,0,55,0,0,-5,81,83,122,80,31,154.46,403,-18.00,10.00,-997.00
2024-06-07 14:30:54.241430,0,0,55,0,0,-5,81,83,128,90,31,154.55,403,-2.00,12.00,-981.00
2024-06-07 14:30:54.314876,0,0,55,0,0,-5,81,83,133,90,31,154.54,404,-9.00,9.00,-963.00
2024-06-07 14:30:54.446479,0,0,55,0,0,-4,81,83,139,100,31,154.64,404,-11.00,-2.00,-980.00
2024-06-07 14:30:54.518928,0,0,55,0,0,-4,81,83,143,100,31,154.73,404,60.00,0.00,-941.00
2024-06-07 14:30:54.625215,0,0,55,0,0,-4,81,83,150,110,31,154.74,404,-17.00,15.00,-967.00
2024-06-07 14:30:54.722968,0,0,55,0,0,-3,81,83,153,110,31,154.78,404,-22.00,0.00,-978.00
2024-06-07 14:30:54.856571,0,0,55,0,0,-3,81,83,157,110,31,154.83,404,-22.00,11.00,-959.00
2024-06-07 14:30:54.926962,0,0,55,0,0,-3,81,83,158,120,31,154.90,404,-16.00,36.00,-955.00
2024-06-07 14:30:55.060678,0,0,55,0,0,-2,81,83,162,120,31,154.85,404,2.00,-2.00,-954.00
2024-06-07 14:30:55.130840,0,0,55,0,0,-2,80,82,166,120,31,154.90,404,-1.00,13.00,-960.00
2024-06-07 14:30:55.265492,0,0,55,0,0,-2,80,82,170,130,31,154.91,404,-16.00,16.00,-963.00
2024-06-07 14:30:55.335423,0,0,55,0,0,-1,80,82,171,130,31,154.93,405,-9.00,1.00,-962.00
2024-06-07 14:30:55.437721,0,0,55,0,0,-1,80,82,172,130,31,154.97,405,-22.00,23.00,-960.00
2024-06-07 14:30:55.572934,0,0,55,0,0,0,80,82,173,130,31,154.92,405,-27.00,10.00,-947.00
2024-06-07 14:30:55.643583,0,0,55,0,0,0,80,82,175,130,31,154.96,405,15.00,-3.00,-966.00
2024-06-07 14:30:55.744607,0,0,55,0,0,0,80,82,173,130,31,154.89,405,1.00,-15.00,-1004.00
2024-06-07 14:30:55.845268,0,0,55,0,0,0,80,82,175,130,31,154.93,405,5.00,11.00,-992.00
2024-06-07 14:30:55.946958,0,-1,55,0,0,0,80,82,173,130,31,154.96,405,-10.00,17.00,-1021.00
2024-06-07 14:30:56.084844,0,-1,55,0,0,0,80,82,174,130,31,154.96,405,-27.00,2.00,-1002.00
2024-06-07 14:30:56.152046,0,-1,55,0,0,0,80,82,175,130,31,154.94,405,7.00,2.00,-982.00
2024-06-07 14:30:56.289752,0,-1,55,0,0,0,80,82,174,130,31,154.99,405,-45.00,44.00,-1021.00
2024-06-07 14:30:56.354940,0,-1,55,0,0,0,80,82,174,130,31,155.00,406,-37.00,49.00,-980.00
2024-06-07 14:30:56.494454,0,-1,55,0,0,0,80,82,173,130,31,154.95,406,-18.00,27.00,-1021.00
2024-06-07 14:30:56.559498,0,-1,55,0,0,0,80,82,172,130,31,154.91,406,-21.00,13.00,-996.00
2024-06-07 14:30:56.699404,0,0,55,0,0,0,80,82,174,130,31,154.92,406,-26.00,18.00,-1009.00
2024-06-07 14:30:56.763944,0,-1,55,0,0,0,80,82,171,130,31,154.92,406,-6.00,25.00,-984.00
2024-06-07 14:30:56.903929,0,-1,55,0,0,0,80,82,171,130,31,154.99,406,-67.00,20.00,-1001.00
2024-06-07 14:30:56.967925,0,0,55,0,0,0,80,82,171,130,31,155.06,406,-13.00,25.00,-982.00
2024-06-07 14:30:57.108858,0,0,55,0,0,0,80,82,172,130,31,154.86,406,-18.00,18.00,-1000.00
2024-06-07 14:30:57.171849,0,-1,55,0,0,0,80,83,172,130,31,154.96,406,-38.00,22.00,-1013.00
2024-06-07 14:30:57.314092,0,-1,55,0,0,0,80,83,172,130,31,155.00,406,-13.00,2.00,-1004.00
2024-06-07 14:30:57.375855,0,-1,55,0,0,0,80,83,172,130,31,154.93,407,-18.00,11.00,-1012.00
2024-06-07 14:30:57.426821,0,-1,55,0,0,0,80,83,171,130,31,154.93,407,-12.00,8.00,-1006.00
2024-06-07 14:30:57.622072,0,0,55,0,0,0,80,83,170,130,31,154.89,407,12.00,17.00,-965.00
2024-06-07 14:30:57.630821,0,0,55,0,0,0,80,83,171,130,31,154.94,407,20.00,-8.00,-938.00
2024-06-07 14:30:57.827844,0,0,55,0,0,0,80,83,169,130,31,154.96,407,-8.00,2.00,-925.00
2024-06-07 14:30:57.834774,0,0,55,0,0,1,80,83,170,130,31,154.92,407,7.00,2.00,-959.00
2024-06-07 14:30:58.030204,0,0,55,0,0,1,80,83,168,130,31,154.94,407,22.00,-13.00,-926.00
2024-06-07 14:30:58.038771,0,0,55,0,0,2,80,83,165,130,31,154.92,407,9.00,-8.00,-968.00
2024-06-07 14:30:58.235196,0,0,55,0,0,2,81,82,162,120,31,154.99,407,-13.00,-2.00,-1001.00
2024-06-07 14:30:58.242828,0,0,55,0,0,2,81,82,162,120,31,154.85,407,-31.00,45.00,-971.00
2024-06-07 14:30:58.439927,0,0,55,0,0,2,81,82,159,120,31,154.80,408,-16.00,19.00,-993.00
2024-06-07 14:30:58.446631,0,0,55,0,0,2,81,82,157,120,31,154.77,408,6.00,-13.00,-981.00
2024-06-07 14:30:58.644603,0,0,55,0,0,3,81,82,152,110,31,154.79,408,-14.00,-16.00,-988.00
2024-06-07 14:30:58.650875,0,0,55,0,0,3,81,82,148,110,31,154.77,408,25.00,-11.00,-1012.00
2024-06-07 14:30:58.850996,0,0,55,0,0,3,81,82,147,110,31,154.75,408,22.00,-23.00,-1010.00
2024-06-07 14:30:58.854994,0,0,55,0,0,2,81,82,143,100,31,154.74,408,-10.00,-1.00,-997.00
2024-06-07 14:30:59.059576,0,0,55,0,0,2,81,82,140,100,31,154.75,408,11.00,-38.00,-1044.00
2024-06-07 14:30:59.059742,0,0,55,0,0,2,81,82,137,100,31,154.66,408,26.00,-35.00,-998.00
2024-06-07 14:30:59.160728,0,0,55,0,0,2,80,82,135,90,31,154.69,408,-19.00,-14.00,-1030.00
2024-06-07 14:30:59.361870,0,0,55,0,0,2,80,82,132,90,31,154.58,408,-7.00,-2.00,-1022.00
2024-06-07 14:30:59.366789,0,0,55,0,0,1,80,82,130,90,31,154.58,409,-58.00,8.00,-1048.00
2024-06-07 14:30:59.467340,0,0,55,0,0,1,80,82,129,90,31,154.61,409,-11.00,-8.00,-1020.00
2024-06-07 14:30:59.571734,-1,0,55,0,0,1,80,82,127,90,31,154.52,409,16.00,16.00,-1004.00
2024-06-07 14:30:59.671153,0,0,55,0,0,1,80,82,126,90,31,154.55,409,-10.00,-10.00,-1020.00
2024-06-07 14:30:59.772761,-1,0,55,0,0,0,80,82,125,90,31,154.56,409,-5.00,-12.00,-1044.00
2024-06-07 14:30:59.875585,0,0,55,0,0,0,80,82,125,80,31,154.54,409,2.00,-6.00,-1027.00
2024-06-07 14:30:59.978010,0,0,55,0,0,0,80,82,124,80,31,154.54,409,-41.00,5.00,-1019.00
2024-06-07 14:31:00.080673,0,0,55,0,0,0,80,82,124,80,31,154.57,409,-5.00,-20.00,-1034.00
2024-06-07 14:31:00.182839,-1,0,55,0,0,0,80,82,124,80,31,154.52,409,-29.00,-4.00,-1003.00
2024-06-07 14:31:00.283142,-1,0,55,0,0,0,80,82,125,80,31,154.57,409,-35.00,0.00,-996.00
2024-06-07 14:31:00.386019,-1,0,55,0,0,0,80,82,125,80,31,154.54,410,-37.00,9.00,-998.00
2024-06-07 14:31:00.488814,-1,0,55,0,0,0,80,82,126,80,31,154.57,410,-35.00,2.00,-979.00
2024-06-07 14:31:00.592753,-1,0,55,0,0,0,80,82,125,80,31,154.55,410,-34.00,0.00,-997.00
2024-06-07 14:31:00.693890,-1,0,55,0,0,0,80,82,126,80,31,154.52,410,-27.00,-20.00,-1007.00
2024-06-07 14:31:00.797332,-1,0,55,0,0,0,80,82,126,80,31,154.59,410,-49.00,4.00,-974.00
2024-06-07 14:31:00.899565,-1,0,55,0,0,0,80,82,126,80,31,154.54,410,-41.00,8.00,-1012.00
2024-06-07 14:31:00.996750,-1,0,55,0,0,0,80,82,125,80,31,154.51,410,-33.00,-15.00,-995.00
2024-06-07 14:31:01.098749,-1,0,55,0,0,0,80,82,125,80,31,154.59,410,-38.00,8.00,-981.00
2024-06-07 14:31:01.205112,-1,0,55,0,0,0,80,82,125,80,31,154.58,410,-55.00,6.00,-1030.00
2024-06-07 14:31:01.302800,0,0,55,0,0,0,80,82,126,80,31,154.61,410,-7.00,-6.00,-1000.00
2024-06-07 14:31:01.409459,0,0,55,0,0,0,80,82,125,80,31,154.54,411,-22.00,-16.00,-986.00
2024-06-07 14:31:01.510374,0,0,55,0,0,0,80,82,124,80,31,154.58,411,-22.00,-21.00,-983.00
2024-06-07 14:31:01.608743,0,0,55,0,0,0,80,82,124,80,31,154.52,411,0.00,-18.00,-1001.00
2024-06-07 14:31:01.710635,0,0,55,0,0,0,80,82,124,80,31,154.51,411,-35.00,-13.00,-1018.00
2024-06-07 14:31:01.762686,0,0,55,0,0,0,80,82,124,80,31,154.51,411,-27.00,18.00,-993.00
2024-06-07 14:31:01.921667,-2,0,55,0,0,0,80,82,123,80,31,154.49,411,-16.00,-11.00,-982.00
2024-06-07 14:31:01.965560,-8,0,55,0,0,0,80,82,125,80,31,154.44,411,-49.00,-18.00,-990.00
2024-06-07 14:31:02.067827,-8,0,55,1,1,0,80,82,125,80,31,154.51,411,-54.00,10.00,-1012.00
2024-06-07 14:31:02.231555,-8,0,55,1,2,0,81,82,124,80,31,154.38,411,-62.00,-21.00,-1009.00
2024-06-07 14:31:02.271515,-8,0,55,2,2,0,81,82,124,80,31,154.28,411,-80.00,-11.00,-1025.00
2024-06-07 14:31:02.374224,-8,0,55,2,3,0,81,82,125,80,31,154.42,412,-72.00,-22.00,-1011.00
2024-06-07 14:31:02.475620,-8,0,55,3,4,0,81,82,124,80,31,154.29,412,-81.00,-9.00,-990.00
2024-06-07 14:31:02.638560,-8,1,55,3,4,0,81,82,124,80,31,154.39,412,-95.00,-1.00,-1003.00
2024-06-07 14:31:02.684632,-8,1,55,3,5,0,81,82,124,80,31,154.30,412,-112.00,11.00,-1009.00
2024-06-07 14:31:02.781571,-7,1,55,3,6,0,81,82,123,80,31,154.27,412,-101.00,-14.00,-992.00
2024-06-07 14:31:02.946141,-3,0,55,3,6,0,81,82,122,80,31,154.41,412,-111.00,-18.00,-1012.00
2024-06-07 14:31:02.985774,0,0,55,3,5,0,81,82,122,80,31,154.42,412,-108.00,-22.00,-1006.00
2024-06-07 14:31:03.152050,0,0,55,2,4,0,81,82,122,80,31,154.46,412,-79.00,-34.00,-1022.00
2024-06-07 14:31:03.190530,1,0,55,2,3,0,80,82,121,80,31,154.41,412,-138.00,20.00,-974.00
2024-06-07 14:31:03.355365,0,0,55,2,2,0,80,82,122,80,31,154.40,412,-88.00,-17.00,-1015.00
2024-06-07 14:31:03.394568,-2,1,55,1,2,0,80,82,122,80,31,154.51,413,-86.00,-17.00,-997.00
2024-06-07 14:31:03.496496,-3,1,55,1,1,0,80,82,123,80,31,154.51,413,-87.00,-38.00,-1011.00
2024-06-07 14:31:03.662159,-3,1,55,1,1,0,80,82,122,80,31,154.42,413,-115.00,-3.00,-980.00
2024-06-07 14:31:03.700545,-3,1,55,1,1,0,80,82,122,80,31,154.36,413,-94.00,-15.00,-999.00
2024-06-07 14:31:03.867420,-3,1,55,1,1,0,80,82,122,80,31,154.52,413,-93.00,9.00,-935.00
2024-06-07 14:31:03.905893,-3,1,55,0,1,0,80,82,122,80,31,154.52,413,-59.00,-37.00,-1024.00
2024-06-07 14:31:04.075873,-3,0,55,1,2,0,80,82,122,80,31,154.41,413,-76.00,-30.00,-1006.00
2024-06-07 14:31:04.108310,-3,0,55,1,2,0,80,82,121,80,31,154.36,413,-62.00,-32.00,-992.00
2024-06-07 14:31:04.293299,-1,2,55,0,2,0,80,83,121,80,31,154.33,413,-85.00,-11.00,-992.00
2024-06-07 14:31:04.315974,-2,2,55,0,1,0,80,83,121,80,31,154.31,413,-78.00,-23.00,-992.00
2024-06-07 14:31:04.415591,-1,0,55,0,1,0,80,83,120,80,31,154.38,414,-73.00,-17.00,-991.00
2024-06-07 14:31:04.591272,1,-1,55,0,1,0,80,83,121,80,31,154.40,414,-70.00,-29.00,-995.00
2024-06-07 14:31:04.618493,0,0,55,0,0,0,80,83,120,80,31,154.45,414,-76.00,-11.00,-1004.00
2024-06-07 14:31:04.720948,-1,0,55,0,0,0,80,83,121,80,31,154.50,414,-72.00,-9.00,-1001.00
2024-06-07 14:31:04.891800,-2,0,55,0,0,0,80,83,120,80,31,154.56,414,-57.00,-12.00,-992.00
2024-06-07 14:31:04.924470,-2,1,55,0,0,0,80,83,121,80,31,154.45,414,-89.00,18.00,-996.00
2024-06-07 14:31:05.099457,-2,1,55,0,0,0,80,83,121,80,31,154.42,414,-68.00,16.00,-991.00
2024-06-07 14:31:05.135461,-2,1,55,0,0,0,80,83,121,80,31,154.46,414,-47.00,10.00,-955.00
2024-06-07 14:31:05.230720,-2,0,55,0,0,0,79,82,121,80,31,154.51,414,-49.00,15.00,-998.00
2024-06-07 14:31:05.407536,-2,0,55,0,0,0,79,82,121,80,31,154.54,414,-37.00,20.00,-988.00
2024-06-07 14:31:05.434753,-2,-1,55,0,0,0,79,82,120,80,31,154.49,415,-68.00,47.00,-1008.00
2024-06-07 14:31:05.611487,-1,-2,55,0,0,0,79,82,120,80,31,154.48,415,-45.00,25.00,-1025.00
2024-06-07 14:31:05.611696,-1,-1,55,0,0,0,79,82,121,80,31,154.43,415,-43.00,20.00,-990.00
2024-06-07 14:31:05.689852,-1,-1,55,0,0,0,79,82,122,80,31,154.45,415,-71.00,37.00,-1015.00
2024-06-07 14:31:05.814829,-1,-1,55,0,0,0,79,82,122,80,31,154.56,415,-41.00,24.00,-1034.00
2024-06-07 14:31:05.893588,-2,-2,55,0,0,0,79,82,122,80,31,154.53,415,-72.00,25.00,-973.00
2024-06-07 14:31:06.025799,-2,-1,55,0,0,0,79,82,124,80,31,154.57,415,-74.00,47.00,-973.00
2024-06-07 14:31:06.097634,-3,-2,55,0,0,0,79,82,123,80,31,154.59,415,-100.00,50.00,-992.00
2024-06-07 14:31:06.199986,-3,-2,55,0,0,0,80,82,123,80,31,154.58,415,-77.00,40.00,-1002.00
2024-06-07 14:31:06.328653,-2,-1,55,0,0,0,80,82,122,80,30,154.53,416,-51.00,16.00,-993.00
2024-06-07 14:31:06.403365,-3,0,55,0,0,0,80,82,122,80,30,154.59,416,-112.00,23.00,-980.00
2024-06-07 14:31:06.533232,-2,-1,55,0,0,0,80,82,121,80,30,154.46,416,-49.00,20.00,-985.00
2024-06-07 14:31:06.608472,-2,0,55,0,0,0,80,82,121,80,30,154.55,416,-48.00,34.00,-1012.00
2024-06-07 14:31:06.709955,-1,0,55,0,0,0,80,82,122,80,30,154.57,416,-40.00,4.00,-1008.00
2024-06-07 14:31:06.836606,4,0,55,0,0,0,80,82,120,80,30,154.58,416,-24.00,11.00,-992.00
2024-06-07 14:31:06.913271,7,0,55,0,-1,0,80,82,120,80,30,154.57,416,-42.00,17.00,-1009.00
2024-06-07 14:31:07.045786,7,0,55,-1,-2,0,80,82,121,80,30,154.55,416,-28.00,24.00,-1052.00
2024-06-07 14:31:07.117336,7,0,55,-2,-3,0,80,82,121,80,30,154.57,416,-18.00,11.00,-1044.00
2024-06-07 14:31:07.246318,6,0,55,-3,-4,0,80,82,122,80,30,154.66,416,-9.00,20.00,-1036.00
2024-06-07 14:31:07.323648,5,-1,55,-3,-5,0,80,82,122,80,30,154.62,417,-13.00,15.00,-1035.00
2024-06-07 14:31:07.423233,4,0,55,-4,-5,0,80,82,122,80,30,154.64,417,-17.00,47.00,-1036.00
2024-06-07 14:31:07.560409,3,-1,55,-4,-6,0,80,82,123,80,30,154.62,417,-6.00,15.00,-1033.00
2024-06-07 14:31:07.628055,2,-1,55,-4,-6,0,80,82,124,80,30,154.67,417,47.00,0.00,-1030.00
2024-06-07 14:31:07.759796,0,-1,55,-4,-6,0,80,82,124,80,30,154.67,417,16.00,26.00,-1026.00
2024-06-07 14:31:07.831176,-3,-1,55,-4,-6,0,80,82,126,80,30,154.71,417,18.00,29.00,-991.00
2024-06-07 14:31:07.963906,-5,-1,55,-3,-5,0,80,82,128,80,30,154.71,417,36.00,14.00,-977.00
2024-06-07 14:31:08.035182,-6,-1,56,-3,-4,0,80,82,129,80,30,154.74,417,17.00,22.00,-980.00
2024-06-07 14:31:08.137312,-5,0,56,-2,-3,0,80,82,129,90,30,154.68,417,-2.00,38.00,-985.00
2024-06-07 14:31:08.273092,-4,-1,55,-2,-3,0,80,82,128,90,30,154.72,417,5.00,21.00,-973.00
2024-06-07 14:31:08.341904,-3,-1,55,-1,-2,0,80,82,129,90,29,154.77,418,-11.00,2.00,-1010.00
2024-06-07 14:31:08.476490,-1,-1,55,-1,-2,0,80,82,130,90,29,154.75,418,-41.00,29.00,-1002.00
2024-06-07 14:31:08.546073,-1,0,55,-1,-2,0,80,82,130,90,29,154.83,418,-12.00,8.00,-986.00
2024-06-07 14:31:08.647300,-1,0,55,-1,-2,0,80,82,130,90,29,154.65,418,-42.00,20.00,-967.00
2024-06-07 14:31:08.782633,-1,0,55,-1,-1,0,80,82,130,90,29,154.76,418,-34.00,21.00,-953.00
2024-06-07 14:31:08.851212,0,0,55,-1,-1,0,80,82,129,90,29,154.76,418,-34.00,23.00,-1000.00
2024-06-07 14:31:08.989219,0,-1,55,-1,-1,0,80,82,130,90,29,154.72,418,-27.00,28.00,-995.00
2024-06-07 14:31:09.055275,-1,-2,55,-1,-1,0,80,82,129,90,29,154.71,418,-66.00,61.00,-978.00
2024-06-07 14:31:09.157237,-2,-4,55,0,-1,0,80,82,130,90,29,154.67,418,-43.00,2.00,-1011.00
2024-06-07 14:31:09.294263,-1,-2,55,0,-1,0,79,82,129,90,29,154.78,418,-38.00,21.00,-1028.00
2024-06-07 14:31:09.363120,-4,0,55,0,-1,0,79,82,130,90,29,154.68,419,-10.00,20.00,-1004.00
2024-06-07 14:31:09.464374,-4,1,55,0,0,0,79,82,130,90,29,154.68,419,-26.00,31.00,-1004.00
2024-06-07 14:31:09.601362,-2,0,55,0,0,0,79,82,130,90,29,154.57,419,-46.00,25.00,-1045.00
2024-06-07 14:31:09.616078,-1,0,55,0,0,0,79,82,130,90,29,154.51,419,-27.00,16.00,-1005.00
2024-06-07 14:31:09.806343,0,0,55,0,0,0,79,82,130,90,29,154.70,419,-54.00,31.00,-996.00
2024-06-07 14:31:09.820128,-1,-1,55,0,0,0,79,82,130,90,29,154.67,419,-40.00,17.00,-981.00
2024-06-07 14:31:09.922359,-2,-3,55,0,0,0,79,82,130,90,29,154.75,419,-41.00,10.00,-1028.00
2024-06-07 14:31:10.115393,-2,-2,55,0,0,0,79,82,131,90,29,154.70,419,-29.00,18.00,-989.00
2024-06-07 14:31:10.126287,-1,-2,55,0,0,0,79,82,130,90,29,154.75,419,-42.00,42.00,-970.00
2024-06-07 14:31:10.228107,-1,-1,55,0,0,0,79,81,130,90,29,154.78,419,-48.00,38.00,-987.00
2024-06-07 14:31:10.420802,-1,-1,55,0,0,0,79,81,130,90,28,154.69,420,-22.00,6.00,-1000.00
2024-06-07 14:31:10.432185,-1,-1,55,0,0,0,79,81,129,90,28,154.71,420,-21.00,9.00,-1000.00
2024-06-07 14:31:10.627609,-1,0,55,0,0,0,79,81,128,90,28,154.64,420,-33.00,19.00,-1006.00
2024-06-07 14:31:10.637136,-1,-1,55,0,0,0,79,81,128,90,28,154.72,420,-48.00,34.00,-1010.00
2024-06-07 14:31:10.738234,-1,-1,55,0,0,0,79,81,128,90,28,154.59,420,-14.00,7.00,-1004.00
2024-06-07 14:31:10.934626,-1,-1,55,0,0,0,79,81,128,90,28,154.74,420,-39.00,27.00,-989.00
2024-06-07 14:31:10.942240,-1,-1,55,0,0,0,79,81,127,90,28,154.62,420,-41.00,17.00,-998.00
2024-06-07 14:31:11.138081,-1,-1,55,0,0,0,79,81,128,90,28,154.73,420,-16.00,-7.00,-1007.00
2024-06-07 14:31:11.146227,-2,-1,55,0,0,0,79,81,127,90,28,154.53,420,-56.00,33.00,-992.00
2024-06-07 14:31:11.342890,-2,-1,55,0,0,0,80,82,128,90,28,154.47,420,-75.00,29.00,-1011.00
2024-06-07 14:31:11.350144,-2,0,55,0,0,0,80,82,127,90,28,154.48,421,-28.00,5.00,-993.00
2024-06-07 14:31:11.547395,-2,0,55,0,0,0,80,82,128,90,28,154.46,421,-62.00,32.00,-1008.00
2024-06-07 14:31:11.554135,-2,0,55,0,0,0,80,82,128,90,28,154.53,421,-41.00,-20.00,-991.00
2024-06-07 14:31:11.751952,-2,0,55,0,0,0,80,82,127,90,28,154.49,421,-50.00,4.00,-987.00
2024-06-07 14:31:11.758947,-2,0,55,0,0,0,80,82,128,90,28,154.39,421,-54.00,-6.00,-985.00
2024-06-07 14:31:11.860096,-2,0,55,0,0,0,80,82,127,90,28,154.47,421,-66.00,8.00,-988.00
2024-06-07 14:31:12.062050,-3,0,55,0,0,0,80,82,127,90,28,154.61,421,-69.00,5.00,-1015.00
2024-06-07 14:31:12.064176,-3,-5,55,0,0,0,80,82,127,90,28,154.50,421,-38.00,-37.00,-1036.00
2024-06-07 14:31:12.166213,-3,-7,55,1,-1,0,80,82,128,90,28,154.50,421,-75.00,21.00,-1035.00
2024-06-07 14:31:12.367439,-3,-5,55,2,-1,0,79,82,128,80,27,154.57,421,-59.00,31.00,-986.00
2024-06-07 14:31:12.370103,-3,-5,55,2,-2,0,79,82,127,80,27,154.44,422,-49.00,-8.00,-1002.00
2024-06-07 14:31:12.572083,-3,-1,55,3,-2,0,79,82,127,80,27,154.45,422,-85.00,28.00,-1028.00
2024-06-07 14:31:12.574813,-2,0,55,3,-2,0,79,82,127,80,27,154.50,422,-84.00,21.00,-966.00
2024-06-07 14:31:12.676029,-2,1,55,3,-2,0,79,82,127,80,27,154.43,422,-77.00,24.00,-996.00
2024-06-07 14:31:12.778304,-2,1,55,2,-2,0,79,82,127,80,27,154.49,422,-86.00,-1.00,-964.00
2024-06-07 14:31:12.881569,-2,0,55,2,-2,0,79,82,127,80,27,154.63,422,-49.00,3.00,-996.00
2024-06-07 14:31:12.983300,-3,0,55,2,-1,0,79,82,127,80,27,154.52,422,-55.00,-12.00,-1011.00
2024-06-07 14:31:13.086162,-3,0,55,2,-1,0,79,82,126,80,27,154.52,422,-82.00,31.00,-1036.00
2024-06-07 14:31:13.188479,-3,0,55,2,-1,0,79,82,126,80,27,154.49,422,-59.00,28.00,-1002.00
2024-06-07 14:31:13.290196,-3,0,55,2,-1,0,79,81,126,80,27,154.39,422,-64.00,11.00,-996.00
2024-06-07 14:31:13.390948,-3,0,55,2,-1,0,79,81,128,80,27,154.43,423,-34.00,-15.00,-1022.00
2024-06-07 14:31:13.440938,-2,5,55,2,-1,0,79,81,127,80,27,154.55,423,-52.00,10.00,-959.00
2024-06-07 14:31:13.595028,-1,3,55,1,0,0,79,81,125,80,27,154.51,423,-79.00,26.00,-1018.00
2024-06-07 14:31:13.646046,-2,1,55,0,0,0,79,81,126,80,27,154.56,423,-58.00,-3.00,-1025.00
2024-06-07 14:31:13.747055,-2,1,55,0,0,0,79,81,125,80,27,154.50,423,-42.00,-15.00,-998.00
2024-06-07 14:31:13.902859,-2,1,55,0,0,0,79,81,125,80,27,154.55,423,-57.00,-12.00,-946.00
2024-06-07 14:31:13.951154,-2,0,55,0,0,0,79,81,126,80,27,154.50,423,-48.00,3.00,-985.00
2024-06-07 14:31:14.107422,-2,0,55,0,0,0,79,81,125,80,27,154.60,423,-49.00,-19.00,-999.00
2024-06-07 14:31:14.155132,-2,0,55,0,0,0,79,81,124,80,27,154.55,423,-56.00,29.00,-1012.00
2024-06-07 14:31:14.257067,-2,0,55,0,0,0,79,82,126,80,27,154.57,423,-10.00,-24.00,-994.00
2024-06-07 14:31:14.415549,-2,0,55,0,0,0,79,82,124,80,27,154.57,424,-30.00,0.00,-1002.00
2024-06-07 14:31:14.461311,-2,0,55,0,0,0,79,82,125,80,27,154.52,424,-58.00,-8.00,-991.00
2024-06-07 14:31:14.619343,-2,0,55,0,0,0,79,82,124,80,27,154.54,424,-77.00,11.00,-1013.00
2024-06-07 14:31:14.665293,-2,0,55,0,0,0,79,82,124,80,27,154.55,424,-41.00,-26.00,-1004.00
2024-06-07 14:31:14.767045,-2,0,55,0,0,0,79,82,124,80,27,154.56,424,-52.00,-20.00,-1027.00
2024-06-07 14:31:14.869899,-2,0,55,0,0,0,79,82,124,80,27,154.57,424,-23.00,13.00,-1006.00
2024-06-07 14:31:14.971251,-2,0,55,0,0,0,79,82,125,80,27,154.48,424,-38.00,16.00,-1021.00
2024-06-07 14:31:15.131673,-1,0,55,0,0,0,79,82,124,80,27,154.56,424,-60.00,3.00,-1015.00
2024-06-07 14:31:15.174821,-1,0,55,0,0,0,79,82,124,80,27,154.51,424,-17.00,3.00,-972.00
2024-06-07 14:31:15.277031,-2,0,55,0,0,0,80,81,125,80,27,154.53,424,-39.00,-8.00,-1011.00
2024-06-07 14:31:15.380674,-2,0,55,0,0,0,80,81,125,80,27,154.55,425,-60.00,30.00,-1024.00
2024-06-07 14:31:15.481002,-2,0,55,0,0,0,80,81,125,80,27,154.51,425,-53.00,22.00,-976.00
2024-06-07 14:31:15.603606,-2,0,55,0,0,0,80,81,125,80,27,154.65,425,-1.00,-13.00,-989.00
2024-06-07 14:31:15.684902,-2,0,55,0,0,0,80,81,127,80,27,154.50,425,-70.00,22.00,-1016.00
2024-06-07 14:31:15.787385,-2,0,55,0,0,0,80,81,126,80,27,154.55,425,-49.00,5.00,-1014.00
2024-06-07 14:31:15.889344,-2,7,55,0,0,0,80,81,129,80,27,154.54,425,-26.00,-11.00,-992.00
2024-06-07 14:31:16.054102,-2,8,55,-1,1,0,80,81,130,80,27,154.59,425,-76.00,22.00,-995.00
2024-06-07 14:31:16.096612,-1,5,55,-2,1,0,80,81,128,80,27,154.61,425,-23.00,-21.00,-1019.00
2024-06-07 14:31:16.195925,-1,3,55,-2,2,0,80,81,128,80,27,154.66,425,-32.00,-9.00,-991.00
2024-06-07 14:31:16.359826,-1,0,55,-3,2,0,80,82,128,80,27,154.62,425,-42.00,-21.00,-1006.00
2024-06-07 14:31:16.399822,-1,-1,55,-2,1,0,80,82,127,80,27,154.61,426,-46.00,-32.00,-996.00
2024-06-07 14:31:16.564808,-1,0,55,-2,1,0,80,82,129,80,27,154.77,426,-30.00,-15.00,-999.00
2024-06-07 14:31:16.608911,-1,0,55,-2,1,0,80,82,130,90,27,154.69,426,-36.00,-27.00,-1008.00
2024-06-07 14:31:16.711247,-1,0,55,-1,1,0,80,82,128,90,27,154.59,426,-17.00,-23.00,-1013.00
2024-06-07 14:31:16.807893,-1,1,55,-1,1,0,80,82,129,90,27,154.64,426,-41.00,-18.00,-985.00
2024-06-07 14:31:16.975049,-1,1,55,-1,1,0,80,82,129,90,27,154.69,426,-33.00,-22.00,-984.00
2024-06-07 14:31:17.012779,-1,1,55,-2,1,0,80,82,128,90,27,154.65,426,-34.00,-14.00,-1002.00
2024-06-07 14:31:17.185275,-1,0,55,-2,1,0,80,82,129,90,27,154.65,426,-61.00,-10.00,-1003.00
2024-06-07 14:31:17.185578,-1,0,55,-2,1,0,80,82,128,90,27,154.63,426,-61.00,-12.00,-1009.00
2024-06-07 14:31:17.385382,-1,0,55,-2,1,0,80,82,127,90,27,154.61,426,-34.00,-10.00,-992.00
2024-06-07 14:31:17.426441,0,0,55,-2,0,0,80,82,128,90,27,154.61,427,-44.00,-12.00,-995.00
2024-06-07 14:31:17.472201,0,0,55,-2,0,0,80,82,128,90,27,154.63,427,-54.00,8.00,-974.00
2024-06-07 14:31:17.588879,-2,-1,56,-2,0,0,80,82,128,90,27,154.64,427,-7.00,-1.00,-950.00
2024-06-07 14:31:17.678606,-4,-5,56,-2,0,0,80,82,128,90,27,154.56,427,-41.00,9.00,-997.00
2024-06-07 14:31:17.778094,-3,-3,56,-1,0,0,80,82,127,90,27,154.58,427,-60.00,34.00,-1005.00
2024-06-07 14:31:17.898344,-3,-2,56,0,0,0,80,82,128,90,27,154.63,427,9.00,-11.00,-963.00
2024-06-07 14:31:17.982473,-2,-1,56,0,0,0,80,82,127,90,27,154.64,427,-44.00,35.00,-1004.00
2024-06-07 14:31:18.084193,-1,-1,55,0,0,0,80,82,125,90,27,154.61,427,-40.00,24.00,-987.00
2024-06-07 14:31:18.185782,-1,-1,55,0,0,0,80,82,125,80,27,154.59,427,-44.00,17.00,-1008.00
2024-06-07 14:31:18.305478,-1,-1,55,0,0,0,79,82,125,80,26,154.62,427,-38.00,24.00,-1012.00
2024-06-07 14:31:18.389972,-1,-2,55,0,0,0,79,82,124,80,26,154.63,428,-49.00,29.00,-998.00
2024-06-07 14:31:18.512898,-2,-1,55,0,0,0,79,82,124,80,26,154.60,428,-42.00,23.00,-992.00
2024-06-07 14:31:18.596016,-1,-1,55,0,0,0,79,82,124,80,26,154.65,428,-64.00,33.00,-1005.00
2024-06-07 14:31:18.715227,-1,-1,55,0,0,0,79,82,123,80,26,154.61,428,-60.00,49.00,-966.00
2024-06-07 14:31:18.798872,-1,-1,55,0,0,0,79,82,123,80,26,154.58,428,-51.00,29.00,-1008.00
2024-06-07 14:31:18.900660,-1,-1,55,0,0,0,79,82,123,80,26,154.62,428,-68.00,28.00,-1012.00
2024-06-07 14:31:19.022118,-1,-1,55,0,0,0,79,82,123,80,26,154.58,428,-24.00,-6.00,-1024.00
2024-06-07 14:31:19.104889,-1,-1,55,0,0,0,79,82,123,80,26,154.58,428,-43.00,41.00,-1011.00
2024-06-07 14:31:19.227326,-1,-1,55,0,0,0,79,82,122,80,26,154.63,428,-39.00,22.00,-1028.00
2024-06-07 14:31:19.309329,-1,0,55,0,0,0,79,81,122,80,26,154.64,428,-45.00,29.00,-983.00
2024-06-07 14:31:19.412085,-1,-1,55,0,0,0,79,81,123,80,26,154.63,429,-51.00,13.00,-1034.00
2024-06-07 14:31:19.512816,-2,-1,55,0,0,0,79,81,123,80,26,154.59,429,-63.00,24.00,-993.00
2024-06-07 14:31:19.636543,-2,-1,55,0,0,0,79,81,123,80,26,154.63,429,-85.00,-5.00,-993.00
2024-06-07 14:31:19.716816,-2,-1,55,0,0,0,79,81,123,80,26,154.60,429,-22.00,-8.00,-997.00
2024-06-07 14:31:19.818744,-2,-1,55,0,0,0,79,81,123,80,26,154.57,429,-16.00,-1.00,-1012.00
2024-06-07 14:31:19.921886,-1,0,55,0,0,0,79,81,123,80,26,154.53,429,-75.00,29.00,-996.00
2024-06-07 14:31:20.046449,-1,0,57,0,0,0,79,81,123,80,26,154.58,429,-35.00,0.00,-973.00
2024-06-07 14:31:20.125729,-1,0,63,0,0,0,79,81,123,80,26,154.59,429,-50.00,7.00,-1020.00
2024-06-07 14:31:20.227170,-1,0,69,0,0,0,79,81,124,80,26,154.65,429,-39.00,26.00,-994.00
2024-06-07 14:31:20.328901,-1,-1,81,0,0,0,79,81,123,80,25,154.64,430,-47.00,20.00,-1012.00
2024-06-07 14:31:20.457276,-1,-1,86,0,0,0,79,81,123,80,25,154.65,430,-47.00,31.00,-986.00
2024-06-07 14:31:20.535701,-1,-2,92,0,0,0,79,81,123,80,25,154.61,430,-45.00,44.00,-970.00
2024-06-07 14:31:20.634595,-1,-2,98,0,0,0,79,81,123,80,25,154.62,430,-43.00,39.00,-999.00
2024-06-07 14:31:20.762781,-1,-2,104,0,0,0,79,81,123,80,25,154.66,430,-1.00,32.00,-1006.00
2024-06-07 14:31:20.838595,-1,-2,110,0,0,0,79,81,123,80,25,154.68,430,-15.00,20.00,-1049.00
2024-06-07 14:31:20.968119,0,-2,116,0,0,0,79,81,122,80,25,154.72,430,-43.00,38.00,-1033.00
2024-06-07 14:31:21.042603,0,-2,122,0,0,0,79,81,123,80,25,154.72,430,-41.00,48.00,-981.00
2024-06-07 14:31:21.144734,0,-1,127,0,0,0,79,81,122,80,25,154.66,430,-20.00,48.00,-1050.00
2024-06-07 14:31:21.195600,0,-2,133,0,0,0,79,81,122,80,25,154.66,430,-15.00,62.00,-1037.00
2024-06-07 14:31:21.377553,0,-3,139,0,0,0,80,82,121,80,25,154.66,431,-30.00,43.00,-1016.00
2024-06-07 14:31:21.450588,0,-3,146,0,0,0,80,82,122,80,25,154.61,431,-1.00,36.00,-1028.00
2024-06-07 14:31:21.502791,0,-2,152,0,0,0,80,82,122,80,25,154.65,431,39.00,23.00,-1007.00
2024-06-07 14:31:21.603652,1,-2,158,0,0,0,80,82,122,80,25,154.67,431,7.00,42.00,-999.00
2024-06-07 14:31:21.705550,1,-2,164,0,0,0,80,82,123,80,25,154.67,431,41.00,34.00,-995.00
2024-06-07 14:31:21.889392,1,-2,170,0,0,0,80,82,123,80,25,154.64,431,9.00,45.00,-1005.00
2024-06-07 14:31:21.910021,1,-2,176,0,0,0,80,82,123,80,25,154.69,431,-1.00,53.00,-1014.00
2024-06-07 14:31:22.095274,1,-2,-176,0,0,0,80,82,122,80,25,154.72,431,53.00,48.00,-992.00
2024-06-07 14:31:22.113566,1,-1,-170,0,0,0,80,82,123,80,25,154.64,431,5.00,51.00,-987.00
2024-06-07 14:31:22.298723,1,0,-163,0,0,0,80,82,124,80,25,154.66,431,30.00,41.00,-974.00
2024-06-07 14:31:22.318832,2,0,-157,0,0,0,78,82,123,80,25,154.70,432,-3.00,11.00,-1004.00
2024-06-07 14:31:22.419525,2,0,-152,0,0,0,78,82,123,80,25,154.60,432,36.00,16.00,-1001.00
2024-06-07 14:31:22.606158,2,1,-146,0,0,0,78,82,123,80,25,154.67,432,13.00,5.00,-1030.00
2024-06-07 14:31:22.623771,2,0,-140,0,0,0,78,82,123,80,25,154.60,432,11.00,7.00,-1026.00
2024-06-07 14:31:22.813177,1,0,-134,0,0,0,78,82,123,80,25,154.65,432,26.00,-4.00,-1012.00
2024-06-07 14:31:22.836131,1,1,-129,0,0,0,78,82,122,80,25,154.64,432,20.00,3.00,-983.00
2024-06-07 14:31:22.930160,0,1,-123,0,0,0,78,82,123,80,25,154.59,432,4.00,0.00,-996.00
2024-06-07 14:31:23.118157,0,1,-117,0,0,0,78,82,123,80,25,154.58,432,14.00,14.00,-996.00
2024-06-07 14:31:23.136268,0,1,-111,0,0,0,78,82,124,80,25,154.69,432,20.00,9.00,-973.00
2024-06-07 14:31:23.237911,0,0,-105,0,0,0,78,82,123,80,25,154.69,432,-11.00,4.00,-986.00
2024-06-07 14:31:23.337392,0,0,-99,0,0,0,79,81,123,80,24,154.75,433,11.00,6.00,-999.00
2024-06-07 14:31:23.439492,0,0,-93,0,0,0,79,81,123,80,24,154.70,433,10.00,0.00,-971.00
2024-06-07 14:31:23.629962,0,0,-86,0,0,0,79,81,123,80,24,154.65,433,-26.00,11.00,-1018.00
2024-06-07 14:31:23.653949,0,0,-79,0,0,0,79,81,123,80,24,154.80,433,18.00,-16.00,-1002.00
2024-06-07 14:31:23.750989,1,0,-72,0,0,0,79,81,124,80,24,154.74,433,8.00,-17.00,-996.00
2024-06-07 14:31:23.852131,0,0,-65,0,0,0,79,81,124,80,24,154.77,433,31.00,-38.00,-1009.00
2024-06-07 14:31:23.953210,0,0,-58,0,0,0,79,81,126,80,24,154.69,433,-34.00,0.00,-977.00
2024-06-07 14:31:24.051407,0,1,-51,0,0,0,79,81,125,80,24,154.71,433,26.00,-38.00,-1010.00
2024-06-07 14:31:24.154237,0,1,-44,0,0,0,79,81,127,90,24,154.70,433,-31.00,-4.00,-999.00
2024-06-07 14:31:24.347340,0,1,-38,0,0,0,79,81,126,90,24,154.68,433,33.00,-40.00,-980.00
2024-06-07 14:31:24.357435,0,2,-31,0,0,0,79,82,128,90,24,154.66,434,-47.00,-34.00,-989.00
2024-06-07 14:31:24.460504,0,2,-25,0,0,0,79,82,127,90,24,154.69,434,-53.00,-13.00,-1010.00
2024-06-07 14:31:24.562430,0,2,-19,0,0,0,79,82,128,90,24,154.73,434,20.00,-61.00,-983.00
2024-06-07 14:31:24.663531,-1,2,-13,0,0,0,79,82,127,90,24,154.64,434,25.00,-47.00,-1019.00
2024-06-07 14:31:24.859272,-1,2,-8,0,0,0,79,82,128,90,24,154.67,434,-38.00,-25.00,-997.00
2024-06-07 14:31:24.867430,-1,1,-2,0,0,0,79,82,127,90,24,154.66,434,12.00,-50.00,-1001.00
2024-06-07 14:31:25.070696,-1,1,2,0,0,0,79,82,128,90,24,154.68,434,24.00,-43.00,-989.00
2024-06-07 14:31:25.071266,-1,1,8,0,0,0,79,82,127,90,24,154.73,434,-16.00,-24.00,-990.00
2024-06-07 14:31:25.173395,0,1,14,0,0,0,79,82,127,90,24,154.64,434,-25.00,-59.00,-1044.00
2024-06-07 14:31:25.275372,-1,1,19,0,0,0,79,82,127,90,24,154.61,434,-56.00,-19.00,-996.00
2024-06-07 14:31:25.475811,-1,2,25,0,0,0,79,81,127,90,24,154.58,435,-54.00,-4.00,-948.00
2024-06-07 14:31:25.480209,-1,1,31,0,0,0,79,81,128,90,24,154.63,435,-72.00,-7.00,-962.00
2024-06-07 14:31:25.581461,-2,1,37,0,0,0,79,81,128,90,24,154.68,435,-72.00,-6.00,-1041.00
2024-06-07 14:31:25.784228,-2,1,41,0,0,0,79,81,128,90,24,154.67,435,-67.00,-8.00,-972.00
2024-06-07 14:31:25.787319,-2,0,44,0,0,0,79,81,128,90,24,154.72,435,-40.00,-16.00,-1015.00
2024-06-07 14:31:25.837804,-2,0,47,0,0,0,79,81,127,90,24,154.66,435,-106.00,45.00,-952.00
2024-06-07 14:31:25.938371,-2,0,49,0,0,0,79,81,127,90,24,154.59,435,-47.00,-14.00,-983.00
2024-06-07 14:31:26.159966,-3,0,50,0,0,0,79,81,127,90,24,154.76,435,-43.00,-6.00,-969.00
2024-06-07 14:31:26.160532,-3,0,51,0,0,0,79,81,127,90,24,154.55,435,-77.00,-7.00,-972.00
2024-06-07 14:31:26.245647,-3,0,52,0,0,0,79,81,126,90,23,154.62,435,-80.00,-4.00,-1009.00
2024-06-07 14:31:26.350333,-3,0,53,0,0,0,79,81,126,80,23,154.65,436,-86.00,-26.00,-1027.00
2024-06-07 14:31:26.448937,-3,0,53,0,0,0,79,81,125,80,23,154.57,436,-69.00,-9.00,-1000.00
2024-06-07 14:31:26.604650,-4,0,53,0,0,0,79,81,125,80,23,154.62,436,4.00,-43.00,-1017.00
2024-06-07 14:31:26.654856,-3,0,53,0,0,0,79,81,125,80,23,154.57,436,-79.00,-10.00,-978.00
2024-06-07 14:31:26.755044,-3,0,53,0,0,0,79,81,124,80,23,154.52,436,-59.00,-10.00,-1022.00
2024-06-07 14:31:26.856388,-3,0,53,0,0,0,79,81,125,80,23,154.59,436,-62.00,-14.00,-1016.00
2024-06-07 14:31:27.012832,-3,0,53,0,0,0,79,81,124,80,23,154.62,436,-81.00,-41.00,-1024.00
2024-06-07 14:31:27.060698,-3,1,53,0,0,0,79,81,124,80,23,154.56,436,-73.00,-40.00,-998.00
2024-06-07 14:31:27.162760,-3,0,53,0,0,0,79,81,124,80,23,154.54,436,-61.00,-20.00,-1002.00
2024-06-07 14:31:27.321683,-3,1,53,0,0,0,79,81,125,80,23,154.54,436,-57.00,-19.00,-982.00
2024-06-07 14:31:27.366349,-3,1,53,0,0,0,79,81,125,80,23,154.44,437,-61.00,-32.00,-1021.00
2024-06-07 14:31:27.468369,-3,1,53,0,0,0,79,81,125,80,23,154.57,437,-37.00,-33.00,-969.00
2024-06-07 14:31:27.570367,-3,2,53,0,0,0,79,81,125,80,23,154.53,437,-55.00,-15.00,-990.00
2024-06-07 14:31:27.672792,-3,1,53,0,0,0,79,81,125,80,23,154.51,437,-106.00,-21.00,-977.00
2024-06-07 14:31:27.831939,-4,1,53,0,0,0,79,81,126,80,23,154.55,437,-35.00,-41.00,-996.00
2024-06-07 14:31:27.876292,-3,1,53,0,0,0,79,81,126,80,23,154.48,437,-62.00,-8.00,-1032.00
2024-06-07 14:31:28.036565,-3,1,53,0,0,0,79,81,126,80,23,154.61,437,-75.00,-22.00,-1022.00
2024-06-07 14:31:28.080324,-3,1,53,0,0,0,79,81,127,80,23,154.59,437,-52.00,-1.00,-982.00
2024-06-07 14:31:28.182317,-3,1,53,0,0,0,79,81,127,80,23,154.55,437,-57.00,-21.00,-1021.00
2024-06-07 14:31:28.341137,-3,1,53,0,0,0,79,81,127,80,23,154.51,437,-61.00,-17.00,-1001.00
2024-06-07 14:31:28.387094,-3,1,53,0,0,0,79,81,128,90,23,154.59,438,-22.00,-20.00,-977.00
2024-06-07 14:31:28.545873,-3,0,53,0,0,0,79,81,128,90,23,154.63,438,-90.00,-8.00,-1002.00
2024-06-07 14:31:28.592633,-2,0,49,0,0,0,79,81,129,90,23,154.65,438,-39.00,-33.00,-999.00
2024-06-07 14:31:28.692272,-2,1,43,0,0,0,79,81,130,90,23,154.64,438,-29.00,-37.00,-963.00
2024-06-07 14:31:28.794385,-2,1,37,0,0,0,79,81,130,90,23,154.70,438,-35.00,-27.00,-965.00
2024-06-07 14:31:28.959128,-2,2,31,0,0,0,79,81,130,90,23,154.66,438,-45.00,-45.00,-1023.00
2024-06-07 14:31:29.001031,-2,2,24,0,0,0,79,81,130,90,23,154.73,438,-16.00,-65.00,-1014.00
2024-06-07 14:31:29.100196,-1,2,18,0,0,0,79,81,129,90,23,154.76,438,10.00,-55.00,-984.00
2024-06-07 14:31:29.204634,0,2,11,0,0,0,79,81,128,90,23,154.79,438,-51.00,-27.00,-987.00
2024-06-07 14:31:29.304365,0,2,5,0,0,0,79,81,128,90,23,154.74,438,-3.00,-37.00,-1004.00
2024-06-07 14:31:29.467092,0,2,0,0,0,0,79,82,128,90,23,154.77,439,27.00,-45.00,-1013.00
2024-06-07 14:31:29.508718,1,2,-6,0,0,0,79,82,128,80,23,154.67,439,0.00,-39.00,-1011.00
2024-06-07 14:31:29.613486,1,2,-12,0,0,0,79,82,128,80,23,154.62,439,28.00,-33.00,-1002.00
2024-06-07 14:31:29.712297,2,2,-18,0,0,0,79,82,127,80,23,154.58,439,30.00,-23.00,-988.00
2024-06-07 14:31:29.814375,2,1,-25,0,0,0,79,82,128,80,23,154.65,439,73.00,-72.00,-1030.00
2024-06-07 14:31:29.866230,3,1,-31,0,0,0,79,82,127,90,23,154.60,439,33.00,-34.00,-985.00
2024-06-07 14:31:29.979506,3,0,-37,0,0,0,79,82,127,90,23,154.64,439,55.00,-6.00,-934.00
2024-06-07 14:31:30.069440,3,0,-43,0,0,0,79,82,126,90,23,154.52,439,62.00,-36.00,-1026.00
2024-06-07 14:31:30.171489,3,0,-49,0,0,0,79,82,127,90,23,154.58,439,73.00,-36.00,-1020.00
2024-06-07 14:31:30.285896,2,0,-55,0,0,0,79,82,125,90,22,154.65,439,31.00,-5.00,-968.00
2024-06-07 14:31:30.375157,2,0,-61,0,0,0,80,82,125,80,22,154.66,440,58.00,-9.00,-990.00
2024-06-07 14:31:30.477187,2,0,-68,0,0,0,80,82,125,80,22,154.65,440,23.00,48.00,-979.00
2024-06-07 14:31:30.597933,2,0,-74,0,0,0,80,82,125,80,22,154.62,440,61.00,23.00,-995.00
2024-06-07 14:31:30.682088,2,-1,-80,0,0,0,80,82,124,80,22,154.64,440,84.00,17.00,-1031.00
2024-06-07 14:31:30.798131,2,-1,-86,0,0,0,80,82,125,80,22,154.67,440,9.00,29.00,-984.00
2024-06-07 14:31:30.886562,2,-1,-93,0,0,0,80,82,123,80,22,154.68,440,40.00,54.00,-1018.00
2024-06-07 14:31:31.003216,2,-1,-99,0,0,0,80,82,123,80,22,154.69,440,48.00,44.00,-978.00
2024-06-07 14:31:31.093726,1,-1,-105,0,0,0,80,82,122,80,22,154.62,440,30.00,7.00,-1002.00
2024-06-07 14:31:31.192058,1,-2,-111,0,0,0,80,82,123,80,22,154.65,440,17.00,29.00,-1006.00
2024-06-07 14:31:31.295409,1,-2,-118,0,0,0,80,82,123,80,22,154.68,440,55.00,67.00,-1003.00
2024-06-07 14:31:31.412510,1,-2,-124,0,0,0,79,81,122,80,22,154.67,441,-2.00,52.00,-1001.00
2024-06-07 14:31:31.499752,0,-2,-130,0,0,0,79,81,122,80,22,154.69,441,39.00,43.00,-1024.00
2024-06-07 14:31:31.599993,0,-2,-136,0,0,0,79,81,122,80,22,154.74,441,-15.00,68.00,-1050.00
2024-06-07 14:31:31.720268,0,-2,-142,0,0,0,79,81,122,80,22,154.65,441,17.00,63.00,-969.00
2024-06-07 14:31:31.804047,0,-3,-149,0,0,0,79,81,122,80,22,154.66,441,-20.00,75.00,-976.00
2024-06-07 14:31:31.924286,0,-3,-155,0,0,0,79,81,123,80,22,154.70,441,-15.00,49.00,-992.00
2024-06-07 14:31:32.008618,0,-3,-161,0,0,0,79,81,122,80,22,154.72,441,3.00,65.00,-1017.00
2024-06-07 14:31:32.130296,0,-2,-167,0,0,0,79,81,124,80,22,154.73,441,-39.00,71.00,-986.00
2024-06-07 14:31:32.212986,-1,-2,-173,0,0,0,79,81,124,80,22,154.60,441,-5.00,50.00,-1031.00
2024-06-07 14:31:32.334065,-1,-2,-179,0,0,0,79,81,124,80,22,154.67,441,-24.00,68.00,-978.00
2024-06-07 14:31:32.416325,-1,-2,174,0,0,0,79,82,124,80,22,154.69,442,-34.00,47.00,-1001.00
2024-06-07 14:31:32.518888,-1,-2,168,0,0,0,79,82,125,80,22,154.63,442,-41.00,57.00,-1003.00
2024-06-07 14:31:32.623061,-1,-2,162,0,0,0,79,82,125,80,22,154.60,442,-74.00,76.00,-1005.00
2024-06-07 14:31:32.722075,-2,-2,156,0,0,0,79,82,125,80,22,154.61,442,-17.00,18.00,-1000.00
2024-06-07 14:31:32.847392,-2,-2,150,0,0,0,79,82,125,80,22,154.61,442,-44.00,27.00,-986.00
2024-06-07 14:31:32.926130,-2,-1,145,0,0,0,79,82,124,80,22,154.63,442,-33.00,43.00,-995.00
2024-06-07 14:31:33.051013,-3,-1,139,0,0,0,79,82,125,80,22,154.71,442,-65.00,20.00,-987.00
2024-06-07 14:31:33.130250,-3,-1,133,0,0,0,79,82,124,80,22,154.66,442,-61.00,26.00,-1007.00
2024-06-07 14:31:33.233136,-4,0,127,0,0,0,79,82,124,80,22,154.60,442,-100.00,28.00,-983.00
2024-06-07 14:31:33.359287,-4,0,121,0,0,0,79,82,124,80,22,154.49,442,-67.00,7.00,-972.00
2024-06-07 14:31:33.435993,-3,1,109,0,0,0,79,82,125,80,22,154.46,443,-71.00,10.00,-995.00
2024-06-07 14:31:33.563684,-3,1,103,0,0,0,79,82,125,80,22,154.47,443,-78.00,38.00,-1001.00
2024-06-07 14:31:33.639938,-3,0,98,0,0,0,79,82,125,80,22,154.60,443,-76.00,9.00,-979.00
2024-06-07 14:31:33.769339,-3,0,92,0,0,0,79,82,126,80,22,154.64,443,-28.00,-24.00,-1030.00
2024-06-07 14:31:33.844572,-3,1,86,0,0,0,79,82,127,80,22,154.60,443,-58.00,-1.00,-1008.00
2024-06-07 14:31:33.972442,-3,1,80,0,0,0,79,82,127,80,22,154.63,443,-45.00,-11.00,-954.00
2024-06-07 14:31:34.048166,-2,2,74,0,0,0,79,82,128,90,22,154.62,443,-49.00,-19.00,-978.00
2024-06-07 14:31:34.099344,-2,2,69,0,0,0,79,82,128,90,22,154.63,443,-48.00,-59.00,-1045.00
2024-06-07 14:31:34.205029,-2,2,65,0,0,0,79,82,129,90,22,154.67,443,-57.00,-24.00,-956.00
2024-06-07 14:31:34.302950,-2,2,62,0,0,0,79,82,128,90,22,154.66,444,-30.00,-38.00,-994.00
2024-06-07 14:31:34.484596,-2,2,60,0,0,0,79,81,127,90,22,154.69,444,-63.00,-8.00,-959.00
2024-06-07 14:31:34.506908,-2,2,58,0,0,0,79,81,127,90,22,154.73,444,-18.00,-34.00,-1007.00
2024-06-07 14:31:34.608951,-2,2,57,0,0,0,79,81,128,90,22,154.72,444,-19.00,-57.00,-976.00
2024-06-07 14:31:34.710895,-1,2,56,0,0,0,79,81,127,90,22,154.71,444,-42.00,-37.00,-986.00
2024-06-07 14:31:34.813707,-1,2,55,0,0,0,79,81,127,90,22,154.69,444,-7.00,-49.00,-1038.00
2024-06-07 14:31:35.001105,-1,2,55,0,0,0,79,81,127,90,22,154.64,444,-57.00,-38.00,-1005.00
2024-06-07 14:31:35.017020,-1,2,55,0,0,0,79,81,127,90,22,154.73,444,-22.00,-52.00,-1009.00
2024-06-07 14:31:35.119472,-1,2,55,0,0,0,79,81,127,90,22,154.64,444,-40.00,-43.00,-1010.00
2024-06-07 14:31:35.221034,-1,2,55,0,0,0,79,81,127,90,22,154.68,444,5.00,-65.00,-1003.00
2024-06-07 14:31:35.406283,-1,2,55,0,0,0,79,81,127,90,22,154.67,445,-17.00,-56.00,-1018.00
2024-06-07 14:31:35.433298,-1,2,55,0,0,0,79,82,127,90,22,154.73,445,-30.00,-41.00,-980.00
2024-06-07 14:31:35.531720,-1,2,55,0,0,0,79,82,127,90,22,154.69,445,-30.00,-34.00,-958.00
2024-06-07 14:31:35.632532,-2,2,55,0,0,0,79,82,127,90,22,154.70,445,-61.00,-20.00,-982.00
2024-06-07 14:31:35.731176,-2,2,55,0,0,0,79,82,126,90,22,154.68,445,-39.00,-35.00,-943.00
2024-06-07 14:31:35.919988,-2,2,55,0,0,0,79,82,126,90,22,154.66,445,-68.00,-20.00,-980.00
2024-06-07 14:31:35.935248,-2,2,55,0,0,0,79,82,127,80,22,154.76,445,-35.00,-43.00,-1012.00
2024-06-07 14:31:36.036982,-2,2,55,0,0,0,79,82,126,80,22,154.69,445,16.00,-76.00,-998.00
2024-06-07 14:31:36.139020,-2,2,55,0,0,0,79,82,127,80,22,154.71,445,-33.00,-62.00,-998.00
2024-06-07 14:31:36.246175,-1,3,55,0,0,0,79,82,125,80,22,154.67,445,-40.00,-55.00,-1005.00
2024-06-07 14:31:36.343317,-2,3,55,0,0,0,79,82,126,80,22,154.66,446,-34.00,-43.00,-1013.00
2024-06-07 14:31:36.536106,-1,2,55,0,0,0,79,81,125,80,22,154.79,446,-38.00,-51.00,-1019.00
2024-06-07 14:31:36.547048,-2,2,55,0,0,0,79,81,125,80,22,154.71,446,-29.00,-52.00,-1020.00
2024-06-07 14:31:36.649237,-1,2,55,0,0,0,79,81,126,80,22,154.72,446,-14.00,-72.00,-1016.00
2024-06-07 14:31:36.842495,-1,3,55,0,0,0,79,81,127,80,22,154.71,446,-22.00,-56.00,-982.00
2024-06-07 14:31:36.852861,-1,3,55,0,0,0,79,81,126,80,22,154.68,446,12.00,-66.00,-1018.00
2024-06-07 14:31:37.004430,-1,3,55,0,0,0,79,81,126,80,22,154.70,446,-61.00,-45.00,-1005.00
2024-06-07 14:31:37.057075,0,3,55,0,0,0,79,81,127,90,22,154.76,446,-6.00,-81.00,-988.00
2024-06-07 14:31:37.256195,0,4,55,0,0,0,79,81,127,90,22,154.74,446,-28.00,-61.00,-989.00
2024-06-07 14:31:37.270923,0,4,55,0,0,0,79,81,127,90,22,154.76,446,-54.00,-57.00,-983.00
2024-06-07 14:31:37.362907,-1,3,55,0,0,0,79,81,127,90,22,154.75,447,-28.00,-59.00,-970.00
2024-06-07 14:31:37.464937,-1,3,55,0,0,0,80,82,127,90,22,154.76,447,-41.00,-51.00,-1022.00
2024-06-07 14:31:37.667510,-2,3,55,0,0,0,80,82,127,90,22,154.71,447,-49.00,-59.00,-994.00
2024-06-07 14:31:37.668877,-2,3,55,0,0,0,80,82,126,90,22,154.73,447,-46.00,-45.00,-991.00
2024-06-07 14:31:37.867179,-2,2,55,0,0,0,80,82,127,90,22,154.68,447,-50.00,-49.00,-981.00
2024-06-07 14:31:37.874108,-2,3,55,0,0,0,80,82,127,90,22,154.65,447,-53.00,-42.00,-970.00
2024-06-07 14:31:37.974901,-2,2,55,0,0,0,80,82,127,90,22,154.62,447,-58.00,-61.00,-1019.00
2024-06-07 14:31:38.026053,-2,2,55,0,0,0,80,82,126,90,22,154.67,447,-54.00,-77.00,-971.00
2024-06-07 14:31:38.129467,-1,3,55,0,0,0,80,82,126,90,22,154.78,447,-23.00,-81.00,-1009.00
2024-06-07 14:31:38.229829,-1,3,55,0,0,0,80,82,126,90,22,154.68,447,-52.00,-56.00,-950.00
2024-06-07 14:31:38.332532,0,3,55,0,0,0,80,82,126,80,21,154.72,448,-8.00,-83.00,-1001.00
2024-06-07 14:31:38.484931,0,4,55,0,0,0,79,81,126,80,21,154.64,448,5.00,-87.00,-986.00
2024-06-07 14:31:38.535987,0,4,55,0,0,0,79,81,126,80,21,154.74,448,-15.00,-66.00,-998.00
2024-06-07 14:31:38.637852,0,4,55,0,0,0,79,81,126,80,21,154.71,448,-18.00,-57.00,-1026.00
2024-06-07 14:31:38.787831,0,3,55,0,0,0,79,81,125,80,21,154.70,448,2.00,-91.00,-1000.00
2024-06-07 14:31:38.851405,-1,4,55,0,0,0,79,81,126,80,21,154.75,448,-60.00,-44.00,-995.00
2024-06-07 14:31:38.943852,-1,3,55,0,0,0,79,81,126,80,21,154.74,448,-31.00,-68.00,-1043.00
2024-06-07 14:31:39.092978,-1,3,55,0,0,0,79,81,126,80,21,154.75,448,17.00,-64.00,-990.00
2024-06-07 14:31:39.147933,-1,3,55,0,0,0,79,81,126,80,21,154.75,448,-6.00,-83.00,-980.00
2024-06-07 14:31:39.249831,0,3,55,0,0,0,79,81,127,80,21,154.79,448,-24.00,-74.00,-985.00
2024-06-07 14:31:39.399732,0,3,55,0,0,0,79,81,125,80,21,154.78,449,0.00,-108.00,-995.00
2024-06-07 14:31:39.453786,0,4,55,0,0,0,79,82,127,90,21,154.76,449,14.00,-60.00,-991.00
2024-06-07 14:31:39.555751,0,4,55,0,0,0,79,82,126,90,21,154.78,449,-6.00,-62.00,-993.00
2024-06-07 14:31:39.711679,0,4,55,0,0,0,79,82,126,90,21,154.86,449,-7.00,-109.00,-978.00
2024-06-07 14:31:39.759821,-1,3,55,0,0,0,79,82,126,90,21,154.93,449,-23.00,-81.00,-988.00
2024-06-07 14:31:39.912859,-1,4,55,0,0,0,79,82,126,90,21,154.80,449,-27.00,-76.00,-998.00
2024-06-07 14:31:39.966619,-1,4,55,0,0,0,79,82,126,80,21,154.79,449,-14.00,-70.00,-1000.00
2024-06-07 14:31:40.065684,-1,4,55,0,0,0,79,82,126,80,21,154.79,449,-11.00,-74.00,-956.00
2024-06-07 14:31:40.168094,0,4,55,0,0,0,79,82,124,80,21,154.77,449,16.00,-81.00,-1017.00
2024-06-07 14:31:40.269777,0,3,55,0,0,0,79,82,124,80,21,154.89,449,0.00,-86.00,-973.00
2024-06-07 14:31:40.428053,0,4,55,0,0,0,79,82,125,80,21,154.74,450,-1.00,-78.00,-1007.00
2024-06-07 14:31:40.473674,0,5,55,0,0,0,79,81,126,80,21,154.73,450,-10.00,-62.00,-995.00
2024-06-07 14:31:40.581878,0,5,55,0,0,0,79,81,125,80,21,154.78,450,-15.00,-84.00,-999.00
2024-06-07 14:31:40.679136,0,4,55,0,0,0,79,81,124,80,21,154.75,450,-60.00,-55.00,-995.00
2024-06-07 14:31:40.780593,-1,3,55,0,0,0,79,81,125,80,21,154.76,450,-54.00,-68.00,-1003.00
2024-06-07 14:31:40.881728,-1,3,55,0,0,0,79,81,125,80,21,154.73,450,-13.00,-50.00,-998.00
2024-06-07 14:31:41.040392,-1,4,55,0,0,0,79,81,125,80,21,154.73,450,-30.00,-94.00,-993.00
2024-06-07 14:31:41.085865,-2,3,55,0,0,0,79,81,125,80,21,154.86,450,-34.00,-90.00,-964.00
2024-06-07 14:31:41.246851,-2,4,55,0,0,0,79,81,126,80,21,154.82,450,10.00,-136.00,-1003.00
2024-06-07 14:31:41.295893,-1,5,55,0,0,0,79,81,125,80,21,154.76,450,11.00,-108.00,-1007.00
2024-06-07 14:31:41.392668,0,6,55,0,0,0,79,81,126,80,21,154.79,451,-29.00,-98.00,-978.00
2024-06-07 14:31:41.549870,0,6,55,0,0,0,79,82,126,80,21,154.84,451,-49.00,-114.00,-980.00
2024-06-07 14:31:41.596752,0,6,55,0,0,0,79,82,127,80,21,154.79,451,-30.00,-132.00,-993.00
2024-06-07 14:31:41.759427,-1,6,55,0,0,0,79,82,126,80,21,154.89,451,-44.00,-103.00,-991.00
2024-06-07 14:31:41.800591,-1,7,55,0,0,0,79,82,126,80,21,154.88,451,-52.00,-110.00,-963.00
2024-06-07 14:31:41.960745,-2,7,55,0,0,0,79,82,127,80,21,154.82,451,-53.00,-92.00,-1003.00
2024-06-07 14:31:42.004599,-2,6,55,0,0,0,79,82,126,80,21,154.86,451,-51.00,-108.00,-1025.00
2024-06-07 14:31:42.155890,-2,6,55,0,0,0,79,82,127,80,21,154.86,451,-36.00,-103.00,-1015.00
2024-06-07 14:31:42.157535,-2,6,55,0,0,0,79,82,126,80,21,154.87,451,-1.00,-118.00,-1003.00
2024-06-07 14:31:42.260607,-2,6,55,0,0,0,79,82,127,80,21,154.84,451,-38.00,-127.00,-988.00
2024-06-07 14:31:42.370305,-1,6,55,0,0,0,79,82,128,80,21,154.78,452,8.00,-98.00,-984.00
2024-06-07 14:31:42.464606,-1,6,55,0,0,0,80,82,127,90,21,154.81,452,12.00,-96.00,-1007.00
2024-06-07 14:31:42.574927,-1,6,55,0,0,0,80,82,127,90,21,154.83,452,-24.00,-89.00,-1001.00
2024-06-07 14:31:42.667681,-1,6,55,0,0,0,80,82,127,90,21,154.81,452,-26.00,-118.00,-983.00
2024-06-07 14:31:42.786749,-1,5,55,0,0,0,80,82,129,90,21,154.88,452,-71.00,-115.00,-970.00
2024-06-07 14:31:42.871513,-1,6,55,0,0,0,80,82,129,90,21,154.85,452,14.00,-169.00,-1000.00
2024-06-07 14:31:42.983945,-1,6,55,0,0,0,80,82,128,90,21,154.86,452,-11.00,-116.00,-986.00
2024-06-07 14:31:43.075715,0,7,55,0,0,0,80,82,129,90,21,154.87,452,-19.00,-123.00,-993.00
2024-06-07 14:31:43.178005,0,7,55,0,0,0,80,82,128,90,21,154.86,452,-36.00,-110.00,-1005.00
2024-06-07 14:31:43.295740,0,6,55,0,0,0,80,82,128,90,20,154.91,452,-9.00,-156.00,-1001.00
2024-06-07 14:31:43.385556,0,7,55,0,0,0,80,82,128,90,20,154.89,453,2.00,-140.00,-1026.00
2024-06-07 14:31:43.484798,0,7,55,0,0,0,80,82,130,90,20,154.98,453,-7.00,-150.00,-992.00
2024-06-07 14:31:43.604830,0,7,55,0,0,0,80,82,129,90,20,155.02,453,-3.00,-153.00,-987.00
2024-06-07 14:31:43.688516,0,8,55,0,0,0,80,82,128,90,20,154.98,453,-15.00,-141.00,-997.00
2024-06-07 14:31:43.804796,0,8,55,0,0,0,80,82,128,90,20,154.99,453,-10.00,-162.00,-990.00
2024-06-07 14:31:43.894440,0,8,55,0,0,0,80,82,129,90,20,154.95,453,0.00,-138.00,-968.00
2024-06-07 14:31:43.994992,0,9,55,0,0,0,80,82,129,90,20,154.92,453,-35.00,-141.00,-1002.00
2024-06-07 14:31:44.112879,0,9,55,0,0,0,80,82,129,90,20,154.85,453,24.00,-130.00,-996.00
2024-06-07 14:31:44.200135,0,9,55,0,0,0,80,82,129,90,20,154.84,453,-22.00,-128.00,-977.00
2024-06-07 14:31:44.302211,0,9,55,0,0,0,80,82,129,90,20,154.88,453,-9.00,-131.00,-1002.00
2024-06-07 14:31:44.402540,0,8,55,0,0,0,80,82,128,80,20,154.91,454,-26.00,-131.00,-994.00
2024-06-07 14:31:44.522591,-1,7,55,0,0,0,80,82,128,80,20,154.80,454,-49.00,-97.00,-965.00
2024-06-07 14:31:44.606442,0,8,55,0,0,0,80,82,128,80,20,154.86,454,-32.00,-119.00,-984.00
2024-06-07 14:31:44.725234,-1,7,55,0,0,0,80,82,128,80,20,154.91,454,-55.00,-151.00,-938.00
2024-06-07 14:31:44.810529,-1,7,55,0,0,0,80,82,127,80,20,154.84,454,-19.00,-158.00,-994.00
2024-06-07 14:31:44.913557,-1,7,55,0,0,0,80,82,127,80,20,154.86,454,-12.00,-153.00,-999.00
2024-06-07 14:31:45.036707,-1,8,55,0,0,0,80,82,127,80,20,154.78,454,-46.00,-131.00,-965.00
2024-06-07 14:31:45.116484,-1,8,55,0,0,0,80,82,127,80,20,154.82,454,-10.00,-143.00,-965.00
2024-06-07 14:31:45.220645,0,8,55,0,0,0,80,82,127,80,20,154.94,454,-14.00,-116.00,-982.00
2024-06-07 14:31:45.321984,0,9,55,0,0,0,80,82,127,80,20,154.90,454,7.00,-146.00,-993.00
2024-06-07 14:31:45.423884,0,8,55,0,0,0,80,82,127,80,20,154.84,455,-37.00,-118.00,-1009.00
2024-06-07 14:31:45.527961,0,8,55,0,0,0,80,83,126,80,20,154.81,455,-5.00,-132.00,-999.00
2024-06-07 14:31:45.627211,0,8,55,0,0,0,80,83,125,80,20,154.80,455,-1.00,-132.00,-984.00
2024-06-07 14:31:45.729043,0,7,55,0,0,0,80,83,124,80,20,154.83,455,-28.00,-117.00,-996.00
2024-06-07 14:31:45.779989,0,7,55,0,0,0,80,83,126,80,20,154.79,455,-64.00,-95.00,-1002.00
2024-06-07 14:31:45.953840,0,7,55,0,0,0,80,83,125,80,20,154.74,455,-18.00,-117.00,-1009.00
2024-06-07 14:31:45.989926,0,8,55,0,0,0,80,83,127,80,20,154.84,455,-32.00,-126.00,-1003.00
2024-06-07 14:31:46.085558,-1,7,55,0,0,0,80,83,126,80,20,154.77,455,-43.00,-139.00,-972.00
2024-06-07 14:31:46.187967,-1,7,55,0,0,0,80,83,126,80,20,154.77,455,2.00,-138.00,-992.00
2024-06-07 14:31:46.290530,0,7,55,0,0,0,80,83,127,80,19,154.85,455,-14.00,-106.00,-980.00
2024-06-07 14:31:46.392504,0,7,55,0,0,0,80,83,125,80,19,154.77,456,-1.00,-130.00,-1002.00
