TS,pitch,roll,yaw,vgx,vgy,vgz,templ,temph,tof,h,bat,baro,time,agx,agy,agz
2024-06-07 14:32:14.933791,3,0,41,0,0,0,81,84,10,0,18,153.76,463,61.00,8.00,-997.00
2024-06-07 14:32:14.951917,3,0,41,0,0,0,81,84,10,0,18,153.72,463,62.00,7.00,-998.00
2024-06-07 14:32:15.138865,3,0,41,0,0,0,81,84,10,0,18,153.73,463,62.00,9.00,-996.00
2024-06-07 14:32:15.155937,3,0,41,0,0,0,81,84,10,0,18,153.73,463,62.00,9.00,-998.00
2024-06-07 14:32:15.342789,3,0,41,0,0,0,81,84,10,0,18,153.73,463,62.00,9.00,-997.00
2024-06-07 14:32:15.360216,3,0,41,0,0,0,81,84,10,0,18,153.76,463,62.00,9.00,-998.00
2024-06-07 14:32:15.550731,3,0,41,0,0,0,81,84,10,0,18,153.74,463,63.00,10.00,-998.00
2024-06-07 14:32:15.563890,3,0,41,0,0,0,81,84,10,0,18,153.78,463,63.00,11.00,-999.00
2024-06-07 14:32:15.755519,3,0,41,0,0,0,82,84,10,0,18,153.77,463,63.00,10.00,-998.00
2024-06-07 14:32:15.767886,3,0,41,0,0,0,82,84,10,0,18,153.78,463,62.00,8.00,-999.00
2024-06-07 14:32:15.960235,3,0,41,0,0,0,82,84,10,0,18,153.79,463,62.00,9.00,-1000.00
2024-06-07 14:32:15.971879,3,0,41,0,0,0,82,84,10,0,18,153.77,463,62.00,9.00,-997.00
2024-06-07 14:32:16.160842,3,0,41,0,0,0,82,84,10,0,18,153.70,463,60.00,9.00,-995.00
2024-06-07 14:32:16.175949,3,0,41,0,0,0,82,84,10,0,18,153.77,463,63.00,8.00,-998.00
2024-06-07 14:32:16.366410,3,0,41,0,0,0,82,84,10,0,18,153.78,463,62.00,9.00,-997.00
2024-06-07 14:32:16.380410,3,0,41,0,0,0,82,84,10,0,18,153.78,463,62.00,8.00,-995.00
2024-06-07 14:32:16.483757,3,0,41,0,0,0,82,84,10,0,18,153.69,463,64.00,7.00,-996.00
2024-06-07 14:32:16.584341,3,0,41,0,0,0,82,84,10,0,18,153.78,463,61.00,8.00,-998.00
2024-06-07 14:32:16.776362,3,0,41,0,0,0,82,85,10,0,18,153.77,463,62.00,9.00,-1000.00
2024-06-07 14:32:16.787735,3,0,41,0,0,0,82,85,10,0,18,153.77,463,62.00,8.00,-995.00
2024-06-07 14:32:16.984964,3,0,41,0,0,0,82,85,10,0,18,153.77,463,63.00,9.00,-999.00
2024-06-07 14:32:16.997202,3,0,41,0,0,0,82,85,10,0,18,153.73,463,62.00,9.00,-998.00
2024-06-07 14:32:17.095338,3,0,41,0,0,0,82,85,10,0,18,153.78,463,63.00,8.00,-998.00
2024-06-07 14:32:17.272602,3,0,41,0,0,0,82,85,10,0,18,153.70,463,63.00,10.00,-995.00
2024-06-07 14:32:17.297849,3,0,41,0,0,0,82,85,10,0,18,153.70,463,63.00,9.00,-998.00
2024-06-07 14:32:17.399881,3,0,41,0,0,0,82,85,10,0,18,153.71,463,67.00,7.00,-999.00
2024-06-07 14:32:17.594641,3,0,41,0,0,0,82,85,10,0,18,153.71,463,63.00,5.00,-997.00
2024-06-07 14:32:17.603786,3,0,41,0,0,0,82,85,10,0,18,153.71,463,61.00,0.00,-996.00
2024-06-07 14:32:17.800637,3,0,41,0,0,0,82,84,10,0,18,153.71,463,47.00,15.00,-993.00
2024-06-07 14:32:17.807768,3,0,41,0,0,0,82,84,10,0,18,153.71,463,67.00,-21.00,-987.00
2024-06-07 14:32:18.004393,3,0,41,0,0,0,82,84,10,0,18,153.71,463,48.00,-22.00,-1026.00
2024-06-07 14:32:18.011942,3,0,41,0,0,0,82,84,10,0,18,153.71,463,9.00,-27.00,-1115.00
2024-06-07 14:32:18.062779,1,-1,41,0,0,0,82,84,10,0,18,153.71,464,17.00,-11.00,-1139.00
2024-06-07 14:32:18.164748,1,-2,41,0,-1,-2,82,84,10,0,18,153.71,464,11.00,-85.00,-1280.00
2024-06-07 14:32:18.311077,0,1,42,0,-1,-4,82,84,13,0,18,153.71,464,-15.00,-62.00,-1141.00
2024-06-07 14:32:18.368742,-1,4,42,1,-1,-6,82,84,21,0,18,154.11,464,29.00,-93.00,-1072.00
2024-06-07 14:32:18.470739,0,5,41,1,-1,-7,82,84,27,10,18,154.18,464,2.00,-80.00,-1039.00
2024-06-07 14:32:18.620476,0,5,41,1,-1,-7,82,84,35,20,18,154.28,464,-5.00,-79.00,-975.00
2024-06-07 14:32:18.676800,0,5,41,1,0,-7,82,85,40,30,18,154.37,464,-31.00,-63.00,-923.00
2024-06-07 14:32:18.777282,0,5,41,1,0,-7,82,85,48,30,18,154.46,464,-11.00,-46.00,-955.00
2024-06-07 14:32:18.881638,0,5,41,0,-1,-6,82,85,55,40,18,154.46,464,-9.00,-80.00,-916.00
2024-06-07 14:32:18.980729,-2,5,41,0,-1,-5,82,85,61,40,18,154.58,464,8.00,-81.00,-904.00
2024-06-07 14:32:19.132387,-1,6,41,0,-1,-4,82,85,65,50,18,154.57,465,-3.00,-88.00,-875.00
2024-06-07 14:32:19.184841,-1,6,41,0,-1,-3,82,85,69,50,18,154.65,465,-6.00,-105.00,-895.00
2024-06-07 14:32:19.312687,-1,6,41,0,0,-2,82,85,72,50,18,154.71,465,9.00,-94.00,-926.00
2024-06-07 14:32:19.388749,-1,6,41,0,0,-1,82,85,74,60,18,154.71,465,11.00,-120.00,-896.00
2024-06-07 14:32:19.541182,-1,6,41,0,0,-1,82,85,76,60,18,154.74,465,3.00,-103.00,-928.00
2024-06-07 14:32:19.592662,0,6,41,0,0,0,82,85,77,60,18,154.82,465,-21.00,-109.00,-953.00
2024-06-07 14:32:19.744982,0,5,41,0,0,0,83,85,78,60,18,154.70,465,8.00,-112.00,-972.00
2024-06-07 14:32:19.796661,0,5,41,0,0,0,83,85,78,60,18,154.74,465,-22.00,-97.00,-985.00
2024-06-07 14:32:19.898661,0,5,41,0,0,0,83,85,79,60,18,154.70,465,-31.00,-93.00,-982.00
2024-06-07 14:32:20.053264,0,6,41,0,0,0,83,85,80,60,18,154.79,465,32.00,-107.00,-986.00
2024-06-07 14:32:20.102594,-1,6,41,0,0,0,83,85,81,60,18,154.80,466,-1.00,-62.00,-1006.00
2024-06-07 14:32:20.256653,-1,5,41,0,0,0,83,85,81,60,18,154.79,466,13.00,-101.00,-1028.00
2024-06-07 14:32:20.310528,0,5,41,0,0,0,83,85,82,60,18,154.74,466,-7.00,-119.00,-990.00
2024-06-07 14:32:20.409396,0,5,41,0,0,0,83,85,83,60,18,154.68,466,-15.00,-72.00,-970.00
2024-06-07 14:32:20.510634,0,5,41,0,0,0,83,85,84,70,18,154.75,466,16.00,-131.00,-980.00
2024-06-07 14:32:20.615670,0,4,42,0,0,0,83,85,86,70,18,154.71,466,-3.00,-127.00,-977.00
2024-06-07 14:32:20.716125,0,5,41,0,0,0,82,85,86,70,18,154.77,466,-21.00,-51.00,-965.00
2024-06-07 14:32:20.816756,0,5,41,0,0,0,82,85,86,70,18,154.74,466,1.00,-97.00,-976.00
2024-06-07 14:32:20.976221,0,5,41,0,0,0,82,85,86,70,18,154.75,466,8.00,-95.00,-965.00
2024-06-07 14:32:21.021172,0,5,41,0,0,0,82,85,87,70,18,154.81,466,-33.00,-106.00,-975.00
2024-06-07 14:32:21.181220,0,5,41,0,0,0,82,85,88,70,18,154.78,467,12.00,-87.00,-1005.00
2024-06-07 14:32:21.224922,0,5,41,0,0,0,82,85,87,70,18,154.77,467,53.00,-137.00,-1013.00
2024-06-07 14:32:21.327380,0,4,41,0,0,0,82,85,87,70,18,154.76,467,19.00,-102.00,-971.00
2024-06-07 14:32:21.428608,0,4,41,0,0,0,82,85,88,70,18,154.82,467,18.00,-82.00,-990.00
2024-06-07 14:32:21.587856,1,4,41,0,0,0,82,85,87,70,18,154.78,467,-3.00,-84.00,-997.00
2024-06-07 14:32:21.632693,1,4,42,0,0,0,82,85,88,70,18,154.77,467,0.00,-110.00,-991.00
2024-06-07 14:32:21.792657,0,5,41,0,0,0,82,85,87,70,18,154.76,467,19.00,-106.00,-978.00
2024-06-07 14:32:21.836673,0,4,41,0,0,0,82,85,88,70,18,154.71,467,41.00,-108.00,-989.00
2024-06-07 14:32:21.938573,1,4,41,0,0,0,82,85,87,70,18,154.78,467,9.00,-104.00,-998.00
2024-06-07 14:32:22.101549,1,4,42,0,0,0,82,85,87,70,18,154.73,468,18.00,-106.00,-977.00
2024-06-07 14:32:22.142571,1,4,42,0,0,0,82,85,87,70,18,154.78,468,17.00,-98.00,-961.00
2024-06-07 14:32:22.193525,0,4,42,0,0,0,82,85,86,70,18,154.72,468,3.00,-93.00,-982.00
2024-06-07 14:32:22.306298,0,4,42,0,0,0,82,85,86,70,18,154.78,468,-8.00,-76.00,-1018.00
2024-06-07 14:32:22.399125,0,3,42,0,0,0,82,85,85,70,18,154.77,468,-12.00,-68.00,-987.00
2024-06-07 14:32:22.499532,0,5,42,0,0,0,82,85,85,70,18,154.79,468,-8.00,-114.00,-1001.00
2024-06-07 14:32:22.603050,0,6,41,0,0,0,82,85,85,70,18,154.81,468,27.00,-108.00,-987.00
2024-06-07 14:32:22.703514,0,6,41,0,0,0,82,85,85,70,18,154.73,468,29.00,-107.00,-986.00
2024-06-07 14:32:22.805698,0,6,41,0,0,0,82,85,85,70,18,154.81,468,21.00,-109.00,-1011.00
2024-06-07 14:32:22.919066,0,6,41,0,0,0,82,85,84,70,18,154.79,468,16.00,-84.00,-996.00
2024-06-07 14:32:23.012151,1,6,41,0,0,0,82,85,84,70,18,154.73,469,20.00,-95.00,-990.00
2024-06-07 14:32:23.111459,0,5,41,0,0,0,82,85,83,70,18,154.64,469,8.00,-120.00,-1002.00
2024-06-07 14:32:23.227561,0,5,42,0,0,0,82,85,83,70,18,154.67,469,-2.00,-108.00,-991.00
2024-06-07 14:32:23.315808,0,5,41,0,0,0,82,85,83,70,18,154.74,469,19.00,-79.00,-999.00
2024-06-07 14:32:23.432341,0,5,41,0,0,0,82,85,82,70,18,154.72,469,-18.00,-90.00,-995.00
2024-06-07 14:32:23.520437,0,5,41,0,0,0,82,85,82,70,18,154.65,469,-22.00,-45.00,-1005.00
2024-06-07 14:32:23.638052,1,4,42,0,0,0,82,85,82,70,18,154.67,469,25.00,-80.00,-1010.00
2024-06-07 14:32:23.727777,0,4,41,0,0,0,82,85,81,70,18,154.72,469,0.00,-67.00,-1012.00
2024-06-07 14:32:23.826987,0,4,41,0,0,0,82,85,81,70,18,154.65,469,15.00,-90.00,-999.00
2024-06-07 14:32:23.928629,1,5,41,0,0,0,82,85,81,70,18,154.65,469,32.00,-88.00,-1010.00
2024-06-07 14:32:24.049782,2,5,41,0,0,0,82,85,81,70,18,154.63,470,45.00,-74.00,-994.00
2024-06-07 14:32:24.133086,2,5,42,0,0,0,82,85,80,70,18,154.72,470,28.00,-93.00,-972.00
2024-06-07 14:32:24.234438,2,4,42,0,0,0,82,85,80,60,18,154.62,470,44.00,-78.00,-997.00
2024-06-07 14:32:24.356661,1,4,42,0,0,0,82,85,80,60,18,154.66,470,33.00,-106.00,-1005.00
2024-06-07 14:32:24.438470,2,4,42,0,0,0,82,85,80,60,18,154.71,470,36.00,-111.00,-1023.00
2024-06-07 14:32:24.540725,1,4,42,0,0,0,82,85,79,60,18,154.67,470,38.00,-99.00,-995.00
2024-06-07 14:32:24.643405,1,4,42,0,0,0,82,85,79,60,18,154.66,470,40.00,-73.00,-1005.00
2024-06-07 14:32:24.762590,1,4,41,0,0,0,82,85,79,60,18,154.66,470,45.00,-105.00,-984.00
2024-06-07 14:32:24.846574,2,4,41,0,0,0,82,85,79,60,18,154.70,470,32.00,-52.00,-990.00
2024-06-07 14:32:24.968509,2,4,41,0,0,0,82,85,79,60,18,154.60,470,26.00,-75.00,-1005.00
2024-06-07 14:32:25.050723,2,4,41,0,0,0,82,85,79,60,18,154.66,471,22.00,-57.00,-1007.00
2024-06-07 14:32:25.152639,2,4,41,0,0,0,82,85,79,60,18,154.55,471,44.00,-88.00,-984.00
2024-06-07 14:32:25.276491,2,4,41,0,0,0,82,85,79,60,18,154.55,471,31.00,-40.00,-1031.00
2024-06-07 14:32:25.358229,2,3,41,0,0,0,82,85,79,60,18,154.56,471,24.00,-39.00,-999.00
2024-06-07 14:32:25.458507,2,3,41,0,0,0,82,85,80,60,18,154.55,471,29.00,-42.00,-1011.00
2024-06-07 14:32:25.560521,2,3,42,0,0,0,82,85,79,60,18,154.55,471,20.00,-47.00,-1010.00
2024-06-07 14:32:25.686510,2,3,42,0,0,0,82,85,79,60,18,154.51,471,-20.00,-34.00,-1001.00
2024-06-07 14:32:25.765696,2,2,42,0,0,0,82,85,80,60,18,154.52,471,7.00,-38.00,-989.00
2024-06-07 14:32:25.866528,2,2,42,0,0,0,82,85,80,60,18,154.45,471,24.00,-27.00,-987.00
2024-06-07 14:32:25.992314,2,2,42,0,0,0,82,85,80,60,18,154.53,471,20.00,-40.00,-1002.00
2024-06-07 14:32:26.073018,2,2,42,0,0,0,82,85,80,60,18,154.46,472,-6.00,-45.00,-985.00
2024-06-07 14:32:26.123557,2,2,42,0,0,0,82,85,81,70,18,154.54,472,0.00,-61.00,-1023.00
2024-06-07 14:32:26.223463,1,2,42,0,0,0,82,85,81,70,18,154.57,472,15.00,-76.00,-1013.00
2024-06-07 14:32:26.406906,0,2,42,0,0,0,82,85,81,70,18,154.58,472,31.00,-72.00,-1010.00
2024-06-07 14:32:26.427364,0,2,42,0,0,0,82,85,82,70,18,154.58,472,-14.00,-52.00,-1005.00
2024-06-07 14:32:26.605699,0,2,42,0,0,0,82,85,82,70,18,154.51,472,5.00,-52.00,-1012.00
2024-06-07 14:32:26.631309,0,2,42,0,0,0,82,85,83,70,18,154.58,472,-6.00,-20.00,-978.00
2024-06-07 14:32:26.813314,0,2,42,0,0,0,82,85,83,70,18,154.59,472,18.00,-68.00,-972.00
2024-06-07 14:32:26.835321,0,2,42,0,0,0,82,85,83,70,18,154.61,472,2.00,-42.00,-991.00
2024-06-07 14:32:27.002511,0,2,42,0,0,0,82,85,83,70,18,154.61,472,19.00,-41.00,-980.00
2024-06-07 14:32:27.040553,0,2,42,0,0,0,82,85,84,70,18,154.62,473,-2.00,-45.00,-1020.00
2024-06-07 14:32:27.220217,0,2,42,0,0,0,82,85,83,70,18,154.59,473,19.00,-43.00,-1026.00
2024-06-07 14:32:27.243256,0,2,41,0,0,0,82,85,85,70,18,154.63,473,26.00,-50.00,-1074.00
2024-06-07 14:32:27.427427,0,2,41,0,0,-1,82,85,85,70,18,154.58,473,10.00,-46.00,-1095.00
2024-06-07 14:32:27.450304,0,2,41,0,0,-2,82,85,88,70,18,154.61,473,11.00,-45.00,-1081.00
2024-06-07 14:32:27.551887,1,2,41,0,0,-3,82,85,91,70,18,154.69,473,34.00,-35.00,-1105.00
2024-06-07 14:32:27.652432,1,2,41,0,0,-4,82,85,95,80,18,154.72,473,40.00,-64.00,-1068.00
2024-06-07 14:32:27.755568,1,2,41,0,0,-4,82,85,100,80,18,154.73,473,15.00,-41.00,-1048.00
2024-06-07 14:32:27.858646,1,2,42,0,0,-5,82,85,105,90,18,154.83,473,0.00,-42.00,-1020.00
2024-06-07 14:32:27.958292,1,2,42,0,0,-5,82,85,111,90,18,154.89,473,-3.00,-26.00,-1017.00
2024-06-07 14:32:28.143266,1,2,42,0,0,-5,82,85,117,100,18,154.88,474,38.00,-36.00,-1015.00
2024-06-07 14:32:28.163246,1,2,41,0,0,-5,82,85,123,100,18,154.97,474,26.00,-30.00,-996.00
2024-06-07 14:32:28.350188,1,2,41,0,0,-5,82,85,128,110,18,155.03,474,9.00,-40.00,-998.00
2024-06-07 14:32:28.366903,1,2,41,0,0,-5,82,85,135,120,18,155.06,474,22.00,-59.00,-972.00
2024-06-07 14:32:28.551380,1,1,41,0,0,-5,82,85,141,120,18,155.03,474,-5.00,-20.00,-953.00
2024-06-07 14:32:28.572037,1,2,42,0,0,-5,82,85,146,130,18,155.20,474,5.00,-27.00,-936.00
2024-06-07 14:32:28.757016,1,2,42,0,0,-4,82,85,151,130,18,155.20,474,5.00,-17.00,-950.00
2024-06-07 14:32:28.775206,1,1,41,0,0,-4,82,85,156,140,18,155.31,474,9.00,-38.00,-963.00
2024-06-07 14:32:28.880061,1,0,41,0,0,-3,82,85,159,140,18,155.29,474,12.00,-52.00,-956.00
2024-06-07 14:32:28.980800,1,1,41,0,0,-3,82,85,164,140,18,155.37,474,48.00,-35.00,-955.00
2024-06-07 14:32:29.081610,1,1,41,0,0,-3,82,85,168,150,18,155.43,475,-33.00,-17.00,-971.00
2024-06-07 14:32:29.269079,1,1,41,0,0,-2,82,85,171,150,18,155.37,475,36.00,-20.00,-951.00
2024-06-07 14:32:29.285573,1,1,41,0,0,-2,82,85,174,150,18,155.39,475,14.00,-19.00,-989.00
2024-06-07 14:32:29.387680,1,1,41,0,0,-2,82,85,175,160,18,155.44,475,13.00,-41.00,-959.00
2024-06-07 14:32:29.491548,2,1,41,0,0,-2,82,85,177,160,18,155.48,475,4.00,-31.00,-962.00
2024-06-07 14:32:29.540540,2,1,41,0,0,-1,82,85,179,160,18,155.39,475,9.00,-26.00,-977.00
2024-06-07 14:32:29.642422,1,1,42,0,0,-1,82,85,181,160,18,155.50,475,9.00,-29.00,-957.00
2024-06-07 14:32:29.797802,2,1,42,0,0,0,82,83,182,160,18,155.47,475,26.00,-37.00,-982.00
2024-06-07 14:32:29.898547,2,1,42,0,0,0,82,83,184,160,18,155.50,475,-16.00,1.00,-958.00
2024-06-07 14:32:30.001630,2,1,41,0,0,0,82,83,182,170,18,155.44,475,13.00,-39.00,-975.00
2024-06-07 14:32:30.101638,2,1,41,0,0,0,82,83,182,170,18,155.58,476,13.00,-53.00,-963.00
2024-06-07 14:32:30.292083,1,1,41,0,0,0,82,83,184,170,18,155.53,476,-3.00,-36.00,-963.00
2024-06-07 14:32:30.292203,2,2,41,0,0,0,82,83,183,170,18,155.52,476,17.00,-50.00,-964.00
2024-06-07 14:32:30.356619,2,1,41,0,0,0,82,83,183,170,18,155.39,476,19.00,-31.00,-982.00
2024-06-07 14:32:30.458223,2,1,41,0,0,0,82,83,184,170,18,155.52,476,41.00,-26.00,-1046.00
2024-06-07 14:32:30.603476,2,1,41,0,0,0,82,83,181,170,18,155.52,476,-3.00,-42.00,-991.00
2024-06-07 14:32:30.662667,2,1,41,0,0,0,82,83,184,170,18,155.52,476,29.00,-50.00,-1007.00
2024-06-07 14:32:30.764215,2,1,41,0,0,0,82,84,183,170,18,155.50,476,22.00,-44.00,-988.00
2024-06-07 14:32:30.900698,2,1,41,0,0,0,82,84,183,170,18,155.45,476,0.00,-16.00,-994.00
2024-06-07 14:32:30.968309,2,2,41,0,0,0,82,84,183,170,18,155.49,476,27.00,-53.00,-989.00
2024-06-07 14:32:31.111363,2,2,41,0,0,0,82,84,183,170,18,155.54,477,43.00,-35.00,-1003.00
2024-06-07 14:32:31.172108,2,1,42,0,0,0,82,84,183,170,18,155.59,477,47.00,-28.00,-1017.00
2024-06-07 14:32:31.274629,2,1,42,0,0,0,82,84,182,170,18,155.50,477,25.00,-27.00,-1003.00
2024-06-07 14:32:31.376239,2,1,42,0,0,0,82,84,182,170,18,155.59,477,47.00,-50.00,-991.00
2024-06-07 14:32:31.520778,2,2,42,0,0,0,82,84,183,170,18,155.54,477,37.00,-50.00,-980.00
2024-06-07 14:32:31.580102,2,1,41,0,0,0,82,84,183,170,18,155.51,477,37.00,-44.00,-989.00
2024-06-07 14:32:31.687810,2,1,41,0,0,0,82,84,181,170,18,155.59,477,8.00,-24.00,-1017.00
2024-06-07 14:32:31.784088,2,1,41,0,0,0,82,84,181,170,18,155.45,477,46.00,-48.00,-981.00
2024-06-07 14:32:31.888458,2,1,41,0,0,0,82,84,179,170,18,155.41,477,32.00,-41.00,-961.00
2024-06-07 14:32:31.989139,2,1,41,0,0,0,82,84,179,160,18,155.44,477,50.00,-42.00,-962.00
2024-06-07 14:32:32.090019,2,1,41,0,0,1,82,84,179,160,18,155.54,478,26.00,-42.00,-942.00
2024-06-07 14:32:32.240742,2,1,42,0,0,1,82,84,175,160,18,155.46,478,20.00,-24.00,-1012.00
2024-06-07 14:32:32.294688,2,1,42,0,0,2,82,84,173,160,18,155.42,478,11.00,-12.00,-980.00
2024-06-07 14:32:32.396509,2,1,42,0,0,2,82,84,169,160,18,155.43,478,20.00,-36.00,-980.00
2024-06-07 14:32:32.546395,2,1,41,0,0,2,82,84,167,150,18,155.37,478,14.00,-14.00,-1010.00
2024-06-07 14:32:32.600045,2,2,41,0,0,2,82,84,165,150,18,155.37,478,-15.00,13.00,-1007.00
2024-06-07 14:32:32.755486,2,2,41,0,0,2,82,84,162,150,18,155.41,478,31.00,-69.00,-999.00
2024-06-07 14:32:32.812461,2,2,42,0,0,2,82,84,158,150,18,155.40,478,22.00,-56.00,-999.00
2024-06-07 14:32:32.906046,2,2,42,0,0,2,82,84,157,140,18,155.26,478,44.00,-56.00,-997.00
2024-06-07 14:32:33.056579,2,2,42,0,0,2,82,84,154,140,18,155.22,478,25.00,-40.00,-1005.00
2024-06-07 14:32:33.110012,2,2,42,0,0,2,82,84,151,140,18,155.28,479,16.00,-30.00,-1017.00
2024-06-07 14:32:33.212554,1,2,42,0,0,2,82,84,148,140,18,155.17,479,42.00,-50.00,-1013.00
2024-06-07 14:32:33.314158,1,2,42,0,0,2,82,84,146,130,18,155.21,479,1.00,-12.00,-1011.00
2024-06-07 14:32:33.416014,1,2,42,0,0,2,82,84,142,130,18,155.20,479,39.00,-55.00,-1045.00
2024-06-07 14:32:33.568565,1,2,41,0,0,2,82,84,141,130,18,155.16,479,43.00,-51.00,-1015.00
2024-06-07 14:32:33.620176,1,2,42,0,0,1,82,84,138,130,18,155.14,479,36.00,-34.00,-1031.00
2024-06-07 14:32:33.671136,1,2,42,0,0,1,82,84,137,120,18,155.00,479,2.00,-18.00,-1025.00
2024-06-07 14:32:33.774480,1,2,42,0,0,1,81,84,136,120,18,155.04,479,7.00,-58.00,-996.00
2024-06-07 14:32:33.883772,1,1,42,0,0,1,81,84,134,120,18,155.05,479,0.00,-24.00,-1037.00
2024-06-07 14:32:33.977885,1,1,42,0,0,1,81,84,133,120,18,155.11,479,24.00,-46.00,-1041.00
2024-06-07 14:32:34.085615,1,2,41,0,0,0,81,84,132,120,18,155.04,480,19.00,-34.00,-1032.00
2024-06-07 14:32:34.181013,1,2,42,0,0,0,81,84,133,120,18,155.00,480,-34.00,-1.00,-1017.00
2024-06-07 14:32:34.285399,1,1,42,0,0,0,81,84,132,120,18,155.06,480,23.00,-23.00,-1032.00
2024-06-07 14:32:34.385077,1,1,42,0,0,0,81,84,131,120,18,155.03,480,27.00,-47.00,-1005.00
2024-06-07 14:32:34.491541,1,1,42,0,0,0,81,84,132,120,18,155.11,480,20.00,-41.00,-1026.00
2024-06-07 14:32:34.589254,1,1,42,0,0,0,81,84,131,120,18,155.09,480,-10.00,-16.00,-993.00
2024-06-07 14:32:34.703035,1,2,42,0,0,0,81,84,131,120,18,155.05,480,-15.00,-19.00,-1008.00
2024-06-07 14:32:34.793962,1,1,42,0,0,0,81,84,132,120,18,154.97,480,-6.00,-20.00,-1008.00
2024-06-07 14:32:34.896278,0,1,42,0,0,0,81,84,132,120,18,155.03,480,-39.00,-32.00,-1007.00
2024-06-07 14:32:34.997901,0,1,42,0,0,0,81,84,132,120,18,155.16,480,-12.00,-14.00,-986.00
2024-06-07 14:32:35.104695,0,1,42,0,0,0,81,84,131,120,18,155.09,481,14.00,-49.00,-1011.00
2024-06-07 14:32:35.201980,0,1,42,0,0,0,81,84,132,120,18,155.09,481,-58.00,2.00,-989.00
2024-06-07 14:32:35.303963,0,1,42,0,0,0,81,84,132,120,18,155.10,481,-25.00,-19.00,-990.00
2024-06-07 14:32:35.407721,0,1,41,0,0,0,81,84,132,120,18,155.06,481,0.00,-31.00,-990.00
2024-06-07 14:32:35.508576,0,1,42,0,0,0,81,84,132,120,18,155.09,481,-50.00,-16.00,-1014.00
2024-06-07 14:32:35.610022,0,1,42,0,0,0,81,84,132,120,18,155.15,481,-1.00,-32.00,-1017.00
2024-06-07 14:32:35.720937,0,1,41,0,0,0,81,84,132,120,18,155.15,481,1.00,-26.00,-1031.00
2024-06-07 14:32:35.814012,0,1,41,0,0,0,81,84,132,120,18,155.14,481,-15.00,-26.00,-1004.00
2024-06-07 14:32:35.917690,0,1,42,0,0,0,81,84,132,120,18,155.18,481,-16.00,-39.00,-1008.00
2024-06-07 14:32:36.018049,0,1,42,0,0,0,81,84,133,120,18,155.21,482,13.00,-46.00,-975.00
2024-06-07 14:32:36.128564,-6,2,41,0,0,0,81,84,134,120,18,155.14,482,-29.00,-22.00,-1006.00
2024-06-07 14:32:36.221856,-8,1,41,0,1,0,81,84,135,120,18,155.17,482,-4.00,-46.00,-988.00
2024-06-07 14:32:36.325687,-8,1,41,1,1,0,81,84,136,120,18,155.20,482,-18.00,-35.00,-1014.00
2024-06-07 14:32:36.425874,-8,1,41,2,2,0,81,84,137,120,18,155.13,482,-17.00,-23.00,-997.00
2024-06-07 14:32:36.538112,-8,1,41,3,3,0,81,84,136,120,18,155.09,482,-67.00,4.00,-980.00
2024-06-07 14:32:36.629922,-7,0,41,4,4,0,81,84,136,120,18,155.11,482,-37.00,-31.00,-1026.00
2024-06-07 14:32:36.743818,-6,1,41,5,4,0,81,84,135,120,18,155.06,482,-40.00,-32.00,-1013.00
2024-06-07 14:32:36.833817,-4,1,41,5,5,0,81,84,134,120,18,155.11,482,-39.00,-15.00,-1003.00
2024-06-07 14:32:36.937284,-2,1,41,6,5,0,81,84,132,120,18,155.12,482,-34.00,-26.00,-1002.00
2024-06-07 14:32:37.037825,0,1,41,5,5,0,81,84,132,120,18,155.04,483,-52.00,-27.00,-992.00
2024-06-07 14:32:37.256315,3,1,42,5,4,0,81,84,130,120,18,155.05,483,-43.00,-31.00,-983.00
2024-06-07 14:32:37.256880,4,1,42,4,4,0,81,84,131,120,18,155.13,483,-57.00,-24.00,-1006.00
2024-06-07 14:32:37.343841,4,1,42,3,3,0,81,84,130,120,18,155.09,483,-47.00,-22.00,-1020.00
2024-06-07 14:32:37.459665,3,1,41,3,2,0,81,84,130,120,18,155.17,483,-41.00,-28.00,-1002.00
2024-06-07 14:32:37.548480,1,1,41,2,2,0,81,84,130,120,18,155.24,483,-34.00,-33.00,-1025.00
2024-06-07 14:32:37.664541,0,1,41,2,1,0,81,84,130,120,18,155.17,483,-28.00,-16.00,-1008.00
2024-06-07 14:32:37.751804,0,2,41,2,1,0,81,84,130,120,18,155.19,483,-57.00,-24.00,-1007.00
2024-06-07 14:32:37.802727,0,2,41,2,2,0,80,82,130,120,18,155.16,483,-33.00,-20.00,-989.00
2024-06-07 14:32:37.908849,6,1,41,1,2,0,80,82,130,120,18,155.15,483,-54.00,-5.00,-970.00
2024-06-07 14:32:38.006876,5,1,41,1,1,0,80,82,130,120,18,155.17,484,2.00,-28.00,-999.00
2024-06-07 14:32:38.177310,3,1,41,0,0,0,80,82,129,120,18,155.06,484,-41.00,-34.00,-1033.00
2024-06-07 14:32:38.210681,1,1,41,0,0,0,80,82,129,120,18,155.07,484,9.00,-30.00,-991.00
2024-06-07 14:32:38.312814,1,1,41,0,0,0,80,82,128,120,17,155.08,484,-36.00,-52.00,-1018.00
2024-06-07 14:32:38.414863,1,2,41,0,0,0,80,82,128,120,17,155.12,484,36.00,-82.00,-1018.00
2024-06-07 14:32:38.516782,1,2,41,0,0,0,80,82,129,120,17,155.13,484,-18.00,-32.00,-1014.00
2024-06-07 14:32:38.618818,1,1,41,0,0,0,80,82,129,120,17,155.14,484,0.00,-51.00,-981.00
2024-06-07 14:32:38.790936,1,1,41,0,0,0,80,82,129,120,17,155.17,484,9.00,-38.00,-999.00
2024-06-07 14:32:38.822746,1,1,41,0,0,0,81,84,128,120,17,155.15,484,1.00,-26.00,-999.00
2024-06-07 14:32:38.998629,1,1,41,0,0,0,81,84,129,120,17,155.13,484,17.00,-11.00,-1028.00
2024-06-07 14:32:39.026685,1,1,42,0,0,0,81,84,129,120,17,155.16,485,14.00,-48.00,-1024.00
2024-06-07 14:32:39.202345,1,1,41,0,0,0,81,84,129,120,17,155.18,485,-7.00,-32.00,-991.00
2024-06-07 14:32:39.230755,1,1,41,0,0,0,81,84,129,120,17,155.26,485,3.00,-33.00,-989.00
2024-06-07 14:32:39.406648,1,1,41,0,0,0,81,84,129,120,17,155.18,485,10.00,-49.00,-1008.00
2024-06-07 14:32:39.434777,0,1,42,0,0,0,81,84,129,120,17,155.13,485,-8.00,-52.00,-991.00
2024-06-07 14:32:39.536834,0,2,42,0,0,0,81,84,129,120,17,155.07,485,-2.00,-53.00,-996.00
2024-06-07 14:32:39.712886,1,2,42,0,0,0,81,84,129,120,17,155.21,485,-40.00,-13.00,-992.00
2024-06-07 14:32:39.740763,1,2,42,0,0,0,81,84,130,120,17,155.08,485,5.00,-43.00,-1002.00
2024-06-07 14:32:39.917477,0,2,42,0,0,0,81,84,131,120,17,155.14,485,41.00,-31.00,-1023.00
2024-06-07 14:32:39.944941,0,2,41,0,0,0,81,84,130,120,17,155.13,485,0.00,-47.00,-989.00
2024-06-07 14:32:40.046863,1,2,41,0,0,0,81,84,130,120,17,155.14,486,5.00,-35.00,-1008.00
2024-06-07 14:32:40.180394,0,2,41,0,0,0,81,84,131,120,17,155.22,486,5.00,-33.00,-994.00
2024-06-07 14:32:40.250857,0,2,41,0,0,0,81,84,131,120,17,155.15,486,23.00,-28.00,-1014.00
2024-06-07 14:32:40.353061,1,2,41,0,0,0,81,84,131,120,16,155.10,486,-7.00,-59.00,-989.00
2024-06-07 14:32:40.454697,6,2,42,0,-1,0,81,84,131,120,16,155.15,486,3.00,-50.00,-1043.00
2024-06-07 14:32:40.634141,8,2,42,-1,-1,0,81,84,132,120,16,155.23,486,-13.00,-54.00,-1011.00
2024-06-07 14:32:40.659568,8,2,42,-2,-2,0,81,84,132,120,16,155.13,486,25.00,-49.00,-1015.00
2024-06-07 14:32:40.841496,7,2,42,-3,-3,0,81,84,132,120,16,155.19,486,12.00,-32.00,-1005.00
2024-06-07 14:32:40.863622,7,2,42,-4,-4,0,81,83,131,120,16,155.17,486,9.00,-24.00,-996.00
2024-06-07 14:32:41.043755,6,2,42,-5,-4,0,81,83,133,120,16,155.19,486,19.00,-34.00,-992.00
2024-06-07 14:32:41.067619,4,2,42,-5,-5,0,81,83,132,120,16,155.16,487,29.00,-61.00,-1006.00
2024-06-07 14:32:41.249992,3,3,42,-6,-5,0,81,83,133,120,16,155.11,487,17.00,-49.00,-1009.00
2024-06-07 14:32:41.271580,0,3,41,-6,-5,0,81,83,133,120,16,155.16,487,31.00,-53.00,-982.00
2024-06-07 14:32:41.453310,-2,3,41,-6,-5,0,81,83,134,120,16,155.15,487,32.00,-54.00,-983.00
2024-06-07 14:32:41.475612,-4,2,41,-5,-4,0,81,83,134,120,16,155.17,487,51.00,-69.00,-1001.00
2024-06-07 14:32:41.577592,-5,2,41,-4,-3,0,81,83,135,120,16,155.25,487,38.00,-50.00,-1015.00
2024-06-07 14:32:41.760485,-4,2,41,-3,-3,0,81,83,134,120,16,155.16,487,5.00,-40.00,-994.00
2024-06-07 14:32:41.760528,-2,3,41,-3,-2,0,81,83,135,120,16,155.15,487,9.00,-83.00,-985.00
2024-06-07 14:32:41.965337,-1,2,41,-2,-2,0,81,83,135,120,16,155.18,487,-12.00,-56.00,-981.00
2024-06-07 14:32:41.966915,0,3,41,-2,-2,0,81,83,134,120,16,155.20,487,17.00,-79.00,-1014.00
2024-06-07 14:32:42.036582,0,3,41,-2,-1,0,81,83,134,120,16,155.14,488,-3.00,-38.00,-1000.00
2024-06-07 14:32:42.170076,0,3,41,-2,-1,0,81,83,133,120,16,155.24,488,9.00,-25.00,-999.00
2024-06-07 14:32:42.241021,0,2,41,-2,-1,0,81,83,136,120,15,155.33,488,7.00,-82.00,-1021.00
2024-06-07 14:32:42.378595,-4,3,41,-2,-1,0,81,83,136,120,15,155.22,488,32.00,-84.00,-940.00
2024-06-07 14:32:42.444733,-4,0,41,-1,0,0,81,83,135,120,15,155.29,488,-5.00,-85.00,-1012.00
2024-06-07 14:32:42.580345,-1,2,41,0,0,0,81,83,134,120,15,155.21,488,-10.00,-56.00,-1000.00
2024-06-07 14:32:42.651430,0,2,41,0,0,0,81,83,135,120,15,155.21,488,-18.00,-24.00,-991.00
2024-06-07 14:32:42.751917,0,3,41,0,0,0,81,83,133,120,15,155.24,488,-12.00,-46.00,-992.00
2024-06-07 14:32:42.853668,0,3,41,0,0,0,81,83,133,120,15,155.27,488,-28.00,-56.00,-1003.00
2024-06-07 14:32:42.956163,0,2,41,0,0,0,81,83,133,120,15,155.22,488,-1.00,-31.00,-988.00
2024-06-07 14:32:43.092762,0,2,41,0,0,0,81,83,132,120,15,155.22,489,-56.00,-40.00,-972.00
2024-06-07 14:32:43.159559,0,2,42,0,0,0,81,83,133,120,15,155.20,489,-28.00,-57.00,-978.00
2024-06-07 14:32:43.296648,0,2,41,0,0,0,81,83,132,120,15,155.27,489,-23.00,-19.00,-1049.00
2024-06-07 14:32:43.363664,0,2,41,0,0,0,81,83,132,120,15,155.16,489,-25.00,-33.00,-1011.00
2024-06-07 14:32:43.501363,0,2,42,0,0,0,81,83,132,120,15,155.13,489,-17.00,-48.00,-1006.00
2024-06-07 14:32:43.568811,0,2,42,0,0,0,81,83,130,120,15,155.12,489,34.00,-72.00,-1008.00
2024-06-07 14:32:43.706523,0,3,42,0,0,0,81,83,130,120,15,155.23,489,-13.00,-33.00,-993.00
2024-06-07 14:32:43.771667,1,3,42,0,0,0,81,83,130,120,15,155.17,489,-37.00,-41.00,-1004.00
2024-06-07 14:32:43.873556,0,2,41,0,0,0,80,83,130,120,15,155.24,489,13.00,-53.00,-1018.00
2024-06-07 14:32:44.013774,0,2,41,0,0,0,80,83,130,120,15,155.18,489,-6.00,-66.00,-991.00
2024-06-07 14:32:44.077542,0,2,41,0,0,0,80,83,128,120,15,155.29,490,9.00,-43.00,-999.00
2024-06-07 14:32:44.218184,0,2,41,0,0,0,80,83,130,120,15,155.15,490,1.00,-46.00,-1005.00
2024-06-07 14:32:44.281520,0,2,42,0,0,0,80,83,130,120,15,155.17,490,-13.00,-36.00,-1003.00
2024-06-07 14:32:44.422935,0,2,42,0,0,0,80,83,130,120,15,155.18,490,-14.00,-35.00,-997.00
2024-06-07 14:32:44.485526,0,2,42,0,0,0,80,83,129,120,15,155.17,490,5.00,-55.00,-993.00
2024-06-07 14:32:44.587726,0,2,42,0,0,0,80,83,130,120,15,155.23,490,1.00,-37.00,-1010.00
2024-06-07 14:32:44.730072,0,1,42,0,0,0,80,83,131,120,15,155.08,490,-17.00,-43.00,-1020.00
2024-06-07 14:32:44.792532,0,1,42,0,0,0,80,83,130,120,15,155.15,490,-54.00,-16.00,-966.00
2024-06-07 14:32:44.935037,0,-5,42,0,0,0,81,83,131,120,15,155.18,490,-35.00,-46.00,-1027.00
2024-06-07 14:32:44.995234,-1,-5,42,0,-1,0,81,83,130,120,15,155.17,490,-5.00,-37.00,-1016.00
2024-06-07 14:32:45.097444,-1,-3,42,1,-2,0,81,83,131,110,15,155.29,491,-27.00,0.00,-1024.00
2024-06-07 14:32:45.242334,-1,-1,42,2,-3,0,81,83,132,120,15,155.25,491,-26.00,-14.00,-997.00
2024-06-07 14:32:45.302394,-1,1,41,2,-3,0,81,83,131,120,14,155.22,491,-27.00,-14.00,-1001.00
2024-06-07 14:32:45.446853,-1,3,41,2,-2,0,81,83,133,120,14,155.19,491,-25.00,-35.00,-1006.00
2024-06-07 14:32:45.505378,-1,2,41,2,-2,0,81,83,134,120,14,155.15,491,-50.00,-4.00,-971.00
2024-06-07 14:32:45.656383,0,2,41,1,-1,0,81,83,133,120,14,155.24,491,-23.00,-38.00,-989.00
2024-06-07 14:32:45.709405,0,1,41,1,-1,0,81,83,134,120,14,155.26,491,-34.00,-14.00,-993.00
2024-06-07 14:32:45.856459,0,1,41,1,-1,0,81,83,132,120,14,155.24,491,-33.00,-24.00,-1020.00
2024-06-07 14:32:45.913973,0,1,41,1,-2,0,81,83,133,120,14,155.25,491,-29.00,-21.00,-989.00
2024-06-07 14:32:46.061225,0,1,41,1,-2,0,81,83,132,120,14,155.22,491,-34.00,-27.00,-988.00
2024-06-07 14:32:46.117799,0,1,41,1,-2,0,81,83,134,120,14,155.27,492,-7.00,-40.00,-1018.00
2024-06-07 14:32:46.219384,0,1,41,1,-2,0,81,83,134,120,14,155.23,492,-7.00,-34.00,-1012.00
2024-06-07 14:32:46.270996,0,1,41,1,-2,0,81,83,135,120,14,155.28,492,-3.00,-21.00,-1032.00
2024-06-07 14:32:46.471052,0,1,41,1,-2,0,81,83,135,120,14,155.27,492,9.00,-31.00,-969.00
2024-06-07 14:32:46.478987,2,3,41,1,-2,0,81,83,135,120,14,155.33,492,-21.00,-31.00,-1017.00
2024-06-07 14:32:46.576658,0,5,41,0,-2,0,81,83,137,120,14,155.28,492,52.00,-53.00,-981.00
2024-06-07 14:32:46.779426,-2,6,41,0,-1,0,81,83,135,120,14,155.27,492,-35.00,-48.00,-989.00
2024-06-07 14:32:46.782880,-1,4,41,0,0,0,81,83,137,120,14,155.37,492,-5.00,-31.00,-983.00
2024-06-07 14:32:46.888545,0,3,41,0,0,0,81,84,136,120,14,155.31,492,-26.00,-27.00,-988.00
2024-06-07 14:32:46.987489,0,2,41,0,0,0,81,84,137,120,14,155.30,492,-26.00,-48.00,-985.00
2024-06-07 14:32:47.086846,0,2,41,0,0,0,81,84,137,120,14,155.28,493,-11.00,-34.00,-994.00
2024-06-07 14:32:47.189843,0,2,41,0,0,0,81,84,136,120,14,155.24,493,-7.00,-30.00,-978.00
2024-06-07 14:32:47.395077,0,2,41,0,0,0,81,84,138,120,14,155.33,493,-1.00,-31.00,-990.00
2024-06-07 14:32:47.396660,0,1,41,0,0,0,81,84,138,120,14,155.25,493,-16.00,-39.00,-974.00
2024-06-07 14:32:47.495081,0,1,41,0,0,0,81,84,138,120,14,155.34,493,-5.00,-13.00,-1011.00
2024-06-07 14:32:47.597259,0,1,41,0,0,0,81,84,137,120,14,155.28,493,-2.00,-39.00,-992.00
2024-06-07 14:32:47.699574,0,1,41,0,0,0,81,84,137,120,14,155.30,493,-5.00,-27.00,-1000.00
2024-06-07 14:32:47.802094,0,1,42,0,0,0,81,84,137,120,14,155.26,493,-54.00,-41.00,-982.00
2024-06-07 14:32:47.902831,0,1,42,0,0,0,80,83,137,120,14,155.30,493,-3.00,-28.00,-994.00
2024-06-07 14:32:48.005188,0,2,42,0,0,0,80,83,136,120,14,155.24,493,-31.00,-28.00,-987.00
2024-06-07 14:32:48.106419,0,2,41,0,0,0,80,83,136,120,14,155.20,494,-6.00,-34.00,-992.00
2024-06-07 14:32:48.221955,0,1,41,0,0,0,80,83,136,120,14,155.25,494,-26.00,-10.00,-999.00
2024-06-07 14:32:48.318024,0,1,41,0,0,0,80,83,136,120,14,155.35,494,3.00,-42.00,-1011.00
2024-06-07 14:32:48.412697,0,1,41,0,0,0,80,83,134,120,14,155.13,494,9.00,-45.00,-1015.00
2024-06-07 14:32:48.519073,0,1,41,0,0,0,80,83,135,120,14,155.24,494,2.00,0.00,-1000.00
2024-06-07 14:32:48.616354,0,1,41,0,0,0,80,83,134,120,14,155.24,494,-9.00,-44.00,-993.00
2024-06-07 14:32:48.732101,1,2,41,0,0,0,80,83,135,120,14,155.21,494,9.00,-54.00,-1012.00
2024-06-07 14:32:48.821225,1,2,41,0,0,0,80,83,135,120,14,155.18,494,11.00,-38.00,-1006.00
2024-06-07 14:32:48.928825,0,3,41,0,0,0,80,83,133,120,14,155.14,494,16.00,-70.00,-979.00
2024-06-07 14:32:49.025474,0,9,41,0,0,0,80,83,136,120,14,155.19,495,10.00,1.00,-958.00
2024-06-07 14:32:49.133271,0,8,41,0,1,0,80,83,134,120,14,155.18,495,1.00,-26.00,-1033.00
2024-06-07 14:32:49.228208,1,8,42,-1,2,0,80,83,135,120,14,155.21,495,-3.00,-31.00,-1013.00
2024-06-07 14:32:49.338101,1,5,42,-2,3,0,80,83,136,120,14,155.30,495,33.00,-75.00,-989.00
2024-06-07 14:32:49.432829,1,1,42,-2,3,0,80,83,133,120,14,155.29,495,17.00,-73.00,-1007.00
2024-06-07 14:32:49.537222,1,1,41,-2,2,0,80,83,133,120,14,155.28,495,33.00,-60.00,-1013.00
2024-06-07 14:32:49.636189,1,1,41,-2,2,0,80,83,133,120,14,155.25,495,41.00,-45.00,-1022.00
2024-06-07 14:32:49.749107,1,1,41,-1,2,0,80,83,132,120,14,155.25,495,58.00,-78.00,-1006.00
2024-06-07 14:32:49.841063,1,2,41,-1,2,0,80,83,133,120,14,155.23,495,41.00,-47.00,-1020.00
2024-06-07 14:32:49.942862,1,2,41,-2,1,0,81,83,132,120,14,155.33,495,11.00,-17.00,-1008.00
2024-06-07 14:32:50.054801,1,2,41,-2,1,0,81,83,132,120,14,155.23,496,26.00,-26.00,-1012.00
2024-06-07 14:32:50.147202,1,2,41,-2,2,0,81,83,132,120,14,155.21,496,34.00,-54.00,-1000.00
2024-06-07 14:32:50.197169,2,2,41,-1,2,0,81,83,133,120,14,155.19,496,28.00,-39.00,-993.00
2024-06-07 14:32:50.369462,3,1,41,-1,2,0,81,83,133,120,14,155.16,496,4.00,-30.00,-994.00
2024-06-07 14:32:50.401733,4,0,41,-2,1,0,81,83,134,120,14,155.17,496,18.00,-64.00,-995.00
2024-06-07 14:32:50.566784,3,0,42,-2,1,0,81,83,134,120,14,155.22,496,11.00,-39.00,-1007.00
2024-06-07 14:32:50.605246,2,1,42,-2,0,0,81,83,134,120,14,155.28,496,15.00,-55.00,-977.00
2024-06-07 14:32:50.707149,0,0,41,-2,0,0,81,83,133,120,14,155.30,496,10.00,-44.00,-974.00
2024-06-07 14:32:50.874004,-2,-1,41,-1,0,0,81,83,133,120,14,155.29,496,29.00,-57.00,-976.00
2024-06-07 14:32:50.911460,0,0,42,0,0,0,80,83,133,120,14,155.20,496,50.00,-57.00,-994.00
2024-06-07 14:32:51.013666,0,1,42,0,0,0,80,83,133,120,14,155.23,497,3.00,-38.00,-975.00
2024-06-07 14:32:51.186785,0,1,42,0,0,0,80,83,132,120,14,155.20,497,18.00,-23.00,-1009.00
2024-06-07 14:32:51.218396,1,2,42,0,0,0,80,83,132,120,14,155.27,497,0.00,-21.00,-1007.00
2024-06-07 14:32:51.386155,1,1,42,0,0,0,80,83,132,120,13,155.22,497,20.00,-36.00,-1012.00
2024-06-07 14:32:51.421541,1,1,42,0,0,0,80,83,132,120,13,155.24,497,5.00,-46.00,-987.00
2024-06-07 14:32:51.523483,0,1,42,0,0,0,80,83,131,120,13,155.18,497,4.00,-48.00,-1036.00
2024-06-07 14:32:51.695129,-1,2,42,0,-1,0,80,83,132,120,13,155.10,497,-50.00,-45.00,-1008.00
2024-06-07 14:32:51.727655,-1,3,42,0,-1,0,80,83,132,120,13,155.26,497,-32.00,-58.00,-1024.00
2024-06-07 14:32:51.898262,-2,3,42,0,0,0,80,83,133,120,13,155.25,497,-56.00,-55.00,-1004.00
2024-06-07 14:32:51.933446,-2,3,42,0,0,0,81,83,132,120,13,155.20,497,-32.00,-45.00,-1011.00
2024-06-07 14:32:52.033175,-2,2,42,0,0,0,81,83,131,120,13,155.24,498,-14.00,-51.00,-1022.00
2024-06-07 14:32:52.135267,-1,2,41,0,0,0,81,83,131,120,13,155.25,498,-3.00,-32.00,-1000.00
2024-06-07 14:32:52.308902,-1,1,41,0,0,0,81,83,132,120,13,155.25,498,-46.00,-34.00,-1009.00
2024-06-07 14:32:52.339322,-1,1,41,0,0,0,81,83,131,120,13,155.21,498,-22.00,-50.00,-1016.00
2024-06-07 14:32:52.441192,-1,1,41,0,0,0,81,83,132,120,13,155.24,498,-3.00,-49.00,-1003.00
2024-06-07 14:32:52.620824,-1,2,41,0,0,0,81,83,133,120,13,155.22,498,12.00,-48.00,-991.00
2024-06-07 14:32:52.645073,-1,2,41,0,0,0,81,83,134,120,13,155.24,498,-34.00,-20.00,-994.00
2024-06-07 14:32:52.747295,0,2,41,0,0,0,81,83,134,120,13,155.25,498,-15.00,-54.00,-998.00
2024-06-07 14:32:52.876141,0,3,41,0,0,0,81,83,134,120,13,155.22,498,-6.00,-77.00,-985.00
2024-06-07 14:32:52.951043,0,2,41,0,0,0,80,83,134,120,13,155.28,498,2.00,-64.00,-1028.00
2024-06-07 14:32:53.053035,0,3,42,0,0,0,80,83,134,120,13,155.25,499,1.00,-86.00,-994.00
2024-06-07 14:32:53.229559,-1,2,46,0,0,0,80,83,133,120,13,155.25,499,-47.00,-41.00,-993.00
2024-06-07 14:32:53.257186,-1,3,52,0,0,0,80,83,134,120,13,155.20,499,-33.00,-65.00,-991.00
2024-06-07 14:32:53.360834,-1,3,58,0,0,0,80,83,133,120,13,155.25,499,-36.00,-45.00,-1017.00
2024-06-07 14:32:53.462113,-1,3,64,0,0,0,80,83,134,120,13,155.29,499,-48.00,-37.00,-972.00
2024-06-07 14:32:53.640467,-1,3,69,0,0,0,80,83,135,120,13,155.19,499,-40.00,-53.00,-993.00
2024-06-07 14:32:53.666824,-2,2,75,0,0,0,80,83,135,120,13,155.20,499,-47.00,-55.00,-995.00
2024-06-07 14:32:53.716021,-3,2,81,0,0,0,80,83,135,120,13,155.19,499,-61.00,-38.00,-998.00
2024-06-07 14:32:53.843562,-3,2,87,0,0,0,80,83,135,120,13,155.21,499,-86.00,-35.00,-979.00
2024-06-07 14:32:53.971034,-3,2,94,0,0,0,80,84,136,120,13,155.24,499,-73.00,-47.00,-993.00
2024-06-07 14:32:54.022755,-4,2,100,0,0,0,80,84,136,120,13,155.21,500,-57.00,-40.00,-1035.00
2024-06-07 14:32:54.124168,-4,2,106,0,0,0,80,84,135,120,13,155.12,500,-61.00,-36.00,-995.00
2024-06-07 14:32:54.253237,-4,1,112,0,0,0,80,84,135,120,13,155.15,500,-89.00,-15.00,-991.00
2024-06-07 14:32:54.329041,-4,0,118,0,0,0,80,84,135,120,13,155.16,500,-94.00,-1.00,-986.00
2024-06-07 14:32:54.432314,-5,0,124,0,0,0,80,84,134,120,13,155.10,500,-72.00,-28.00,-1004.00
2024-06-07 14:32:54.531984,-5,0,130,0,0,0,80,84,136,120,13,155.01,500,-97.00,1.00,-1017.00
2024-06-07 14:32:54.634978,-5,0,136,0,0,0,80,84,134,120,13,154.85,500,-74.00,5.00,-990.00
2024-06-07 14:32:54.735950,-5,0,142,0,0,0,80,84,134,120,13,154.96,500,-79.00,9.00,-1002.00
2024-06-07 14:32:54.867537,-5,-1,148,0,0,0,80,84,134,120,13,155.14,500,-74.00,21.00,-1007.00
2024-06-07 14:32:54.939973,-5,-1,153,0,0,0,81,84,133,120,13,155.08,500,-89.00,21.00,-972.00
2024-06-07 14:32:55.041972,-4,-2,159,0,0,0,81,84,133,120,13,155.09,501,-40.00,28.00,-1028.00
2024-06-07 14:32:55.174747,-4,-2,165,0,0,0,81,84,134,120,13,155.07,501,-96.00,58.00,-1019.00
2024-06-07 14:32:55.246545,-4,-2,171,0,0,0,81,84,133,120,13,155.17,501,-37.00,41.00,-996.00
2024-06-07 14:32:55.380840,-4,-2,176,0,0,0,81,84,133,120,13,155.14,501,-82.00,52.00,-1018.00
2024-06-07 14:32:55.449913,-3,-2,-177,0,0,0,81,84,133,120,13,155.08,501,-95.00,70.00,-976.00
2024-06-07 14:32:55.552304,-3,-2,-171,0,0,0,81,84,133,120,13,155.28,501,-26.00,76.00,-981.00
2024-06-07 14:32:55.654303,-2,-3,-164,0,0,0,81,84,133,120,13,155.28,501,5.00,76.00,-992.00
2024-06-07 14:32:55.756028,-1,-4,-158,0,0,0,81,84,132,120,13,155.32,501,6.00,77.00,-1016.00
2024-06-07 14:32:55.857825,0,-4,-152,0,0,0,81,84,133,120,13,155.26,501,-12.00,94.00,-1000.00
2024-06-07 14:32:55.959919,0,-4,-147,0,0,0,80,83,133,120,13,155.32,501,-28.00,96.00,-990.00
2024-06-07 14:32:56.097349,1,-4,-141,0,0,0,80,83,133,120,13,155.33,502,-8.00,88.00,-1002.00
2024-06-07 14:32:56.165824,0,-3,-134,0,0,0,80,83,133,120,13,155.36,502,-22.00,106.00,-982.00
2024-06-07 14:32:56.266202,1,-3,-128,0,0,0,80,83,133,120,12,155.33,502,8.00,82.00,-979.00
2024-06-07 14:32:56.369660,1,-3,-122,0,0,0,80,83,134,120,12,155.33,502,10.00,79.00,-1001.00
2024-06-07 14:32:56.469906,1,-2,-115,0,0,0,80,83,133,120,12,155.19,502,68.00,40.00,-1023.00
2024-06-07 14:32:56.608340,1,-2,-109,0,0,0,80,83,133,120,12,155.15,502,37.00,54.00,-1008.00
2024-06-07 14:32:56.675089,2,-2,-103,0,0,0,80,83,134,120,12,155.15,502,68.00,58.00,-962.00
2024-06-07 14:32:56.775853,2,-1,-97,0,0,0,80,83,135,120,12,155.17,502,70.00,41.00,-977.00
2024-06-07 14:32:56.918252,3,-1,-91,0,0,0,80,83,134,120,12,155.21,502,99.00,23.00,-1014.00
2024-06-07 14:32:56.979880,3,-1,-85,0,0,0,80,82,136,120,12,155.11,502,38.00,72.00,-969.00
2024-06-07 14:32:57.120414,4,0,-79,0,0,0,80,82,136,120,12,155.09,503,85.00,9.00,-992.00
2024-06-07 14:32:57.184059,4,0,-73,0,0,0,80,82,135,120,12,155.20,503,105.00,-7.00,-1000.00
2024-06-07 14:32:57.326266,4,0,-67,0,0,0,80,82,135,120,12,155.14,503,90.00,26.00,-1005.00
2024-06-07 14:32:57.387785,4,0,-61,0,0,0,80,82,135,120,12,155.13,503,92.00,-2.00,-992.00
2024-06-07 14:32:57.492393,4,0,-55,0,0,0,80,82,135,120,12,155.18,503,70.00,3.00,-992.00
2024-06-07 14:32:57.545125,4,0,-49,0,0,0,80,82,136,120,12,155.09,503,71.00,-12.00,-1005.00
2024-06-07 14:32:57.644250,4,0,-43,0,0,0,80,82,134,120,12,155.04,503,81.00,-1.00,-1007.00
2024-06-07 14:32:57.745028,4,0,-37,0,0,0,80,82,134,120,12,155.06,503,59.00,10.00,-1004.00
2024-06-07 14:32:57.848716,3,1,-31,0,0,0,80,82,135,120,12,155.10,503,61.00,-32.00,-1007.00
2024-06-07 14:32:58.041862,3,1,-25,0,0,0,80,82,134,120,12,155.11,503,85.00,-55.00,-997.00
2024-06-07 14:32:58.102397,3,1,-19,0,0,0,80,82,133,120,12,155.12,504,46.00,-28.00,-1002.00
2024-06-07 14:32:58.152812,2,2,-13,0,0,0,80,82,133,120,12,155.10,504,62.00,-17.00,-1002.00
2024-06-07 14:32:58.349249,2,3,-8,0,0,0,80,82,134,120,11,155.11,504,43.00,-20.00,-993.00
2024-06-07 14:32:58.356838,2,2,-2,0,0,0,80,82,132,120,11,155.20,504,43.00,-41.00,-1013.00
2024-06-07 14:32:58.459578,2,2,3,0,0,0,80,82,133,120,11,155.15,504,46.00,-43.00,-1004.00
2024-06-07 14:32:58.657482,2,2,8,0,0,0,80,82,133,120,11,155.25,504,59.00,-55.00,-994.00
2024-06-07 14:32:58.662686,2,2,14,0,0,0,80,82,134,120,11,155.22,504,52.00,-85.00,-1006.00
2024-06-07 14:32:58.862162,2,3,20,0,0,0,80,82,134,120,11,155.32,504,28.00,-42.00,-982.00
2024-06-07 14:32:58.869180,1,3,25,0,0,0,80,82,132,120,11,155.29,504,28.00,-93.00,-972.00
2024-06-07 14:32:58.968736,1,3,29,0,0,0,80,83,133,120,11,155.18,504,5.00,-26.00,-989.00
2024-06-07 14:32:59.169196,0,3,32,0,0,0,80,83,132,120,11,155.17,505,11.00,-71.00,-1000.00
2024-06-07 14:32:59.172872,0,3,35,0,0,0,80,83,133,120,11,155.21,505,-9.00,-54.00,-1001.00
2024-06-07 14:32:59.274839,0,3,37,0,0,0,80,83,133,120,11,155.19,505,-50.00,-48.00,-1008.00
2024-06-07 14:32:59.476645,-1,3,38,0,0,0,80,83,132,120,11,155.17,505,-57.00,-49.00,-985.00
2024-06-07 14:32:59.478724,-1,3,39,0,0,0,80,83,134,120,11,155.27,505,-24.00,-70.00,-979.00
2024-06-07 14:32:59.584473,-1,3,40,0,0,0,80,83,133,120,11,155.28,505,-16.00,-75.00,-1009.00
2024-06-07 14:32:59.682929,-1,4,40,0,0,0,80,83,134,120,11,155.21,505,-23.00,-78.00,-988.00
2024-06-07 14:32:59.787482,0,4,40,0,0,0,80,83,134,120,11,155.26,505,-11.00,-81.00,-1004.00
2024-06-07 14:32:59.886938,-1,3,40,0,0,0,80,83,134,120,11,155.25,505,-24.00,-70.00,-1009.00
2024-06-07 14:33:00.091033,-1,4,40,0,0,0,80,82,134,120,11,155.28,505,-12.00,-75.00,-997.00
2024-06-07 14:33:00.092543,-1,4,40,0,0,0,80,82,134,120,11,155.27,506,-28.00,-62.00,-1013.00
2024-06-07 14:33:00.194621,-1,4,40,0,0,0,80,82,135,120,11,155.27,506,-32.00,-59.00,-990.00
2024-06-07 14:33:00.294851,-1,3,40,0,0,0,80,82,134,120,11,155.32,506,-42.00,-44.00,-993.00
2024-06-07 14:33:00.397721,-1,3,40,0,0,0,80,82,134,120,11,155.37,506,-30.00,-51.00,-1017.00
2024-06-07 14:33:00.499366,0,3,39,0,0,0,80,82,135,120,11,155.24,506,-1.00,-82.00,-968.00
2024-06-07 14:33:00.602071,0,3,40,0,0,0,80,82,134,120,11,155.20,506,-33.00,-39.00,-990.00
2024-06-07 14:33:00.704504,0,4,40,0,0,0,80,82,133,120,11,155.22,506,-7.00,-74.00,-998.00
2024-06-07 14:33:00.804811,0,4,40,0,0,0,80,82,134,120,11,155.21,506,-28.00,-51.00,-1001.00
2024-06-07 14:33:00.909340,0,3,40,0,0,0,80,82,134,120,11,155.21,506,-29.00,-56.00,-998.00
2024-06-07 14:33:01.008857,-1,3,40,0,0,0,80,82,135,120,11,155.20,506,-30.00,-52.00,-995.00
2024-06-07 14:33:01.114115,-1,3,40,0,0,0,80,82,134,120,11,155.24,507,-65.00,-47.00,-982.00
2024-06-07 14:33:01.212992,-1,2,39,0,0,0,80,82,134,120,11,155.24,507,-17.00,-58.00,-1017.00
2024-06-07 14:33:01.318928,-2,2,39,0,0,0,80,82,134,120,11,155.25,507,-8.00,-76.00,-1006.00
2024-06-07 14:33:01.416852,-1,2,39,0,0,0,80,82,133,120,11,155.28,507,4.00,-83.00,-998.00
2024-06-07 14:33:01.523933,0,3,40,0,0,0,80,82,133,120,11,155.22,507,-13.00,-57.00,-997.00
2024-06-07 14:33:01.620644,0,3,40,0,0,0,80,82,135,120,11,155.20,507,-18.00,-71.00,-999.00
2024-06-07 14:33:01.671721,0,3,40,0,0,0,80,82,135,120,11,155.22,507,-17.00,-61.00,-1009.00
2024-06-07 14:33:01.830708,0,3,35,0,0,0,80,82,134,120,11,155.30,507,-20.00,-72.00,-992.00
2024-06-07 14:33:01.877352,0,3,29,0,0,0,80,82,134,120,11,155.29,507,-11.00,-79.00,-1000.00
2024-06-07 14:33:01.979168,0,3,23,0,0,0,79,82,135,120,11,155.34,507,-13.00,-46.00,-962.00
2024-06-07 14:33:02.079945,0,3,17,0,0,0,79,82,134,120,11,155.32,508,7.00,-65.00,-982.00
2024-06-07 14:33:02.240297,0,3,11,0,0,0,79,82,135,120,11,155.37,508,9.00,-64.00,-969.00
2024-06-07 14:33:02.284792,0,3,5,0,0,0,79,82,136,120,10,155.33,508,24.00,-54.00,-993.00
2024-06-07 14:33:02.385842,1,3,0,0,0,0,79,82,135,120,10,155.24,508,47.00,-89.00,-1000.00
2024-06-07 14:33:02.488285,2,2,-6,0,0,0,79,82,135,120,10,155.34,508,38.00,-51.00,-997.00
2024-06-07 14:33:02.590567,2,2,-13,0,0,0,79,82,135,120,10,155.27,508,13.00,-43.00,-970.00
2024-06-07 14:33:02.752343,2,2,-19,0,0,0,79,82,135,120,10,155.22,508,39.00,-36.00,-998.00
2024-06-07 14:33:02.794529,3,2,-25,0,0,0,79,82,135,120,10,155.20,508,48.00,-50.00,-986.00
2024-06-07 14:33:02.961053,3,1,-31,0,0,0,79,82,135,120,10,155.21,508,64.00,-47.00,-985.00
2024-06-07 14:33:02.998837,3,1,-37,0,0,0,80,83,136,120,10,155.12,508,68.00,-36.00,-989.00
2024-06-07 14:33:03.100529,3,0,-43,0,0,0,80,83,137,120,10,155.09,509,43.00,6.00,-988.00
2024-06-07 14:33:03.202507,4,0,-48,0,0,0,80,83,137,120,10,155.13,509,72.00,-25.00,-981.00
2024-06-07 14:33:03.372620,3,0,-54,0,0,0,80,83,137,120,10,155.12,509,114.00,-10.00,-992.00
2024-06-07 14:33:03.416067,3,0,-60,0,0,0,80,83,137,120,10,155.11,509,72.00,20.00,-960.00
2024-06-07 14:33:03.508556,4,0,-66,0,0,0,80,83,136,120,10,155.17,509,74.00,-1.00,-976.00
2024-06-07 14:33:03.673841,3,0,-71,0,0,0,80,83,135,120,10,155.12,509,54.00,16.00,-992.00
2024-06-07 14:33:03.713492,3,-1,-77,0,0,0,80,83,136,120,10,155.18,509,80.00,14.00,-1004.00
2024-06-07 14:33:03.814677,3,-1,-83,0,0,0,80,83,135,120,10,155.24,509,39.00,22.00,-999.00
2024-06-07 14:33:03.917148,3,-1,-89,0,0,0,80,83,134,120,10,155.13,509,56.00,34.00,-994.00
2024-06-07 14:33:04.083451,3,-2,-100,0,0,0,80,83,134,120,10,155.17,510,40.00,39.00,-996.00
2024-06-07 14:33:04.121203,2,-2,-106,0,0,0,80,83,134,120,10,155.13,510,54.00,47.00,-987.00
2024-06-07 14:33:04.223691,2,-3,-112,0,0,0,80,83,133,120,10,155.17,510,84.00,29.00,-980.00
2024-06-07 14:33:04.324581,2,-3,-117,0,0,0,80,83,134,120,10,155.17,510,9.00,54.00,-1012.00
2024-06-07 14:33:04.426667,1,-2,-123,0,0,0,80,83,134,120,10,155.21,510,24.00,73.00,-1015.00
2024-06-07 14:33:04.528480,1,-2,-128,0,0,0,80,83,134,120,10,155.23,510,14.00,61.00,-980.00
2024-06-07 14:33:04.631097,1,-2,-134,0,0,0,80,83,134,120,10,155.16,510,47.00,28.00,-983.00
2024-06-07 14:33:04.732441,1,-2,-140,0,0,0,80,83,134,120,10,155.24,510,18.00,38.00,-1005.00
2024-06-07 14:33:04.883439,1,-2,-145,0,0,0,80,83,134,120,10,155.23,510,30.00,34.00,-1011.00
2024-06-07 14:33:04.936410,1,-2,-152,0,0,0,80,83,134,120,10,155.17,510,19.00,64.00,-991.00
2024-06-07 14:33:05.107373,0,-2,-158,0,0,0,81,83,134,120,10,155.16,511,21.00,37.00,-999.00
2024-06-07 14:33:05.140526,0,-2,-164,0,0,0,81,83,134,120,10,155.20,511,-3.00,74.00,-1020.00
2024-06-07 14:33:05.315670,0,-2,-170,0,0,0,81,83,133,120,10,155.20,511,-11.00,49.00,-1003.00
2024-06-07 14:33:05.344427,0,-2,-177,0,0,0,81,83,133,120,10,155.26,511,-9.00,46.00,-1004.00
2024-06-07 14:33:05.395510,0,-2,176,0,0,0,81,83,133,120,10,155.21,511,-6.00,53.00,-1006.00
2024-06-07 14:33:05.497413,-1,-2,170,0,0,0,81,83,133,120,10,155.22,511,-39.00,54.00,-989.00
2024-06-07 14:33:05.619416,-1,-1,163,0,0,0,81,83,134,120,10,155.22,511,-35.00,46.00,-1002.00
2024-06-07 14:33:05.701372,-1,-1,157,0,0,0,81,83,134,120,10,155.21,511,-41.00,51.00,-985.00
2024-06-07 14:33:05.825309,-2,-1,151,0,0,0,81,83,134,120,10,155.18,511,-60.00,42.00,-990.00
2024-06-07 14:33:05.905401,-2,-1,145,0,0,0,81,83,133,120,10,155.18,511,-44.00,24.00,-1002.00
2024-06-07 14:33:06.029039,-2,-1,138,0,0,0,80,82,134,120,10,155.11,512,-50.00,25.00,-974.00
2024-06-07 14:33:06.109396,-2,0,132,0,0,0,80,82,133,120,10,155.17,512,-58.00,34.00,-996.00
2024-06-07 14:33:06.233878,-2,0,126,0,0,0,80,82,133,120,10,155.17,512,-60.00,37.00,-1004.00
2024-06-07 14:33:06.313384,-2,0,120,0,0,0,80,82,133,120,10,155.22,512,-50.00,8.00,-986.00
2024-06-07 14:33:06.438680,-2,0,115,0,0,0,80,82,134,120,10,155.17,512,-39.00,2.00,-1011.00
2024-06-07 14:33:06.517407,-2,0,114,0,0,0,80,82,133,120,10,155.08,512,-70.00,-2.00,-973.00
2024-06-07 14:33:06.619562,-2,0,113,0,0,0,80,82,133,120,10,155.18,512,-39.00,10.00,-997.00
2024-06-07 14:33:06.722010,-2,0,113,0,0,0,80,82,134,120,10,155.03,512,-49.00,0.00,-991.00
2024-06-07 14:33:06.848398,-2,0,113,0,0,0,80,82,134,120,10,155.17,512,-16.00,3.00,-999.00
2024-06-07 14:33:06.925439,-2,0,113,0,0,0,80,82,134,120,10,155.18,512,-62.00,41.00,-961.00
2024-06-07 14:33:07.053737,-2,0,113,0,0,0,80,83,132,120,10,155.16,513,-55.00,4.00,-918.00
2024-06-07 14:33:07.129470,-2,0,113,0,0,1,80,83,132,120,10,155.16,513,-74.00,11.00,-907.00
2024-06-07 14:33:07.258048,-2,0,113,0,0,2,80,83,131,120,10,155.08,513,-39.00,-11.00,-921.00
2024-06-07 14:33:07.333497,-2,0,113,0,0,3,80,83,127,110,10,155.08,513,-59.00,0.00,-914.00
2024-06-07 14:33:07.462843,-2,0,113,0,0,3,80,83,123,110,10,155.01,513,-6.00,-42.00,-958.00
2024-06-07 14:33:07.538500,-2,0,113,0,0,4,80,83,119,110,10,154.99,513,-34.00,-16.00,-930.00
2024-06-07 14:33:07.667615,-2,0,113,0,0,4,80,83,114,100,10,154.99,513,-63.00,6.00,-971.00
2024-06-07 14:33:07.743416,-3,0,113,0,0,4,80,83,109,100,10,154.83,513,-54.00,-14.00,-974.00
2024-06-07 14:33:07.843756,-3,0,113,0,0,5,80,83,104,90,10,154.80,513,-69.00,-7.00,-981.00
2024-06-07 14:33:07.974809,-3,0,113,0,0,4,80,83,99,90,10,154.81,513,-66.00,17.00,-1022.00
2024-06-07 14:33:08.048197,-3,0,113,0,0,4,80,83,94,80,10,154.86,514,-46.00,-4.00,-1023.00
2024-06-07 14:33:08.151638,-3,0,113,0,0,4,80,83,89,80,10,154.67,514,-69.00,27.00,-992.00
2024-06-07 14:33:08.252261,-3,0,113,0,0,4,80,83,84,70,10,154.83,514,-60.00,-2.00,-1026.00
2024-06-07 14:33:08.353467,-3,0,113,0,0,4,80,83,79,70,10,154.47,514,-49.00,8.00,-1022.00
2024-06-07 14:33:08.486778,-3,0,113,0,0,4,80,83,74,60,10,154.52,514,-53.00,5.00,-996.00
2024-06-07 14:33:08.557571,-2,0,113,0,0,4,80,83,70,60,10,154.54,514,-52.00,8.00,-1020.00
2024-06-07 14:33:08.660293,-2,0,113,0,0,4,80,83,65,50,10,154.46,514,-42.00,-4.00,-991.00
2024-06-07 14:33:08.762305,-2,0,113,0,0,4,80,83,61,50,10,154.51,514,-42.00,0.00,-991.00
2024-06-07 14:33:08.865323,-2,0,113,0,0,4,80,83,57,40,10,154.33,514,-66.00,29.00,-999.00
2024-06-07 14:33:08.966667,-2,0,113,0,0,4,80,83,52,40,10,154.37,514,-44.00,17.00,-1012.00
2024-06-07 14:33:09.101246,-2,0,113,0,0,4,80,83,47,40,10,154.42,515,-65.00,-9.00,-999.00
2024-06-07 14:33:09.170307,-2,0,113,0,0,4,80,83,43,30,10,154.23,515,-48.00,4.00,-1042.00
2024-06-07 14:33:09.223450,-2,0,113,0,0,3,80,83,38,30,10,154.29,515,-46.00,3.00,-1025.00
2024-06-07 14:33:09.323461,-2,0,113,0,0,3,80,83,35,20,10,154.20,515,-48.00,8.00,-1056.00
2024-06-07 14:33:09.510894,-2,0,113,0,0,3,80,83,31,20,10,154.22,515,-75.00,-14.00,-1054.00
2024-06-07 14:33:09.528990,-2,0,113,0,0,2,80,83,28,20,10,154.15,515,-26.00,9.00,-1102.00
2024-06-07 14:33:09.629411,-2,0,113,0,0,1,80,83,26,20,10,154.14,515,-57.00,11.00,-1067.00
2024-06-07 14:33:09.820528,-2,0,113,0,0,1,80,83,25,10,10,154.15,515,-56.00,2.00,-1061.00
2024-06-07 14:33:09.834220,-2,0,113,0,0,0,80,83,27,10,10,154.22,515,-48.00,3.00,-1045.00
2024-06-07 14:33:10.022874,-2,0,113,0,0,0,80,83,26,10,10,154.18,515,-59.00,31.00,-1013.00
2024-06-07 14:33:10.037266,-2,0,114,0,0,0,81,82,25,10,10,154.22,516,-48.00,22.00,-1011.00
2024-06-07 14:33:10.227496,-2,-1,113,0,0,0,81,82,25,10,10,154.28,516,-66.00,33.00,-1030.00
2024-06-07 14:33:10.241792,-2,-1,113,0,0,0,81,82,25,10,10,154.24,516,-32.00,1.00,-1036.00
2024-06-07 14:33:10.440727,-2,-1,113,0,0,0,81,82,25,10,10,154.19,516,-53.00,33.00,-1009.00
2024-06-07 14:33:10.445216,-1,-1,113,0,0,0,81,82,25,10,10,154.18,516,-30.00,17.00,-1046.00
2024-06-07 14:33:10.638053,-2,-1,113,0,0,0,81,82,25,10,10,154.17,516,-51.00,17.00,-1000.00
2024-06-07 14:33:10.649177,-2,-1,113,0,0,0,81,82,25,10,10,154.23,516,-43.00,24.00,-991.00
2024-06-07 14:33:10.842801,-2,-1,113,0,0,0,81,82,25,10,10,154.18,516,-77.00,26.00,-1015.00
2024-06-07 14:33:10.860035,-2,-1,113,0,0,0,81,82,25,10,10,154.19,516,-15.00,8.00,-975.00
2024-06-07 14:33:10.955227,-2,-1,113,0,0,0,81,82,25,10,10,154.33,516,-53.00,-8.00,-989.00
2024-06-07 14:33:11.149350,-2,0,113,0,0,0,79,82,25,10,10,154.21,517,-29.00,-27.00,-1008.00
2024-06-07 14:33:11.159153,-2,0,113,0,0,0,79,82,25,10,10,154.24,517,-49.00,18.00,-989.00
2024-06-07 14:33:11.262688,-2,0,113,0,0,0,79,82,25,10,10,154.22,517,-57.00,20.00,-1002.00
2024-06-07 14:33:11.363912,-2,0,113,0,0,0,79,82,25,10,10,154.24,517,-49.00,33.00,-1000.00
2024-06-07 14:33:11.465204,-2,0,113,0,0,0,79,82,25,10,10,154.29,517,-25.00,11.00,-1006.00
2024-06-07 14:33:11.567265,-1,0,113,0,0,0,79,82,25,10,10,154.24,517,-16.00,8.00,-1022.00
2024-06-07 14:33:11.669574,-1,0,113,0,0,0,79,82,25,10,10,154.22,517,-53.00,-7.00,-1023.00
2024-06-07 14:33:11.771283,-1,0,113,0,0,0,79,82,26,10,10,154.27,517,-25.00,6.00,-991.00
2024-06-07 14:33:11.971429,-1,0,113,0,0,0,79,82,26,10,10,154.31,517,-24.00,31.00,-1001.00
2024-06-07 14:33:11.975374,-1,0,113,0,0,0,79,82,26,10,10,154.25,517,-66.00,29.00,-992.00
2024-06-07 14:33:12.077175,-1,-1,113,0,0,0,80,82,26,10,10,154.28,518,5.00,-23.00,-1019.00
2024-06-07 14:33:12.181231,-1,0,113,0,0,0,80,82,26,10,10,154.30,518,-40.00,0.00,-962.00
2024-06-07 14:33:12.281579,0,0,113,0,0,0,80,82,26,10,9,154.33,518,10.00,-33.00,-1005.00
2024-06-07 14:33:12.384706,0,0,113,0,0,0,80,82,26,10,9,154.43,518,-12.00,-23.00,-944.00
2024-06-07 14:33:12.485307,0,0,113,0,0,0,80,82,26,10,9,154.36,518,-21.00,-25.00,-861.00
2024-06-07 14:33:12.685133,-1,0,113,0,0,1,80,82,24,10,9,154.34,518,23.00,14.00,-945.00
2024-06-07 14:33:12.686407,-1,0,113,0,0,2,80,82,22,10,9,154.30,518,-22.00,0.00,-943.00
2024-06-07 14:33:12.742061,-1,0,113,0,0,3,80,82,19,10,9,154.21,518,-39.00,2.00,-941.00
2024-06-07 14:33:12.842610,-1,0,113,0,0,3,80,82,15,0,9,154.06,518,-19.00,-5.00,-959.00
2024-06-07 14:33:12.996585,-1,0,113,0,0,3,80,82,13,0,9,153.83,518,-22.00,-22.00,-1000.00
2024-06-07 14:33:13.097269,-1,0,113,0,0,3,80,82,10,0,9,153.46,519,1.00,-15.00,-1029.00
2024-06-07 14:33:13.148362,-1,0,113,0,0,3,80,82,10,0,9,152.53,519,-35.00,-1.00,-1077.00
2024-06-07 14:33:13.250120,0,0,113,0,0,3,80,82,10,0,9,150.62,519,0.00,26.00,-1065.00
2024-06-07 14:33:13.402040,1,2,113,0,0,-1,80,82,10,0,9,151.49,519,67.00,-25.00,-806.00
2024-06-07 14:33:13.454251,-2,-1,113,0,0,0,80,82,10,0,9,151.44,519,16.00,8.00,-811.00
2024-06-07 14:33:13.557409,0,1,113,0,0,0,80,82,10,0,9,151.37,519,-24.00,-43.00,-1688.00
2024-06-07 14:33:13.661207,0,0,113,0,0,0,80,82,10,0,9,151.79,519,77.00,6.00,-1073.00
2024-06-07 14:33:13.761141,0,0,113,0,0,0,80,82,10,0,9,152.34,519,-44.00,-7.00,-994.00
2024-06-07 14:33:13.913996,0,0,112,0,0,0,80,82,10,0,9,152.66,519,18.00,-12.00,-997.00
2024-06-07 14:33:13.965085,0,0,112,0,0,0,80,82,10,0,9,153.01,519,7.00,-10.00,-989.00
2024-06-07 14:33:14.118902,0,0,112,0,0,0,80,83,10,0,9,153.18,520,-3.00,-8.00,-988.00
2024-06-07 14:33:14.169065,0,0,112,0,0,0,80,83,10,0,9,153.26,520,7.00,-2.00,-1009.00
2024-06-07 14:33:14.324754,0,0,112,0,0,0,80,83,10,0,9,153.24,520,0.00,-4.00,-1003.00
2024-06-07 14:33:14.373290,0,0,112,0,0,0,80,83,10,0,9,153.44,520,0.00,-9.00,-1005.00
2024-06-07 14:33:14.528778,0,0,112,0,0,0,80,83,10,0,9,153.45,520,-2.00,-13.00,-1007.00
2024-06-07 14:33:14.577339,0,0,112,0,0,0,80,83,10,0,9,153.69,520,0.00,-10.00,-1007.00
2024-06-07 14:33:14.679095,0,0,112,0,0,0,80,83,10,0,9,153.81,520,1.00,-16.00,-998.00
2024-06-07 14:33:14.835563,0,0,112,0,0,0,80,83,10,0,9,153.86,520,1.00,-11.00,-1000.00
2024-06-07 14:33:14.883169,0,0,112,0,0,0,80,83,10,0,9,153.86,520,-1.00,-9.00,-997.00
2024-06-07 14:33:15.040348,0,0,112,0,0,0,80,83,10,0,9,153.87,520,-1.00,-6.00,-998.00
2024-06-07 14:33:15.087177,0,0,112,0,0,0,80,83,10,0,9,154.01,520,4.00,-8.00,-995.00
2024-06-07 14:33:15.246713,0,0,112,0,0,0,80,83,10,0,9,153.99,520,4.00,-8.00,-1002.00
2024-06-07 14:33:15.292587,0,0,112,0,0,0,80,83,10,0,9,154.02,520,0.00,-7.00,-998.00
2024-06-07 14:33:15.393027,0,0,112,0,0,0,80,83,10,0,9,154.05,520,-2.00,-8.00,-999.00
2024-06-07 14:33:15.554253,0,0,112,0,0,0,80,83,10,0,9,154.04,520,0.00,-8.00,-997.00
2024-06-07 14:33:15.596958,0,0,112,0,0,0,80,83,10,0,9,154.03,520,0.00,-8.00,-998.00
2024-06-07 14:33:15.699022,0,0,112,0,0,0,80,83,10,0,9,154.07,520,-1.00,-7.00,-998.00
2024-06-07 14:33:15.801035,0,0,112,0,0,0,80,83,10,0,9,154.03,520,0.00,-8.00,-1000.00
2024-06-07 14:33:15.961897,0,0,112,0,0,0,80,83,10,0,9,154.08,520,0.00,-9.00,-998.00
2024-06-07 14:33:16.005162,0,0,112,0,0,0,80,83,10,0,9,154.01,520,-1.00,-7.00,-998.00
2024-06-07 14:33:16.168852,0,0,112,0,0,0,80,82,10,0,9,154.03,520,0.00,-7.00,-997.00
2024-06-07 14:33:16.208974,0,0,112,0,0,0,80,82,10,0,9,154.03,520,0.00,-7.00,-998.00
2024-06-07 14:33:16.310899,0,0,112,0,0,0,80,82,10,0,9,154.05,520,0.00,-7.00,-996.00
2024-06-07 14:33:16.473761,0,0,112,0,0,0,80,82,10,0,9,154.06,520,0.00,-7.00,-997.00
2024-06-07 14:33:16.514861,0,0,112,0,0,0,80,82,10,0,9,154.07,520,0.00,-8.00,-999.00
2024-06-07 14:33:16.566113,0,0,112,0,0,0,80,82,10,0,9,154.04,520,0.00,-8.00,-997.00
2024-06-07 14:33:16.667822,0,0,112,0,0,0,80,82,10,0,9,154.00,520,0.00,-8.00,-997.00
2024-06-07 14:33:16.770501,0,0,112,0,0,0,80,82,10,0,9,154.05,520,-1.00,-7.00,-998.00
2024-06-07 14:33:16.871916,0,0,112,0,0,0,80,82,10,0,9,154.00,520,0.00,-9.00,-999.00
2024-06-07 14:33:16.973895,0,0,112,0,0,0,80,82,10,0,9,154.00,520,0.00,-8.00,-998.00
2024-06-07 14:33:17.092934,0,0,112,0,0,0,81,82,10,0,9,154.09,520,1.00,-9.00,-999.00
2024-06-07 14:33:17.177983,0,0,112,0,0,0,81,82,10,0,9,154.04,520,-1.00,-8.00,-998.00
2024-06-07 14:33:17.294628,0,0,112,0,0,0,81,82,10,0,9,154.08,520,-1.00,-8.00,-999.00
2024-06-07 14:33:17.382327,0,0,112,0,0,0,81,82,10,0,9,154.07,520,0.00,-6.00,-997.00
2024-06-07 14:33:17.501772,0,0,112,0,0,0,81,82,10,0,9,154.04,520,0.00,-6.00,-999.00
2024-06-07 14:33:17.586073,0,0,112,0,0,0,81,82,10,0,9,154.02,520,0.00,-8.00,-997.00
2024-06-07 14:33:17.689285,0,0,112,0,0,0,81,82,10,0,9,154.06,520,-1.00,-8.00,-997.00
2024-06-07 14:33:17.790873,0,0,112,0,0,0,81,82,10,0,9,154.02,520,0.00,-8.00,-996.00
2024-06-07 14:33:17.895736,0,0,112,0,0,0,81,82,10,0,9,153.98,520,-2.00,-8.00,-998.00
2024-06-07 14:33:17.994754,0,0,112,0,0,0,81,82,10,0,9,154.02,520,0.00,-10.00,-996.00
2024-06-07 14:33:18.097826,0,0,112,0,0,0,80,83,10,0,9,154.04,520,-1.00,-6.00,-998.00
2024-06-07 14:33:18.198707,0,0,112,0,0,0,80,83,10,0,9,154.11,520,0.00,-8.00,-1000.00
2024-06-07 14:33:18.419529,0,0,112,0,0,0,80,83,10,0,9,154.02,520,-1.00,-8.00,-997.00
2024-06-07 14:33:18.419667,0,0,112,0,0,0,80,83,10,0,9,154.01,520,0.00,-8.00,-997.00
