TS,pitch,roll,yaw,vgx,vgy,vgz,templ,temph,tof,h,bat,baro,time,agx,agy,agz
2024-05-17 16:57:03.166910,0,0,-2,0,0,0,71,74,10,0,56,190.73,193,8.00,5.00,-1001.00
2024-05-17 16:57:03.182338,0,0,-2,0,0,0,71,74,10,0,56,190.74,193,10.00,5.00,-998.00
2024-05-17 16:57:03.375069,0,0,-2,0,0,0,71,74,10,0,56,190.69,193,11.00,6.00,-1001.00
2024-05-17 16:57:03.386322,0,0,-2,0,0,0,71,74,10,0,56,190.69,193,9.00,5.00,-997.00
2024-05-17 16:57:03.489141,0,0,-2,0,0,0,72,75,10,0,56,190.72,193,10.00,7.00,-1000.00
2024-05-17 16:57:03.590863,0,0,-2,0,0,0,72,75,10,0,56,190.73,193,10.00,5.00,-999.00
2024-05-17 16:57:03.784158,0,0,-2,0,0,0,72,75,10,0,56,190.73,193,11.00,6.00,-1000.00
2024-05-17 16:57:03.796768,0,0,-2,0,0,0,72,75,10,0,56,190.68,193,10.00,6.00,-1000.00
2024-05-17 16:57:03.897356,0,0,-2,0,0,0,72,75,10,0,56,190.72,193,11.00,5.00,-1001.00
2024-05-17 16:57:04.089153,0,0,-2,0,0,0,72,75,10,0,56,190.73,193,11.00,5.00,-999.00
2024-05-17 16:57:04.102855,0,0,-2,0,0,0,72,75,10,0,56,190.74,193,9.00,5.00,-1001.00
2024-05-17 16:57:04.203281,0,0,-2,0,0,0,72,75,10,0,56,190.72,193,10.00,5.00,-998.00
2024-05-17 16:57:04.395812,0,0,-2,0,0,0,72,75,10,0,56,190.69,193,10.00,6.00,-1003.00
2024-05-17 16:57:04.407346,0,0,-2,0,0,0,72,75,10,0,56,190.71,193,9.00,4.00,-996.00
2024-05-17 16:57:04.603268,0,0,-2,0,0,0,73,75,10,0,56,190.71,193,11.00,4.00,-996.00
2024-05-17 16:57:04.611308,0,0,-2,0,0,0,73,75,10,0,56,190.70,193,10.00,5.00,-998.00
2024-05-17 16:57:04.805338,0,0,-2,0,0,0,73,75,10,0,56,190.71,193,9.00,7.00,-1001.00
2024-05-17 16:57:04.815355,0,0,-2,0,0,0,73,75,10,0,56,190.68,193,9.00,4.00,-1000.00
2024-05-17 16:57:05.012039,0,0,-2,0,0,0,73,75,10,0,56,190.69,193,9.00,5.00,-999.00
2024-05-17 16:57:05.019264,0,0,-2,0,0,0,73,75,10,0,56,190.73,193,9.00,4.00,-1000.00
2024-05-17 16:57:05.216848,0,0,-2,0,0,0,73,75,10,0,56,190.72,193,11.00,5.00,-999.00
2024-05-17 16:57:05.223248,0,0,-2,0,0,0,73,75,10,0,56,190.71,193,10.00,6.00,-1000.00
2024-05-17 16:57:05.419775,0,0,-2,0,0,0,73,75,10,0,56,190.75,193,11.00,7.00,-1003.00
2024-05-17 16:57:05.427156,0,0,-2,0,0,0,73,75,10,0,56,190.66,193,11.00,5.00,-1002.00
2024-05-17 16:57:05.529092,0,0,-2,0,0,0,73,75,10,0,56,190.74,193,10.00,6.00,-998.00
2024-05-17 16:57:05.726774,0,0,-2,0,0,0,73,75,10,0,56,190.70,193,11.00,5.00,-1001.00
2024-05-17 16:57:05.733145,0,0,-2,0,0,0,73,75,10,0,56,190.70,193,14.00,3.00,-997.00
2024-05-17 16:57:05.835054,0,0,-2,0,0,0,73,75,10,0,56,190.70,193,4.00,2.00,-1003.00
2024-05-17 16:57:05.886112,0,0,-1,0,0,0,73,75,10,0,56,190.70,193,-25.00,-1.00,-1004.00
2024-05-17 16:57:06.033960,0,0,0,0,0,0,73,75,10,0,56,190.70,194,45.00,-26.00,-962.00
2024-05-17 16:57:06.091877,0,0,0,0,0,0,73,75,10,0,56,190.70,194,-11.00,19.00,-1062.00
2024-05-17 16:57:06.192049,1,0,0,0,0,0,73,75,10,0,56,190.70,194,12.00,-10.00,-1130.00
2024-05-17 16:57:06.294083,1,0,0,0,0,-2,73,75,10,0,56,190.70,194,6.00,8.00,-1247.00
2024-05-17 16:57:06.443566,0,0,0,0,0,-5,73,75,12,0,56,190.70,194,-2.00,3.00,-1259.00
2024-05-17 16:57:06.498010,0,1,0,0,0,-7,73,74,19,10,56,190.81,194,14.00,11.00,-1133.00
2024-05-17 16:57:06.648305,0,0,0,0,0,-8,73,74,26,10,56,191.01,194,-11.00,6.00,-1045.00
2024-05-17 16:57:06.703020,0,0,0,0,0,-8,73,74,34,20,56,191.13,194,20.00,-33.00,-976.00
2024-05-17 16:57:06.808165,0,0,0,0,0,-8,73,74,43,30,56,191.16,194,-12.00,-5.00,-986.00
2024-05-17 16:57:06.906028,0,0,0,0,0,-7,73,74,51,40,56,191.34,194,-5.00,7.00,-925.00
2024-05-17 16:57:07.008039,0,0,0,0,0,-6,73,74,57,50,56,191.31,195,-8.00,-7.00,-898.00
2024-05-17 16:57:07.148267,0,0,0,0,0,-5,73,74,62,50,56,191.48,195,-14.00,-10.00,-875.00
2024-05-17 16:57:07.212532,-1,0,0,0,0,-4,73,74,68,60,56,191.53,195,14.00,2.00,-876.00
2024-05-17 16:57:07.365105,0,0,0,0,0,-3,73,74,71,60,56,191.60,195,1.00,11.00,-889.00
2024-05-17 16:57:07.416515,0,0,0,0,0,-2,73,74,74,60,56,191.54,195,24.00,-12.00,-912.00
2024-05-17 16:57:07.569952,0,0,0,0,0,-1,73,75,76,60,56,191.65,195,8.00,-11.00,-934.00
2024-05-17 16:57:07.621740,0,0,0,0,0,0,73,75,76,70,56,191.54,195,-6.00,0.00,-960.00
2024-05-17 16:57:07.774754,0,0,0,0,0,0,73,75,77,70,56,191.61,195,-2.00,-4.00,-980.00
2024-05-17 16:57:07.824947,0,0,0,0,0,0,73,75,78,70,56,191.55,195,13.00,-12.00,-986.00
2024-05-17 16:57:07.979566,0,0,0,0,0,0,73,75,78,70,56,191.59,195,9.00,-12.00,-1005.00
2024-05-17 16:57:08.029630,0,0,0,0,0,0,73,75,78,70,56,191.57,196,-3.00,-8.00,-1007.00
2024-05-17 16:57:08.184344,0,0,0,0,0,0,73,75,78,70,56,191.66,196,-1.00,-7.00,-1005.00
2024-05-17 16:57:08.232842,0,0,0,0,0,0,73,75,79,70,56,191.61,196,-16.00,4.00,-1005.00
2024-05-17 16:57:08.389149,0,0,0,0,0,0,73,75,79,70,56,191.57,196,2.00,-13.00,-996.00
2024-05-17 16:57:08.436933,0,0,0,0,0,0,73,75,79,70,56,191.53,196,11.00,1.00,-1012.00
2024-05-17 16:57:08.593997,0,0,0,0,0,0,72,75,79,70,56,191.60,196,1.00,-4.00,-1007.00
2024-05-17 16:57:08.641285,0,0,0,0,0,0,72,75,79,70,56,191.64,196,6.00,-9.00,-1018.00
2024-05-17 16:57:08.798749,0,0,0,0,0,0,72,75,81,70,56,191.65,196,-14.00,23.00,-1007.00
2024-05-17 16:57:08.844987,0,0,0,0,0,0,72,75,81,70,56,191.67,196,11.00,-26.00,-960.00
2024-05-17 16:57:09.003608,0,0,0,0,0,0,72,75,80,70,56,191.64,196,-2.00,-12.00,-967.00
2024-05-17 16:57:09.048945,0,0,0,0,0,0,72,75,80,70,56,191.72,197,3.00,8.00,-1007.00
2024-05-17 16:57:09.209334,0,0,0,0,0,0,72,75,79,70,56,191.62,197,-7.00,-13.00,-993.00
2024-05-17 16:57:09.252975,0,0,0,0,0,0,72,75,79,70,56,191.66,197,2.00,-11.00,-991.00
2024-05-17 16:57:09.416407,0,0,0,0,0,0,72,75,79,70,56,191.71,197,13.00,-6.00,-1018.00
2024-05-17 16:57:09.416488,0,0,0,0,0,0,72,75,78,70,56,191.66,197,5.00,-6.00,-991.00
2024-05-17 16:57:09.559120,0,0,0,0,0,0,71,75,78,70,56,191.69,197,11.00,-5.00,-979.00
2024-05-17 16:57:09.661768,0,0,0,0,0,0,71,75,78,70,56,191.70,197,-9.00,-5.00,-996.00
2024-05-17 16:57:09.720560,0,0,0,0,0,0,71,75,78,70,56,191.65,197,24.00,-12.00,-1042.00
2024-05-17 16:57:09.814533,0,0,0,0,0,0,71,75,78,70,56,191.68,197,-4.00,-1.00,-996.00
2024-05-17 16:57:09.925584,0,0,0,0,0,0,71,75,78,70,56,191.68,197,18.00,-13.00,-988.00
2024-05-17 16:57:10.018095,0,0,0,0,0,0,71,75,77,70,56,191.56,198,-18.00,21.00,-1023.00
2024-05-17 16:57:10.130130,0,0,0,0,0,0,71,75,77,70,56,191.58,198,-21.00,15.00,-1033.00
2024-05-17 16:57:10.221983,0,0,0,0,0,0,71,75,77,70,56,191.67,198,-4.00,-8.00,-995.00
2024-05-17 16:57:10.336410,0,0,0,0,0,0,71,75,77,70,56,191.67,198,-23.00,6.00,-1007.00
2024-05-17 16:57:10.426016,0,0,0,0,0,0,71,75,77,70,56,191.66,198,-11.00,1.00,-993.00
2024-05-17 16:57:10.540159,0,0,0,0,0,0,73,74,77,70,56,191.72,198,3.00,7.00,-987.00
2024-05-17 16:57:10.630777,0,0,0,0,0,0,73,74,77,70,56,191.68,198,8.00,-8.00,-1003.00
2024-05-17 16:57:10.732016,0,0,0,0,0,0,73,74,78,70,56,191.66,198,-6.00,6.00,-1002.00
2024-05-17 16:57:10.834123,-1,0,0,0,0,0,73,74,78,70,56,191.66,198,-11.00,-3.00,-997.00
2024-05-17 16:57:10.949306,0,0,0,0,0,0,73,74,77,70,56,191.65,198,13.00,-3.00,-1008.00
2024-05-17 16:57:11.037985,0,0,0,0,0,0,73,74,77,70,56,191.69,199,3.00,5.00,-1006.00
2024-05-17 16:57:11.156904,0,0,0,0,0,0,73,74,77,70,56,191.68,199,-18.00,16.00,-1014.00
2024-05-17 16:57:11.242026,0,0,0,0,0,0,73,74,77,70,56,191.68,199,0.00,0.00,-999.00
2024-05-17 16:57:11.345114,0,0,0,0,0,0,73,74,78,70,56,191.60,199,-11.00,5.00,-1000.00
2024-05-17 16:57:11.446017,0,0,0,0,0,0,73,74,78,70,56,191.54,199,2.00,3.00,-1015.00
2024-05-17 16:57:11.549563,0,0,0,0,0,0,72,75,78,70,56,191.71,199,-6.00,12.00,-1011.00
2024-05-17 16:57:11.651248,0,0,0,0,0,0,72,75,78,70,56,191.63,199,-4.00,9.00,-1006.00
2024-05-17 16:57:11.752556,0,0,0,0,0,0,72,75,78,70,56,191.67,199,18.00,2.00,-995.00
2024-05-17 16:57:11.854473,0,0,0,0,0,0,72,75,78,70,56,191.66,199,17.00,-2.00,-986.00
2024-05-17 16:57:11.955802,0,0,0,0,0,0,72,75,79,70,56,191.66,199,16.00,-7.00,-977.00
2024-05-17 16:57:12.058468,0,0,0,0,0,-1,72,75,81,70,56,191.66,200,-6.00,10.00,-1046.00
2024-05-17 16:57:12.159821,0,0,0,0,0,-2,72,75,84,70,56,191.78,200,-10.00,9.00,-1100.00
2024-05-17 16:57:12.261792,0,0,0,0,0,-3,72,75,88,80,56,191.74,200,-15.00,10.00,-1102.00
2024-05-17 16:57:12.384508,0,0,0,0,0,-4,72,75,92,80,56,191.80,200,2.00,4.00,-1098.00
2024-05-17 16:57:12.465761,0,0,0,0,0,-5,72,75,97,80,56,191.87,200,-4.00,8.00,-1100.00
2024-05-17 16:57:12.587440,0,0,0,0,0,-5,72,74,103,90,56,191.86,200,-2.00,6.00,-1038.00
2024-05-17 16:57:12.670197,0,0,0,0,0,-5,72,74,108,100,56,191.97,200,16.00,9.00,-1014.00
2024-05-17 16:57:12.793671,0,0,0,0,0,-5,72,74,113,100,56,192.02,200,-1.00,9.00,-994.00
2024-05-17 16:57:12.873773,0,0,0,0,0,-5,72,74,119,110,56,192.06,200,15.00,-1.00,-975.00
2024-05-17 16:57:12.997495,0,0,0,0,0,-5,72,74,125,110,56,192.13,200,12.00,17.00,-967.00
2024-05-17 16:57:13.077829,0,0,0,0,0,-5,72,74,130,120,56,192.18,201,-9.00,24.00,-986.00
2024-05-17 16:57:13.130165,0,0,0,0,0,-5,72,74,136,120,56,192.23,201,25.00,12.00,-973.00
2024-05-17 16:57:13.304398,0,0,0,0,0,-4,72,74,141,130,56,192.32,201,9.00,0.00,-969.00
2024-05-17 16:57:13.334325,0,0,0,0,0,-4,72,74,146,130,56,192.35,201,8.00,7.00,-951.00
2024-05-17 16:57:13.434714,0,0,0,0,0,-4,72,74,151,140,56,192.34,201,-18.00,18.00,-962.00
2024-05-17 16:57:13.538989,0,0,0,0,0,-3,71,73,155,140,56,192.43,201,-1.00,5.00,-948.00
2024-05-17 16:57:13.714025,0,0,0,0,0,-3,71,73,159,140,56,192.42,201,-27.00,15.00,-936.00
2024-05-17 16:57:13.742195,0,0,0,0,0,-3,71,73,162,150,56,192.42,201,2.00,37.00,-964.00
2024-05-17 16:57:13.843888,0,0,0,0,0,-2,71,73,165,150,56,192.51,201,0.00,6.00,-979.00
2024-05-17 16:57:14.022537,0,0,0,0,0,-2,71,73,168,150,56,192.52,201,-3.00,30.00,-971.00
2024-05-17 16:57:14.047914,0,0,0,0,0,-2,71,73,170,160,56,192.57,202,19.00,19.00,-961.00
2024-05-17 16:57:14.225976,0,0,0,0,0,-1,71,73,173,160,56,192.52,202,21.00,1.00,-979.00
2024-05-17 16:57:14.251682,0,0,0,0,0,-1,71,73,174,160,56,192.57,202,-14.00,37.00,-988.00
2024-05-17 16:57:14.433767,0,0,0,0,0,-1,71,73,176,160,56,192.58,202,7.00,12.00,-983.00
2024-05-17 16:57:14.456770,0,0,0,0,0,-1,71,73,178,160,56,192.57,202,3.00,24.00,-967.00
2024-05-17 16:57:14.635621,0,0,0,0,0,0,71,74,179,160,56,192.55,202,7.00,21.00,-963.00
2024-05-17 16:57:14.660908,0,0,0,0,0,0,71,74,180,170,56,192.60,202,8.00,-6.00,-963.00
2024-05-17 16:57:14.840459,0,0,0,0,0,0,71,74,180,170,56,192.64,202,-16.00,10.00,-993.00
2024-05-17 16:57:14.864936,0,0,0,0,0,0,71,74,180,170,56,192.62,202,0.00,5.00,-980.00
2024-05-17 16:57:15.045363,0,0,0,0,0,0,71,74,180,170,56,192.61,202,-1.00,21.00,-981.00
2024-05-17 16:57:15.069197,0,0,0,0,0,0,71,74,180,170,56,192.62,203,3.00,8.00,-982.00
2024-05-17 16:57:15.251036,0,0,0,0,0,0,71,74,180,170,56,192.64,203,12.00,9.00,-1009.00
2024-05-17 16:57:15.281084,0,0,0,0,0,0,71,74,180,170,56,192.64,203,8.00,27.00,-1000.00
2024-05-17 16:57:15.374838,0,0,0,0,0,0,71,74,180,170,56,192.61,203,-1.00,24.00,-1014.00
2024-05-17 16:57:15.476809,0,0,0,0,0,0,71,74,181,170,56,192.63,203,23.00,-6.00,-1011.00
2024-05-17 16:57:15.578835,0,0,0,0,0,0,71,73,180,170,56,192.62,203,-6.00,5.00,-1006.00
2024-05-17 16:57:15.761972,0,0,0,0,0,0,71,73,180,170,56,192.61,203,2.00,8.00,-994.00
2024-05-17 16:57:15.782708,0,0,0,0,0,0,71,73,180,170,56,192.62,203,13.00,14.00,-1007.00
2024-05-17 16:57:15.884827,0,0,0,0,0,0,71,73,180,170,56,192.61,203,-18.00,19.00,-992.00
2024-05-17 16:57:16.069576,0,0,0,0,0,0,71,73,180,170,56,192.58,203,2.00,17.00,-1007.00
2024-05-17 16:57:16.088622,0,0,0,0,0,0,71,73,181,170,56,192.64,204,10.00,-1.00,-973.00
2024-05-17 16:57:16.273963,0,0,0,0,0,0,71,73,181,170,56,192.62,204,7.00,5.00,-998.00
2024-05-17 16:57:16.293671,0,0,0,0,0,0,71,73,180,170,56,192.60,204,0.00,3.00,-999.00
2024-05-17 16:57:16.437475,0,0,0,0,0,0,71,73,181,170,56,192.60,204,6.00,2.00,-1006.00
2024-05-17 16:57:16.496643,0,0,0,0,0,0,71,73,181,170,56,192.65,204,10.00,0.00,-1009.00
2024-05-17 16:57:16.683570,0,0,0,0,0,0,71,73,180,170,56,192.56,204,15.00,12.00,-986.00
2024-05-17 16:57:16.700597,0,0,0,0,0,0,71,73,180,170,56,192.62,204,-13.00,9.00,-977.00
2024-05-17 16:57:16.888324,0,0,0,0,0,0,71,73,180,170,56,192.59,204,26.00,-3.00,-941.00
2024-05-17 16:57:16.888582,0,0,0,0,0,0,71,73,179,170,56,192.56,204,19.00,9.00,-950.00
2024-05-17 16:57:16.956605,0,0,0,0,0,1,71,73,178,170,56,192.55,204,-17.00,5.00,-953.00
2024-05-17 16:57:17.093050,0,0,0,0,0,1,71,73,176,160,56,192.57,205,18.00,10.00,-953.00
2024-05-17 16:57:17.160920,0,0,0,0,0,2,71,73,174,160,56,192.54,205,14.00,16.00,-966.00
2024-05-17 16:57:17.297970,0,0,0,0,0,2,71,73,171,160,56,192.54,205,5.00,17.00,-986.00
2024-05-17 16:57:17.365586,0,0,0,0,0,2,71,73,169,160,56,192.53,205,6.00,1.00,-972.00
2024-05-17 16:57:17.503098,0,0,0,0,0,2,71,73,166,160,56,192.42,205,-7.00,14.00,-990.00
2024-05-17 16:57:17.570172,0,0,0,0,0,2,70,73,163,150,56,192.45,205,0.00,10.00,-1009.00
2024-05-17 16:57:17.670775,0,0,0,0,0,2,70,73,161,150,56,192.39,205,24.00,-3.00,-1010.00
2024-05-17 16:57:17.772608,0,0,0,0,0,2,70,73,158,150,56,192.33,205,1.00,18.00,-1006.00
2024-05-17 16:57:17.874530,0,0,0,0,0,2,70,73,155,140,56,192.35,205,10.00,4.00,-1002.00
2024-05-17 16:57:18.014762,0,0,0,0,0,2,70,73,153,140,56,192.38,205,-3.00,15.00,-996.00
2024-05-17 16:57:18.078608,0,0,0,0,0,2,70,73,150,140,56,192.28,206,17.00,8.00,-1023.00
2024-05-17 16:57:18.219565,0,0,0,0,0,2,70,73,148,140,56,192.33,206,8.00,25.00,-995.00
2024-05-17 16:57:18.282538,0,0,0,0,0,2,70,73,146,140,56,192.24,206,-4.00,9.00,-1022.00
2024-05-17 16:57:18.424289,0,0,0,0,0,1,70,73,144,130,56,192.27,206,-2.00,13.00,-1010.00
2024-05-17 16:57:18.487321,0,0,0,0,0,1,70,73,143,130,56,192.17,206,23.00,0.00,-1047.00
2024-05-17 16:57:18.588643,0,0,0,0,0,1,71,73,141,130,56,192.24,206,-2.00,22.00,-1010.00
2024-05-17 16:57:18.731588,0,0,0,0,0,1,71,73,140,130,56,192.25,206,8.00,8.00,-1020.00
2024-05-17 16:57:18.792541,0,0,0,0,0,1,71,73,139,130,56,192.18,206,-31.00,28.00,-1012.00
2024-05-17 16:57:18.936240,0,0,0,0,0,1,71,73,137,130,56,192.16,206,-4.00,9.00,-1010.00
2024-05-17 16:57:18.996682,0,0,0,0,0,1,71,73,136,130,56,192.13,207,17.00,17.00,-1023.00
2024-05-17 16:57:19.113143,0,0,0,0,0,0,71,73,135,120,56,192.16,207,-35.00,51.00,-992.00
2024-05-17 16:57:19.200474,0,0,0,0,0,0,71,73,134,120,56,192.14,207,4.00,21.00,-1031.00
2024-05-17 16:57:19.302703,0,0,0,0,0,0,71,73,133,120,56,192.15,207,9.00,23.00,-1015.00
2024-05-17 16:57:19.448435,0,0,0,0,0,0,71,73,132,120,56,192.11,207,-2.00,36.00,-999.00
2024-05-17 16:57:19.506566,0,0,0,0,0,0,71,73,131,120,56,192.08,207,12.00,8.00,-1009.00
2024-05-17 16:57:19.653255,0,0,0,0,0,0,71,72,131,120,56,192.07,207,11.00,28.00,-996.00
2024-05-17 16:57:19.710654,0,-1,0,0,0,0,71,72,131,120,56,192.09,207,-25.00,36.00,-1020.00
2024-05-17 16:57:19.858099,0,-1,0,0,0,0,71,72,131,120,56,192.09,207,8.00,25.00,-1008.00
2024-05-17 16:57:19.915631,0,0,0,0,0,0,71,72,130,120,56,192.15,207,-3.00,0.00,-1018.00
2024-05-17 16:57:20.063357,0,0,0,0,0,0,71,72,130,120,56,192.13,208,10.00,16.00,-1013.00
2024-05-17 16:57:20.119657,0,0,0,0,0,0,71,72,130,120,56,192.12,208,13.00,8.00,-1010.00
2024-05-17 16:57:20.171798,0,0,0,0,0,0,71,72,130,120,56,192.07,208,-5.00,15.00,-996.00
2024-05-17 16:57:20.369997,0,0,0,0,0,0,71,72,130,120,56,192.10,208,7.00,25.00,-1015.00
2024-05-17 16:57:20.375897,0,0,0,0,0,0,71,72,130,120,56,192.17,208,19.00,-9.00,-1008.00
2024-05-17 16:57:20.576085,0,0,0,0,0,0,71,72,130,120,56,192.10,208,15.00,0.00,-985.00
2024-05-17 16:57:20.578542,0,0,0,0,0,0,71,72,131,120,56,192.07,208,-14.00,10.00,-1001.00
2024-05-17 16:57:20.782247,0,0,0,0,0,0,71,72,131,120,56,192.08,208,-14.00,10.00,-984.00
2024-05-17 16:57:20.782460,0,0,0,0,0,0,71,72,131,120,56,192.16,208,-2.00,28.00,-1006.00
2024-05-17 16:57:20.884577,0,0,0,0,0,0,71,72,132,120,56,192.14,208,21.00,0.00,-1007.00
2024-05-17 16:57:20.987191,0,0,0,0,0,0,71,72,132,120,56,192.13,209,5.00,-5.00,-974.00
2024-05-17 16:57:21.088449,0,0,0,0,0,0,71,72,132,120,56,192.14,209,4.00,8.00,-1003.00
2024-05-17 16:57:21.254989,0,0,0,0,0,0,71,72,131,120,56,192.07,209,11.00,15.00,-984.00
2024-05-17 16:57:21.294851,0,0,0,0,0,0,71,72,131,120,56,192.09,209,-9.00,21.00,-992.00
2024-05-17 16:57:21.394517,0,0,0,0,0,0,71,72,131,120,56,192.09,209,8.00,17.00,-1006.00
2024-05-17 16:57:21.496700,0,0,0,0,0,0,71,72,131,120,56,192.11,209,0.00,3.00,-997.00
2024-05-17 16:57:21.598487,0,0,0,0,0,0,70,73,131,120,56,192.04,209,0.00,2.00,-1014.00
2024-05-17 16:57:21.701289,0,0,0,0,0,0,70,73,132,120,56,192.11,209,1.00,9.00,-1015.00
2024-05-17 16:57:21.803609,0,0,0,0,0,0,70,73,132,120,56,192.11,209,-4.00,4.00,-999.00
2024-05-17 16:57:21.908014,0,0,0,0,0,0,70,73,132,120,56,192.08,209,4.00,10.00,-1004.00
2024-05-17 16:57:22.008095,0,0,0,0,0,0,70,73,133,120,56,192.10,210,7.00,9.00,-998.00
2024-05-17 16:57:22.110900,0,0,0,0,0,0,70,73,133,120,56,192.08,210,7.00,2.00,-1017.00
2024-05-17 16:57:22.213581,0,0,0,0,0,0,70,73,133,120,56,192.11,210,-4.00,3.00,-985.00
2024-05-17 16:57:22.313709,0,0,0,0,0,0,70,73,133,120,56,192.11,210,22.00,-1.00,-986.00
2024-05-17 16:57:22.415704,0,0,0,0,0,0,70,73,133,120,56,192.11,210,-23.00,25.00,-987.00
2024-05-17 16:57:22.520496,0,0,0,0,0,0,70,73,134,120,56,192.18,210,-7.00,21.00,-1000.00
2024-05-17 16:57:22.619537,0,0,0,0,0,0,70,73,134,120,56,192.13,210,23.00,-22.00,-995.00
2024-05-17 16:57:22.725200,0,0,0,0,0,0,70,73,134,120,56,192.15,210,-29.00,12.00,-997.00
2024-05-17 16:57:22.823459,0,0,0,0,0,0,70,73,134,120,56,192.10,210,3.00,0.00,-991.00
2024-05-17 16:57:22.930045,0,0,0,0,0,0,70,73,134,120,56,192.09,210,-1.00,10.00,-995.00
2024-05-17 16:57:23.027505,0,0,0,0,0,0,70,73,134,120,56,192.11,211,-1.00,14.00,-994.00
2024-05-17 16:57:23.134735,0,0,0,0,0,0,70,73,134,120,56,192.11,211,2.00,6.00,-992.00
2024-05-17 16:57:23.231571,0,0,0,0,0,0,70,73,134,120,56,192.08,211,-4.00,15.00,-999.00
2024-05-17 16:57:23.334339,0,0,0,0,0,0,70,73,134,120,56,192.09,211,14.00,-4.00,-1005.00
2024-05-17 16:57:23.435221,0,0,0,0,0,0,70,73,134,120,56,192.11,211,11.00,2.00,-986.00
2024-05-17 16:57:23.544323,5,0,0,0,0,0,70,73,135,120,56,192.15,211,0.00,24.00,-992.00
2024-05-17 16:57:23.639308,8,0,0,-1,0,0,70,72,136,120,56,192.17,211,9.00,0.00,-1005.00
2024-05-17 16:57:23.749765,8,0,0,-2,0,0,70,72,136,120,56,192.13,211,13.00,6.00,-1028.00
2024-05-17 16:57:23.843362,8,0,0,-3,0,0,70,72,135,120,56,192.05,211,34.00,6.00,-996.00
2024-05-17 16:57:23.953917,8,0,0,-4,0,0,70,72,135,120,56,192.03,211,34.00,4.00,-1017.00
2024-05-17 16:57:24.049639,8,0,0,-5,0,0,70,72,135,120,56,192.07,212,39.00,3.00,-1005.00
2024-05-17 16:57:24.098291,7,0,0,-6,0,0,70,72,135,120,56,192.05,212,57.00,-6.00,-989.00
2024-05-17 16:57:24.262333,6,0,0,-7,0,0,70,72,135,120,56,192.07,212,52.00,-1.00,-999.00
2024-05-17 16:57:24.302312,5,0,0,-7,0,0,70,72,136,120,56,192.14,212,64.00,0.00,-1005.00
2024-05-17 16:57:24.404227,2,0,0,-8,0,0,70,72,135,120,56,192.05,212,50.00,5.00,-1017.00
2024-05-17 16:57:24.568339,0,0,0,-7,0,0,70,72,135,120,56,191.99,212,23.00,33.00,-996.00
2024-05-17 16:57:24.608583,-3,0,0,-7,0,0,69,73,135,120,56,192.04,212,35.00,18.00,-1018.00
2024-05-17 16:57:24.773093,-4,0,0,-6,0,0,69,73,133,120,56,192.05,212,34.00,4.00,-1001.00
2024-05-17 16:57:24.812802,-4,0,0,-4,0,0,69,73,136,120,56,192.06,212,25.00,-5.00,-1003.00
2024-05-17 16:57:24.915261,-2,0,0,-4,0,0,69,73,137,120,56,192.11,212,27.00,-19.00,-993.00
2024-05-17 16:57:25.016557,-1,0,0,-3,0,0,69,73,136,120,56,192.09,213,42.00,-23.00,-994.00
2024-05-17 16:57:25.118239,0,1,0,-2,0,0,69,73,136,120,56,191.97,213,19.00,-17.00,-1026.00
2024-05-17 16:57:25.285109,0,2,0,-2,0,0,69,73,137,120,56,192.07,213,14.00,-14.00,-1007.00
2024-05-17 16:57:25.322204,0,2,0,-2,0,0,69,73,137,120,56,192.09,213,16.00,6.00,-1005.00
2024-05-17 16:57:25.492130,0,1,0,-2,0,0,69,73,137,120,56,192.05,213,2.00,15.00,-1008.00
2024-05-17 16:57:25.531561,0,-2,0,-2,0,0,69,73,137,120,56,192.16,213,36.00,-16.00,-1006.00
2024-05-17 16:57:25.628180,1,-1,0,-2,0,0,70,72,137,120,56,192.01,213,13.00,-1.00,-1000.00
2024-05-17 16:57:25.731380,0,0,0,-2,0,0,70,72,137,120,56,191.98,213,24.00,-21.00,-1008.00
2024-05-17 16:57:25.832783,-4,0,0,-1,0,0,70,72,137,120,56,192.03,213,5.00,-13.00,-955.00
2024-05-17 16:57:26.002390,-2,0,0,0,0,0,70,72,138,120,56,192.15,213,18.00,-1.00,-984.00
2024-05-17 16:57:26.036124,-1,0,0,0,0,0,70,72,138,120,56,192.04,214,12.00,-7.00,-1005.00
2024-05-17 16:57:26.138387,0,0,0,0,0,0,70,72,138,120,56,192.13,214,-19.00,12.00,-1011.00
2024-05-17 16:57:26.309153,0,0,0,0,0,0,70,72,137,120,56,192.09,214,-1.00,10.00,-1001.00
2024-05-17 16:57:26.343712,0,0,0,0,0,0,70,72,137,120,56,192.13,214,1.00,5.00,-1001.00
2024-05-17 16:57:26.513986,0,0,0,0,0,0,70,72,137,120,56,192.15,214,4.00,7.00,-1001.00
2024-05-17 16:57:26.546435,0,0,0,0,0,0,70,72,137,120,56,192.13,214,-6.00,7.00,-984.00
2024-05-17 16:57:26.719075,0,0,0,0,0,0,71,73,137,120,56,192.08,214,16.00,-16.00,-974.00
2024-05-17 16:57:26.750346,0,0,0,0,0,0,71,73,137,120,56,192.13,214,23.00,-7.00,-998.00
2024-05-17 16:57:26.926678,1,0,0,0,0,0,71,73,137,120,56,192.17,214,-24.00,17.00,-993.00
2024-05-17 16:57:26.955105,1,0,0,0,0,0,71,73,137,120,56,192.11,214,5.00,9.00,-1010.00
2024-05-17 16:57:27.058740,1,0,0,0,0,0,71,73,137,120,56,192.18,215,3.00,8.00,-1011.00
2024-05-17 16:57:27.159245,1,0,0,0,0,0,71,73,137,120,56,192.12,215,23.00,-1.00,-995.00
2024-05-17 16:57:27.333486,1,0,0,0,0,0,71,73,137,120,56,192.10,215,13.00,2.00,-983.00
2024-05-17 16:57:27.363610,1,0,0,0,0,0,71,73,136,120,56,192.17,215,15.00,1.00,-989.00
2024-05-17 16:57:27.537905,1,0,0,0,0,0,71,73,136,120,56,192.15,215,8.00,5.00,-998.00
2024-05-17 16:57:27.567117,1,0,0,0,0,0,71,73,136,120,56,192.11,215,-4.00,28.00,-1003.00
2024-05-17 16:57:27.744416,1,0,0,0,0,0,69,72,136,120,56,192.11,215,20.00,-2.00,-1003.00
2024-05-17 16:57:27.771131,1,0,0,0,0,0,69,72,136,120,56,192.15,215,9.00,16.00,-1009.00
2024-05-17 16:57:27.873207,0,0,0,0,0,0,69,72,136,120,56,192.16,215,16.00,8.00,-994.00
2024-05-17 16:57:28.008491,0,0,0,0,0,0,69,72,135,120,56,192.09,215,12.00,6.00,-999.00
2024-05-17 16:57:28.078555,0,0,0,0,0,0,69,72,135,120,56,192.16,216,0.00,5.00,-996.00
2024-05-17 16:57:28.128029,0,0,0,0,0,0,69,72,135,120,56,192.09,216,6.00,6.00,-1005.00
2024-05-17 16:57:28.254903,0,-4,0,0,0,0,69,72,135,120,56,192.09,216,2.00,5.00,-1012.00
2024-05-17 16:57:28.332014,0,-8,0,0,-1,0,69,72,137,120,56,192.07,216,31.00,-3.00,-1029.00
2024-05-17 16:57:28.459520,0,-7,0,0,-2,0,69,72,135,120,56,191.98,216,13.00,31.00,-1011.00
2024-05-17 16:57:28.536142,0,-4,0,0,-3,0,69,72,136,120,56,192.04,216,5.00,26.00,-1015.00
2024-05-17 16:57:28.664271,0,-2,0,0,-3,0,70,72,135,120,56,191.99,216,18.00,9.00,-1000.00
2024-05-17 16:57:28.740076,0,0,0,0,-3,0,70,72,134,120,56,192.07,216,-9.00,38.00,-988.00
2024-05-17 16:57:28.842238,0,0,0,0,-3,0,70,72,134,120,56,191.97,216,-15.00,33.00,-999.00
2024-05-17 16:57:28.973655,0,0,0,0,-3,0,70,72,134,120,56,192.11,216,-12.00,30.00,-995.00
2024-05-17 16:57:29.046027,0,0,0,0,-2,0,70,72,134,120,56,192.03,217,-3.00,10.00,-990.00
2024-05-17 16:57:29.176286,0,0,0,0,-2,0,70,72,134,120,56,192.01,217,3.00,6.00,-986.00
2024-05-17 16:57:29.250031,0,0,0,0,-2,0,70,72,134,120,56,192.12,217,20.00,4.00,-994.00
2024-05-17 16:57:29.381067,0,0,0,0,-2,0,70,72,133,120,56,192.10,217,-5.00,20.00,-1010.00
2024-05-17 16:57:29.454118,0,0,0,0,-2,0,70,72,132,120,56,192.03,217,6.00,13.00,-999.00
2024-05-17 16:57:29.556053,0,0,0,0,-2,0,70,72,132,120,56,192.05,217,2.00,14.00,-1013.00
2024-05-17 16:57:29.688270,0,0,0,0,-2,0,69,72,131,120,56,192.02,217,-4.00,9.00,-1010.00
2024-05-17 16:57:29.760007,0,0,0,0,-2,0,69,72,132,120,56,192.04,217,1.00,10.00,-1013.00
2024-05-17 16:57:29.893003,0,1,0,0,-2,0,69,72,132,120,56,192.06,217,0.00,8.00,-1005.00
2024-05-17 16:57:29.963984,0,2,0,0,-1,0,69,72,132,120,56,192.05,217,14.00,-5.00,-993.00
2024-05-17 16:57:30.097876,4,3,0,0,-1,0,69,72,132,120,56,192.03,218,-36.00,17.00,-1018.00
2024-05-17 16:57:30.167799,4,1,0,0,0,0,69,72,133,120,56,192.10,218,-11.00,5.00,-1033.00
2024-05-17 16:57:30.302589,0,0,0,-1,0,0,69,72,134,120,55,192.04,218,25.00,7.00,-985.00
2024-05-17 16:57:30.372024,-3,0,0,0,0,0,69,72,133,120,55,192.09,218,1.00,12.00,-1001.00
2024-05-17 16:57:30.507609,-1,0,0,0,0,0,69,72,132,120,55,192.04,218,-4.00,0.00,-998.00
2024-05-17 16:57:30.576126,0,0,0,0,0,0,69,72,133,120,55,192.05,218,20.00,-2.00,-998.00
2024-05-17 16:57:30.716140,0,0,0,0,0,0,69,71,133,120,55,192.00,218,8.00,-6.00,-981.00
2024-05-17 16:57:30.782266,0,0,0,0,0,0,69,71,133,120,55,192.06,218,12.00,14.00,-1001.00
2024-05-17 16:57:30.882433,0,0,0,0,0,0,69,71,132,120,55,192.00,218,21.00,0.00,-972.00
2024-05-17 16:57:31.019551,0,0,0,0,0,0,69,71,132,120,55,192.06,218,19.00,0.00,-1027.00
2024-05-17 16:57:31.086236,0,0,0,0,0,0,69,71,132,120,55,192.01,219,-2.00,10.00,-992.00
2024-05-17 16:57:31.224326,1,0,0,0,0,0,69,71,132,120,55,192.08,219,7.00,3.00,-997.00
2024-05-17 16:57:31.290447,1,0,0,0,0,0,69,71,131,120,55,191.99,219,5.00,4.00,-1008.00
2024-05-17 16:57:31.429198,1,0,0,0,0,0,69,71,131,120,55,191.99,219,18.00,-1.00,-1001.00
2024-05-17 16:57:31.494165,0,0,0,0,0,0,69,71,131,120,55,192.11,219,-12.00,6.00,-1027.00
2024-05-17 16:57:31.599280,0,0,0,0,0,0,69,71,131,120,55,192.06,219,15.00,0.00,-1004.00
2024-05-17 16:57:31.702352,0,0,0,0,0,0,69,71,131,120,55,192.14,219,23.00,-1.00,-1009.00
2024-05-17 16:57:31.799937,0,0,0,0,0,0,69,71,132,120,55,192.07,219,-4.00,11.00,-1022.00
2024-05-17 16:57:31.902098,0,0,0,0,0,0,69,71,132,120,55,192.04,219,-24.00,4.00,-994.00
2024-05-17 16:57:32.049054,0,0,0,0,0,0,69,71,132,120,55,192.09,219,-24.00,23.00,-1016.00
2024-05-17 16:57:32.056521,0,0,0,0,0,0,69,71,133,120,55,192.08,220,-19.00,10.00,-1011.00
2024-05-17 16:57:32.156908,0,-1,0,0,0,0,69,71,133,120,55,192.09,220,-12.00,4.00,-1012.00
2024-05-17 16:57:32.351371,0,0,0,0,0,0,69,71,134,120,55,192.02,220,-20.00,1.00,-1011.00
2024-05-17 16:57:32.361970,0,0,0,0,0,0,69,71,134,120,55,192.05,220,-14.00,6.00,-988.00
2024-05-17 16:57:32.462883,0,0,0,0,0,0,69,71,133,120,55,192.13,220,-12.00,12.00,-996.00
2024-05-17 16:57:32.657845,0,0,0,0,0,0,69,71,133,120,55,192.09,220,-30.00,-6.00,-1044.00
2024-05-17 16:57:32.669027,0,7,0,0,0,0,69,72,135,120,55,192.08,220,-17.00,18.00,-1001.00
2024-05-17 16:57:32.769595,0,8,0,0,1,0,69,72,134,120,55,192.06,220,-22.00,4.00,-1002.00
2024-05-17 16:57:32.871690,0,5,0,0,2,0,69,72,133,120,55,192.08,220,-41.00,0.00,-1042.00
2024-05-17 16:57:33.067472,0,3,0,0,3,0,69,72,134,120,55,192.06,220,-15.00,-7.00,-996.00
2024-05-17 16:57:33.075791,0,0,0,0,3,0,69,72,134,120,55,192.12,221,-27.00,-20.00,-1021.00
2024-05-17 16:57:33.272240,0,-1,0,0,3,0,69,72,134,120,55,192.09,221,-18.00,-16.00,-1004.00
2024-05-17 16:57:33.279745,0,0,0,0,3,0,69,72,135,120,54,192.03,221,-24.00,-6.00,-1007.00
2024-05-17 16:57:33.477036,-1,0,0,0,2,0,69,72,135,120,54,192.09,221,-34.00,-2.00,-1009.00
2024-05-17 16:57:33.483811,-1,0,0,0,2,0,69,72,134,120,54,192.08,221,-25.00,-7.00,-1018.00
2024-05-17 16:57:33.585844,0,0,0,0,2,0,69,72,134,120,54,192.03,221,-3.00,-20.00,-972.00
2024-05-17 16:57:33.688102,0,0,0,0,2,0,69,72,134,120,54,192.07,221,-28.00,-10.00,-975.00
2024-05-17 16:57:33.789867,0,0,0,0,2,0,69,72,135,120,54,192.10,221,3.00,-15.00,-957.00
2024-05-17 16:57:33.892219,0,0,0,0,2,0,69,72,134,120,54,192.04,221,-12.00,-6.00,-1004.00
2024-05-17 16:57:34.091429,0,0,0,0,2,0,69,72,134,120,54,192.00,222,-16.00,-8.00,-990.00
2024-05-17 16:57:34.096923,0,0,0,0,2,0,69,72,134,120,54,192.01,222,-20.00,-8.00,-994.00
2024-05-17 16:57:34.296278,0,0,0,0,2,0,69,72,134,120,54,191.97,222,-16.00,-3.00,-992.00
2024-05-17 16:57:34.299860,0,0,0,0,2,0,69,72,135,120,54,192.05,222,-9.00,-4.00,-1005.00
2024-05-17 16:57:34.401938,0,-3,0,0,2,0,69,72,136,120,54,192.06,222,-3.00,-8.00,-984.00
2024-05-17 16:57:34.503750,0,-5,0,0,1,0,69,72,133,120,54,192.07,222,-8.00,-7.00,-1024.00
2024-05-17 16:57:34.606658,0,-2,0,0,0,0,69,72,136,120,54,192.08,222,-18.00,-6.00,-1014.00
2024-05-17 16:57:34.711241,0,-1,0,0,0,0,69,72,135,120,54,192.06,222,-16.00,11.00,-995.00
2024-05-17 16:57:34.810924,0,-1,0,0,0,0,69,72,135,120,54,192.09,222,-6.00,0.00,-993.00
2024-05-17 16:57:34.912795,0,0,0,0,0,0,69,72,136,120,54,192.08,222,-13.00,14.00,-996.00
2024-05-17 16:57:35.015273,0,0,0,0,0,0,69,72,135,120,54,192.07,223,-1.00,13.00,-1009.00
2024-05-17 16:57:35.117715,0,0,0,0,0,0,69,72,134,120,54,192.14,223,-24.00,18.00,-994.00
2024-05-17 16:57:35.218855,0,0,0,0,0,0,69,72,134,120,54,192.10,223,-21.00,9.00,-1005.00
2024-05-17 16:57:35.423302,0,0,0,0,0,0,69,72,134,120,54,192.08,223,-5.00,2.00,-990.00
2024-05-17 16:57:35.423542,0,0,0,0,0,0,69,72,134,120,54,192.09,223,-1.00,10.00,-1000.00
2024-05-17 16:57:35.525296,0,0,0,0,0,0,69,72,133,120,54,192.10,223,17.00,-14.00,-998.00
2024-05-17 16:57:35.575863,0,0,0,0,0,0,69,72,133,120,54,192.06,223,1.00,16.00,-1023.00
2024-05-17 16:57:35.730183,0,0,0,0,0,0,69,71,133,120,54,192.10,223,12.00,10.00,-1003.00
2024-05-17 16:57:35.832129,0,0,0,0,0,0,69,71,133,120,54,192.13,223,-4.00,4.00,-1005.00
2024-05-17 16:57:35.935377,0,0,0,0,0,0,69,71,133,120,54,192.12,223,-13.00,1.00,-1006.00
2024-05-17 16:57:36.034758,0,0,0,0,0,0,69,71,133,120,54,192.08,224,4.00,3.00,-1004.00
2024-05-17 16:57:36.140323,0,0,0,0,0,0,69,71,133,120,54,192.08,224,-8.00,8.00,-1002.00
2024-05-17 16:57:36.188057,0,0,0,0,0,0,69,71,133,120,54,192.05,224,-9.00,15.00,-995.00
2024-05-17 16:57:36.344397,0,0,0,0,0,0,69,71,133,120,54,192.06,224,2.00,3.00,-1004.00
2024-05-17 16:57:36.393704,0,0,0,0,0,0,69,71,133,120,54,192.05,224,-11.00,17.00,-1006.00
2024-05-17 16:57:36.493702,0,0,0,0,0,0,69,71,133,120,54,192.08,224,47.00,-2.00,-1000.00
2024-05-17 16:57:36.616045,0,0,0,0,0,0,69,71,133,120,54,192.13,224,-5.00,15.00,-996.00
2024-05-17 16:57:36.697719,0,0,0,0,0,0,69,71,133,120,54,192.10,224,16.00,10.00,-1006.00
2024-05-17 16:57:36.856242,0,0,3,0,0,0,69,71,134,120,54,192.09,224,9.00,-8.00,-999.00
2024-05-17 16:57:36.918162,0,0,9,0,0,0,69,71,133,120,54,192.06,224,23.00,-4.00,-991.00
2024-05-17 16:57:37.003648,0,0,15,0,0,0,69,71,133,120,54,192.12,225,35.00,-15.00,-998.00
2024-05-17 16:57:37.163393,0,0,20,0,0,0,69,71,133,120,54,192.12,225,6.00,-6.00,-983.00
2024-05-17 16:57:37.207652,0,0,26,0,0,0,69,71,133,120,54,192.05,225,-6.00,6.00,-1006.00
2024-05-17 16:57:37.368262,0,0,32,0,0,0,69,71,133,120,53,192.12,225,-8.00,4.00,-992.00
2024-05-17 16:57:37.411651,0,0,37,0,0,0,69,71,133,120,53,192.09,225,-23.00,9.00,-1009.00
2024-05-17 16:57:37.572982,0,0,43,0,0,0,69,71,133,120,53,192.07,225,1.00,8.00,-1016.00
2024-05-17 16:57:37.615607,0,0,49,0,0,0,69,71,133,120,53,192.03,225,-1.00,12.00,-1011.00
2024-05-17 16:57:37.782355,0,0,55,0,0,0,69,71,133,120,53,192.03,225,-21.00,31.00,-1021.00
2024-05-17 16:57:37.819852,0,0,60,0,0,0,69,71,132,120,53,192.06,225,4.00,12.00,-1017.00
2024-05-17 16:57:37.921683,0,0,66,0,0,0,69,71,133,120,53,192.10,225,0.00,13.00,-1020.00
2024-05-17 16:57:38.085003,0,0,72,0,0,0,69,71,133,120,53,192.03,226,-14.00,18.00,-999.00
2024-05-17 16:57:38.125553,0,0,78,0,0,0,69,71,132,120,53,192.08,226,-22.00,22.00,-1005.00
2024-05-17 16:57:38.289892,0,0,84,0,0,0,69,71,132,120,53,192.05,226,-36.00,18.00,-992.00
2024-05-17 16:57:38.329573,0,0,89,0,0,0,69,71,132,120,53,192.00,226,-6.00,-9.00,-982.00
2024-05-17 16:57:38.431530,0,0,95,0,0,0,69,71,132,120,53,192.08,226,1.00,-6.00,-999.00
2024-05-17 16:57:38.602603,0,0,101,0,0,0,69,71,132,120,53,192.07,226,3.00,-1.00,-999.00
2024-05-17 16:57:38.635791,0,0,107,0,0,0,69,71,132,120,53,192.06,226,0.00,-3.00,-997.00
2024-05-17 16:57:38.801859,0,0,113,0,0,0,69,71,131,120,53,192.03,226,-18.00,14.00,-1007.00
2024-05-17 16:57:38.839580,0,0,118,0,0,0,69,71,131,120,53,192.00,226,-2.00,-14.00,-1004.00
2024-05-17 16:57:38.942768,0,0,124,0,0,0,69,71,131,120,53,192.04,226,6.00,-11.00,-989.00
2024-05-17 16:57:39.047709,0,0,130,0,0,0,69,71,132,120,53,191.97,227,0.00,-3.00,-994.00
2024-05-17 16:57:39.145588,0,0,136,0,0,0,69,71,132,120,53,191.98,227,-5.00,3.00,-993.00
2024-05-17 16:57:39.313801,0,0,142,0,0,0,69,71,132,120,53,192.06,227,-3.00,0.00,-994.00
2024-05-17 16:57:39.349543,0,0,148,0,0,0,69,71,132,120,53,192.01,227,7.00,1.00,-1010.00
2024-05-17 16:57:39.520533,0,0,154,0,0,0,69,71,132,120,53,192.06,227,-4.00,11.00,-996.00
2024-05-17 16:57:39.553583,0,0,160,0,0,0,69,71,132,120,53,192.03,227,-1.00,-3.00,-1007.00
2024-05-17 16:57:39.727110,0,0,166,0,0,0,69,71,132,120,53,191.99,227,0.00,0.00,-999.00
2024-05-17 16:57:39.757661,0,0,172,0,0,0,69,71,132,120,53,192.09,227,-13.00,-7.00,-996.00
2024-05-17 16:57:39.929941,0,0,178,0,0,0,69,71,132,120,53,192.02,227,-12.00,-4.00,-987.00
2024-05-17 16:57:39.930196,0,0,-175,0,0,0,69,71,132,120,53,192.03,227,-7.00,12.00,-1025.00
2024-05-17 16:57:40.012498,0,0,-169,0,0,0,69,71,132,120,53,192.01,228,-8.00,7.00,-1014.00
2024-05-17 16:57:40.134475,0,0,-163,0,0,0,69,71,132,120,53,191.99,228,-6.00,2.00,-1011.00
2024-05-17 16:57:40.216416,0,0,-158,0,0,0,69,71,132,120,53,192.11,228,0.00,3.00,-999.00
2024-05-17 16:57:40.337814,0,0,-152,0,0,0,69,71,132,120,53,192.05,228,-11.00,19.00,-1006.00
2024-05-17 16:57:40.420657,0,0,-146,0,0,0,69,71,132,120,53,192.08,228,-13.00,-14.00,-984.00
2024-05-17 16:57:40.543839,0,0,-140,0,0,0,69,71,133,120,53,192.06,228,-7.00,19.00,-998.00
2024-05-17 16:57:40.624465,0,0,-134,0,0,0,69,71,133,120,53,192.05,228,-2.00,-10.00,-1003.00
2024-05-17 16:57:40.750618,0,0,-129,0,0,0,69,71,133,120,53,192.10,228,14.00,13.00,-1007.00
2024-05-17 16:57:40.828695,0,0,-123,0,0,0,69,71,133,120,53,192.07,228,-11.00,-2.00,-992.00
2024-05-17 16:57:40.930432,0,0,-117,0,0,0,69,71,133,120,53,192.04,228,18.00,-11.00,-998.00
2024-05-17 16:57:41.055514,0,0,-111,0,0,0,69,71,133,120,53,192.06,229,3.00,18.00,-998.00
2024-05-17 16:57:41.134422,0,0,-105,0,0,0,69,71,133,120,53,192.12,229,-16.00,25.00,-1006.00
2024-05-17 16:57:41.260291,0,0,-99,0,0,0,69,71,133,120,53,192.05,229,1.00,23.00,-1044.00
2024-05-17 16:57:41.338459,0,0,-93,0,0,0,69,71,134,120,53,192.09,229,-16.00,0.00,-1005.00
2024-05-17 16:57:41.440566,0,0,-88,0,0,0,69,71,134,120,53,192.10,229,1.00,11.00,-993.00
2024-05-17 16:57:41.567814,0,0,-82,0,0,0,69,71,134,120,53,192.11,229,-16.00,8.00,-1004.00
2024-05-17 16:57:41.644423,0,0,-76,0,0,0,69,71,135,120,53,192.11,229,-6.00,-1.00,-971.00
2024-05-17 16:57:41.772758,0,0,-70,0,0,0,70,71,134,120,53,192.10,229,-40.00,37.00,-976.00
2024-05-17 16:57:41.848560,0,0,-64,0,0,0,70,71,134,120,53,192.10,229,-14.00,27.00,-1007.00
2024-05-17 16:57:41.950387,0,0,-58,0,0,0,70,71,134,120,53,192.11,229,-3.00,6.00,-1005.00
2024-05-17 16:57:42.081398,0,0,-51,0,0,0,70,71,134,120,53,192.09,230,17.00,-22.00,-1003.00
2024-05-17 16:57:42.154388,0,0,-45,0,0,0,70,71,134,120,53,192.04,230,-21.00,3.00,-982.00
2024-05-17 16:57:42.387535,0,0,-39,0,0,0,70,71,134,120,52,192.10,230,1.00,8.00,-1006.00
2024-05-17 16:57:42.387581,0,0,-33,0,0,0,70,71,134,120,52,192.11,230,-7.00,12.00,-1001.00
2024-05-17 16:57:42.460350,0,0,-28,0,0,0,70,71,133,120,52,192.06,230,5.00,9.00,-985.00
2024-05-17 16:57:42.592047,0,0,-22,0,0,0,70,71,133,120,52,192.09,230,-10.00,21.00,-1018.00
2024-05-17 16:57:42.664495,0,0,-17,0,0,0,70,71,133,120,52,192.06,230,-6.00,9.00,-1009.00
2024-05-17 16:57:42.797690,0,0,-13,0,0,0,69,72,133,120,52,192.11,230,-3.00,-8.00,-1003.00
2024-05-17 16:57:42.868665,0,0,-10,0,0,0,69,72,133,120,52,192.06,230,-20.00,16.00,-994.00
2024-05-17 16:57:43.001903,0,0,-8,0,0,0,69,72,133,120,52,192.02,230,0.00,2.00,-1004.00
2024-05-17 16:57:43.074617,0,0,-6,0,0,0,69,72,133,120,52,192.09,231,-22.00,8.00,-995.00
2024-05-17 16:57:43.174929,0,0,-5,0,0,0,69,72,132,120,52,192.04,231,0.00,17.00,-1014.00
2024-05-17 16:57:43.276500,0,0,-4,0,0,0,69,72,133,120,52,192.00,231,-1.00,6.00,-1006.00
2024-05-17 16:57:43.410767,0,0,-3,0,0,0,69,72,132,120,52,192.04,231,-5.00,0.00,-994.00
2024-05-17 16:57:43.480516,0,0,-2,0,0,0,69,72,133,120,52,192.01,231,-1.00,-17.00,-979.00
2024-05-17 16:57:43.531603,0,0,-2,0,0,0,69,72,133,120,52,192.06,231,7.00,-8.00,-999.00
2024-05-17 16:57:43.718258,0,0,-2,0,0,0,69,72,132,120,52,192.08,231,-12.00,6.00,-1003.00
2024-05-17 16:57:43.786390,0,0,-2,0,0,0,69,71,133,120,52,192.06,231,8.00,-7.00,-981.00
2024-05-17 16:57:43.837306,0,0,-2,0,0,0,69,71,133,120,52,192.07,231,0.00,12.00,-971.00
2024-05-17 16:57:43.939451,0,0,-2,0,0,0,69,71,133,120,52,192.02,231,8.00,7.00,-1002.00
2024-05-17 16:57:44.127312,0,0,-2,0,0,0,69,71,132,120,52,191.98,232,7.00,-16.00,-996.00
2024-05-17 16:57:44.143403,0,0,-2,0,0,0,69,71,132,120,52,192.06,232,0.00,5.00,-1003.00
2024-05-17 16:57:44.331863,0,0,-2,0,0,0,69,71,132,120,52,192.06,232,3.00,13.00,-1006.00
2024-05-17 16:57:44.347257,0,0,-2,0,0,0,69,71,132,120,52,192.03,232,-10.00,15.00,-1000.00
2024-05-17 16:57:44.536859,0,0,-2,0,0,0,69,71,132,120,52,192.06,232,26.00,-4.00,-1003.00
2024-05-17 16:57:44.551199,0,0,-2,0,0,0,69,71,132,120,52,192.06,232,2.00,-1.00,-990.00
2024-05-17 16:57:44.741230,0,0,-2,0,0,0,69,71,132,120,52,192.11,232,12.00,5.00,-1011.00
2024-05-17 16:57:44.755171,0,0,-2,0,0,0,68,71,132,120,52,191.99,232,0.00,-4.00,-995.00
2024-05-17 16:57:44.948434,0,0,-2,0,0,0,68,71,131,120,52,192.05,232,0.00,0.00,-1005.00
2024-05-17 16:57:44.960618,0,0,-2,0,0,0,68,71,131,120,52,192.02,232,-7.00,7.00,-1013.00
2024-05-17 16:57:45.065556,0,0,-2,0,0,0,68,71,131,120,52,192.01,233,-9.00,-2.00,-991.00
2024-05-17 16:57:45.166151,0,0,-2,0,0,0,68,71,131,120,52,192.04,233,1.00,-4.00,-1017.00
2024-05-17 16:57:45.265524,0,0,-2,0,0,0,68,71,131,120,52,192.04,233,-16.00,5.00,-1027.00
2024-05-17 16:57:45.457908,0,0,-2,0,0,0,68,71,131,120,52,192.05,233,2.00,-5.00,-1017.00
2024-05-17 16:57:45.469614,0,0,-2,0,0,0,68,71,132,120,52,192.09,233,-17.00,0.00,-995.00
2024-05-17 16:57:45.571228,0,0,-2,0,0,0,68,71,132,120,52,192.06,233,-19.00,14.00,-978.00
2024-05-17 16:57:45.764982,0,0,-3,0,0,0,68,71,131,120,52,192.00,233,11.00,-7.00,-1004.00
2024-05-17 16:57:45.775227,0,0,-9,0,0,0,70,71,131,120,52,192.13,233,-15.00,14.00,-987.00
2024-05-17 16:57:45.969746,0,0,-15,0,0,0,70,71,131,120,52,192.08,233,-16.00,19.00,-995.00
2024-05-17 16:57:45.979232,0,0,-21,0,0,0,70,71,131,120,52,192.08,233,-9.00,-2.00,-1012.00
2024-05-17 16:57:46.174568,0,0,-28,0,0,0,70,71,132,120,52,192.04,234,20.00,-18.00,-1001.00
2024-05-17 16:57:46.183083,0,0,-34,0,0,0,70,71,131,120,52,192.08,234,-4.00,-5.00,-999.00
2024-05-17 16:57:46.379278,0,0,-40,0,0,0,70,71,131,120,51,192.02,234,0.00,-5.00,-993.00
2024-05-17 16:57:46.387195,0,0,-46,0,0,0,70,71,131,120,51,192.09,234,-18.00,22.00,-1006.00
2024-05-17 16:57:46.584089,0,0,-53,0,0,0,70,71,132,120,51,192.12,234,-22.00,0.00,-990.00
2024-05-17 16:57:46.591178,0,0,-59,0,0,0,70,71,132,120,51,192.07,234,25.00,-18.00,-989.00
2024-05-17 16:57:46.785300,0,0,-65,0,0,0,70,71,132,120,51,192.06,234,18.00,22.00,-1029.00
2024-05-17 16:57:46.795073,0,0,-77,0,0,0,69,71,132,120,51,192.06,234,-28.00,9.00,-993.00
2024-05-17 16:57:46.995992,0,0,-83,0,0,0,69,71,132,120,51,192.08,234,-5.00,12.00,-992.00
2024-05-17 16:57:46.999083,0,0,-89,0,0,0,69,71,132,120,51,192.06,235,-4.00,24.00,-1010.00
2024-05-17 16:57:47.198502,0,0,-95,0,0,0,69,71,132,120,51,192.09,235,-23.00,30.00,-1001.00
2024-05-17 16:57:47.203283,0,0,-101,0,0,0,69,71,132,120,51,192.07,235,0.00,10.00,-1014.00
2024-05-17 16:57:47.403417,0,0,-107,0,0,0,69,71,131,120,51,192.04,235,3.00,17.00,-1005.00
2024-05-17 16:57:47.407093,0,0,-114,0,0,0,69,71,131,120,51,192.04,235,-43.00,45.00,-1000.00
2024-05-17 16:57:47.509238,0,0,-120,0,0,0,69,71,131,120,51,192.06,235,-7.00,-19.00,-971.00
2024-05-17 16:57:47.561042,0,0,-126,0,0,0,69,71,131,120,51,192.12,235,1.00,8.00,-1023.00
2024-05-17 16:57:47.710478,0,0,-132,0,0,0,69,71,132,120,51,192.08,235,24.00,-10.00,-1006.00
2024-05-17 16:57:47.816041,0,0,-138,0,0,0,69,70,132,120,51,192.08,235,-18.00,-17.00,-973.00
2024-05-17 16:57:47.867070,0,0,-144,0,0,0,69,70,132,120,51,192.07,235,-9.00,18.00,-1030.00
2024-05-17 16:57:47.969059,0,0,-150,0,0,0,69,70,132,120,51,191.97,236,-18.00,7.00,-1015.00
2024-05-17 16:57:48.120087,0,0,-156,0,0,0,69,70,132,120,51,192.05,236,31.00,4.00,-996.00
2024-05-17 16:57:48.173011,0,0,-162,0,0,0,69,70,132,120,51,192.11,236,-14.00,15.00,-992.00
2024-05-17 16:57:48.324870,0,0,-168,0,0,0,69,70,132,120,51,192.08,236,-4.00,4.00,-988.00
2024-05-17 16:57:48.378912,0,0,-174,0,0,0,69,70,132,120,51,192.11,236,-9.00,11.00,-977.00
2024-05-17 16:57:48.479063,0,0,179,0,0,0,69,70,132,120,51,192.08,236,2.00,14.00,-996.00
2024-05-17 16:57:48.632084,0,0,173,0,0,0,69,70,132,120,51,192.13,236,28.00,0.00,-1023.00
2024-05-17 16:57:48.683028,0,0,167,0,0,0,69,70,132,120,51,192.07,236,20.00,-14.00,-1031.00
2024-05-17 16:57:48.837006,0,0,161,0,0,0,69,71,132,120,51,192.14,236,6.00,-6.00,-985.00
2024-05-17 16:57:48.887029,0,0,155,0,0,0,69,71,131,120,51,192.04,236,-12.00,17.00,-999.00
2024-05-17 16:57:49.041660,0,0,150,0,0,0,69,71,131,120,51,191.95,237,13.00,-16.00,-983.00
2024-05-17 16:57:49.090962,0,0,144,0,0,0,69,71,131,120,51,192.02,237,32.00,-14.00,-1002.00
2024-05-17 16:57:49.247205,0,0,138,0,0,0,69,71,131,120,51,192.07,237,4.00,20.00,-1010.00
2024-05-17 16:57:49.295452,0,0,133,0,0,0,69,71,131,120,51,192.12,237,-17.00,4.00,-996.00
2024-05-17 16:57:49.451279,0,0,127,0,0,0,69,71,131,120,51,192.10,237,-15.00,0.00,-975.00
2024-05-17 16:57:49.498954,0,0,122,0,0,0,69,71,132,120,51,192.10,237,-13.00,6.00,-998.00
2024-05-17 16:57:49.600964,0,0,116,0,0,0,69,71,133,120,51,192.09,237,9.00,-2.00,-1006.00
2024-05-17 16:57:49.703082,0,0,111,0,0,0,69,71,133,120,51,191.99,237,-5.00,25.00,-995.00
2024-05-17 16:57:49.805029,0,0,105,0,0,0,70,71,133,120,51,192.06,237,16.00,-13.00,-978.00
2024-05-17 16:57:49.963272,0,0,100,0,0,0,70,71,133,120,51,192.04,237,-34.00,11.00,-993.00
2024-05-17 16:57:50.010925,0,0,94,0,0,0,70,71,133,120,51,192.06,238,-20.00,5.00,-1014.00
2024-05-17 16:57:50.113473,0,0,89,0,0,0,70,71,132,120,51,192.03,238,14.00,-15.00,-989.00
2024-05-17 16:57:50.214355,0,0,83,0,0,0,70,71,132,120,51,192.06,238,-1.00,0.00,-1001.00
2024-05-17 16:57:50.372814,0,0,77,0,0,0,70,71,132,120,50,192.08,238,-7.00,19.00,-1006.00
2024-05-17 16:57:50.419121,0,0,72,0,0,0,70,71,132,120,50,192.07,238,21.00,-2.00,-1014.00
2024-05-17 16:57:50.577659,0,0,66,0,0,0,70,71,132,120,50,192.00,238,24.00,-16.00,-1001.00
2024-05-17 16:57:50.623693,0,0,61,0,0,0,70,71,131,120,50,192.10,238,1.00,-3.00,-1010.00
2024-05-17 16:57:50.723840,0,0,55,0,0,0,70,71,131,120,50,192.02,238,13.00,-19.00,-1001.00
2024-05-17 16:57:50.825873,0,0,50,0,0,0,69,72,131,120,50,191.99,238,-2.00,5.00,-1007.00
2024-05-17 16:57:50.988784,0,0,44,0,0,0,69,72,131,120,50,192.12,238,-16.00,21.00,-995.00
2024-05-17 16:57:51.029808,0,0,38,0,0,0,69,72,132,120,50,192.08,239,13.00,6.00,-1003.00
2024-05-17 16:57:51.192095,0,0,32,0,0,0,69,72,132,120,50,192.10,239,0.00,-3.00,-979.00
2024-05-17 16:57:51.233862,0,0,26,0,0,0,69,72,132,120,50,192.06,239,7.00,5.00,-1010.00
2024-05-17 16:57:51.396863,0,0,20,0,0,0,69,72,131,120,50,192.06,239,-9.00,14.00,-1000.00
2024-05-17 16:57:51.437896,0,0,15,0,0,0,69,72,132,120,50,192.09,239,-5.00,0.00,-995.00
2024-05-17 16:57:51.488846,0,0,10,0,0,0,69,72,131,120,50,192.03,239,4.00,2.00,-1016.00
2024-05-17 16:57:51.590792,0,0,7,0,0,0,69,72,131,120,50,192.03,239,15.00,-19.00,-999.00
2024-05-17 16:57:51.704044,0,0,4,0,0,0,69,72,131,120,50,192.06,239,3.00,-7.00,-979.00
2024-05-17 16:57:51.845859,0,0,2,0,0,0,68,71,131,120,50,192.15,239,-1.00,-18.00,-998.00
2024-05-17 16:57:51.897053,0,0,1,0,0,0,68,71,131,120,50,192.17,239,-15.00,12.00,-999.00
2024-05-17 16:57:51.998826,0,0,0,0,0,0,68,71,131,120,50,192.06,240,-13.00,27.00,-1031.00
2024-05-17 16:57:52.113687,0,0,0,0,0,0,68,71,131,120,50,192.10,240,0.00,3.00,-1000.00
2024-05-17 16:57:52.203349,0,0,0,0,0,0,68,71,131,120,50,192.10,240,-9.00,9.00,-1004.00
2024-05-17 16:57:52.318474,0,0,0,0,0,0,68,71,131,120,50,192.00,240,-1.00,6.00,-996.00
2024-05-17 16:57:52.408782,0,0,0,0,0,0,68,71,132,120,50,192.05,240,-14.00,19.00,-1015.00
2024-05-17 16:57:52.509089,0,0,0,0,0,0,68,71,132,120,50,192.06,240,-5.00,7.00,-1015.00
2024-05-17 16:57:52.627245,0,0,0,0,0,0,68,71,132,120,50,192.05,240,-5.00,11.00,-989.00
2024-05-17 16:57:52.713364,0,0,0,0,0,0,68,71,132,120,50,192.10,240,-14.00,14.00,-998.00
2024-05-17 16:57:52.816826,0,0,0,0,0,0,68,71,132,120,50,192.11,240,25.00,-9.00,-984.00
2024-05-17 16:57:52.918708,0,0,0,0,0,0,68,71,132,120,50,192.06,240,-15.00,18.00,-1014.00
2024-05-17 16:57:53.020659,0,0,0,0,0,0,68,71,133,120,50,192.08,241,-4.00,7.00,-1005.00
2024-05-17 16:57:53.122902,0,0,0,0,0,0,68,71,133,120,50,192.09,241,-18.00,25.00,-1023.00
2024-05-17 16:57:53.223517,0,0,0,0,0,0,68,71,133,120,50,192.03,241,12.00,-12.00,-997.00
2024-05-17 16:57:53.342637,0,0,0,0,0,0,68,71,132,120,50,191.98,241,-9.00,3.00,-994.00
2024-05-17 16:57:53.426884,0,0,0,0,0,0,68,71,133,120,50,192.08,241,-25.00,17.00,-1002.00
2024-05-17 16:57:53.547382,0,0,0,0,0,0,68,71,133,120,50,192.03,241,-10.00,10.00,-1012.00
2024-05-17 16:57:53.630902,0,0,0,0,0,0,68,71,132,120,50,192.08,241,-6.00,0.00,-998.00
2024-05-17 16:57:53.752219,0,0,0,0,0,0,68,71,133,120,50,192.01,241,-27.00,16.00,-988.00
2024-05-17 16:57:53.835148,0,0,0,0,0,0,68,70,132,120,50,192.04,241,3.00,4.00,-1002.00
2024-05-17 16:57:53.958402,0,0,0,0,0,0,68,70,132,120,50,192.08,241,32.00,-15.00,-985.00
2024-05-17 16:57:54.041523,0,0,0,0,0,0,68,70,132,120,50,192.02,242,5.00,9.00,-1013.00
2024-05-17 16:57:54.140869,0,0,0,0,0,0,68,70,132,120,50,191.94,242,35.00,-26.00,-1009.00
2024-05-17 16:57:54.243817,0,0,0,0,0,0,68,70,132,120,50,192.01,242,-14.00,13.00,-1007.00
2024-05-17 16:57:54.366708,0,0,0,0,0,0,68,70,132,120,50,192.05,242,14.00,-3.00,-1012.00
2024-05-17 16:57:54.447348,0,0,0,0,0,0,68,70,132,120,50,192.07,242,18.00,-15.00,-996.00
2024-05-17 16:57:54.571527,0,0,0,0,0,0,68,70,132,120,50,192.04,242,4.00,15.00,-1009.00
2024-05-17 16:57:54.650872,0,0,0,0,0,0,68,70,132,120,50,192.00,242,-1.00,0.00,-1011.00
2024-05-17 16:57:54.777095,0,0,0,0,0,0,68,70,132,120,50,192.02,242,-4.00,-3.00,-1019.00
2024-05-17 16:57:54.854843,0,0,0,0,0,0,68,71,132,120,50,192.02,242,17.00,-8.00,-974.00
2024-05-17 16:57:54.956823,0,0,0,0,0,0,68,71,132,120,50,192.01,242,0.00,9.00,-985.00
2024-05-17 16:57:55.083409,0,0,0,0,0,0,68,71,132,120,50,192.03,243,16.00,-7.00,-982.00
2024-05-17 16:57:55.160737,0,0,0,0,0,0,68,71,132,120,50,192.01,243,1.00,-7.00,-997.00
2024-05-17 16:57:55.289299,0,0,0,0,0,0,68,71,133,120,50,192.04,243,1.00,-2.00,-1004.00
2024-05-17 16:57:55.313715,0,0,0,0,0,0,68,71,133,120,50,192.06,243,-4.00,-5.00,-979.00
2024-05-17 16:57:55.493011,0,0,0,0,0,0,68,71,133,120,50,192.05,243,0.00,-1.00,-1004.00
2024-05-17 16:57:55.518411,0,0,0,0,0,0,68,71,133,120,50,192.00,243,-15.00,4.00,-994.00
2024-05-17 16:57:55.619785,0,0,0,0,0,0,68,71,133,120,50,191.96,243,17.00,-18.00,-988.00
2024-05-17 16:57:55.721862,0,0,0,0,0,0,68,71,133,120,50,192.00,243,-22.00,3.00,-1004.00
2024-05-17 16:57:55.879318,0,0,0,0,0,0,69,70,133,120,50,192.06,243,11.00,-8.00,-992.00
2024-05-17 16:57:55.926742,0,0,0,0,0,0,69,70,133,120,50,191.97,243,-12.00,9.00,-991.00
2024-05-17 16:57:56.107481,0,0,0,0,0,0,69,70,132,120,50,192.06,244,-14.00,1.00,-984.00
2024-05-17 16:57:56.130758,0,0,0,0,0,0,69,70,132,120,50,192.08,244,-6.00,12.00,-1004.00
2024-05-17 16:57:56.312193,0,0,0,0,0,0,69,70,132,120,49,192.12,244,-30.00,13.00,-1012.00
2024-05-17 16:57:56.334798,0,0,0,0,0,0,69,70,132,120,49,192.00,244,-40.00,6.00,-1019.00
2024-05-17 16:57:56.517034,0,0,0,0,0,0,69,70,132,120,49,192.09,244,11.00,2.00,-1005.00
2024-05-17 16:57:56.538840,0,0,0,0,0,0,69,70,132,120,49,192.07,244,7.00,-13.00,-998.00
2024-05-17 16:57:56.721733,0,0,0,0,0,0,69,70,132,120,49,192.06,244,8.00,-5.00,-995.00
2024-05-17 16:57:56.742687,0,0,0,0,0,0,69,70,132,120,49,192.08,244,26.00,-18.00,-982.00
2024-05-17 16:57:56.926601,0,0,0,0,0,0,68,70,132,120,49,192.02,244,38.00,-17.00,-998.00
2024-05-17 16:57:56.946893,0,0,0,0,0,0,68,70,133,120,49,192.01,244,16.00,-8.00,-1012.00
2024-05-17 16:57:57.048772,0,0,0,0,0,0,68,70,132,120,49,192.08,245,8.00,-3.00,-970.00
2024-05-17 16:57:57.196717,0,0,0,0,0,0,68,70,132,120,49,192.04,245,-2.00,6.00,-988.00
2024-05-17 16:57:57.253350,0,0,0,0,0,0,68,70,132,120,49,192.06,245,-18.00,8.00,-1001.00
2024-05-17 16:57:57.354757,0,0,0,0,0,0,68,70,132,120,49,192.02,245,-30.00,13.00,-992.00
2024-05-17 16:57:57.456769,0,0,0,0,0,0,68,70,132,120,49,192.04,245,0.00,-5.00,-1005.00
2024-05-17 16:57:57.558707,0,0,0,0,0,0,68,70,133,120,49,192.02,245,27.00,-14.00,-997.00
2024-05-17 16:57:57.745971,0,0,0,0,0,0,68,70,132,120,49,192.08,245,8.00,5.00,-1014.00
2024-05-17 16:57:57.763351,0,0,0,0,0,0,68,70,132,120,49,192.12,245,-8.00,-5.00,-1001.00
2024-05-17 16:57:57.950549,0,0,0,0,0,0,68,70,132,120,49,192.08,245,1.00,-4.00,-983.00
2024-05-17 16:57:57.966603,0,0,0,0,0,0,68,70,132,120,49,191.96,245,0.00,1.00,-1021.00
2024-05-17 16:57:58.155256,0,0,0,0,0,0,68,70,132,120,49,191.99,246,-18.00,2.00,-991.00
2024-05-17 16:57:58.170638,0,0,0,0,0,0,68,70,132,120,49,192.00,246,-8.00,9.00,-1001.00
2024-05-17 16:57:58.359987,0,0,0,0,0,0,68,70,133,120,49,191.96,246,17.00,0.00,-992.00
2024-05-17 16:57:58.379570,0,0,0,0,0,0,68,70,132,120,49,191.97,246,1.00,2.00,-991.00
2024-05-17 16:57:58.477434,0,0,0,0,0,0,68,70,133,120,49,192.04,246,-8.00,7.00,-994.00
2024-05-17 16:57:58.578796,0,0,0,0,0,0,68,70,133,120,49,192.04,246,-4.00,14.00,-1001.00
2024-05-17 16:57:58.770914,0,0,0,0,0,0,68,70,134,120,49,192.00,246,7.00,6.00,-1038.00
2024-05-17 16:57:58.784661,0,0,0,0,0,0,68,70,134,120,49,191.99,246,-21.00,11.00,-1000.00
2024-05-17 16:57:58.887070,0,0,0,0,0,0,68,70,134,120,49,191.97,246,-18.00,13.00,-1000.00
2024-05-17 16:57:58.986658,0,0,0,0,0,0,68,70,134,120,49,192.03,246,-9.00,6.00,-985.00
2024-05-17 16:57:59.179395,-1,0,0,0,0,0,68,70,134,120,49,191.96,247,-21.00,0.00,-992.00
2024-05-17 16:57:59.190960,-1,0,0,0,0,0,68,70,134,120,49,192.05,247,-11.00,7.00,-991.00
2024-05-17 16:57:59.374282,-1,0,0,0,0,0,68,70,134,120,49,191.98,247,-11.00,-8.00,-947.00
2024-05-17 16:57:59.394555,0,0,0,0,0,0,68,70,135,120,49,192.00,247,0.00,-3.00,-1007.00
2024-05-17 16:57:59.445622,0,0,0,0,0,0,68,70,135,120,49,191.97,247,-33.00,15.00,-989.00
2024-05-17 16:57:59.589013,0,0,0,0,0,0,68,70,135,120,49,192.01,247,-12.00,3.00,-985.00
2024-05-17 16:57:59.658661,0,0,0,0,0,0,68,70,135,120,49,192.07,247,-8.00,1.00,-1003.00
2024-05-17 16:57:59.759410,0,0,0,0,0,0,68,70,135,120,49,192.06,247,-17.00,11.00,-1006.00
2024-05-17 16:57:59.853599,0,0,0,0,0,0,68,70,134,120,49,191.97,247,0.00,-12.00,-994.00
2024-05-17 16:57:59.998831,0,0,0,0,0,0,68,70,135,120,49,192.01,247,-20.00,7.00,-989.00
2024-05-17 16:58:00.059555,0,0,0,0,0,0,68,70,134,120,49,192.07,248,-70.00,54.00,-1020.00
2024-05-17 16:58:00.159754,-1,0,0,0,0,0,68,70,135,120,49,191.97,248,-6.00,-5.00,-983.00
2024-05-17 16:58:00.261555,-1,0,0,0,0,0,68,70,135,120,49,191.99,248,-9.00,5.00,-1003.00
2024-05-17 16:58:00.408218,0,0,0,0,0,0,68,70,134,120,49,192.03,248,-4.00,-1.00,-999.00
2024-05-17 16:58:00.465600,0,0,0,0,0,0,68,70,134,120,49,191.97,248,-23.00,14.00,-1014.00
2024-05-17 16:58:00.613390,0,0,0,0,0,0,68,70,134,120,49,191.92,248,-19.00,18.00,-1008.00
2024-05-17 16:58:00.669581,-1,0,0,0,0,0,68,70,134,120,49,192.03,248,-44.00,41.00,-1005.00
2024-05-17 16:58:00.817794,0,0,0,0,0,0,68,70,133,120,49,191.97,248,0.00,7.00,-996.00
2024-05-17 16:58:00.874374,0,0,0,0,0,0,68,70,134,120,49,191.99,248,-29.00,0.00,-1002.00
2024-05-17 16:58:00.975945,0,0,0,0,0,0,68,70,134,120,49,191.91,248,4.00,12.00,-1021.00
2024-05-17 16:58:01.125321,0,0,0,0,0,0,68,70,134,120,49,192.00,249,-27.00,6.00,-1000.00
2024-05-17 16:58:01.179624,0,0,0,0,0,0,68,70,134,120,49,192.03,249,-11.00,2.00,-1002.00
2024-05-17 16:58:01.329743,0,0,0,0,0,0,68,70,134,120,49,191.99,249,-31.00,27.00,-1003.00
2024-05-17 16:58:01.386431,0,0,0,0,0,0,68,70,134,120,49,191.92,249,12.00,3.00,-997.00
2024-05-17 16:58:01.485579,0,0,0,0,0,0,68,70,134,120,49,192.01,249,-12.00,0.00,-992.00
2024-05-17 16:58:01.587523,0,0,0,0,0,0,68,70,134,120,49,192.03,249,-15.00,-6.00,-1006.00
2024-05-17 16:58:01.739376,0,0,0,0,0,0,68,70,134,120,49,191.97,249,-11.00,3.00,-1014.00
2024-05-17 16:58:01.791639,0,0,0,0,0,0,68,70,134,120,49,191.96,249,-23.00,11.00,-1003.00
2024-05-17 16:58:01.893532,0,0,0,0,0,0,68,70,134,120,49,191.98,249,-17.00,15.00,-999.00
2024-05-17 16:58:01.995498,0,0,0,0,0,0,68,70,134,120,49,191.95,250,-5.00,11.00,-1000.00
2024-05-17 16:58:02.149340,0,0,0,0,0,0,68,70,135,120,49,192.03,250,-9.00,9.00,-993.00
2024-05-17 16:58:02.199470,0,0,0,0,0,0,68,70,135,120,49,191.96,250,9.00,12.00,-997.00
2024-05-17 16:58:02.354234,0,0,0,0,0,0,68,70,135,120,48,192.02,250,-18.00,-2.00,-988.00
2024-05-17 16:58:02.405432,0,0,0,0,0,0,68,70,135,120,48,192.06,250,-20.00,-3.00,-975.00
2024-05-17 16:58:02.505610,0,0,0,0,0,0,68,70,135,120,48,192.01,250,-10.00,4.00,-995.00
2024-05-17 16:58:02.661347,0,0,0,0,0,0,68,70,135,120,48,192.00,250,-26.00,16.00,-997.00
2024-05-17 16:58:02.709625,0,0,0,0,0,0,68,70,134,120,48,191.99,250,-11.00,10.00,-997.00
2024-05-17 16:58:02.865845,0,0,0,0,0,0,68,70,135,120,48,192.03,250,-16.00,-12.00,-988.00
2024-05-17 16:58:02.913472,0,0,0,0,0,0,68,70,135,120,48,192.07,250,-7.00,0.00,-973.00
2024-05-17 16:58:03.015446,0,0,0,0,0,0,68,70,134,120,48,191.95,251,-21.00,13.00,-1011.00
2024-05-17 16:58:03.172908,0,0,0,0,0,0,68,70,135,120,48,192.00,251,-8.00,-4.00,-990.00
2024-05-17 16:58:03.219289,0,0,0,0,0,0,68,70,135,120,48,192.04,251,-15.00,3.00,-989.00
2024-05-17 16:58:03.270468,0,0,0,0,0,0,68,70,134,120,48,192.02,251,-13.00,3.00,-988.00
2024-05-17 16:58:03.378077,0,0,0,0,0,0,68,70,134,120,48,192.02,251,-10.00,13.00,-983.00
2024-05-17 16:58:03.474570,0,0,0,0,0,0,68,70,134,120,48,192.03,251,4.00,7.00,-1023.00
2024-05-17 16:58:03.576493,0,0,0,0,0,0,68,70,133,120,48,192.02,251,-4.00,-16.00,-991.00
2024-05-17 16:58:03.678410,0,0,0,0,0,0,68,70,134,120,48,192.01,251,-30.00,-3.00,-1002.00
2024-05-17 16:58:03.791101,0,0,0,0,0,0,68,70,134,120,48,192.03,251,-37.00,31.00,-981.00
2024-05-17 16:58:03.882422,0,0,0,0,0,0,68,71,134,120,48,191.98,251,-7.00,7.00,-1011.00
2024-05-17 16:58:03.984389,0,0,0,0,0,0,68,71,134,120,48,192.01,252,-40.00,-3.00,-996.00
2024-05-17 16:58:04.094453,0,0,0,0,0,0,68,71,134,120,48,192.00,252,-14.00,12.00,-992.00
2024-05-17 16:58:04.189068,0,0,0,0,0,0,68,71,133,120,48,192.01,252,-10.00,0.00,-1004.00
2024-05-17 16:58:04.299409,0,0,0,0,0,0,68,71,133,120,48,191.98,252,-16.00,37.00,-982.00
2024-05-17 16:58:04.392324,0,0,0,0,0,0,68,71,133,120,48,191.99,252,-15.00,2.00,-994.00
2024-05-17 16:58:04.504188,0,0,0,0,0,0,68,71,133,120,48,192.01,252,-21.00,3.00,-1014.00
2024-05-17 16:58:04.596363,0,0,0,0,0,0,68,71,133,120,48,192.08,252,-10.00,9.00,-990.00
2024-05-17 16:58:04.709289,0,0,0,0,0,0,68,71,133,120,48,192.08,252,-20.00,9.00,-995.00
2024-05-17 16:58:04.800275,0,0,0,0,0,0,68,71,134,120,48,192.05,252,-14.00,12.00,-1029.00
2024-05-17 16:58:04.913752,0,0,0,0,0,0,68,70,134,120,48,192.05,252,-1.00,5.00,-998.00
2024-05-17 16:58:05.004418,0,0,0,0,0,0,68,70,134,120,48,192.06,253,0.00,10.00,-1005.00
2024-05-17 16:58:05.118660,0,0,0,0,0,0,68,70,134,120,48,192.04,253,6.00,6.00,-1030.00
2024-05-17 16:58:05.208485,0,0,0,0,0,0,68,70,134,120,48,192.02,253,-2.00,1.00,-1011.00
2024-05-17 16:58:05.310237,0,0,0,0,0,0,68,70,134,120,48,191.95,253,4.00,7.00,-989.00
2024-05-17 16:58:05.426349,0,0,0,0,0,0,68,70,134,120,48,192.06,253,-17.00,19.00,-999.00
2024-05-17 16:58:05.514456,0,0,0,0,0,0,68,70,134,120,48,192.03,253,-15.00,18.00,-1018.00
2024-05-17 16:58:05.633410,0,0,0,0,0,0,68,70,133,120,48,192.05,253,-35.00,10.00,-1006.00
2024-05-17 16:58:05.718402,0,0,0,0,0,0,68,70,133,120,48,192.06,253,-28.00,30.00,-990.00
2024-05-17 16:58:05.820339,0,0,0,0,0,0,68,70,133,120,48,191.99,253,-17.00,21.00,-1017.00
2024-05-17 16:58:05.922549,0,0,0,0,0,0,69,71,133,120,48,192.01,253,-23.00,8.00,-1030.00
2024-05-17 16:58:06.025995,0,0,0,0,0,0,69,71,134,120,48,192.03,254,-5.00,4.00,-1009.00
2024-05-17 16:58:06.127681,0,0,0,0,0,0,69,71,133,120,48,192.00,254,-32.00,23.00,-1011.00
2024-05-17 16:58:06.229469,0,0,0,0,0,0,69,71,133,120,48,192.02,254,-11.00,21.00,-997.00
2024-05-17 16:58:06.331696,-1,0,0,0,0,0,69,71,133,120,48,192.08,254,5.00,14.00,-988.00
2024-05-17 16:58:06.433820,0,0,0,0,0,0,69,71,133,120,48,191.99,254,4.00,-10.00,-985.00
2024-05-17 16:58:06.534121,0,0,0,0,0,0,69,71,132,120,48,192.06,254,5.00,9.00,-1013.00
2024-05-17 16:58:06.654320,0,0,0,0,0,0,69,71,132,120,48,192.11,254,3.00,-1.00,-1008.00
2024-05-17 16:58:06.740932,0,0,0,0,0,0,69,71,132,120,48,192.04,254,1.00,-10.00,-969.00
2024-05-17 16:58:06.840538,0,0,0,0,0,0,69,71,132,120,48,192.06,254,8.00,-10.00,-896.00
2024-05-17 16:58:06.963117,0,0,0,0,0,1,68,71,131,120,48,191.98,254,-12.00,-1.00,-920.00
2024-05-17 16:58:07.045817,0,0,0,0,0,1,68,71,129,120,48,192.00,255,-6.00,0.00,-932.00
2024-05-17 16:58:07.096152,0,0,0,0,0,2,68,71,127,120,48,191.98,255,-41.00,25.00,-898.00
2024-05-17 16:58:07.268752,0,0,0,0,0,3,68,71,124,110,48,191.91,255,-17.00,-9.00,-893.00
2024-05-17 16:58:07.300084,0,0,0,0,0,4,68,71,120,110,48,191.87,255,-25.00,14.00,-902.00
2024-05-17 16:58:07.473564,0,0,0,0,0,5,68,71,115,110,48,191.81,255,1.00,11.00,-903.00
2024-05-17 16:58:07.504987,0,0,0,0,0,6,68,71,109,100,48,191.87,255,-16.00,-16.00,-915.00
2024-05-17 16:58:07.606311,0,0,0,0,0,6,68,71,102,90,48,191.74,255,-36.00,10.00,-938.00
2024-05-17 16:58:07.780673,0,0,0,0,0,7,68,71,94,90,48,191.62,255,-15.00,-10.00,-1014.00
2024-05-17 16:58:07.810066,0,0,0,0,0,7,68,71,87,80,48,191.64,255,17.00,-22.00,-988.00
2024-05-17 16:58:07.985524,0,0,0,0,0,6,68,70,80,70,48,191.62,255,-50.00,26.00,-1067.00
2024-05-17 16:58:08.014096,0,0,0,0,0,6,68,70,73,70,48,191.53,256,-22.00,4.00,-1025.00
2024-05-17 16:58:08.191072,0,0,0,0,0,6,68,70,67,60,48,191.41,256,-43.00,24.00,-1057.00
2024-05-17 16:58:08.218052,0,0,0,0,0,5,68,70,63,50,47,191.33,256,19.00,-21.00,-1050.00
2024-05-17 16:58:08.395123,0,0,0,0,0,5,68,70,57,50,47,191.33,256,-42.00,23.00,-1030.00
2024-05-17 16:58:08.422040,0,0,0,0,0,5,68,70,51,40,47,191.25,256,0.00,-16.00,-1023.00
2024-05-17 16:58:08.620880,0,0,0,0,0,5,68,70,46,40,47,191.24,256,-20.00,15.00,-969.00
2024-05-17 16:58:08.625998,0,0,0,0,0,4,68,70,42,30,47,191.20,256,-31.00,16.00,-1025.00
2024-05-17 16:58:08.804722,-1,0,0,0,0,4,68,70,37,30,47,191.16,256,-59.00,41.00,-987.00
2024-05-17 16:58:08.829980,-1,-1,0,0,0,4,68,70,33,20,47,191.12,256,-34.00,1.00,-1008.00
2024-05-17 16:58:09.009525,-2,-1,0,0,0,4,68,70,27,20,47,190.99,256,-42.00,21.00,-1026.00
2024-05-17 16:58:09.033969,-2,0,0,0,0,4,68,70,23,10,47,190.93,257,-6.00,-16.00,-995.00
2024-05-17 16:58:09.214324,-1,0,0,0,0,4,68,70,18,10,47,190.76,257,34.00,-26.00,-1012.00
2024-05-17 16:58:09.238024,0,0,0,0,0,4,68,70,14,0,47,190.25,257,-22.00,7.00,-1013.00
2024-05-17 16:58:09.421173,-1,0,0,0,0,3,68,70,10,0,47,189.72,257,-2.00,-1.00,-1058.00
2024-05-17 16:58:09.442094,-1,0,0,0,0,3,68,70,10,0,47,188.70,257,-5.00,2.00,-1031.00
2024-05-17 16:58:09.623961,0,0,0,0,0,2,68,70,10,0,47,186.93,257,-21.00,3.00,-1066.00
2024-05-17 16:58:09.645980,-1,0,0,0,0,-1,68,70,10,0,47,188.32,257,-2.00,-15.00,-968.00
2024-05-17 16:58:09.828794,-1,0,-1,0,0,0,68,70,10,0,47,187.92,257,15.00,0.00,-774.00
2024-05-17 16:58:09.849928,0,0,-1,0,0,0,68,70,10,0,47,188.16,257,-34.00,12.00,-891.00
2024-05-17 16:58:10.033525,0,0,-1,0,0,0,68,70,10,0,47,188.82,257,-16.00,38.00,-943.00
2024-05-17 16:58:10.053903,0,0,0,0,0,0,68,70,10,0,47,189.37,258,0.00,9.00,-1042.00
2024-05-17 16:58:10.238295,0,0,0,0,0,0,68,70,10,0,47,189.71,258,15.00,9.00,-1000.00
2024-05-17 16:58:10.257998,0,0,0,0,0,0,68,70,10,0,47,189.87,258,-6.00,1.00,-997.00
2024-05-17 16:58:10.443125,0,0,0,0,0,0,68,70,10,0,47,190.01,258,2.00,10.00,-1001.00
2024-05-17 16:58:10.461928,0,0,0,0,0,0,68,70,10,0,47,190.09,258,-2.00,-5.00,-997.00
2024-05-17 16:58:10.647834,0,0,0,0,0,0,68,70,10,0,47,190.06,258,3.00,-1.00,-995.00
2024-05-17 16:58:10.647913,0,0,0,0,0,0,68,70,10,0,47,190.20,258,1.00,-6.00,-996.00
2024-05-17 16:58:10.716971,0,0,0,0,0,0,68,70,10,0,47,190.37,258,9.00,-5.00,-996.00
2024-05-17 16:58:10.853086,0,0,0,0,0,0,68,70,10,0,47,190.50,258,10.00,8.00,-996.00
2024-05-17 16:58:10.972102,0,0,0,0,0,1,68,70,10,0,47,190.60,258,9.00,4.00,-994.00
2024-05-17 16:58:11.074522,0,0,0,0,0,1,68,70,10,0,47,190.62,258,1.00,0.00,-1004.00
2024-05-17 16:58:11.124989,0,0,0,0,0,1,68,70,10,0,47,190.63,258,7.00,6.00,-989.00
