TS,pitch,roll,yaw,vgx,vgy,vgz,templ,temph,tof,h,bat,baro,time,agx,agy,agz
2024-05-17 16:58:35.352847,0,0,-3,0,0,0,73,74,10,0,47,190.56,258,7.00,6.00,-1001.00
2024-05-17 16:58:35.531205,0,0,-3,0,0,0,73,74,10,0,47,190.58,258,7.00,3.00,-1002.00
2024-05-17 16:58:35.556794,0,0,-3,0,0,0,73,74,10,0,47,190.53,258,7.00,4.00,-997.00
2024-05-17 16:58:35.735776,0,0,-3,0,0,0,73,74,10,0,47,190.54,258,8.00,5.00,-998.00
2024-05-17 16:58:35.760706,0,0,-3,0,0,0,73,74,10,0,47,190.57,258,10.00,5.00,-998.00
2024-05-17 16:58:35.941331,0,0,-3,0,0,0,73,74,10,0,47,190.57,258,7.00,7.00,-1001.00
2024-05-17 16:58:35.964840,0,0,-3,0,0,0,73,74,10,0,47,190.59,258,7.00,6.00,-998.00
2024-05-17 16:58:36.145644,0,0,-3,0,0,0,72,74,10,0,47,190.62,258,7.00,5.00,-999.00
2024-05-17 16:58:36.168689,0,0,-3,0,0,0,72,74,10,0,47,190.51,258,7.00,5.00,-1001.00
2024-05-17 16:58:36.350080,0,0,-3,0,0,0,72,74,10,0,47,190.53,258,8.00,6.00,-1000.00
2024-05-17 16:58:36.372663,0,0,-3,0,0,0,72,74,10,0,47,190.56,258,7.00,4.00,-997.00
2024-05-17 16:58:36.496608,0,0,-3,0,0,0,72,74,10,0,47,190.57,258,7.00,5.00,-1001.00
2024-05-17 16:58:36.576821,0,0,-3,0,0,0,72,74,10,0,47,190.57,258,10.00,5.00,-999.00
2024-05-17 16:58:36.763209,0,0,-3,0,0,0,72,74,10,0,47,190.51,258,7.00,4.00,-1001.00
2024-05-17 16:58:36.780757,0,0,-3,0,0,0,72,74,10,0,47,190.57,258,8.00,4.00,-1001.00
2024-05-17 16:58:36.882975,0,0,-3,0,0,0,72,74,10,0,47,190.54,258,8.00,6.00,-1001.00
2024-05-17 16:58:37.067666,0,0,-3,0,0,0,72,74,10,0,47,190.49,258,7.00,6.00,-999.00
2024-05-17 16:58:37.086559,0,0,-3,0,0,0,72,74,10,0,47,190.52,258,7.00,5.00,-1000.00
2024-05-17 16:58:37.271778,0,0,-3,0,0,0,72,74,10,0,47,190.57,258,8.00,5.00,-1001.00
2024-05-17 16:58:37.293489,0,0,-3,0,0,0,72,74,10,0,47,190.59,258,8.00,5.00,-999.00
2024-05-17 16:58:37.392848,0,0,-3,0,0,0,72,74,10,0,47,190.56,258,7.00,6.00,-999.00
2024-05-17 16:58:37.579160,0,0,-3,0,0,0,72,74,10,0,47,190.54,258,9.00,5.00,-999.00
2024-05-17 16:58:37.596727,0,0,-3,0,0,0,72,74,10,0,47,190.52,258,8.00,5.00,-999.00
2024-05-17 16:58:37.785340,0,0,-3,0,0,0,72,74,10,0,47,190.55,258,8.00,4.00,-1000.00
2024-05-17 16:58:37.800778,0,0,-3,0,0,0,72,74,10,0,47,190.55,258,8.00,5.00,-1001.00
2024-05-17 16:58:37.989143,0,0,-3,0,0,0,72,74,10,0,47,190.58,258,8.00,5.00,-1001.00
2024-05-17 16:58:37.989404,0,0,-3,0,0,0,72,74,10,0,47,190.53,258,8.00,5.00,-1002.00
2024-05-17 16:58:38.106804,0,0,-3,0,0,0,72,74,10,0,47,190.56,258,9.00,5.00,-998.00
2024-05-17 16:58:38.208847,0,0,-3,0,0,0,72,74,10,0,47,190.54,258,8.00,5.00,-998.00
2024-05-17 16:58:38.259755,0,0,-3,0,0,0,72,74,10,0,47,190.52,258,8.00,4.00,-1000.00
2024-05-17 16:58:38.361589,0,0,-3,0,0,0,72,74,10,0,47,190.52,258,9.00,5.00,-1001.00
2024-05-17 16:58:38.500565,0,0,-3,0,0,0,72,74,10,0,47,190.53,258,9.00,3.00,-1000.00
2024-05-17 16:58:38.565979,0,0,-3,0,0,0,72,74,10,0,47,190.53,258,7.00,6.00,-998.00
2024-05-17 16:58:38.705371,0,0,-3,0,0,0,72,74,10,0,47,190.53,258,3.00,6.00,-999.00
2024-05-17 16:58:38.771050,0,0,-2,0,0,0,72,74,10,0,47,190.53,259,12.00,-5.00,-1009.00
2024-05-17 16:58:38.871565,0,0,0,0,0,0,72,74,10,0,47,190.53,259,23.00,-29.00,-999.00
2024-05-17 16:58:38.973577,0,0,0,0,0,0,72,74,10,0,47,190.53,259,-9.00,10.00,-1007.00
2024-05-17 16:58:39.076293,1,0,0,0,0,0,72,75,10,0,47,190.53,259,-17.00,23.00,-1156.00
2024-05-17 16:58:39.177564,1,0,0,0,0,-3,72,75,10,0,47,190.53,259,28.00,6.00,-1279.00
2024-05-17 16:58:39.319721,0,1,0,0,0,-5,72,75,11,0,47,190.53,259,-5.00,-11.00,-1271.00
2024-05-17 16:58:39.381580,-1,1,0,0,0,-6,72,75,18,0,47,190.74,259,-2.00,2.00,-1111.00
2024-05-17 16:58:39.524560,-1,0,0,0,0,-7,72,75,26,0,47,190.84,259,-17.00,-6.00,-1057.00
2024-05-17 16:58:39.585529,0,0,0,0,0,-7,72,75,33,10,47,190.96,259,-3.00,-5.00,-1020.00
2024-05-17 16:58:39.729411,0,0,0,0,0,-6,72,75,42,10,47,191.05,259,-5.00,-7.00,-972.00
2024-05-17 16:58:39.789796,0,0,0,0,0,-6,72,75,49,20,47,191.06,260,3.00,-15.00,-951.00
2024-05-17 16:58:39.934190,0,0,0,0,0,-5,72,75,57,30,47,191.21,260,0.00,-6.00,-918.00
2024-05-17 16:58:39.994387,-2,0,0,0,0,-4,72,75,64,30,47,191.30,260,-7.00,13.00,-916.00
2024-05-17 16:58:40.095518,-1,0,0,0,0,-3,73,75,70,30,47,191.36,260,-18.00,4.00,-916.00
2024-05-17 16:58:40.241369,-1,0,0,0,0,-2,73,75,75,40,47,191.43,260,-28.00,47.00,-902.00
2024-05-17 16:58:40.299512,-1,0,0,0,0,-1,73,75,79,40,47,191.41,260,-12.00,-10.00,-895.00
2024-05-17 16:58:40.446140,-1,0,0,0,0,0,73,75,82,40,47,191.48,260,-30.00,6.00,-902.00
2024-05-17 16:58:40.505485,0,0,0,0,0,0,73,75,85,40,47,191.55,260,29.00,-34.00,-917.00
2024-05-17 16:58:40.605667,0,0,0,0,0,0,73,75,88,50,47,191.49,260,46.00,-31.00,-938.00
2024-05-17 16:58:40.753360,-1,0,0,0,0,0,73,75,89,50,47,191.54,260,5.00,1.00,-939.00
2024-05-17 16:58:40.809527,-1,0,0,0,0,0,73,75,90,50,47,191.58,261,-13.00,7.00,-958.00
2024-05-17 16:58:40.958139,0,0,0,0,0,0,73,75,92,50,47,191.60,261,8.00,6.00,-960.00
2024-05-17 16:58:41.014678,0,0,0,0,0,0,73,75,92,50,47,191.55,261,-2.00,2.00,-966.00
2024-05-17 16:58:41.115580,0,0,0,0,0,0,72,75,93,50,47,191.59,261,12.00,0.00,-989.00
2024-05-17 16:58:41.265351,0,0,0,0,0,0,72,75,94,50,47,191.63,261,-4.00,-10.00,-966.00
2024-05-17 16:58:41.319528,0,0,0,0,0,0,72,75,94,50,47,191.61,261,-2.00,-20.00,-966.00
2024-05-17 16:58:41.470986,0,0,0,0,0,0,72,75,94,50,47,191.59,261,5.00,-15.00,-933.00
2024-05-17 16:58:41.523487,0,0,0,0,0,0,72,75,93,50,47,191.52,261,0.00,8.00,-992.00
2024-05-17 16:58:41.625508,0,0,0,0,0,0,72,75,93,50,47,191.53,261,-12.00,14.00,-998.00
2024-05-17 16:58:41.777340,0,0,0,0,0,0,72,75,92,50,47,191.61,261,-3.00,-6.00,-987.00
2024-05-17 16:58:41.829463,0,0,0,0,0,0,72,75,91,50,47,191.63,262,-18.00,-5.00,-977.00
2024-05-17 16:58:41.982116,0,0,0,0,0,0,72,75,91,50,47,191.57,262,3.00,-7.00,-995.00
2024-05-17 16:58:42.033404,0,0,0,0,0,0,72,75,90,50,47,191.60,262,4.00,-3.00,-981.00
2024-05-17 16:58:42.135441,0,0,0,0,0,1,72,75,89,50,47,191.54,262,0.00,2.00,-986.00
2024-05-17 16:58:42.289326,0,0,0,0,0,1,72,75,88,50,47,191.55,262,2.00,-10.00,-992.00
2024-05-17 16:58:42.289369,0,0,0,0,0,1,72,75,87,50,47,191.54,262,0.00,-7.00,-1000.00
2024-05-17 16:58:42.393767,0,0,0,0,0,1,72,75,85,50,47,191.48,262,2.00,1.00,-993.00
2024-05-17 16:58:42.492360,0,0,0,0,0,1,72,75,84,50,47,191.50,262,-1.00,1.00,-1017.00
2024-05-17 16:58:42.596548,0,0,0,0,0,0,72,75,83,50,47,191.47,262,1.00,0.00,-1011.00
2024-05-17 16:58:42.696395,0,0,0,0,0,0,72,75,82,50,47,191.53,262,3.00,16.00,-1023.00
2024-05-17 16:58:42.803921,0,0,0,0,0,0,72,75,81,50,47,191.48,263,-14.00,-6.00,-1033.00
2024-05-17 16:58:42.900476,0,0,0,0,0,0,72,75,80,50,47,191.53,263,32.00,-21.00,-1009.00
2024-05-17 16:58:43.006123,0,0,0,0,0,0,72,75,79,50,47,191.52,263,-9.00,2.00,-995.00
2024-05-17 16:58:43.104391,0,0,0,0,0,0,72,74,78,50,47,191.49,263,-7.00,-3.00,-997.00
2024-05-17 16:58:43.210996,0,0,0,0,0,0,72,74,77,40,47,191.44,263,13.00,-1.00,-1003.00
2024-05-17 16:58:43.309739,0,0,0,0,0,0,72,74,77,40,47,191.44,263,0.00,-9.00,-1009.00
2024-05-17 16:58:43.410392,0,0,0,0,0,0,72,74,76,40,47,191.39,263,-4.00,-2.00,-1018.00
2024-05-17 16:58:43.518123,0,0,0,0,0,0,72,74,76,40,47,191.42,263,11.00,0.00,-1042.00
2024-05-17 16:58:43.614352,0,0,0,0,0,0,72,74,75,40,47,191.39,263,1.00,-7.00,-1015.00
2024-05-17 16:58:43.727863,0,0,0,0,0,0,72,74,74,40,47,191.40,263,-4.00,-15.00,-983.00
2024-05-17 16:58:43.818310,0,0,0,0,0,0,72,74,74,40,47,191.35,264,5.00,2.00,-1027.00
2024-05-17 16:58:43.928930,0,0,0,0,0,0,72,74,74,40,47,191.41,264,1.00,-2.00,-1017.00
2024-05-17 16:58:44.022342,0,0,0,0,0,0,72,74,74,40,47,191.42,264,3.00,3.00,-1026.00
2024-05-17 16:58:44.124299,0,0,0,0,0,0,71,74,74,40,47,191.40,264,0.00,-4.00,-996.00
2024-05-17 16:58:44.236103,0,0,0,0,0,0,71,74,74,40,47,191.34,264,27.00,-17.00,-1022.00
2024-05-17 16:58:44.328305,0,0,0,0,0,0,71,74,74,40,47,191.44,264,-3.00,-10.00,-996.00
2024-05-17 16:58:44.441206,0,0,0,0,0,0,71,74,75,40,47,191.44,264,4.00,-10.00,-990.00
2024-05-17 16:58:44.532379,0,0,0,0,0,0,71,74,75,40,47,191.42,264,4.00,10.00,-1011.00
2024-05-17 16:58:44.645710,0,0,0,0,0,0,71,74,75,40,47,191.41,264,-10.00,3.00,-997.00
2024-05-17 16:58:44.736500,0,0,0,0,0,0,71,74,76,40,47,191.39,264,-2.00,-3.00,-989.00
2024-05-17 16:58:44.849468,0,0,0,0,0,0,71,74,76,40,47,191.50,265,7.00,-9.00,-1002.00
2024-05-17 16:58:44.942978,0,0,0,0,0,0,71,74,76,40,47,191.49,265,2.00,0.00,-999.00
2024-05-17 16:58:45.042824,0,0,0,0,0,0,71,74,76,40,47,191.50,265,-4.00,0.00,-1000.00
2024-05-17 16:58:45.147999,0,0,0,0,0,0,72,73,76,40,47,191.47,265,0.00,-5.00,-1011.00
2024-05-17 16:58:45.246886,0,0,0,0,0,0,72,73,77,40,47,191.49,265,-6.00,0.00,-1000.00
2024-05-17 16:58:45.361393,0,0,0,0,0,0,72,73,77,40,47,191.52,265,-3.00,-4.00,-1009.00
2024-05-17 16:58:45.451411,0,0,0,0,0,0,72,73,77,40,47,191.44,265,-15.00,10.00,-992.00
2024-05-17 16:58:45.567066,0,0,0,0,0,0,72,73,77,40,47,191.44,265,29.00,-5.00,-990.00
2024-05-17 16:58:45.654290,0,0,0,0,0,0,72,73,77,40,47,191.45,265,1.00,-9.00,-989.00
2024-05-17 16:58:45.775474,0,0,0,0,0,0,72,73,77,40,47,191.48,265,-4.00,6.00,-1001.00
2024-05-17 16:58:45.858407,0,0,0,0,0,0,72,73,77,40,47,191.40,266,-24.00,0.00,-1007.00
2024-05-17 16:58:45.909367,0,0,0,0,0,0,72,73,77,40,47,191.50,266,13.00,-4.00,-989.00
2024-05-17 16:58:46.078353,0,0,0,0,0,0,72,73,78,40,47,191.49,266,11.00,-4.00,-993.00
2024-05-17 16:58:46.113405,0,0,0,0,0,0,71,73,78,40,47,191.46,266,-9.00,3.00,-1008.00
2024-05-17 16:58:46.282859,0,0,0,0,0,0,71,73,77,40,47,191.47,266,-7.00,-7.00,-985.00
2024-05-17 16:58:46.317331,0,0,0,0,0,0,71,73,78,40,47,191.49,266,0.00,1.00,-1000.00
2024-05-17 16:58:46.488857,0,0,0,0,0,0,71,73,78,40,47,191.48,266,-1.00,-7.00,-1017.00
2024-05-17 16:58:46.521191,0,0,0,0,0,0,71,73,78,40,47,191.51,266,1.00,9.00,-1094.00
2024-05-17 16:58:46.623145,0,0,0,0,0,-1,71,73,80,40,47,191.51,266,-2.00,7.00,-1115.00
2024-05-17 16:58:46.794924,0,0,0,0,0,-2,71,73,82,50,47,191.54,266,-2.00,1.00,-1093.00
2024-05-17 16:58:46.827841,0,0,0,0,0,-3,71,73,85,50,47,191.58,267,1.00,6.00,-1102.00
2024-05-17 16:58:46.999742,0,0,0,0,0,-4,71,73,90,50,47,191.63,267,-9.00,8.00,-1076.00
2024-05-17 16:58:47.032638,0,0,0,0,0,-4,71,73,94,60,47,191.70,267,4.00,8.00,-1040.00
2024-05-17 16:58:47.133190,0,0,0,0,0,-5,72,74,99,60,47,191.75,267,-12.00,8.00,-1084.00
2024-05-17 16:58:47.306969,0,0,0,0,0,-5,72,74,103,70,47,191.76,267,10.00,-4.00,-1038.00
2024-05-17 16:58:47.337201,0,0,0,0,0,-5,72,74,109,70,47,191.82,267,13.00,8.00,-1018.00
2024-05-17 16:58:47.439353,0,0,0,0,0,-5,72,74,115,80,47,191.91,267,3.00,1.00,-1001.00
2024-05-17 16:58:47.541633,0,0,0,0,0,-5,72,74,121,80,47,191.97,267,0.00,-1.00,-977.00
2024-05-17 16:58:47.717760,0,0,0,0,0,-5,72,74,127,90,47,191.97,267,19.00,17.00,-1001.00
2024-05-17 16:58:47.745639,0,0,0,0,0,-5,72,74,133,100,47,192.08,267,11.00,6.00,-989.00
2024-05-17 16:58:47.922621,0,0,0,0,0,-4,72,74,138,100,47,192.16,268,7.00,6.00,-979.00
2024-05-17 16:58:47.949844,0,0,0,0,0,-4,72,74,143,100,47,192.22,268,2.00,14.00,-974.00
2024-05-17 16:58:48.126056,0,0,0,0,0,-4,72,74,147,110,47,192.19,268,-5.00,24.00,-972.00
2024-05-17 16:58:48.153121,0,0,0,0,0,-3,71,73,151,110,47,192.25,268,34.00,-2.00,-968.00
2024-05-17 16:58:48.330935,0,0,0,0,0,-3,71,73,155,120,47,192.31,268,11.00,4.00,-966.00
2024-05-17 16:58:48.357145,0,0,0,0,0,-3,71,73,159,120,47,192.27,268,8.00,-9.00,-957.00
2024-05-17 16:58:48.459167,0,0,0,0,0,-3,71,73,162,120,47,192.33,268,21.00,0.00,-989.00
2024-05-17 16:58:48.638116,0,0,0,0,0,-2,71,73,164,130,47,192.33,268,26.00,17.00,-981.00
2024-05-17 16:58:48.663090,0,0,0,0,0,-2,71,73,168,130,47,192.43,268,-6.00,28.00,-970.00
2024-05-17 16:58:48.845019,0,0,0,0,0,-2,71,73,170,130,47,192.41,268,-23.00,23.00,-977.00
2024-05-17 16:58:48.867850,0,0,0,0,0,-1,71,73,172,130,47,192.35,269,-15.00,20.00,-969.00
2024-05-17 16:58:49.047653,0,0,0,0,0,-1,71,73,174,140,47,192.47,269,-8.00,16.00,-965.00
2024-05-17 16:58:49.071101,0,0,0,0,0,-1,71,73,175,140,47,192.47,269,-6.00,34.00,-988.00
2024-05-17 16:58:49.175326,0,0,0,0,0,-1,70,73,177,140,47,192.45,269,-2.00,3.00,-954.00
2024-05-17 16:58:49.275227,0,0,0,0,0,0,70,73,178,140,47,192.48,269,20.00,7.00,-967.00
2024-05-17 16:58:49.457469,0,0,0,0,0,0,70,73,178,140,47,192.52,269,22.00,-1.00,-986.00
2024-05-17 16:58:49.479008,0,0,0,0,0,0,70,73,179,140,47,192.46,269,0.00,24.00,-1024.00
2024-05-17 16:58:49.581458,0,0,0,0,0,0,70,73,179,140,47,192.51,269,16.00,-1.00,-980.00
2024-05-17 16:58:49.767836,0,0,0,0,0,0,70,73,180,140,47,192.50,269,8.00,3.00,-985.00
2024-05-17 16:58:49.767999,0,0,0,0,0,0,70,73,180,140,47,192.47,269,8.00,11.00,-998.00
2024-05-17 16:58:49.837499,0,0,0,0,0,0,70,73,180,140,47,192.48,270,19.00,5.00,-994.00
2024-05-17 16:58:49.969661,0,0,0,0,0,0,70,73,180,140,47,192.52,270,9.00,7.00,-1004.00
2024-05-17 16:58:50.040264,0,0,0,0,0,0,70,73,180,140,47,192.51,270,13.00,2.00,-1004.00
2024-05-17 16:58:50.277543,0,0,0,0,0,0,71,72,180,140,47,192.50,270,-4.00,14.00,-999.00
2024-05-17 16:58:50.277749,0,0,0,0,0,0,71,72,180,140,47,192.50,270,18.00,1.00,-1011.00
2024-05-17 16:58:50.346535,0,0,0,0,0,0,71,72,181,140,47,192.52,270,11.00,15.00,-1001.00
2024-05-17 16:58:50.481581,0,0,0,0,0,0,71,72,181,140,47,192.52,270,21.00,3.00,-999.00
2024-05-17 16:58:50.550388,0,0,0,0,0,0,71,72,182,140,47,192.51,270,-9.00,8.00,-1001.00
2024-05-17 16:58:50.686258,0,0,0,0,0,0,71,72,181,140,47,192.50,270,34.00,-8.00,-982.00
2024-05-17 16:58:50.754082,0,0,0,0,0,0,71,72,181,140,47,192.52,270,-12.00,13.00,-995.00
2024-05-17 16:58:50.891525,0,0,0,0,0,0,71,72,181,140,47,192.50,271,11.00,17.00,-1010.00
2024-05-17 16:58:50.958575,0,0,0,0,0,0,71,72,181,140,47,192.52,271,-10.00,33.00,-1014.00
2024-05-17 16:58:51.059969,0,0,0,0,0,0,71,72,181,140,47,192.53,271,4.00,16.00,-970.00
2024-05-17 16:58:51.161973,0,0,0,0,0,0,71,72,181,140,47,192.50,271,7.00,18.00,-991.00
2024-05-17 16:58:51.300485,0,0,0,0,0,0,71,72,180,140,47,192.45,271,11.00,2.00,-959.00
2024-05-17 16:58:51.366297,0,0,0,0,0,0,71,72,180,140,47,192.52,271,10.00,13.00,-952.00
2024-05-17 16:58:51.505294,0,0,0,0,0,0,71,72,179,140,47,192.49,271,-31.00,22.00,-943.00
2024-05-17 16:58:51.569999,0,0,0,0,0,1,71,72,177,140,47,192.43,271,17.00,-2.00,-950.00
2024-05-17 16:58:51.710109,0,0,0,0,0,1,71,72,175,140,47,192.46,271,-3.00,9.00,-943.00
2024-05-17 16:58:51.774099,0,0,0,0,0,2,71,72,172,140,47,192.37,271,4.00,12.00,-972.00
2024-05-17 16:58:51.914911,0,0,0,0,0,2,71,72,170,140,47,192.41,272,-12.00,10.00,-1001.00
2024-05-17 16:58:51.978706,0,0,0,0,0,2,71,72,168,130,47,192.38,272,5.00,13.00,-984.00
2024-05-17 16:58:52.086495,0,0,0,0,0,2,71,72,164,130,47,192.39,272,11.00,1.00,-1003.00
2024-05-17 16:58:52.181953,0,0,0,0,0,2,70,72,162,130,47,192.27,272,-1.00,13.00,-980.00
2024-05-17 16:58:52.324509,0,0,0,0,0,2,70,72,159,120,47,192.35,272,0.00,17.00,-987.00
2024-05-17 16:58:52.386348,0,0,0,0,0,2,70,72,156,120,47,192.24,272,-5.00,25.00,-1006.00
2024-05-17 16:58:52.489023,0,0,0,0,0,2,70,72,153,120,47,192.18,272,19.00,12.00,-1018.00
2024-05-17 16:58:52.589902,0,0,0,0,0,2,70,72,151,120,47,192.23,272,1.00,11.00,-1020.00
2024-05-17 16:58:52.691874,0,0,0,0,0,2,70,72,148,110,47,192.13,272,11.00,0.00,-1006.00
2024-05-17 16:58:52.836437,0,0,0,0,0,2,70,72,146,110,47,192.15,273,-24.00,16.00,-1066.00
2024-05-17 16:58:52.895779,0,0,0,0,0,1,70,72,144,110,47,192.13,273,13.00,3.00,-997.00
2024-05-17 16:58:53.041267,0,0,0,0,0,1,70,72,142,110,47,192.12,273,4.00,13.00,-1026.00
2024-05-17 16:58:53.100051,0,0,0,0,0,1,70,72,140,110,47,192.09,273,-35.00,40.00,-1003.00
2024-05-17 16:58:53.201817,0,0,0,0,0,1,70,72,139,100,47,192.07,273,7.00,2.00,-1015.00
2024-05-17 16:58:53.350006,0,0,0,0,0,1,70,72,137,100,47,192.05,273,-9.00,10.00,-1026.00
2024-05-17 16:58:53.406235,0,0,0,0,0,1,70,72,136,100,47,192.02,273,1.00,12.00,-994.00
2024-05-17 16:58:53.553258,0,0,0,0,0,1,70,72,135,100,47,191.99,273,1.00,11.00,-1008.00
2024-05-17 16:58:53.609916,0,0,0,0,0,0,70,72,134,100,47,192.00,273,-4.00,25.00,-1024.00
2024-05-17 16:58:53.712370,0,0,0,0,0,0,70,72,133,100,47,191.97,273,-13.00,2.00,-988.00
2024-05-17 16:58:53.763044,0,0,0,0,0,0,70,72,132,100,47,192.03,274,-2.00,16.00,-1022.00
2024-05-17 16:58:53.868280,0,0,0,0,0,0,70,72,132,100,47,192.04,274,0.00,9.00,-1003.00
2024-05-17 16:58:53.968175,0,0,0,0,0,0,70,72,131,100,47,192.03,274,-8.00,6.00,-1008.00
2024-05-17 16:58:54.160562,0,0,0,0,0,0,70,72,131,100,47,192.03,274,3.00,4.00,-1014.00
2024-05-17 16:58:54.172744,0,0,0,0,0,0,70,72,131,100,47,192.04,274,-25.00,13.00,-1009.00
2024-05-17 16:58:54.273023,0,0,0,0,0,0,70,72,131,100,47,192.01,274,0.00,11.00,-1004.00
2024-05-17 16:58:54.375024,0,0,0,0,0,0,70,72,131,100,47,192.06,274,2.00,19.00,-984.00
2024-05-17 16:58:54.476999,0,0,0,0,0,0,70,72,131,100,47,192.01,274,-16.00,28.00,-1012.00
2024-05-17 16:58:54.679785,0,0,0,0,0,0,70,72,132,100,47,191.99,274,0.00,20.00,-996.00
2024-05-17 16:58:54.680856,0,0,0,0,0,0,70,72,132,100,47,192.05,274,-11.00,12.00,-989.00
2024-05-17 16:58:54.884469,0,0,0,0,0,0,70,72,132,100,47,191.98,275,-24.00,31.00,-994.00
2024-05-17 16:58:54.885076,0,0,0,0,0,0,70,72,131,100,47,192.06,275,-11.00,10.00,-977.00
2024-05-17 16:58:54.987613,0,0,0,0,0,0,70,72,132,100,47,192.02,275,3.00,6.00,-998.00
2024-05-17 16:58:55.089705,0,0,0,0,0,0,70,72,132,100,47,192.07,275,-16.00,25.00,-972.00
2024-05-17 16:58:55.191497,0,0,0,0,0,0,70,72,132,100,47,192.05,275,-12.00,6.00,-1006.00
2024-05-17 16:58:55.294365,0,0,0,0,0,0,70,72,132,100,47,192.02,275,-5.00,24.00,-1003.00
2024-05-17 16:58:55.396540,0,0,0,0,0,0,70,72,132,100,47,192.02,275,-4.00,10.00,-999.00
2024-05-17 16:58:55.496809,0,0,0,0,0,0,70,72,132,100,47,192.05,275,-4.00,6.00,-995.00
2024-05-17 16:58:55.599005,0,0,0,0,0,0,70,72,132,100,47,192.06,275,4.00,25.00,-1012.00
2024-05-17 16:58:55.701029,0,0,0,0,0,0,70,72,132,100,47,192.05,275,-4.00,14.00,-993.00
2024-05-17 16:58:55.806544,0,0,0,0,0,0,70,72,132,100,47,192.03,276,-3.00,6.00,-989.00
2024-05-17 16:58:55.905454,0,0,0,0,0,0,70,72,132,100,47,192.02,276,8.00,14.00,-982.00
2024-05-17 16:58:56.011158,0,0,0,0,0,0,70,72,132,100,47,192.03,276,-4.00,12.00,-1003.00
2024-05-17 16:58:56.109350,0,0,0,0,0,0,70,72,132,100,47,192.06,276,25.00,-20.00,-992.00
2024-05-17 16:58:56.215869,0,0,0,0,0,0,70,72,132,100,47,192.00,276,-9.00,24.00,-1011.00
2024-05-17 16:58:56.312946,0,0,0,0,0,0,70,72,133,100,47,192.00,276,9.00,19.00,-1017.00
2024-05-17 16:58:56.420614,0,0,0,0,0,0,70,72,132,100,47,191.95,276,-4.00,0.00,-997.00
2024-05-17 16:58:56.518330,0,0,0,0,0,0,70,72,132,100,47,192.08,276,0.00,3.00,-1005.00
2024-05-17 16:58:56.618876,0,0,0,0,0,0,70,72,133,100,47,192.01,276,-12.00,9.00,-983.00
2024-05-17 16:58:56.734693,0,0,0,0,0,0,70,72,133,100,47,192.05,276,9.00,21.00,-1025.00
2024-05-17 16:58:56.823520,0,0,0,0,0,0,70,72,133,100,47,192.06,277,-2.00,1.00,-1000.00
2024-05-17 16:58:56.932548,0,0,0,0,0,0,70,72,133,100,47,192.05,277,25.00,-15.00,-956.00
2024-05-17 16:58:57.026839,0,0,0,0,0,0,70,72,133,100,47,192.05,277,-4.00,9.00,-992.00
2024-05-17 16:58:57.137373,0,0,0,0,0,0,70,72,133,100,47,192.03,277,-9.00,5.00,-998.00
2024-05-17 16:58:57.231906,0,0,0,0,0,0,70,72,133,100,47,192.09,277,10.00,0.00,-988.00
2024-05-17 16:58:57.350338,0,0,0,0,0,0,70,72,133,100,47,192.08,277,0.00,7.00,-1007.00
2024-05-17 16:58:57.436780,0,0,0,0,0,0,70,72,132,100,47,192.10,277,-11.00,5.00,-1018.00
2024-05-17 16:58:57.536770,0,0,0,0,0,0,70,72,132,100,47,192.02,277,-10.00,19.00,-1019.00
2024-05-17 16:58:57.649319,0,0,0,0,0,0,70,72,132,100,47,191.99,277,7.00,-1.00,-978.00
2024-05-17 16:58:57.740569,0,0,0,0,0,0,70,72,132,100,47,192.01,277,6.00,0.00,-999.00
2024-05-17 16:58:57.791611,0,0,0,0,0,0,70,72,132,100,47,192.00,278,-17.00,3.00,-1026.00
2024-05-17 16:58:57.956405,3,0,0,0,0,0,70,72,134,100,47,192.06,278,5.00,16.00,-985.00
2024-05-17 16:58:57.995603,8,0,0,0,0,0,70,72,134,100,47,192.06,278,-4.00,0.00,-1005.00
2024-05-17 16:58:58.097655,8,0,0,-2,0,0,70,72,134,100,47,192.08,278,6.00,3.00,-1028.00
2024-05-17 16:58:58.263635,8,0,0,-3,0,0,69,71,135,100,47,192.03,278,23.00,8.00,-1004.00
2024-05-17 16:58:58.301687,8,0,0,-4,0,0,69,71,135,100,47,192.01,278,25.00,6.00,-1001.00
2024-05-17 16:58:58.468464,7,0,0,-5,0,0,69,71,135,100,47,192.00,278,55.00,-4.00,-1006.00
2024-05-17 16:58:58.505657,6,0,0,-6,0,0,69,71,133,100,47,192.03,278,23.00,29.00,-1013.00
2024-05-17 16:58:58.673199,5,0,0,-7,0,0,69,71,135,100,47,192.03,278,42.00,-19.00,-1005.00
2024-05-17 16:58:58.709616,4,0,0,-7,0,0,69,71,135,100,47,192.07,278,47.00,14.00,-998.00
2024-05-17 16:58:58.887733,2,0,0,-7,0,0,69,71,135,100,47,192.14,279,47.00,-9.00,-1002.00
2024-05-17 16:58:58.913693,0,0,0,-7,0,0,69,71,134,100,47,192.07,279,45.00,30.00,-992.00
2024-05-17 16:58:59.084609,-3,0,0,-6,0,0,69,71,134,100,47,191.97,279,56.00,-7.00,-1011.00
2024-05-17 16:58:59.126699,-4,0,0,-5,0,0,69,71,134,100,47,191.98,279,70.00,-1.00,-985.00
2024-05-17 16:58:59.219626,-3,0,0,-4,0,0,70,71,135,100,47,192.00,279,48.00,-5.00,-992.00
2024-05-17 16:58:59.393050,-1,0,0,-3,0,0,70,71,134,100,47,191.96,279,29.00,7.00,-1001.00
2024-05-17 16:58:59.423589,0,0,0,-3,0,0,70,71,135,100,47,191.92,279,33.00,0.00,-1004.00
2024-05-17 16:58:59.597291,0,1,0,-2,0,0,70,71,135,100,47,191.99,279,20.00,-2.00,-988.00
2024-05-17 16:58:59.627549,0,2,0,-2,0,0,70,71,136,100,47,192.06,279,7.00,11.00,-1011.00
2024-05-17 16:58:59.799562,0,1,0,-2,0,0,70,71,136,100,47,192.01,279,37.00,-20.00,-995.00
2024-05-17 16:58:59.831555,1,0,0,-2,0,0,70,71,135,100,47,191.96,280,41.00,-2.00,-956.00
2024-05-17 16:59:00.004457,1,-2,0,-2,0,0,70,71,136,100,47,192.08,280,7.00,-1.00,-1041.00
2024-05-17 16:59:00.035586,1,-1,0,-2,0,0,70,71,136,100,47,192.08,280,32.00,-10.00,-1003.00
2024-05-17 16:59:00.211163,1,0,0,-2,0,0,70,71,136,100,47,192.08,280,22.00,2.00,-1000.00
2024-05-17 16:59:00.242430,0,0,0,-2,0,0,70,71,135,100,46,192.16,280,17.00,-6.00,-991.00
2024-05-17 16:59:00.341487,-2,0,0,-1,0,0,70,71,135,100,46,192.12,280,-8.00,0.00,-1012.00
2024-05-17 16:59:00.443637,-3,0,0,-1,0,0,70,71,135,100,46,192.09,280,27.00,-4.00,-996.00
2024-05-17 16:59:00.546093,-1,0,0,0,0,0,70,71,136,100,46,192.07,280,30.00,5.00,-990.00
2024-05-17 16:59:00.722180,0,0,0,0,0,0,70,71,135,100,46,192.10,280,4.00,-14.00,-986.00
2024-05-17 16:59:00.750723,0,0,0,0,0,0,70,71,135,100,46,192.08,280,0.00,4.00,-981.00
2024-05-17 16:59:00.926515,0,0,0,0,0,0,70,71,135,100,46,192.02,281,15.00,-17.00,-980.00
2024-05-17 16:59:00.955914,0,0,0,0,0,0,70,71,134,100,46,192.09,281,11.00,-8.00,-1004.00
2024-05-17 16:59:01.055657,0,0,0,0,0,0,70,71,134,100,46,192.11,281,-3.00,7.00,-991.00
2024-05-17 16:59:01.157655,0,0,0,0,0,0,70,71,134,100,46,192.00,281,31.00,5.00,-1037.00
2024-05-17 16:59:01.337791,0,0,0,0,0,0,70,71,134,100,46,192.09,281,-22.00,33.00,-1020.00
2024-05-17 16:59:01.361652,0,0,0,0,0,0,70,71,134,100,46,192.05,281,7.00,0.00,-1003.00
2024-05-17 16:59:01.542418,1,0,0,0,0,0,70,71,134,100,46,192.10,281,19.00,-4.00,-1005.00
2024-05-17 16:59:01.565636,1,0,0,0,0,0,70,71,134,100,46,192.09,281,5.00,8.00,-1007.00
2024-05-17 16:59:01.748676,1,0,0,0,0,0,70,71,134,100,46,192.17,281,-3.00,21.00,-1007.00
2024-05-17 16:59:01.769637,1,0,0,0,0,0,70,71,134,100,46,192.15,281,7.00,14.00,-983.00
2024-05-17 16:59:01.951753,0,0,0,0,0,0,70,71,134,100,46,192.17,282,-12.00,19.00,-994.00
2024-05-17 16:59:01.951914,0,0,0,0,0,0,70,71,134,100,46,192.17,282,-5.00,5.00,-1019.00
2024-05-17 16:59:02.024732,1,0,0,0,0,0,70,71,134,100,46,192.20,282,3.00,-4.00,-1022.00
2024-05-17 16:59:02.129744,0,0,0,0,0,0,70,71,134,100,46,192.20,282,14.00,-8.00,-992.00
2024-05-17 16:59:02.229351,1,0,0,0,0,0,69,72,134,100,45,192.15,282,3.00,7.00,-1009.00
2024-05-17 16:59:02.361954,1,0,0,0,0,0,69,72,133,100,45,192.19,282,2.00,0.00,-991.00
2024-05-17 16:59:02.434302,1,0,0,0,0,0,69,72,133,100,45,192.13,282,7.00,5.00,-998.00
2024-05-17 16:59:02.534512,1,0,0,0,0,0,69,72,133,100,45,192.22,282,21.00,-4.00,-1011.00
2024-05-17 16:59:02.673555,1,0,0,0,0,0,69,72,133,100,45,192.19,282,2.00,23.00,-991.00
2024-05-17 16:59:02.741729,0,-6,0,0,0,0,69,72,134,100,45,192.15,282,12.00,-15.00,-1007.00
2024-05-17 16:59:02.840454,0,-8,0,0,-1,0,69,72,135,100,45,192.15,283,8.00,4.00,-1012.00
2024-05-17 16:59:02.974933,0,-6,0,0,-2,0,69,72,135,100,45,192.13,283,29.00,3.00,-998.00
2024-05-17 16:59:03.048582,0,-3,0,0,-3,0,69,72,135,100,45,192.15,283,10.00,8.00,-980.00
2024-05-17 16:59:03.148277,0,0,0,0,-4,0,69,72,134,100,45,192.11,283,7.00,30.00,-989.00
2024-05-17 16:59:03.249285,0,1,0,0,-3,0,70,71,135,100,45,192.09,283,17.00,34.00,-1001.00
2024-05-17 16:59:03.350378,0,1,0,0,-3,0,70,71,134,100,45,192.06,283,-9.00,28.00,-990.00
2024-05-17 16:59:03.488349,0,0,0,0,-2,0,70,71,133,100,45,192.10,283,35.00,12.00,-1014.00
2024-05-17 16:59:03.554850,0,0,0,0,-2,0,70,71,134,100,45,192.17,283,-3.00,20.00,-1008.00
2024-05-17 16:59:03.691385,0,0,0,0,-2,0,70,71,134,100,45,192.07,283,7.00,14.00,-994.00
2024-05-17 16:59:03.758393,0,0,0,0,-2,0,70,71,134,100,45,192.12,283,3.00,13.00,-1007.00
2024-05-17 16:59:03.860381,0,0,0,0,-2,0,70,71,133,100,45,192.11,284,-15.00,14.00,-1005.00
2024-05-17 16:59:03.998263,0,0,0,0,-2,0,70,71,133,100,45,192.14,284,23.00,16.00,-989.00
2024-05-17 16:59:04.064774,1,0,0,0,-2,0,70,71,135,100,45,192.11,284,-1.00,27.00,-998.00
2024-05-17 16:59:04.166599,3,0,0,0,-2,0,70,71,135,100,45,192.07,284,14.00,21.00,-1008.00
2024-05-17 16:59:04.407608,3,0,0,0,-2,0,69,71,134,100,45,192.12,284,-8.00,10.00,-991.00
2024-05-17 16:59:04.407791,1,0,0,0,-1,0,69,71,133,100,45,192.10,284,36.00,7.00,-987.00
2024-05-17 16:59:04.472353,-2,0,0,0,-1,0,69,71,135,100,45,192.12,284,27.00,10.00,-1019.00
2024-05-17 16:59:04.612417,0,3,0,0,-1,0,69,71,134,100,45,192.11,284,7.00,26.00,-995.00
2024-05-17 16:59:04.676482,0,3,0,0,0,0,69,71,134,100,45,192.10,284,11.00,10.00,-1017.00
2024-05-17 16:59:04.817754,0,1,0,0,0,0,69,71,134,100,45,192.15,284,2.00,9.00,-997.00
2024-05-17 16:59:04.880508,0,0,0,0,0,0,69,71,133,100,45,192.12,285,4.00,-1.00,-1010.00
2024-05-17 16:59:05.022559,0,0,0,0,0,0,69,71,133,100,45,192.12,285,-22.00,15.00,-999.00
2024-05-17 16:59:05.084621,0,0,0,0,0,0,69,71,133,100,45,192.15,285,-8.00,2.00,-988.00
2024-05-17 16:59:05.187074,0,0,0,0,0,0,69,71,133,100,45,192.19,285,14.00,12.00,-1024.00
2024-05-17 16:59:05.330855,0,0,0,0,0,0,69,72,133,100,44,192.13,285,21.00,-7.00,-989.00
2024-05-17 16:59:05.391601,0,0,0,0,0,0,69,72,133,100,44,192.14,285,-37.00,20.00,-1017.00
2024-05-17 16:59:05.534398,0,0,0,0,0,0,69,72,133,100,44,192.14,285,-50.00,13.00,-998.00
2024-05-17 16:59:05.594508,0,0,0,0,0,0,69,72,134,100,44,192.21,285,-31.00,27.00,-982.00
2024-05-17 16:59:05.739022,0,0,0,0,0,0,69,72,134,100,44,192.15,285,12.00,1.00,-985.00
2024-05-17 16:59:05.755876,0,0,0,0,0,0,69,72,134,100,44,192.14,285,12.00,-7.00,-985.00
2024-05-17 16:59:05.850029,0,0,0,0,0,0,69,72,134,100,44,192.12,286,29.00,-17.00,-996.00
2024-05-17 16:59:06.046049,0,0,0,0,0,0,69,72,134,100,44,192.09,286,18.00,0.00,-990.00
2024-05-17 16:59:06.053432,0,0,0,0,0,0,69,72,134,100,44,192.18,286,-5.00,11.00,-1006.00
2024-05-17 16:59:06.251329,0,0,0,0,0,0,69,72,134,100,44,192.21,286,-14.00,13.00,-1007.00
2024-05-17 16:59:06.257275,0,0,0,0,0,0,70,72,134,100,44,192.19,286,1.00,-4.00,-984.00
2024-05-17 16:59:06.455793,0,0,0,0,0,0,70,72,134,100,44,192.20,286,5.00,5.00,-1014.00
2024-05-17 16:59:06.461699,0,0,0,0,0,0,70,72,134,100,44,192.21,286,-10.00,26.00,-982.00
2024-05-17 16:59:06.628682,0,0,0,0,0,0,70,72,135,100,44,192.20,286,-12.00,15.00,-1009.00
2024-05-17 16:59:06.665371,0,0,0,0,0,0,70,72,134,100,44,192.24,286,-18.00,32.00,-985.00
2024-05-17 16:59:06.865152,0,0,0,0,0,0,70,72,134,100,44,192.21,286,12.00,-27.00,-1023.00
2024-05-17 16:59:06.869166,0,2,0,0,0,0,70,72,136,100,44,192.17,287,18.00,8.00,-948.00
2024-05-17 16:59:06.971267,0,8,0,0,0,0,70,72,136,100,44,192.22,287,29.00,-17.00,-985.00
2024-05-17 16:59:07.073512,0,6,0,0,2,0,70,72,135,100,44,192.25,287,-21.00,10.00,-1021.00
2024-05-17 16:59:07.175263,0,4,0,0,3,0,70,72,135,100,44,192.18,287,-33.00,-1.00,-1028.00
2024-05-17 16:59:07.277243,0,0,0,0,3,0,69,71,133,100,43,192.17,287,-39.00,-16.00,-1021.00
2024-05-17 16:59:07.480429,0,-1,0,0,3,0,69,71,134,100,43,192.18,287,-41.00,-8.00,-1014.00
2024-05-17 16:59:07.481264,-1,-1,0,0,3,0,69,71,135,100,43,192.19,287,-24.00,-7.00,-1027.00
2024-05-17 16:59:07.583139,-1,0,0,0,3,0,69,71,134,100,43,192.18,287,-20.00,-10.00,-1016.00
2024-05-17 16:59:07.786737,-1,0,0,0,2,0,69,71,135,100,43,192.07,287,-29.00,-4.00,-993.00
2024-05-17 16:59:07.787146,-1,0,0,0,2,0,69,71,134,100,43,192.10,288,-33.00,-2.00,-986.00
2024-05-17 16:59:07.890951,-1,0,0,0,2,0,69,71,134,100,43,192.17,288,-24.00,-10.00,-985.00
2024-05-17 16:59:07.992107,-1,0,0,0,2,0,69,71,134,100,43,192.21,288,-16.00,-3.00,-1006.00
2024-05-17 16:59:08.093689,-1,0,0,0,2,0,69,71,135,100,43,192.16,288,-49.00,13.00,-990.00
2024-05-17 16:59:08.196990,0,0,0,0,2,0,69,71,135,100,43,192.14,288,-21.00,0.00,-1005.00
2024-05-17 16:59:08.299768,-1,-1,0,0,2,0,69,71,134,100,43,192.18,288,-20.00,1.00,-1008.00
2024-05-17 16:59:08.399384,-1,-2,0,0,2,0,69,71,133,100,43,192.15,288,-35.00,14.00,-1021.00
2024-05-17 16:59:08.503591,-1,-4,0,0,1,0,69,71,134,100,43,192.15,288,-28.00,2.00,-995.00
2024-05-17 16:59:08.603978,-3,-3,0,0,0,0,69,71,134,100,43,192.25,288,-43.00,-7.00,-1024.00
2024-05-17 16:59:08.705163,-5,-1,0,0,0,0,69,71,133,100,43,192.20,288,-28.00,24.00,-1000.00
2024-05-17 16:59:08.810731,-1,-1,-1,0,0,0,69,71,133,100,43,192.16,289,1.00,11.00,-962.00
2024-05-17 16:59:08.909534,1,-1,-1,0,0,0,69,71,135,100,43,192.09,289,-54.00,31.00,-1012.00
2024-05-17 16:59:09.011469,0,-1,0,0,0,0,69,71,133,100,43,192.16,289,-23.00,19.00,-1012.00
2024-05-17 16:59:09.114059,0,-1,0,0,0,0,69,71,132,100,43,192.13,289,-45.00,31.00,-1008.00
2024-05-17 16:59:09.215747,0,-1,0,0,0,0,69,71,133,100,43,192.23,289,-35.00,14.00,-984.00
2024-05-17 16:59:09.322901,0,-1,0,0,0,0,69,71,133,100,42,192.15,289,-5.00,28.00,-1013.00
2024-05-17 16:59:09.420486,0,-1,0,0,0,0,69,71,133,100,42,192.17,289,-15.00,18.00,-1014.00
2024-05-17 16:59:09.521242,0,0,0,0,0,0,69,71,133,100,42,192.18,289,-24.00,7.00,-1004.00
2024-05-17 16:59:09.573850,0,0,0,0,0,0,69,71,134,100,42,192.23,289,-15.00,11.00,-1007.00
2024-05-17 16:59:09.674550,0,0,0,0,0,0,69,71,134,100,42,192.22,289,-31.00,5.00,-1004.00
2024-05-17 16:59:09.776248,0,0,0,0,0,0,69,71,135,100,42,192.15,290,-1.00,10.00,-1009.00
2024-05-17 16:59:09.937207,0,0,0,0,0,0,69,71,134,100,42,192.22,290,-19.00,27.00,-998.00
2024-05-17 16:59:09.980202,0,0,0,0,0,0,69,71,135,100,42,192.28,290,-26.00,18.00,-994.00
2024-05-17 16:59:10.142179,0,0,0,0,0,0,69,71,134,100,42,192.22,290,-18.00,5.00,-991.00
2024-05-17 16:59:10.184318,0,0,0,0,0,0,69,71,134,100,42,192.22,290,-10.00,0.00,-993.00
2024-05-17 16:59:10.286333,0,0,0,0,0,0,69,71,134,100,42,192.16,290,-10.00,-12.00,-988.00
2024-05-17 16:59:10.449210,0,0,0,0,0,0,69,71,133,100,42,192.23,290,-24.00,6.00,-1025.00
2024-05-17 16:59:10.491035,0,0,0,0,0,0,69,71,133,100,42,192.22,290,-29.00,12.00,-1003.00
2024-05-17 16:59:10.655562,0,0,0,0,0,0,69,71,133,100,42,192.14,290,-12.00,8.00,-999.00
2024-05-17 16:59:10.697924,0,0,0,0,0,0,69,71,134,100,42,192.26,290,-28.00,1.00,-1014.00
2024-05-17 16:59:10.796181,0,0,0,0,0,0,69,71,134,100,42,192.24,291,-19.00,-1.00,-1001.00
2024-05-17 16:59:10.913079,0,0,0,0,0,0,69,71,134,100,42,192.19,291,-20.00,3.00,-996.00
2024-05-17 16:59:11.002108,0,0,0,0,0,0,69,71,134,100,42,192.17,291,-20.00,-8.00,-1003.00
2024-05-17 16:59:11.102075,0,0,4,0,0,0,69,71,134,100,42,192.19,291,23.00,-15.00,-985.00
2024-05-17 16:59:11.204576,0,0,10,0,0,0,69,71,133,100,42,192.16,291,-8.00,-9.00,-1004.00
2024-05-17 16:59:11.305997,0,0,16,0,0,0,69,71,133,100,42,192.16,291,1.00,1.00,-990.00
2024-05-17 16:59:11.473190,0,0,22,0,0,0,69,71,134,100,42,192.19,291,-8.00,7.00,-1011.00
2024-05-17 16:59:11.510099,0,0,28,0,0,0,69,71,134,100,42,192.24,291,-15.00,-2.00,-995.00
2024-05-17 16:59:11.677928,0,0,34,0,0,0,69,71,134,100,42,192.17,291,-5.00,-3.00,-1004.00
2024-05-17 16:59:11.713828,0,0,40,0,0,0,69,71,133,100,42,192.19,291,4.00,3.00,-990.00
2024-05-17 16:59:11.883159,0,0,46,0,0,0,69,71,134,100,42,192.18,292,2.00,0.00,-1008.00
2024-05-17 16:59:11.918005,0,0,52,0,0,0,69,71,134,100,42,192.16,292,-5.00,-1.00,-1003.00
2024-05-17 16:59:12.087560,0,0,59,0,0,0,69,71,134,100,42,192.14,292,1.00,-7.00,-980.00
2024-05-17 16:59:12.123260,0,0,65,0,0,0,69,71,134,100,42,192.23,292,-13.00,11.00,-984.00
2024-05-17 16:59:12.224174,0,0,71,0,0,0,69,71,134,100,42,192.18,292,-16.00,0.00,-1001.00
2024-05-17 16:59:12.395332,0,0,77,0,0,0,68,71,134,100,42,192.30,292,4.00,-13.00,-984.00
2024-05-17 16:59:12.439526,0,0,84,0,0,0,68,71,134,100,42,192.22,292,-10.00,14.00,-998.00
2024-05-17 16:59:12.529921,0,0,90,0,0,0,68,71,134,100,42,192.22,292,-26.00,15.00,-997.00
2024-05-17 16:59:12.701962,0,0,96,0,0,0,68,71,134,100,42,192.28,292,-8.00,-3.00,-1002.00
2024-05-17 16:59:12.733987,0,0,102,0,0,0,68,71,134,100,42,192.22,292,-2.00,0.00,-997.00
2024-05-17 16:59:12.909666,0,0,109,0,0,0,68,71,134,100,42,192.20,293,-16.00,6.00,-1004.00
2024-05-17 16:59:12.938479,0,0,115,0,0,0,68,71,133,100,42,192.26,293,-29.00,21.00,-1012.00
2024-05-17 16:59:13.111611,0,0,121,0,0,0,68,71,134,100,42,192.23,293,-16.00,17.00,-1010.00
2024-05-17 16:59:13.141967,0,0,127,0,0,0,68,71,134,100,42,192.24,293,-6.00,12.00,-988.00
2024-05-17 16:59:13.192959,0,0,133,0,0,0,68,71,134,100,42,192.23,293,-4.00,5.00,-997.00
2024-05-17 16:59:13.345962,0,0,139,0,0,0,69,71,134,100,42,192.31,293,-12.00,8.00,-1002.00
2024-05-17 16:59:13.525807,0,0,145,0,0,0,69,71,134,100,42,192.34,293,-11.00,11.00,-1012.00
2024-05-17 16:59:13.550129,0,0,152,0,0,0,69,71,133,100,42,192.31,293,-18.00,0.00,-988.00
2024-05-17 16:59:13.725933,0,0,158,0,0,0,69,71,133,100,42,192.26,293,5.00,-6.00,-993.00
2024-05-17 16:59:13.725968,0,0,164,0,0,0,69,71,133,100,42,192.21,293,-32.00,15.00,-1013.00
2024-05-17 16:59:13.805093,0,0,170,0,0,0,69,71,132,100,42,192.26,294,-18.00,15.00,-1007.00
2024-05-17 16:59:13.930729,0,0,176,0,0,0,69,71,132,100,42,192.28,294,-4.00,12.00,-1001.00
2024-05-17 16:59:14.008886,0,0,-177,0,0,0,69,71,132,100,42,192.24,294,35.00,10.00,-977.00
2024-05-17 16:59:14.138030,0,0,-171,0,0,0,69,71,132,100,42,192.24,294,-4.00,0.00,-987.00
2024-05-17 16:59:14.216412,0,0,-165,0,0,0,69,71,132,100,41,192.22,294,-15.00,25.00,-1016.00
2024-05-17 16:59:14.315013,0,0,-159,0,0,0,69,71,132,100,41,192.25,294,12.00,13.00,-1005.00
2024-05-17 16:59:14.442729,0,0,-153,0,0,0,69,71,132,100,41,192.22,294,-18.00,-1.00,-1015.00
2024-05-17 16:59:14.518824,0,0,-147,0,0,0,69,71,132,100,41,192.19,294,1.00,6.00,-990.00
2024-05-17 16:59:14.647524,0,0,-141,0,0,0,69,71,132,100,41,192.25,294,11.00,9.00,-994.00
2024-05-17 16:59:14.722972,0,0,-135,0,0,0,69,71,132,100,41,192.20,294,-6.00,8.00,-994.00
2024-05-17 16:59:14.824862,0,0,-129,0,0,0,69,71,132,100,41,192.18,295,2.00,-16.00,-966.00
2024-05-17 16:59:14.927145,0,0,-123,0,0,0,69,71,133,100,41,192.22,295,-22.00,7.00,-1008.00
2024-05-17 16:59:15.057061,0,0,-117,0,0,0,69,71,133,100,41,192.19,295,-26.00,15.00,-998.00
2024-05-17 16:59:15.130839,0,0,-111,0,0,0,69,71,132,100,41,192.16,295,1.00,3.00,-1004.00
2024-05-17 16:59:15.232908,0,0,-106,0,0,0,69,71,133,100,41,192.14,295,-8.00,-4.00,-1021.00
2024-05-17 16:59:15.364299,0,0,-100,0,0,0,69,72,133,100,41,192.19,295,1.00,2.00,-992.00
2024-05-17 16:59:15.445346,0,0,-94,0,0,0,69,72,133,100,41,192.20,295,7.00,0.00,-1014.00
2024-05-17 16:59:15.539011,0,0,-88,0,0,0,69,72,133,100,41,192.19,295,5.00,1.00,-1000.00
2024-05-17 16:59:15.671749,0,0,-82,0,0,0,69,72,133,100,41,192.13,295,-16.00,9.00,-1002.00
2024-05-17 16:59:15.742752,0,0,-76,0,0,0,69,72,133,100,41,192.16,295,-8.00,10.00,-1009.00
2024-05-17 16:59:15.876314,0,0,-70,0,0,0,69,72,133,100,41,192.11,296,0.00,9.00,-982.00
2024-05-17 16:59:15.946807,-1,0,-64,0,0,0,69,72,134,100,41,192.18,296,3.00,0.00,-1009.00
2024-05-17 16:59:16.081115,0,0,-59,0,0,0,69,72,134,100,41,192.25,296,-5.00,7.00,-1004.00
2024-05-17 16:59:16.151729,0,0,-53,0,0,0,69,72,135,100,41,192.19,296,0.00,8.00,-981.00
2024-05-17 16:59:16.285958,0,0,-47,0,0,0,69,72,134,100,41,192.22,296,-11.00,16.00,-985.00
2024-05-17 16:59:16.355798,0,0,-41,0,0,0,69,70,134,100,41,192.20,296,-25.00,4.00,-1000.00
2024-05-17 16:59:16.490734,0,0,-36,0,0,0,69,70,134,100,41,192.20,296,-16.00,20.00,-1001.00
2024-05-17 16:59:16.561407,0,0,-30,0,0,0,69,70,134,100,41,192.25,296,-16.00,9.00,-985.00
2024-05-17 16:59:16.661917,0,0,-24,0,0,0,69,70,134,100,41,192.24,296,-13.00,21.00,-1013.00
2024-05-17 16:59:16.797907,0,0,-19,0,0,0,69,70,134,100,41,192.24,296,-6.00,-9.00,-995.00
2024-05-17 16:59:16.865789,0,0,-14,0,0,0,69,70,133,100,41,192.24,297,6.00,15.00,-1000.00
2024-05-17 16:59:17.002713,0,0,-11,0,0,0,69,70,133,100,41,192.16,297,-22.00,12.00,-967.00
2024-05-17 16:59:17.071829,0,0,-9,0,0,0,69,70,133,100,41,192.20,297,1.00,6.00,-996.00
2024-05-17 16:59:17.171725,0,0,-7,0,0,0,69,70,132,100,41,192.19,297,-9.00,3.00,-1001.00
2024-05-17 16:59:17.273744,0,0,-5,0,0,0,69,70,132,100,41,192.24,297,-20.00,14.00,-1024.00
2024-05-17 16:59:17.412309,0,0,-4,0,0,0,69,71,132,100,41,192.13,297,4.00,1.00,-1004.00
2024-05-17 16:59:17.477744,0,0,-3,0,0,0,69,71,132,100,41,192.16,297,4.00,9.00,-995.00
2024-05-17 16:59:17.580921,0,0,-2,0,0,0,69,71,132,100,41,192.26,297,-8.00,14.00,-1002.00
2024-05-17 16:59:17.631439,0,0,-2,0,0,0,69,71,131,100,41,192.20,297,7.00,-8.00,-982.00
2024-05-17 16:59:17.821909,0,0,-2,0,0,0,69,71,131,100,41,192.16,297,-35.00,13.00,-979.00
2024-05-17 16:59:17.834783,0,0,-2,0,0,0,69,71,131,100,41,192.22,298,-8.00,15.00,-1014.00
2024-05-17 16:59:18.027200,0,0,-2,0,0,0,69,71,132,100,41,192.19,298,0.00,3.00,-1005.00
2024-05-17 16:59:18.038732,0,0,-2,0,0,0,69,71,131,100,41,192.21,298,3.00,-1.00,-1001.00
2024-05-17 16:59:18.231597,0,0,-2,0,0,0,69,71,132,100,41,192.16,298,0.00,12.00,-1009.00
2024-05-17 16:59:18.242805,0,0,-2,0,0,0,69,71,132,100,40,192.15,298,12.00,0.00,-988.00
2024-05-17 16:59:18.436471,0,0,-2,0,0,0,69,71,132,100,40,192.17,298,-14.00,13.00,-996.00
2024-05-17 16:59:18.446819,0,0,-2,0,0,0,69,71,132,100,40,192.25,298,8.00,-10.00,-1012.00
2024-05-17 16:59:18.641305,0,0,-2,0,0,0,69,71,132,100,40,192.09,298,-7.00,-4.00,-997.00
2024-05-17 16:59:18.650723,0,0,-2,0,0,0,69,71,133,100,40,192.14,298,3.00,9.00,-1005.00
2024-05-17 16:59:18.752677,0,0,-2,0,0,0,69,71,133,100,40,192.12,298,-22.00,20.00,-1004.00
2024-05-17 16:59:18.948572,0,0,-2,0,0,0,69,71,133,100,40,192.14,299,14.00,-23.00,-963.00
2024-05-17 16:59:18.956657,0,0,-2,0,0,0,69,71,133,100,40,192.19,299,1.00,-7.00,-999.00
2024-05-17 16:59:19.153526,0,0,-2,0,0,0,69,71,133,100,40,192.18,299,3.00,1.00,-988.00
2024-05-17 16:59:19.160735,0,0,-2,0,0,0,69,71,133,100,40,192.17,299,-6.00,1.00,-997.00
2024-05-17 16:59:19.360376,0,0,-2,0,0,0,69,71,133,100,40,192.14,299,16.00,-5.00,-968.00
2024-05-17 16:59:19.364815,0,0,-2,0,0,0,69,71,132,100,40,192.14,299,-14.00,17.00,-1002.00
2024-05-17 16:59:19.534689,0,0,-2,0,0,0,69,71,132,100,40,192.22,299,-9.00,7.00,-1001.00
2024-05-17 16:59:19.568722,0,0,-2,0,0,0,69,71,132,100,40,192.17,299,1.00,-10.00,-988.00
2024-05-17 16:59:19.767731,0,0,-2,0,0,0,69,71,132,100,40,192.21,299,-24.00,33.00,-999.00
2024-05-17 16:59:19.772650,0,0,-6,0,0,0,69,71,132,100,40,192.20,299,-7.00,-14.00,-999.00
2024-05-17 16:59:19.973469,0,0,-12,0,0,0,69,71,132,100,40,192.16,300,2.00,7.00,-995.00
2024-05-17 16:59:19.976612,0,0,-18,0,0,0,69,71,131,100,40,192.14,300,-12.00,20.00,-1019.00
2024-05-17 16:59:20.177049,0,0,-23,0,0,0,69,71,132,100,40,192.10,300,0.00,-8.00,-980.00
2024-05-17 16:59:20.180552,0,0,-29,0,0,0,69,71,131,100,40,192.20,300,-12.00,6.00,-1012.00
2024-05-17 16:59:20.282681,0,0,-35,0,0,0,69,71,131,100,40,192.18,300,0.00,1.00,-999.00
2024-05-17 16:59:20.484335,0,0,-41,0,0,0,69,71,131,100,40,192.14,300,-17.00,10.00,-1013.00
2024-05-17 16:59:20.486562,0,0,-47,0,0,0,69,71,131,100,40,192.15,300,-13.00,11.00,-1012.00
2024-05-17 16:59:20.692735,0,0,-53,0,0,0,69,71,131,100,40,192.15,300,-3.00,-2.00,-1008.00
2024-05-17 16:59:20.692974,0,0,-59,0,0,0,69,71,131,100,40,192.14,300,6.00,5.00,-1009.00
2024-05-17 16:59:20.794337,0,0,-65,0,0,0,69,71,131,100,40,192.18,300,26.00,-1.00,-1006.00
2024-05-17 16:59:20.897150,0,0,-71,0,0,0,69,71,131,100,40,192.11,301,9.00,-4.00,-998.00
2024-05-17 16:59:20.997960,0,0,-77,0,0,0,69,71,131,100,40,192.18,301,22.00,-3.00,-977.00
2024-05-17 16:59:21.098847,0,0,-83,0,0,0,69,71,131,100,40,192.19,301,-9.00,14.00,-999.00
2024-05-17 16:59:21.200687,0,0,-89,0,0,0,69,71,132,100,40,192.16,301,-6.00,4.00,-1012.00
2024-05-17 16:59:21.303540,0,0,-95,0,0,0,69,71,131,100,40,192.21,301,30.00,-10.00,-1002.00
2024-05-17 16:59:21.405888,0,0,-107,0,0,0,69,71,132,100,40,192.24,301,0.00,-1.00,-991.00
2024-05-17 16:59:21.508263,0,0,-113,0,0,0,69,71,132,100,40,192.14,301,2.00,-10.00,-995.00
2024-05-17 16:59:21.608507,0,0,-119,0,0,0,69,71,132,100,40,192.18,301,-18.00,23.00,-986.00
2024-05-17 16:59:21.713046,0,0,-125,0,0,0,69,71,132,100,40,192.12,301,3.00,-2.00,-993.00
2024-05-17 16:59:21.761436,0,0,-132,0,0,0,69,71,132,100,40,192.18,302,3.00,12.00,-970.00
2024-05-17 16:59:21.917956,0,0,-138,0,0,0,69,71,132,100,40,192.13,302,2.00,5.00,-1000.00
2024-05-17 16:59:21.965719,0,0,-144,0,0,0,69,71,133,100,40,192.13,302,2.00,-9.00,-982.00
2024-05-17 16:59:22.127494,0,0,-150,0,0,0,69,71,132,100,40,192.13,302,1.00,0.00,-995.00
2024-05-17 16:59:22.170717,0,0,-156,0,0,0,69,71,132,100,40,192.15,302,8.00,-17.00,-968.00
2024-05-17 16:59:22.273768,0,0,-162,0,0,0,69,71,133,100,40,192.16,302,2.00,-2.00,-998.00
2024-05-17 16:59:22.374103,0,0,-168,0,0,0,69,70,132,100,40,192.10,302,-9.00,12.00,-1012.00
2024-05-17 16:59:22.475582,0,0,-174,0,0,0,69,70,132,100,40,192.19,302,4.00,1.00,-999.00
2024-05-17 16:59:22.634661,0,0,179,0,0,0,69,70,132,100,40,192.18,302,2.00,1.00,-1001.00
2024-05-17 16:59:22.679493,0,0,173,0,0,0,69,70,132,100,40,192.11,302,13.00,-7.00,-986.00
2024-05-17 16:59:22.839485,0,0,167,0,0,0,69,70,132,100,40,192.13,303,-8.00,7.00,-1022.00
2024-05-17 16:59:22.883583,0,0,162,0,0,0,69,70,132,100,40,192.15,303,14.00,-7.00,-994.00
2024-05-17 16:59:23.044273,0,0,156,0,0,0,69,70,132,100,40,192.18,303,12.00,-10.00,-1006.00
2024-05-17 16:59:23.087453,0,0,150,0,0,0,69,70,132,100,40,192.18,303,18.00,-10.00,-1002.00
2024-05-17 16:59:23.249007,0,0,144,0,0,0,69,70,132,100,40,192.16,303,-8.00,9.00,-1014.00
2024-05-17 16:59:23.291417,0,0,138,0,0,0,69,70,132,100,39,192.18,303,14.00,-3.00,-996.00
2024-05-17 16:59:23.453874,0,0,132,0,0,0,68,71,132,100,39,192.17,303,-10.00,-2.00,-972.00
2024-05-17 16:59:23.495428,0,0,126,0,0,0,68,71,132,100,39,192.10,303,6.00,-3.00,-987.00
2024-05-17 16:59:23.597381,0,0,120,0,0,0,68,71,132,100,39,192.14,303,3.00,5.00,-1009.00
2024-05-17 16:59:23.699556,0,0,114,0,0,0,68,71,132,100,39,192.15,303,-5.00,3.00,-1002.00
2024-05-17 16:59:23.863487,0,0,108,0,0,0,68,71,132,100,39,192.11,304,-11.00,39.00,-1006.00
2024-05-17 16:59:23.903723,0,0,102,0,0,0,68,71,132,100,39,192.19,304,10.00,-3.00,-989.00
2024-05-17 16:59:24.068256,0,0,96,0,0,0,68,71,132,100,39,192.19,304,-13.00,10.00,-1006.00
2024-05-17 16:59:24.108045,0,0,90,0,0,0,68,71,132,100,39,192.18,304,-4.00,12.00,-1003.00
2024-05-17 16:59:24.209419,0,0,84,0,0,0,68,71,132,100,39,192.16,304,7.00,-17.00,-979.00
2024-05-17 16:59:24.375778,0,0,78,0,0,0,68,71,132,100,39,192.12,304,-4.00,11.00,-1016.00
2024-05-17 16:59:24.413360,0,0,72,0,0,0,69,71,132,100,39,192.14,304,-5.00,15.00,-1017.00
2024-05-17 16:59:24.580603,0,0,66,0,0,0,69,71,132,100,39,192.16,304,10.00,6.00,-993.00
2024-05-17 16:59:24.619526,0,0,60,0,0,0,69,71,133,100,39,192.14,304,-23.00,13.00,-1007.00
2024-05-17 16:59:24.719337,0,0,54,0,0,0,69,71,132,100,39,192.07,304,1.00,-11.00,-1014.00
2024-05-17 16:59:24.821582,0,0,48,0,0,0,69,71,133,100,39,192.20,305,-15.00,5.00,-1008.00
2024-05-17 16:59:24.989861,0,0,42,0,0,0,69,71,132,100,39,192.09,305,0.00,15.00,-1010.00
2024-05-17 16:59:25.025333,0,0,36,0,0,0,69,71,133,100,39,192.10,305,14.00,0.00,-977.00
2024-05-17 16:59:25.194651,0,0,29,0,0,0,69,71,133,100,39,192.23,305,-20.00,18.00,-990.00
2024-05-17 16:59:25.230753,0,0,23,0,0,0,69,71,133,100,39,192.21,305,-9.00,10.00,-991.00
2024-05-17 16:59:25.333178,0,0,17,0,0,0,69,71,134,100,38,192.20,305,-31.00,-3.00,-969.00
2024-05-17 16:59:25.434562,0,0,12,0,0,0,68,71,133,100,38,192.18,305,12.00,-10.00,-1024.00
2024-05-17 16:59:25.535389,0,0,9,0,0,0,68,71,133,100,38,192.17,305,1.00,17.00,-1004.00
2024-05-17 16:59:25.706658,0,0,6,0,0,0,68,71,133,100,38,192.11,305,-17.00,15.00,-1006.00
2024-05-17 16:59:25.706843,0,0,4,0,0,0,68,71,132,100,38,192.15,305,-22.00,7.00,-994.00
2024-05-17 16:59:25.791345,0,0,2,0,0,0,68,71,132,100,38,192.17,306,-4.00,-5.00,-984.00
2024-05-17 16:59:25.911487,0,0,1,0,0,0,68,71,132,100,38,192.14,306,7.00,-11.00,-994.00
2024-05-17 16:59:25.996965,0,0,0,0,0,0,68,71,132,100,38,192.15,306,-10.00,3.00,-999.00
2024-05-17 16:59:26.097274,0,0,0,0,0,0,68,71,132,100,38,192.12,306,-13.00,12.00,-1001.00
2024-05-17 16:59:26.199775,0,0,0,0,0,0,68,71,132,100,38,192.16,306,-5.00,2.00,-995.00
2024-05-17 16:59:26.321519,0,0,0,0,0,0,68,71,132,100,38,192.16,306,9.00,1.00,-996.00
2024-05-17 16:59:26.403626,0,0,0,0,0,0,69,71,132,100,38,192.10,306,14.00,0.00,-1016.00
2024-05-17 16:59:26.526122,0,0,0,0,0,0,69,71,132,100,38,192.13,306,28.00,-4.00,-1001.00
2024-05-17 16:59:26.611684,0,0,0,0,0,0,69,71,132,100,38,192.11,306,6.00,2.00,-992.00
2024-05-17 16:59:26.716530,0,0,0,0,0,0,69,71,132,100,38,192.13,306,-8.00,14.00,-979.00
2024-05-17 16:59:26.812071,0,0,0,0,0,0,69,71,132,100,38,192.10,307,3.00,-18.00,-985.00
2024-05-17 16:59:26.936003,0,0,0,0,0,0,69,71,131,100,38,192.17,307,0.00,24.00,-1021.00
2024-05-17 16:59:27.015407,0,0,0,0,0,0,69,71,132,100,38,192.13,307,5.00,0.00,-982.00
2024-05-17 16:59:27.140386,0,0,0,0,0,0,69,71,131,100,38,192.15,307,-2.00,11.00,-1002.00
2024-05-17 16:59:27.220096,0,0,0,0,0,0,69,71,131,100,38,192.11,307,10.00,11.00,-1024.00
2024-05-17 16:59:27.322040,0,0,0,0,0,0,69,71,131,100,38,192.14,307,4.00,-7.00,-984.00
2024-05-17 16:59:27.423250,0,0,0,0,0,0,68,72,131,100,38,192.12,307,0.00,10.00,-1018.00
2024-05-17 16:59:27.553039,0,0,0,0,0,0,68,72,131,100,38,192.18,307,8.00,0.00,-1000.00
2024-05-17 16:59:27.629526,0,0,0,0,0,0,68,72,132,100,38,192.12,307,0.00,1.00,-1002.00
2024-05-17 16:59:27.729354,0,0,0,0,0,0,68,72,132,100,38,192.10,307,-15.00,12.00,-987.00
2024-05-17 16:59:27.831460,0,0,0,0,0,0,68,72,132,100,38,192.12,308,8.00,-2.00,-984.00
2024-05-17 16:59:27.959494,0,0,0,0,0,0,68,72,133,100,38,192.12,308,-2.00,-2.00,-978.00
2024-05-17 16:59:28.035451,0,0,0,0,0,0,68,72,133,100,38,192.09,308,-20.00,16.00,-984.00
2024-05-17 16:59:28.137253,0,0,0,0,0,0,68,72,133,100,38,192.10,308,-11.00,16.00,-994.00
2024-05-17 16:59:28.239569,0,0,0,0,0,0,68,72,133,100,38,192.18,308,-13.00,12.00,-1002.00
2024-05-17 16:59:28.369516,0,0,0,0,0,0,68,72,133,100,38,192.15,308,-11.00,11.00,-989.00
2024-05-17 16:59:28.443475,0,0,0,0,0,0,69,71,133,100,38,192.11,308,-7.00,20.00,-1000.00
2024-05-17 16:59:28.574025,0,0,0,0,0,0,69,71,133,100,38,192.17,308,-15.00,18.00,-1003.00
2024-05-17 16:59:28.647225,0,0,0,0,0,0,69,71,133,100,38,192.14,308,-10.00,17.00,-1001.00
2024-05-17 16:59:28.779009,0,0,0,0,0,0,69,71,133,100,38,192.15,308,-4.00,9.00,-994.00
2024-05-17 16:59:28.851678,0,0,0,0,0,0,69,71,133,100,38,192.18,309,-25.00,23.00,-1005.00
2024-05-17 16:59:28.983526,0,0,0,0,0,0,69,71,133,100,38,192.22,309,4.00,-8.00,-982.00
2024-05-17 16:59:29.055537,0,0,0,0,0,0,69,71,133,100,38,192.16,309,1.00,9.00,-1015.00
2024-05-17 16:59:29.173596,0,0,0,0,0,0,69,71,132,100,38,192.15,309,-3.00,24.00,-992.00
2024-05-17 16:59:29.259057,0,0,0,0,0,0,69,71,133,100,38,192.22,309,8.00,16.00,-1008.00
2024-05-17 16:59:29.312364,0,0,0,0,0,0,69,71,132,100,38,192.19,309,-10.00,17.00,-1018.00
2024-05-17 16:59:29.412287,0,0,0,0,0,0,69,70,132,100,38,192.23,309,-7.00,-7.00,-1004.00
2024-05-17 16:59:29.598300,0,0,0,0,0,0,69,70,132,100,38,192.16,309,22.00,-27.00,-1005.00
2024-05-17 16:59:29.616093,0,0,0,0,0,0,69,70,132,100,38,192.24,309,-12.00,8.00,-1042.00
2024-05-17 16:59:29.802679,0,0,0,0,0,0,69,70,132,100,38,192.17,309,-7.00,0.00,-971.00
2024-05-17 16:59:29.820081,0,0,0,0,0,0,69,70,132,100,38,192.22,310,5.00,19.00,-995.00
2024-05-17 16:59:30.007488,0,0,0,0,0,0,69,70,132,100,38,192.13,310,-16.00,7.00,-994.00
2024-05-17 16:59:30.026752,0,0,0,0,0,0,69,70,132,100,38,192.16,310,-8.00,13.00,-995.00
2024-05-17 16:59:30.126585,0,0,0,0,0,0,69,70,132,100,38,192.17,310,-8.00,17.00,-996.00
2024-05-17 16:59:30.228343,0,0,0,0,0,0,69,70,132,100,37,192.22,310,-9.00,8.00,-997.00
2024-05-17 16:59:30.417394,0,0,0,0,0,0,69,70,132,100,37,192.06,310,-9.00,-1.00,-993.00
2024-05-17 16:59:30.432149,0,0,0,0,0,0,68,71,132,100,37,192.14,310,-19.00,31.00,-1013.00
2024-05-17 16:59:30.534161,0,0,0,0,0,0,68,71,132,100,37,192.12,310,-10.00,15.00,-992.00
2024-05-17 16:59:30.726840,0,0,0,0,0,0,68,71,132,100,37,192.11,310,0.00,-3.00,-991.00
2024-05-17 16:59:30.740100,0,0,0,0,0,0,68,71,133,100,37,192.15,310,-11.00,-6.00,-988.00
2024-05-17 16:59:30.840128,0,0,0,0,0,0,68,71,132,100,37,192.13,311,3.00,9.00,-996.00
2024-05-17 16:59:31.031620,0,0,0,0,0,0,68,71,132,100,37,192.12,311,7.00,11.00,-1006.00
2024-05-17 16:59:31.047492,0,0,0,0,0,0,68,71,132,100,37,192.11,311,5.00,-1.00,-976.00
2024-05-17 16:59:31.146112,0,0,0,0,0,0,68,71,132,100,37,192.14,311,-5.00,9.00,-999.00
2024-05-17 16:59:31.249119,0,0,0,0,0,0,68,71,132,100,37,192.09,311,-18.00,-2.00,-1017.00
2024-05-17 16:59:31.351155,0,0,0,0,0,0,68,71,132,100,37,192.15,311,12.00,5.00,-1006.00
2024-05-17 16:59:31.543450,0,0,0,0,0,0,68,70,132,100,37,192.11,311,0.00,3.00,-1006.00
2024-05-17 16:59:31.555060,0,0,0,0,0,0,68,70,132,100,37,192.13,311,19.00,2.00,-1012.00
2024-05-17 16:59:31.748360,0,0,0,0,0,0,68,70,132,100,37,192.10,311,4.00,8.00,-984.00
2024-05-17 16:59:31.759173,0,0,0,0,0,0,68,70,132,100,37,192.11,311,-3.00,3.00,-1009.00
2024-05-17 16:59:31.953052,0,0,0,0,0,0,68,70,133,100,37,192.17,312,-2.00,5.00,-988.00
2024-05-17 16:59:31.963217,0,0,0,0,0,0,68,70,133,100,37,192.12,312,17.00,-1.00,-1015.00
2024-05-17 16:59:32.066176,0,0,0,0,0,0,68,70,133,100,37,192.09,312,6.00,2.00,-988.00
2024-05-17 16:59:32.167497,0,0,0,0,0,0,68,70,132,100,37,192.12,312,-8.00,-4.00,-1000.00
2024-05-17 16:59:32.271457,0,0,0,0,0,0,68,70,132,100,37,192.13,312,3.00,-14.00,-1011.00
2024-05-17 16:59:32.371496,0,0,0,0,0,0,68,70,133,100,37,192.18,312,10.00,0.00,-996.00
2024-05-17 16:59:32.473144,0,0,0,0,0,0,68,71,133,100,37,192.20,312,0.00,9.00,-996.00
2024-05-17 16:59:32.669895,0,0,0,0,0,0,68,71,133,100,37,192.15,312,13.00,-4.00,-1003.00
2024-05-17 16:59:32.680310,0,0,0,0,0,0,68,71,133,100,37,192.16,312,11.00,-2.00,-1010.00
2024-05-17 16:59:32.779226,0,0,0,0,0,0,68,71,133,100,37,192.12,312,6.00,0.00,-998.00
2024-05-17 16:59:32.880987,0,0,0,0,0,0,68,71,133,100,37,192.17,313,12.00,13.00,-1011.00
2024-05-17 16:59:32.935437,0,0,0,0,0,0,68,71,133,100,37,192.15,313,-5.00,13.00,-1009.00
2024-05-17 16:59:33.035362,0,0,0,0,0,0,68,71,133,100,37,192.14,313,6.00,5.00,-992.00
2024-05-17 16:59:33.138387,0,0,0,0,0,0,68,71,133,100,37,192.17,313,6.00,6.00,-1015.00
2024-05-17 16:59:33.238803,0,0,0,0,0,0,68,71,133,100,37,192.13,313,17.00,2.00,-999.00
2024-05-17 16:59:33.386764,0,0,0,0,0,0,68,71,133,100,37,192.16,313,12.00,-6.00,-991.00
2024-05-17 16:59:33.442031,0,0,0,0,0,0,67,70,133,100,37,192.08,313,18.00,3.00,-1007.00
2024-05-17 16:59:33.591564,0,0,0,0,0,0,67,70,133,100,37,192.18,313,3.00,13.00,-979.00
2024-05-17 16:59:33.645983,0,0,0,0,0,0,67,70,133,100,37,192.08,313,3.00,2.00,-1025.00
2024-05-17 16:59:33.797690,0,0,0,0,0,0,67,70,133,100,37,192.13,313,5.00,-6.00,-1010.00
2024-05-17 16:59:33.850009,0,0,0,0,0,0,67,70,133,100,37,192.16,314,-35.00,25.00,-1022.00
2024-05-17 16:59:34.001086,0,0,0,0,0,0,67,70,133,100,37,192.12,314,-22.00,9.00,-1007.00
2024-05-17 16:59:34.053998,0,0,0,0,0,0,67,70,133,100,37,192.17,314,-9.00,23.00,-1006.00
2024-05-17 16:59:34.206064,0,0,0,0,0,0,67,70,133,100,37,192.16,314,8.00,11.00,-985.00
2024-05-17 16:59:34.259397,0,0,0,0,0,0,67,70,133,100,36,192.11,314,10.00,-3.00,-992.00
2024-05-17 16:59:34.410736,0,0,0,0,0,0,67,70,133,100,36,192.06,314,5.00,-2.00,-990.00
2024-05-17 16:59:34.463142,0,0,0,0,0,0,69,71,133,100,36,192.14,314,11.00,7.00,-1014.00
2024-05-17 16:59:34.615573,0,0,0,0,0,0,69,71,133,100,36,192.13,314,5.00,4.00,-999.00
2024-05-17 16:59:34.667122,0,0,0,0,0,0,69,71,133,100,36,192.12,314,-28.00,8.00,-997.00
2024-05-17 16:59:34.820414,0,0,0,0,0,0,69,71,133,100,36,192.12,314,16.00,-1.00,-1001.00
2024-05-17 16:59:34.871213,0,0,0,0,0,0,69,71,132,100,36,192.11,315,0.00,8.00,-990.00
2024-05-17 16:59:35.025123,0,0,0,0,0,0,69,71,132,100,36,192.09,315,16.00,7.00,-1007.00
2024-05-17 16:59:35.075250,0,0,0,0,0,0,69,71,132,100,36,192.12,315,4.00,4.00,-984.00
2024-05-17 16:59:35.177226,0,0,0,0,0,0,69,71,132,100,36,192.10,315,-2.00,1.00,-1001.00
2024-05-17 16:59:35.278982,0,0,0,0,0,0,69,71,132,100,36,192.18,315,-30.00,6.00,-1003.00
2024-05-17 16:59:35.434694,0,0,0,0,0,0,69,71,132,100,36,192.07,315,4.00,-1.00,-1022.00
2024-05-17 16:59:35.483036,0,0,0,0,0,0,68,71,132,100,36,192.08,315,6.00,-1.00,-1004.00
2024-05-17 16:59:35.585009,0,0,0,0,0,0,68,71,132,100,36,192.18,315,-2.00,2.00,-989.00
2024-05-17 16:59:35.742307,0,0,0,0,0,0,68,71,132,100,36,192.10,315,2.00,11.00,-1006.00
2024-05-17 16:59:35.788929,0,0,0,0,0,0,68,71,132,100,36,192.15,316,-20.00,1.00,-1023.00
2024-05-17 16:59:35.946663,0,0,0,0,0,0,68,71,132,100,36,192.14,316,-9.00,8.00,-1002.00
2024-05-17 16:59:35.992965,0,0,0,0,0,0,68,71,131,100,36,192.20,316,6.00,-1.00,-1001.00
2024-05-17 16:59:36.096011,0,0,0,0,0,0,68,71,131,100,36,192.22,316,-34.00,4.00,-990.00
2024-05-17 16:59:36.197424,0,0,0,0,0,0,68,71,131,100,36,192.17,316,16.00,5.00,-987.00
2024-05-17 16:59:36.303714,0,0,0,0,0,0,68,71,132,100,36,192.19,316,0.00,4.00,-1003.00
2024-05-17 16:59:36.401254,0,0,0,0,0,0,68,71,132,100,36,192.12,316,13.00,-8.00,-1000.00
2024-05-17 16:59:36.561009,0,0,0,0,0,0,68,70,132,100,36,192.14,316,0.00,-1.00,-996.00
2024-05-17 16:59:36.604978,0,0,0,0,0,0,68,70,132,100,36,192.10,316,12.00,4.00,-1010.00
2024-05-17 16:59:36.767769,0,0,0,0,0,0,68,70,132,100,36,192.20,316,17.00,0.00,-1002.00
2024-05-17 16:59:36.809430,0,0,0,0,0,0,68,70,132,100,36,192.10,317,2.00,10.00,-993.00
2024-05-17 16:59:36.970639,0,0,0,0,0,0,68,70,132,100,36,192.12,317,6.00,-5.00,-991.00
2024-05-17 16:59:36.971057,0,0,0,0,0,0,68,70,133,100,36,192.05,317,-10.00,1.00,-1005.00
2024-05-17 16:59:37.063769,0,0,0,0,0,0,68,70,133,100,36,192.09,317,12.00,4.00,-1004.00
2024-05-17 16:59:37.175498,0,0,0,0,0,0,68,70,133,100,36,192.14,317,0.00,15.00,-1002.00
2024-05-17 16:59:37.267894,0,0,0,0,0,0,68,70,133,100,35,192.09,317,0.00,9.00,-1000.00
2024-05-17 16:59:37.381356,0,0,0,0,0,0,68,70,133,100,35,192.07,317,37.00,6.00,-1023.00
2024-05-17 16:59:37.472874,0,0,0,0,0,0,67,70,133,100,35,192.14,317,3.00,2.00,-997.00
2024-05-17 16:59:37.574785,0,0,0,0,0,0,67,70,132,100,35,192.17,317,8.00,3.00,-997.00
2024-05-17 16:59:37.687527,0,0,0,0,0,0,67,70,133,100,35,192.16,317,20.00,4.00,-991.00
2024-05-17 16:59:37.779267,0,0,0,0,0,0,67,70,132,100,35,192.10,318,-5.00,16.00,-999.00
2024-05-17 16:59:37.894054,0,0,0,0,0,0,67,70,132,100,35,192.13,318,4.00,11.00,-1011.00
2024-05-17 16:59:37.982827,0,0,0,0,0,0,67,70,132,100,35,192.11,318,7.00,10.00,-1006.00
2024-05-17 16:59:38.098258,0,0,0,0,0,0,67,70,132,100,35,192.19,318,5.00,3.00,-1007.00
2024-05-17 16:59:38.187445,0,0,0,0,0,0,67,70,132,100,35,192.18,318,5.00,3.00,-1011.00
2024-05-17 16:59:38.288887,0,0,0,0,0,0,67,70,132,100,35,192.14,318,-16.00,9.00,-1003.00
2024-05-17 16:59:38.404240,0,0,0,0,0,0,67,70,132,100,35,192.14,318,12.00,-2.00,-980.00
2024-05-17 16:59:38.493444,0,0,0,0,0,0,68,70,133,100,35,192.16,318,17.00,-1.00,-981.00
2024-05-17 16:59:38.595835,0,0,0,0,0,0,68,70,132,100,35,192.08,318,4.00,12.00,-1011.00
2024-05-17 16:59:38.696789,0,0,0,0,0,0,68,70,132,100,35,192.12,318,-12.00,9.00,-1014.00
2024-05-17 16:59:38.799317,0,0,0,0,0,0,68,70,133,100,35,192.19,319,33.00,4.00,-1005.00
2024-05-17 16:59:38.900831,0,0,0,0,0,0,68,70,133,100,35,192.17,319,4.00,2.00,-1001.00
2024-05-17 16:59:39.003103,0,0,0,0,0,0,68,70,133,100,35,192.12,319,-14.00,11.00,-992.00
2024-05-17 16:59:39.105166,0,0,0,0,0,0,68,70,133,100,35,192.20,319,9.00,3.00,-987.00
2024-05-17 16:59:39.208550,0,0,0,0,0,0,68,70,133,100,35,192.11,319,36.00,-22.00,-985.00
2024-05-17 16:59:39.310557,0,0,0,0,0,0,68,70,133,100,35,192.11,319,-13.00,5.00,-985.00
2024-05-17 16:59:39.410881,0,0,0,0,0,0,68,70,133,100,35,192.13,319,18.00,9.00,-1019.00
2024-05-17 16:59:39.530605,0,0,0,0,0,0,68,71,133,100,35,192.17,319,2.00,3.00,-1001.00
2024-05-17 16:59:39.614735,0,0,0,0,0,0,68,71,133,100,35,192.11,319,1.00,5.00,-1013.00
2024-05-17 16:59:39.735719,0,0,0,0,0,0,68,71,133,100,35,192.08,319,-2.00,13.00,-1009.00
2024-05-17 16:59:39.818826,0,0,0,0,0,0,68,71,133,100,35,192.12,320,-11.00,18.00,-990.00
2024-05-17 16:59:39.944012,0,0,0,0,0,0,68,71,133,100,35,192.09,320,-14.00,6.00,-992.00
2024-05-17 16:59:40.022860,0,0,0,0,0,0,68,71,133,100,35,192.08,320,0.00,24.00,-992.00
2024-05-17 16:59:40.145296,0,0,0,0,0,0,68,71,133,100,35,192.11,320,-16.00,12.00,-1000.00
2024-05-17 16:59:40.227069,0,0,0,0,0,0,68,71,133,100,35,192.07,320,-3.00,15.00,-999.00
2024-05-17 16:59:40.330613,0,0,0,0,0,0,68,71,133,100,35,192.08,320,-14.00,15.00,-1007.00
2024-05-17 16:59:40.430540,0,0,0,0,0,0,68,71,133,100,35,192.15,320,-20.00,10.00,-1002.00
2024-05-17 16:59:40.554545,0,0,0,0,0,0,68,71,134,100,35,192.15,320,-16.00,15.00,-1008.00
2024-05-17 16:59:40.634651,0,0,0,0,0,0,68,71,134,100,35,192.12,320,-16.00,11.00,-1019.00
2024-05-17 16:59:40.736644,0,0,0,0,0,0,68,71,134,100,35,192.10,320,-5.00,16.00,-995.00
2024-05-17 16:59:40.861766,0,0,0,0,0,0,68,71,134,100,35,192.14,321,12.00,11.00,-983.00
2024-05-17 16:59:40.940622,0,0,0,0,0,0,68,71,133,100,35,192.13,321,-29.00,7.00,-951.00
2024-05-17 16:59:40.991651,0,0,0,0,0,1,68,71,132,100,35,192.14,321,8.00,9.00,-913.00
2024-05-17 16:59:41.168961,0,0,0,0,0,2,68,71,129,100,35,192.10,321,-21.00,16.00,-905.00
2024-05-17 16:59:41.195499,0,0,0,0,0,2,68,71,126,90,35,192.09,321,-26.00,21.00,-892.00
2024-05-17 16:59:41.297728,0,0,0,0,0,3,68,71,122,90,35,192.03,321,-33.00,12.00,-897.00
2024-05-17 16:59:41.399792,0,0,0,0,0,4,68,71,117,90,35,191.98,321,-29.00,23.00,-896.00
2024-05-17 16:59:41.501607,0,0,0,0,0,5,68,70,112,80,35,191.94,321,-13.00,27.00,-889.00
2024-05-17 16:59:41.604198,0,0,0,0,0,6,68,70,105,70,35,191.80,321,-21.00,18.00,-914.00
2024-05-17 16:59:41.706486,0,0,0,0,0,7,68,70,98,70,35,191.78,321,5.00,-6.00,-971.00
2024-05-17 16:59:41.808562,0,0,0,0,0,7,68,70,89,60,35,191.65,322,-26.00,20.00,-996.00
2024-05-17 16:59:41.911002,0,0,0,0,0,7,68,70,82,50,35,191.59,322,-19.00,19.00,-1040.00
2024-05-17 16:59:42.097273,0,0,0,0,0,7,68,70,75,40,35,191.60,322,-4.00,0.00,-1023.00
2024-05-17 16:59:42.113528,0,0,0,0,0,6,68,70,69,40,35,191.48,322,-24.00,11.00,-1051.00
2024-05-17 16:59:42.215560,0,0,0,0,0,5,68,70,65,30,35,191.37,322,-17.00,11.00,-1050.00
2024-05-17 16:59:42.317469,0,0,0,0,0,5,68,70,58,30,35,191.48,322,-6.00,-3.00,-992.00
2024-05-17 16:59:42.500133,0,0,0,0,0,5,68,70,52,20,35,191.39,322,4.00,8.00,-1016.00
2024-05-17 16:59:42.521374,0,0,0,0,0,4,68,70,47,20,35,191.30,322,10.00,3.00,-1015.00
2024-05-17 16:59:42.623334,0,0,0,0,0,4,68,70,43,10,35,191.36,322,-32.00,14.00,-1018.00
2024-05-17 16:59:42.725828,0,0,0,0,0,4,68,70,37,10,35,191.29,322,16.00,12.00,-998.00
2024-05-17 16:59:42.827416,0,0,0,0,0,4,68,70,32,0,35,191.13,323,-28.00,20.00,-1014.00
2024-05-17 16:59:43.012099,0,0,0,0,0,4,68,70,27,0,35,191.14,323,-15.00,21.00,-1018.00
2024-05-17 16:59:43.031355,0,0,0,0,0,4,68,70,23,0,35,191.09,323,-17.00,15.00,-982.00
2024-05-17 16:59:43.216942,0,0,0,0,0,4,68,70,19,0,35,190.96,323,0.00,0.00,-998.00
2024-05-17 16:59:43.235386,0,0,0,0,0,4,68,70,15,-10,35,190.60,323,3.00,4.00,-1019.00
2024-05-17 16:59:43.337410,0,0,0,0,0,4,68,70,10,-10,35,189.91,323,-24.00,6.00,-1033.00
2024-05-17 16:59:43.439407,0,0,0,0,0,3,68,70,10,-20,35,188.62,323,-6.00,-6.00,-1061.00
2024-05-17 16:59:43.542224,-1,0,0,0,0,2,68,70,10,-20,35,186.88,323,-7.00,3.00,-1079.00
2024-05-17 16:59:43.731151,-1,-1,0,0,0,-1,68,70,10,-20,35,188.45,323,21.00,-5.00,-1009.00
