TS,pitch,roll,yaw,vgx,vgy,vgz,templ,temph,tof,h,bat,baro,time,agx,agy,agz
2024-05-17 17:00:13.174179,0,0,-1,0,0,0,73,74,10,0,35,190.57,324,9.00,4.00,-998.00
2024-05-17 17:00:13.278902,0,0,-1,0,0,0,73,74,10,0,35,190.56,324,8.00,6.00,-999.00
2024-05-17 17:00:13.379083,0,0,-1,0,0,0,73,74,10,0,35,190.62,324,8.00,7.00,-999.00
2024-05-17 17:00:13.480160,0,0,-1,0,0,0,73,74,10,0,35,190.63,324,8.00,5.00,-999.00
2024-05-17 17:00:13.583459,0,0,-1,0,0,0,73,74,10,0,35,190.56,324,10.00,6.00,-1001.00
2024-05-17 17:00:13.732971,0,0,-1,0,0,0,73,74,10,0,35,190.62,324,9.00,4.00,-1000.00
2024-05-17 17:00:13.787737,0,0,-1,0,0,0,73,74,10,0,35,190.59,324,7.00,5.00,-1001.00
2024-05-17 17:00:13.887905,0,0,-1,0,0,0,73,74,10,0,35,190.61,324,8.00,5.00,-998.00
2024-05-17 17:00:13.990092,0,0,-1,0,0,0,73,74,10,0,35,190.61,324,8.00,6.00,-999.00
2024-05-17 17:00:14.141551,0,0,-1,0,0,0,73,74,10,0,35,190.56,324,10.00,4.00,-999.00
2024-05-17 17:00:14.193891,0,0,-1,0,0,0,73,74,10,0,35,190.57,324,9.00,5.00,-999.00
2024-05-17 17:00:14.346308,0,0,-1,0,0,0,73,74,10,0,35,190.57,324,8.00,5.00,-1003.00
2024-05-17 17:00:14.398098,0,0,-1,0,0,0,73,74,10,0,35,190.64,324,10.00,5.00,-1001.00
2024-05-17 17:00:14.449007,0,0,-1,0,0,0,73,74,10,0,35,190.62,324,8.00,5.00,-998.00
2024-05-17 17:00:14.551275,0,0,-1,0,0,0,73,74,10,0,35,190.60,324,10.00,6.00,-1001.00
2024-05-17 17:00:14.704027,0,0,-1,0,0,0,72,75,10,0,35,190.62,324,9.00,5.00,-997.00
2024-05-17 17:00:14.755854,0,0,-1,0,0,0,72,75,10,0,35,190.64,324,9.00,6.00,-1001.00
2024-05-17 17:00:14.858486,0,0,-1,0,0,0,72,75,10,0,35,190.64,324,9.00,5.00,-1001.00
2024-05-17 17:00:14.960846,0,0,-1,0,0,0,72,75,10,0,35,190.57,324,10.00,6.00,-998.00
2024-05-17 17:00:15.064146,0,0,-1,0,0,0,72,75,10,0,35,190.61,324,9.00,6.00,-999.00
2024-05-17 17:00:15.163158,0,0,-1,0,0,0,72,75,10,0,35,190.61,324,10.00,4.00,-997.00
2024-05-17 17:00:15.267976,0,0,-1,0,0,0,72,75,10,0,35,190.65,324,9.00,6.00,-999.00
2024-05-17 17:00:15.367460,0,0,-1,0,0,0,72,75,10,0,35,190.64,324,8.00,5.00,-1000.00
2024-05-17 17:00:15.473302,0,0,-1,0,0,0,72,75,10,0,35,190.65,324,8.00,4.00,-1001.00
2024-05-17 17:00:15.571186,0,0,-1,0,0,0,72,75,10,0,35,190.57,324,10.00,5.00,-999.00
2024-05-17 17:00:15.677542,0,0,-1,0,0,0,72,76,10,0,35,190.55,324,9.00,5.00,-997.00
2024-05-17 17:00:15.775345,0,0,-1,0,0,0,72,76,10,0,35,190.62,324,8.00,6.00,-1000.00
2024-05-17 17:00:15.882480,0,0,-1,0,0,0,72,76,10,0,35,190.60,324,9.00,5.00,-1001.00
2024-05-17 17:00:15.979131,0,0,-1,0,0,0,72,76,10,0,35,190.56,324,8.00,6.00,-1001.00
2024-05-17 17:00:16.087284,0,0,-1,0,0,0,72,76,10,0,35,190.60,324,9.00,4.00,-997.00
2024-05-17 17:00:16.183118,0,0,-1,0,0,0,72,76,10,0,35,190.58,324,9.00,6.00,-1000.00
2024-05-17 17:00:16.284975,0,0,-1,0,0,0,72,76,10,0,35,190.65,324,10.00,5.00,-1003.00
2024-05-17 17:00:16.394346,0,0,-1,0,0,0,72,76,10,0,35,190.56,325,7.00,1.00,-999.00
2024-05-17 17:00:16.490144,0,0,-1,0,0,0,72,76,10,0,35,190.56,325,12.00,7.00,-994.00
2024-05-17 17:00:16.599120,0,0,0,0,0,0,72,76,10,0,35,190.56,325,12.00,15.00,-998.00
2024-05-17 17:00:16.692815,0,0,0,0,0,0,73,75,10,0,35,190.56,325,-2.00,-17.00,-1018.00
2024-05-17 17:00:16.803735,0,0,1,0,0,0,73,75,10,0,35,190.56,325,-1.00,2.00,-1077.00
2024-05-17 17:00:16.897012,1,0,1,0,0,0,73,75,10,0,35,190.56,325,-6.00,-34.00,-1081.00
2024-05-17 17:00:17.008634,1,-1,1,0,0,-1,73,75,10,0,35,190.56,325,4.00,-3.00,-1157.00
2024-05-17 17:00:17.100971,0,1,1,0,0,-4,73,75,10,0,35,190.56,325,-4.00,-8.00,-1324.00
2024-05-17 17:00:17.214781,-1,1,1,0,0,-6,73,75,12,0,35,190.56,325,-15.00,-3.00,-1203.00
2024-05-17 17:00:17.308017,-1,0,1,0,0,-7,73,75,21,10,35,190.82,325,-10.00,-13.00,-1100.00
2024-05-17 17:00:17.406895,-1,0,1,0,0,-8,73,75,27,20,35,190.98,326,-8.00,-3.00,-1003.00
2024-05-17 17:00:17.520626,-1,0,1,0,0,-8,73,75,35,30,35,191.03,326,-19.00,9.00,-999.00
2024-05-17 17:00:17.612962,-1,0,1,0,0,-7,73,75,43,30,35,191.18,326,-29.00,24.00,-945.00
2024-05-17 17:00:17.713392,-1,0,1,0,0,-6,73,75,50,40,35,191.15,326,-15.00,18.00,-937.00
2024-05-17 17:00:17.827814,-1,0,1,0,0,-5,73,75,57,50,35,191.26,326,-8.00,-4.00,-886.00
2024-05-17 17:00:17.918015,-2,0,1,0,0,-4,73,75,62,50,35,191.33,326,-30.00,20.00,-894.00
2024-05-17 17:00:17.968470,-1,0,1,0,0,-3,73,75,65,60,35,191.33,326,-57.00,46.00,-905.00
2024-05-17 17:00:18.137366,-1,0,1,0,0,-2,73,75,68,60,35,191.39,326,-3.00,17.00,-910.00
2024-05-17 17:00:18.172814,-1,0,1,0,0,-1,73,75,71,60,35,191.32,326,-20.00,3.00,-913.00
2024-05-17 17:00:18.343076,-1,0,1,0,0,0,73,75,72,60,35,191.39,326,-11.00,-1.00,-931.00
2024-05-17 17:00:18.375894,-1,0,1,0,0,0,73,75,73,60,35,191.41,327,-44.00,12.00,-955.00
2024-05-17 17:00:18.546142,-1,0,1,0,0,0,73,75,74,60,35,191.39,327,-13.00,-4.00,-973.00
2024-05-17 17:00:18.580340,-1,0,1,0,0,0,73,75,75,60,35,191.45,327,-19.00,22.00,-982.00
2024-05-17 17:00:18.751273,-1,0,1,0,0,0,73,75,75,60,35,191.42,327,2.00,-6.00,-993.00
2024-05-17 17:00:18.783530,-1,0,1,0,0,0,73,75,76,60,35,191.43,327,-1.00,-14.00,-993.00
2024-05-17 17:00:18.954183,-1,0,1,0,0,0,73,75,76,60,35,191.41,327,12.00,-25.00,-1004.00
2024-05-17 17:00:18.987733,-1,0,1,0,0,0,73,75,77,60,35,191.45,327,-10.00,16.00,-1026.00
2024-05-17 17:00:19.163913,0,0,1,0,0,0,73,75,78,60,35,191.50,327,-6.00,-12.00,-1000.00
2024-05-17 17:00:19.195896,0,0,1,0,0,0,73,75,79,70,35,191.50,327,2.00,-5.00,-1043.00
2024-05-17 17:00:19.295182,-1,0,1,0,0,0,73,75,79,70,35,191.47,327,-19.00,11.00,-994.00
2024-05-17 17:00:19.398019,-1,0,1,0,0,0,73,75,80,70,35,191.47,328,-3.00,-21.00,-960.00
2024-05-17 17:00:19.497624,-1,0,1,0,0,0,73,75,81,70,35,191.53,328,-3.00,-3.00,-1001.00
2024-05-17 17:00:19.672325,-1,0,1,0,0,0,73,75,81,70,35,191.51,328,-21.00,10.00,-1001.00
2024-05-17 17:00:19.705420,0,0,1,0,0,0,73,75,82,70,35,191.49,328,-14.00,-11.00,-1003.00
2024-05-17 17:00:19.803720,0,0,1,0,0,0,73,75,82,70,35,191.55,328,-8.00,2.00,-982.00
2024-05-17 17:00:19.905665,0,0,1,0,0,0,73,75,82,70,35,191.56,328,-1.00,-1.00,-991.00
2024-05-17 17:00:20.080605,0,0,1,0,0,0,73,75,81,70,35,191.48,328,0.00,0.00,-989.00
2024-05-17 17:00:20.111168,0,0,1,0,0,0,73,75,82,70,35,191.47,328,8.00,-1.00,-999.00
2024-05-17 17:00:20.211810,0,0,1,0,0,0,73,75,82,70,35,191.51,328,2.00,-8.00,-1002.00
2024-05-17 17:00:20.391568,0,0,1,0,0,0,73,75,82,70,35,191.52,328,-9.00,-3.00,-972.00
2024-05-17 17:00:20.417252,0,0,1,0,0,0,73,75,82,70,35,191.49,329,3.00,-2.00,-997.00
2024-05-17 17:00:20.517619,0,0,1,0,0,0,73,75,82,70,35,191.52,329,-3.00,0.00,-998.00
2024-05-17 17:00:20.695349,0,0,1,0,0,0,73,75,82,70,35,191.56,329,2.00,-7.00,-1001.00
2024-05-17 17:00:20.729159,0,0,1,0,0,0,72,75,82,70,35,191.55,329,-5.00,-2.00,-993.00
2024-05-17 17:00:20.824011,0,0,1,0,0,0,72,75,82,70,35,191.51,329,-2.00,-7.00,-1007.00
2024-05-17 17:00:21.106888,0,0,1,0,0,0,72,75,82,70,35,191.55,329,16.00,-15.00,-997.00
2024-05-17 17:00:21.107144,0,0,1,0,0,0,72,75,82,70,35,191.55,329,3.00,0.00,-1002.00
2024-05-17 17:00:21.129903,0,0,1,0,0,0,72,75,82,70,35,191.54,329,16.00,-3.00,-992.00
2024-05-17 17:00:21.309615,0,0,1,0,0,0,72,75,82,70,35,191.51,329,7.00,-10.00,-975.00
2024-05-17 17:00:21.334041,0,0,1,0,0,0,72,75,82,70,35,191.52,329,10.00,-5.00,-986.00
2024-05-17 17:00:21.435630,0,0,1,0,0,0,72,75,82,70,35,191.50,330,4.00,0.00,-1006.00
2024-05-17 17:00:21.616784,0,0,1,0,0,0,72,75,82,70,35,191.46,330,-24.00,24.00,-1008.00
2024-05-17 17:00:21.617040,0,0,1,0,0,0,72,75,82,70,35,191.52,330,6.00,0.00,-1006.00
2024-05-17 17:00:21.742909,0,0,1,0,0,0,72,75,82,70,35,191.60,330,-17.00,2.00,-1002.00
2024-05-17 17:00:21.924090,0,0,1,0,0,0,72,75,82,70,35,191.45,330,-5.00,12.00,-1015.00
2024-05-17 17:00:21.946723,0,0,1,0,0,0,72,75,82,70,35,191.54,330,3.00,-1.00,-991.00
2024-05-17 17:00:22.128815,0,0,1,0,0,0,72,75,82,70,35,191.48,330,-22.00,16.00,-999.00
2024-05-17 17:00:22.129072,0,0,1,0,0,0,72,75,83,70,35,191.59,330,-10.00,0.00,-1015.00
2024-05-17 17:00:22.201699,0,0,1,0,0,0,72,75,83,70,35,191.53,330,6.00,0.00,-1015.00
2024-05-17 17:00:22.334723,-1,0,1,0,0,0,72,75,83,70,35,191.50,330,11.00,-7.00,-1006.00
2024-05-17 17:00:22.407752,-1,0,1,0,0,0,72,75,83,70,35,191.49,331,-6.00,3.00,-994.00
2024-05-17 17:00:22.539933,0,0,1,0,0,0,72,75,83,70,35,191.50,331,-26.00,-2.00,-996.00
2024-05-17 17:00:22.610978,0,0,1,0,0,0,72,75,83,70,35,191.49,331,-1.00,-3.00,-998.00
2024-05-17 17:00:22.763514,0,0,1,0,0,0,72,74,83,70,35,191.52,331,0.00,3.00,-998.00
2024-05-17 17:00:22.947820,0,0,1,0,0,0,72,74,83,70,35,191.48,331,-12.00,14.00,-999.00
2024-05-17 17:00:22.948002,0,0,1,0,0,0,72,74,84,70,35,191.56,331,1.00,5.00,-1074.00
2024-05-17 17:00:23.021082,0,0,1,0,0,-1,72,74,84,70,35,191.51,331,-3.00,7.00,-1108.00
2024-05-17 17:00:23.120762,0,0,1,0,0,-2,72,74,86,70,35,191.58,331,-6.00,14.00,-1095.00
2024-05-17 17:00:23.255037,0,0,1,0,0,-3,72,74,89,70,35,191.66,331,10.00,2.00,-1079.00
2024-05-17 17:00:23.324701,0,0,1,0,0,-3,72,74,93,80,35,191.61,331,8.00,12.00,-1084.00
2024-05-17 17:00:23.460178,0,0,1,0,0,-4,72,74,97,80,35,191.70,332,34.00,4.00,-1064.00
2024-05-17 17:00:23.528806,0,0,1,0,0,-5,72,74,102,90,35,191.72,332,5.00,5.00,-1031.00
2024-05-17 17:00:23.664621,0,0,1,0,0,-5,72,74,108,90,35,191.78,332,-9.00,4.00,-1017.00
2024-05-17 17:00:23.732682,0,0,1,0,0,-5,72,75,113,100,35,191.79,332,-2.00,9.00,-1026.00
2024-05-17 17:00:23.876228,0,0,1,0,0,-5,72,75,119,100,35,191.91,332,5.00,6.00,-1017.00
2024-05-17 17:00:23.937667,0,0,1,0,0,-5,72,75,124,110,35,191.92,332,27.00,0.00,-994.00
2024-05-17 17:00:24.040648,0,0,1,0,0,-5,72,75,130,120,35,192.01,332,12.00,3.00,-1011.00
2024-05-17 17:00:24.140837,0,0,1,0,0,-5,72,75,135,120,35,192.06,332,3.00,6.00,-974.00
2024-05-17 17:00:24.279032,0,0,1,0,0,-5,72,75,141,130,35,192.06,332,5.00,13.00,-970.00
2024-05-17 17:00:24.344529,0,0,1,0,0,-4,72,75,146,130,35,192.17,332,2.00,12.00,-948.00
2024-05-17 17:00:24.448855,0,0,1,0,0,-4,72,75,151,140,35,192.21,333,9.00,17.00,-961.00
2024-05-17 17:00:24.548548,0,0,1,0,0,-4,72,75,155,140,35,192.27,333,32.00,-4.00,-941.00
2024-05-17 17:00:24.688611,0,0,1,0,0,-3,72,75,160,140,35,192.35,333,16.00,12.00,-962.00
2024-05-17 17:00:24.757358,0,0,1,0,0,-3,72,74,162,150,35,192.29,333,12.00,19.00,-972.00
2024-05-17 17:00:24.855350,0,0,1,0,0,-3,72,74,168,150,35,192.39,333,0.00,3.00,-959.00
2024-05-17 17:00:24.956522,0,0,1,0,0,-2,72,74,171,150,35,192.39,333,-8.00,9.00,-970.00
2024-05-17 17:00:25.058599,0,0,1,0,0,-2,72,74,173,160,35,192.42,333,12.00,37.00,-981.00
2024-05-17 17:00:25.200988,0,0,1,0,0,-2,72,74,175,160,35,192.52,333,6.00,7.00,-990.00
2024-05-17 17:00:25.262689,0,0,1,0,0,-1,72,74,176,160,35,192.48,333,-1.00,14.00,-985.00
2024-05-17 17:00:25.405410,0,0,1,0,0,-1,72,74,178,160,35,192.49,333,7.00,-5.00,-970.00
2024-05-17 17:00:25.471431,0,0,1,0,0,-1,72,74,179,160,35,192.46,334,-2.00,23.00,-988.00
2024-05-17 17:00:25.568766,0,0,1,0,0,-1,72,74,180,170,35,192.54,334,22.00,-5.00,-972.00
2024-05-17 17:00:25.712914,0,0,1,0,0,0,72,74,181,170,35,192.46,334,29.00,-9.00,-951.00
2024-05-17 17:00:25.772822,0,0,1,0,0,0,71,74,181,170,35,192.50,334,2.00,-4.00,-974.00
2024-05-17 17:00:25.918834,0,0,1,0,0,0,71,74,182,170,35,192.49,334,11.00,2.00,-1009.00
2024-05-17 17:00:25.977097,0,0,1,0,0,0,71,74,182,170,35,192.48,334,4.00,9.00,-985.00
2024-05-17 17:00:26.124944,0,0,1,0,0,0,71,74,182,170,35,192.49,334,7.00,-11.00,-966.00
2024-05-17 17:00:26.180693,0,0,1,0,0,0,71,74,182,170,35,192.55,334,2.00,0.00,-981.00
2024-05-17 17:00:26.329591,0,0,1,0,0,0,71,74,182,170,35,192.59,334,-3.00,27.00,-993.00
2024-05-17 17:00:26.384976,0,0,1,0,0,0,71,74,182,170,35,192.48,334,-1.00,18.00,-996.00
2024-05-17 17:00:26.488749,0,0,1,0,0,0,71,74,183,170,35,192.53,335,10.00,12.00,-997.00
2024-05-17 17:00:26.589238,0,0,1,0,0,0,71,74,183,170,35,192.55,335,0.00,25.00,-998.00
2024-05-17 17:00:26.639774,0,0,1,0,0,0,71,74,183,170,35,192.56,335,3.00,5.00,-993.00
2024-05-17 17:00:26.839174,0,0,1,0,0,0,71,75,183,170,35,192.53,335,12.00,11.00,-1007.00
2024-05-17 17:00:26.843434,0,0,1,0,0,0,71,75,183,170,35,192.53,335,4.00,17.00,-1012.00
2024-05-17 17:00:26.947690,0,0,1,0,0,0,71,75,184,170,35,192.54,335,16.00,9.00,-996.00
2024-05-17 17:00:27.048856,0,0,1,0,0,0,71,75,184,170,35,192.50,335,-1.00,13.00,-978.00
2024-05-17 17:00:27.149419,0,0,1,0,0,0,71,75,184,170,35,192.58,335,8.00,17.00,-985.00
2024-05-17 17:00:27.251457,0,0,1,0,0,0,71,75,185,170,35,192.56,335,-7.00,12.00,-992.00
2024-05-17 17:00:27.353300,0,0,1,0,0,0,71,75,184,170,35,192.54,335,14.00,6.00,-982.00
2024-05-17 17:00:27.455276,0,0,1,0,0,0,71,75,184,170,35,192.53,336,17.00,-3.00,-988.00
2024-05-17 17:00:27.557305,0,0,1,0,0,0,71,75,184,170,35,192.55,336,8.00,23.00,-997.00
2024-05-17 17:00:27.762410,0,0,1,0,0,0,71,75,184,170,35,192.50,336,23.00,1.00,-970.00
2024-05-17 17:00:27.762591,0,0,1,0,0,0,71,73,183,170,35,192.57,336,-7.00,34.00,-969.00
2024-05-17 17:00:27.863266,0,0,1,0,0,0,71,73,182,170,35,192.53,336,24.00,-7.00,-963.00
2024-05-17 17:00:27.965426,0,0,1,0,0,1,71,73,181,170,35,192.51,336,39.00,-17.00,-933.00
2024-05-17 17:00:28.067699,0,0,1,0,0,1,71,73,179,170,35,192.48,336,11.00,11.00,-971.00
2024-05-17 17:00:28.170166,0,0,1,0,0,2,71,73,176,160,35,192.46,336,14.00,9.00,-993.00
2024-05-17 17:00:28.273236,0,0,1,0,0,2,71,73,174,160,35,192.39,336,9.00,15.00,-993.00
2024-05-17 17:00:28.373216,0,0,1,0,0,2,71,73,171,160,35,192.43,336,11.00,6.00,-994.00
2024-05-17 17:00:28.475194,0,0,1,0,0,2,71,73,168,160,35,192.38,337,9.00,6.00,-998.00
2024-05-17 17:00:28.577212,0,0,1,0,0,2,71,73,165,150,35,192.39,337,10.00,9.00,-1001.00
2024-05-17 17:00:28.682642,0,0,1,0,0,2,71,73,162,150,35,192.27,337,6.00,16.00,-1010.00
2024-05-17 17:00:28.781136,0,0,1,0,0,2,71,73,160,150,35,192.25,337,15.00,5.00,-1011.00
2024-05-17 17:00:28.884261,0,0,1,0,0,2,71,73,157,140,35,192.36,337,8.00,11.00,-1004.00
2024-05-17 17:00:28.989383,0,0,1,0,0,2,71,73,155,140,35,192.16,337,11.00,19.00,-1025.00
2024-05-17 17:00:29.087276,0,0,1,0,0,2,71,73,152,140,35,192.22,337,-12.00,-4.00,-999.00
2024-05-17 17:00:29.195035,0,0,1,0,0,2,71,73,150,140,35,192.21,337,6.00,10.00,-1029.00
2024-05-17 17:00:29.291174,0,0,1,0,0,1,71,73,148,130,35,192.11,337,34.00,-12.00,-1015.00
2024-05-17 17:00:29.399407,0,0,1,0,0,1,71,73,145,130,35,192.17,338,0.00,14.00,-1018.00
2024-05-17 17:00:29.497941,0,0,1,0,0,1,71,73,143,130,35,192.13,338,10.00,-1.00,-1010.00
2024-05-17 17:00:29.598864,0,0,1,0,0,1,71,73,142,130,35,192.12,338,-5.00,24.00,-1021.00
2024-05-17 17:00:29.700543,0,0,1,0,0,1,71,73,140,130,35,192.07,338,10.00,7.00,-986.00
2024-05-17 17:00:29.808802,0,0,1,0,0,1,71,73,139,130,35,192.07,338,4.00,4.00,-1013.00
2024-05-17 17:00:29.903175,0,0,1,0,0,1,71,73,138,130,35,192.13,338,29.00,-3.00,-1015.00
2024-05-17 17:00:30.013777,0,0,1,0,0,0,71,73,137,120,35,192.07,338,1.00,-12.00,-1018.00
2024-05-17 17:00:30.107526,0,0,1,0,0,0,71,73,136,120,35,192.08,338,38.00,3.00,-1022.00
2024-05-17 17:00:30.218702,0,0,1,0,0,0,71,73,135,120,35,192.02,338,23.00,-17.00,-1025.00
2024-05-17 17:00:30.260692,0,0,1,0,0,0,71,73,134,120,35,192.03,338,-8.00,5.00,-1030.00
2024-05-17 17:00:30.427550,0,0,1,0,0,0,71,73,133,120,35,192.06,339,-18.00,23.00,-1030.00
2024-05-17 17:00:30.464562,0,0,1,0,0,0,71,73,133,120,35,192.02,339,2.00,20.00,-1007.00
2024-05-17 17:00:30.628044,0,0,1,0,0,0,71,73,133,120,35,192.06,339,-4.00,12.00,-1002.00
2024-05-17 17:00:30.668466,0,0,1,0,0,0,71,73,133,120,35,191.97,339,16.00,-4.00,-1007.00
2024-05-17 17:00:30.832801,0,0,1,0,0,0,70,73,134,120,35,191.92,339,22.00,-3.00,-1017.00
2024-05-17 17:00:30.872432,0,0,1,0,0,0,70,73,133,120,35,192.04,339,-9.00,17.00,-997.00
2024-05-17 17:00:31.037458,0,0,1,0,0,0,70,73,133,120,35,192.07,339,5.00,14.00,-987.00
2024-05-17 17:00:31.076413,0,0,1,0,0,0,70,73,133,120,35,192.07,339,-9.00,11.00,-1022.00
2024-05-17 17:00:31.242680,0,0,1,0,0,0,70,73,134,120,35,192.12,339,1.00,10.00,-1006.00
2024-05-17 17:00:31.280508,0,0,1,0,0,0,70,73,134,120,35,192.10,339,-40.00,58.00,-1021.00
2024-05-17 17:00:31.448026,0,0,1,0,0,0,70,73,135,120,35,192.05,340,-3.00,22.00,-1021.00
2024-05-17 17:00:31.484411,0,0,1,0,0,0,70,73,135,120,35,192.07,340,-1.00,7.00,-1013.00
2024-05-17 17:00:31.586390,0,0,1,0,0,0,70,73,135,120,35,192.07,340,-21.00,38.00,-1000.00
2024-05-17 17:00:31.754463,0,0,1,0,0,0,70,73,135,120,35,192.07,340,0.00,10.00,-989.00
2024-05-17 17:00:31.794413,0,0,1,0,0,0,70,72,135,120,35,192.05,340,-4.00,11.00,-992.00
2024-05-17 17:00:31.893257,0,0,1,0,0,0,70,72,135,120,35,192.03,340,1.00,4.00,-996.00
2024-05-17 17:00:32.017391,0,0,1,0,0,0,70,72,135,120,35,192.04,340,-2.00,15.00,-998.00
2024-05-17 17:00:32.096553,0,0,1,0,0,0,70,72,135,120,35,192.06,340,0.00,-1.00,-998.00
2024-05-17 17:00:32.266398,0,0,1,0,0,0,70,72,135,120,35,192.05,340,4.00,1.00,-1013.00
2024-05-17 17:00:32.300462,0,0,1,0,0,0,70,72,135,120,35,192.02,340,2.00,0.00,-988.00
2024-05-17 17:00:32.402459,0,0,1,0,0,0,70,72,135,120,35,192.03,341,9.00,-7.00,-1005.00
2024-05-17 17:00:32.504533,0,0,1,0,0,0,70,72,135,120,35,192.10,341,6.00,-6.00,-1000.00
2024-05-17 17:00:32.676000,0,0,1,0,0,0,70,72,135,120,35,192.04,341,-18.00,1.00,-991.00
2024-05-17 17:00:32.708810,0,0,1,0,0,0,70,72,135,120,35,192.10,341,9.00,10.00,-1009.00
2024-05-17 17:00:32.880839,0,0,1,0,0,0,70,72,135,120,35,192.09,341,-2.00,22.00,-999.00
2024-05-17 17:00:32.912381,0,0,1,0,0,0,70,72,136,120,35,192.05,341,-3.00,7.00,-1006.00
2024-05-17 17:00:33.086392,0,0,1,0,0,0,70,72,136,120,35,192.03,341,3.00,3.00,-1005.00
2024-05-17 17:00:33.116257,0,0,1,0,0,0,70,72,136,120,35,192.02,341,-16.00,25.00,-1014.00
2024-05-17 17:00:33.291656,0,0,1,0,0,0,70,72,136,120,35,192.10,341,1.00,7.00,-1012.00
2024-05-17 17:00:33.320390,0,0,1,0,0,0,70,72,136,120,35,192.14,341,-20.00,17.00,-1016.00
2024-05-17 17:00:33.495299,0,0,1,0,0,0,70,72,136,120,35,192.10,342,-26.00,11.00,-1000.00
2024-05-17 17:00:33.524353,0,0,1,0,0,0,70,72,136,120,35,192.13,342,15.00,-13.00,-992.00
2024-05-17 17:00:33.699825,0,0,1,0,0,0,70,72,136,120,35,192.03,342,-2.00,7.00,-997.00
2024-05-17 17:00:33.728248,0,0,1,0,0,0,70,72,136,120,35,192.09,342,0.00,7.00,-994.00
2024-05-17 17:00:33.904807,0,0,1,0,0,0,70,72,136,120,35,192.09,342,11.00,7.00,-995.00
2024-05-17 17:00:33.932242,0,0,1,0,0,0,70,72,136,120,35,192.08,342,-7.00,0.00,-984.00
2024-05-17 17:00:34.049928,0,0,1,0,0,0,70,72,135,120,35,192.13,342,-9.00,13.00,-997.00
2024-05-17 17:00:34.136194,0,0,1,0,0,0,70,72,136,120,35,192.04,342,-5.00,8.00,-997.00
2024-05-17 17:00:34.186926,0,0,1,0,0,0,70,72,136,120,35,192.04,342,-23.00,16.00,-980.00
2024-05-17 17:00:34.314151,6,0,1,0,0,0,70,72,137,120,35,192.06,342,-20.00,10.00,-1006.00
2024-05-17 17:00:34.390886,8,0,1,-1,0,0,70,72,138,120,35,192.05,343,28.00,0.00,-1009.00
2024-05-17 17:00:34.493133,8,0,1,-3,0,0,70,72,137,120,35,192.06,343,16.00,2.00,-995.00
2024-05-17 17:00:34.624783,8,0,1,-4,0,0,70,72,137,120,35,192.08,343,12.00,4.00,-1040.00
2024-05-17 17:00:34.698462,7,0,1,-5,0,0,70,72,137,120,35,191.99,343,29.00,0.00,-1046.00
2024-05-17 17:00:34.798900,7,0,1,-6,0,0,70,72,137,120,35,192.03,343,27.00,-11.00,-1009.00
2024-05-17 17:00:34.928700,5,0,1,-7,0,0,70,72,137,120,35,192.02,343,37.00,0.00,-1000.00
2024-05-17 17:00:35.002917,4,0,1,-7,0,0,70,72,137,120,35,192.06,343,44.00,-19.00,-1027.00
2024-05-17 17:00:35.133461,2,0,1,-8,0,0,70,72,137,120,35,192.02,343,47.00,-12.00,-1011.00
2024-05-17 17:00:35.206862,0,0,1,-7,0,0,70,72,137,120,35,192.04,343,43.00,-2.00,-1002.00
2024-05-17 17:00:35.338763,-2,0,1,-7,0,0,70,72,138,120,35,191.97,343,63.00,-19.00,-995.00
2024-05-17 17:00:35.410863,-4,0,1,-6,0,0,70,72,136,120,35,191.95,344,43.00,-23.00,-987.00
2024-05-17 17:00:35.512919,-4,0,1,-4,0,0,70,72,137,120,35,191.97,344,27.00,-21.00,-999.00
2024-05-17 17:00:35.616360,-2,0,1,-4,0,0,70,72,138,120,35,191.91,344,26.00,-19.00,-996.00
2024-05-17 17:00:35.718480,-1,0,1,-3,0,0,70,72,137,120,35,192.00,344,22.00,-22.00,-997.00
2024-05-17 17:00:35.819346,0,0,1,-3,0,0,70,72,136,120,35,192.08,344,17.00,-14.00,-987.00
2024-05-17 17:00:35.956180,0,0,1,-2,0,0,70,72,136,120,35,192.05,344,38.00,-25.00,-992.00
2024-05-17 17:00:36.026420,0,0,1,-2,0,0,70,72,136,120,35,192.08,344,12.00,-15.00,-992.00
2024-05-17 17:00:36.124919,0,0,1,-2,0,0,70,72,136,120,35,192.00,344,0.00,5.00,-1014.00
2024-05-17 17:00:36.227860,0,0,1,-2,0,0,70,72,135,120,35,192.00,344,18.00,1.00,-1035.00
2024-05-17 17:00:36.362488,-1,0,1,-2,0,0,70,72,136,120,35,192.01,344,2.00,3.00,-992.00
2024-05-17 17:00:36.430864,-2,0,1,-1,0,0,70,72,136,120,35,192.02,345,43.00,-28.00,-1017.00
2024-05-17 17:00:36.566841,-3,0,1,-1,0,0,70,72,136,120,35,192.04,345,21.00,-9.00,-965.00
2024-05-17 17:00:36.635523,-1,0,1,0,0,0,70,72,136,120,35,191.99,345,-21.00,0.00,-1004.00
2024-05-17 17:00:36.771949,-1,0,1,0,0,0,70,72,136,120,35,192.04,345,11.00,-13.00,-1011.00
2024-05-17 17:00:36.839347,0,0,1,0,0,0,71,72,136,120,35,192.01,345,-16.00,-18.00,-977.00
2024-05-17 17:00:36.976599,0,0,1,0,0,0,71,72,136,120,35,192.01,345,1.00,-11.00,-1004.00
2024-05-17 17:00:37.042898,0,0,1,0,0,0,71,72,136,120,35,192.06,345,-10.00,-13.00,-984.00
2024-05-17 17:00:37.145173,0,0,1,0,0,0,71,72,136,120,35,192.05,345,-2.00,1.00,-994.00
2024-05-17 17:00:37.246948,0,0,1,0,0,0,71,72,136,120,35,192.05,345,-31.00,20.00,-1025.00
2024-05-17 17:00:37.386453,0,0,1,0,0,0,71,72,136,120,35,192.00,345,-18.00,-1.00,-1007.00
2024-05-17 17:00:37.450947,0,0,1,0,0,0,71,72,136,120,35,192.11,346,-20.00,5.00,-1002.00
2024-05-17 17:00:37.552977,0,0,1,0,0,0,71,72,137,120,35,192.05,346,0.00,-3.00,-982.00
2024-05-17 17:00:37.693500,0,0,1,0,0,0,71,72,137,120,35,192.03,346,-11.00,4.00,-1002.00
2024-05-17 17:00:37.757282,0,0,1,0,0,0,71,72,137,120,35,192.04,346,1.00,0.00,-999.00
2024-05-17 17:00:37.898408,0,0,1,0,0,0,70,72,137,120,35,192.05,346,6.00,1.00,-1007.00
2024-05-17 17:00:37.960891,0,0,1,0,0,0,70,72,137,120,35,192.07,346,15.00,-28.00,-980.00
2024-05-17 17:00:38.103113,0,0,1,0,0,0,70,72,137,120,35,192.07,346,-9.00,-6.00,-989.00
2024-05-17 17:00:38.164934,0,0,1,0,0,0,70,72,137,120,35,192.00,346,-7.00,1.00,-1026.00
2024-05-17 17:00:38.215925,0,0,1,0,0,0,70,72,137,120,35,192.09,346,-8.00,-15.00,-994.00
2024-05-17 17:00:38.410184,0,0,1,0,0,0,70,72,137,120,35,192.02,346,0.00,-17.00,-996.00
2024-05-17 17:00:38.420317,0,0,1,0,0,0,70,72,137,120,35,192.04,347,3.00,4.00,-989.00
2024-05-17 17:00:38.522093,0,0,1,0,0,0,70,72,137,120,35,192.02,347,7.00,3.00,-1000.00
2024-05-17 17:00:38.624636,0,0,1,0,0,0,70,72,137,120,35,192.02,347,7.00,-5.00,-980.00
2024-05-17 17:00:38.819797,0,0,1,0,0,0,70,72,138,120,35,192.07,347,13.00,-1.00,-972.00
2024-05-17 17:00:38.827900,0,-6,1,0,0,0,70,72,139,120,35,192.10,347,7.00,0.00,-1013.00
2024-05-17 17:00:39.024519,0,-9,1,0,-1,0,70,72,139,120,35,192.00,347,-5.00,5.00,-1003.00
2024-05-17 17:00:39.035067,0,-6,1,0,-2,0,70,72,136,120,35,192.13,347,10.00,17.00,-975.00
2024-05-17 17:00:39.133942,0,-4,1,0,-3,0,70,72,137,120,35,192.08,347,-5.00,22.00,-1023.00
2024-05-17 17:00:39.235916,0,-1,1,0,-4,0,70,72,136,120,34,192.08,347,-13.00,51.00,-1035.00
2024-05-17 17:00:39.435037,0,1,1,0,-3,0,70,72,136,120,34,192.05,347,10.00,38.00,-984.00
2024-05-17 17:00:39.440126,0,0,1,0,-3,0,70,72,135,120,34,192.03,348,-27.00,36.00,-1011.00
2024-05-17 17:00:39.542880,0,0,1,0,-2,0,70,72,135,120,34,192.07,348,7.00,21.00,-998.00
2024-05-17 17:00:39.741576,0,0,1,0,-2,0,70,72,135,120,34,192.03,348,14.00,-5.00,-1002.00
2024-05-17 17:00:39.746638,0,-1,1,0,-2,0,70,72,136,120,34,192.05,348,-10.00,17.00,-1003.00
2024-05-17 17:00:39.946089,0,-1,1,0,-2,0,69,72,136,120,34,192.09,348,-8.00,4.00,-987.00
2024-05-17 17:00:39.953300,0,0,1,0,-2,0,69,72,136,120,34,192.03,348,-1.00,-1.00,-977.00
2024-05-17 17:00:40.052628,0,0,1,0,-2,0,69,72,136,120,34,192.08,348,-41.00,27.00,-979.00
2024-05-17 17:00:40.193205,0,0,1,0,-2,0,69,72,136,120,34,192.08,348,-14.00,30.00,-985.00
2024-05-17 17:00:40.256701,0,0,1,0,-2,0,69,72,136,120,34,192.08,348,-6.00,28.00,-1038.00
2024-05-17 17:00:40.358842,0,0,1,0,-2,0,69,72,136,120,34,192.08,348,-7.00,27.00,-1011.00
2024-05-17 17:00:40.460660,0,0,1,0,-2,0,69,72,137,120,34,192.09,349,-4.00,35.00,-1001.00
2024-05-17 17:00:40.562632,0,1,1,0,-1,0,69,72,137,120,34,192.07,349,-3.00,28.00,-1019.00
2024-05-17 17:00:40.664592,2,3,1,0,-1,0,69,72,137,120,34,192.11,349,3.00,0.00,-1010.00
2024-05-17 17:00:40.768613,4,2,1,0,0,0,69,72,138,120,34,192.11,349,23.00,-33.00,-970.00
2024-05-17 17:00:40.868654,2,1,1,-1,0,0,70,72,140,120,34,192.11,349,25.00,-11.00,-983.00
2024-05-17 17:00:41.072913,-3,0,1,-1,0,0,70,72,140,120,34,192.08,349,-25.00,33.00,-985.00
2024-05-17 17:00:41.073094,-1,0,1,0,0,0,70,72,138,120,34,192.08,349,5.00,-12.00,-1005.00
2024-05-17 17:00:41.174635,0,0,1,0,0,0,70,72,139,120,34,192.07,349,-45.00,43.00,-1033.00
2024-05-17 17:00:41.277629,0,0,1,0,0,0,70,72,139,120,33,192.16,349,0.00,24.00,-994.00
2024-05-17 17:00:41.379900,0,0,1,0,0,0,70,72,139,130,33,192.08,349,11.00,7.00,-983.00
2024-05-17 17:00:41.481876,0,0,1,0,0,0,70,72,138,130,33,192.06,350,17.00,0.00,-995.00
2024-05-17 17:00:41.582710,0,0,1,0,0,0,70,72,138,130,33,192.13,350,26.00,-42.00,-963.00
2024-05-17 17:00:41.687305,0,0,1,0,0,0,70,72,138,130,33,192.08,350,-1.00,-21.00,-960.00
2024-05-17 17:00:41.789241,0,0,1,0,0,0,70,72,137,130,33,191.99,350,0.00,10.00,-1013.00
2024-05-17 17:00:41.891895,0,0,1,0,0,0,69,72,136,130,33,192.05,350,-4.00,-22.00,-978.00
2024-05-17 17:00:41.991654,0,0,1,0,0,0,69,72,136,120,33,192.03,350,-17.00,28.00,-1002.00
2024-05-17 17:00:42.041887,0,0,1,0,0,0,69,72,135,120,33,192.00,350,-2.00,-2.00,-1004.00
2024-05-17 17:00:42.199132,0,0,1,0,0,0,69,72,135,120,33,192.11,350,-27.00,34.00,-1019.00
2024-05-17 17:00:42.245891,0,0,1,0,0,0,69,72,134,120,33,192.12,350,1.00,23.00,-994.00
2024-05-17 17:00:42.403802,0,0,1,0,0,0,69,72,134,120,33,192.06,350,-7.00,8.00,-1011.00
2024-05-17 17:00:42.452843,0,0,1,0,0,0,69,72,133,120,33,192.12,351,-8.00,8.00,-989.00
2024-05-17 17:00:42.552434,0,0,1,0,0,0,69,72,134,120,33,192.05,351,-2.00,9.00,-1018.00
2024-05-17 17:00:42.711073,0,0,1,0,0,0,69,72,133,120,33,192.00,351,-6.00,29.00,-1050.00
2024-05-17 17:00:42.756423,0,0,1,0,0,0,69,72,133,120,33,192.08,351,-1.00,-2.00,-991.00
2024-05-17 17:00:42.859541,0,0,1,0,0,0,70,72,132,120,33,192.04,351,-4.00,8.00,-1000.00
2024-05-17 17:00:43.021703,0,0,1,0,0,0,70,72,133,120,33,192.06,351,-43.00,23.00,-1025.00
2024-05-17 17:00:43.061862,0,0,1,0,0,0,70,72,133,120,33,192.00,351,-13.00,9.00,-988.00
2024-05-17 17:00:43.163774,0,0,1,0,0,0,70,72,133,120,33,191.96,351,-32.00,16.00,-1003.00
2024-05-17 17:00:43.265732,0,0,1,0,0,0,70,72,134,120,33,192.06,351,-25.00,12.00,-1026.00
2024-05-17 17:00:43.427740,-1,7,1,0,0,0,70,72,136,120,33,191.98,351,0.00,18.00,-997.00
2024-05-17 17:00:43.469932,0,7,1,0,1,0,70,72,135,120,33,192.06,352,-6.00,-10.00,-1018.00
2024-05-17 17:00:43.571721,0,5,1,0,3,0,70,72,134,120,33,191.99,352,-20.00,1.00,-999.00
2024-05-17 17:00:43.734861,0,2,1,0,3,0,70,72,133,120,33,192.04,352,6.00,-20.00,-979.00
2024-05-17 17:00:43.775652,0,0,1,0,4,0,70,72,133,120,33,192.03,352,-28.00,-7.00,-1005.00
2024-05-17 17:00:43.877661,0,-1,1,0,3,0,70,72,132,120,33,192.05,352,1.00,-22.00,-1015.00
2024-05-17 17:00:44.042081,0,-1,1,0,3,0,70,72,134,120,33,192.08,352,-24.00,1.00,-1010.00
2024-05-17 17:00:44.081661,0,-1,1,0,3,0,70,72,134,120,33,191.98,352,-2.00,-3.00,-1005.00
2024-05-17 17:00:44.246874,0,0,1,0,2,0,70,72,135,120,33,192.02,352,-4.00,-15.00,-984.00
2024-05-17 17:00:44.286488,0,0,1,0,2,0,70,72,134,120,32,192.04,352,-51.00,23.00,-1020.00
2024-05-17 17:00:44.451693,0,0,1,0,2,0,70,72,134,120,32,192.00,353,-16.00,-1.00,-973.00
2024-05-17 17:00:44.490288,0,0,1,0,2,0,70,72,134,120,32,192.03,353,6.00,-19.00,-977.00
2024-05-17 17:00:44.656483,0,0,1,0,2,0,70,72,133,120,32,192.03,353,-46.00,18.00,-1001.00
2024-05-17 17:00:44.694925,0,-2,1,0,2,0,70,72,132,120,32,192.05,353,-4.00,33.00,-1016.00
2024-05-17 17:00:44.865806,0,-4,1,0,2,0,70,72,133,120,32,192.00,353,-10.00,1.00,-991.00
2024-05-17 17:00:44.898411,0,-4,1,0,1,0,70,71,133,120,32,192.01,353,4.00,2.00,-1035.00
2024-05-17 17:00:45.066057,0,-2,1,0,0,0,70,71,133,120,32,192.01,353,-25.00,0.00,-1018.00
2024-05-17 17:00:45.102499,0,-1,1,0,0,0,70,71,131,120,32,192.03,353,-10.00,12.00,-1010.00
2024-05-17 17:00:45.204489,0,0,1,0,0,0,70,71,132,120,32,191.97,353,2.00,10.00,-999.00
2024-05-17 17:00:45.307179,0,0,1,0,0,0,70,71,132,120,32,191.96,353,-13.00,9.00,-988.00
2024-05-17 17:00:45.409000,0,0,1,0,0,0,70,71,132,120,32,192.06,354,-2.00,-3.00,-996.00
2024-05-17 17:00:45.475921,0,0,1,0,0,0,70,71,132,120,32,192.03,354,-13.00,22.00,-1005.00
2024-05-17 17:00:45.563816,0,0,1,0,0,0,70,71,133,120,32,191.97,354,-1.00,14.00,-1019.00
2024-05-17 17:00:45.665969,0,0,1,0,0,0,70,71,133,120,32,192.02,354,6.00,1.00,-999.00
2024-05-17 17:00:45.766881,0,0,1,0,0,0,70,71,132,120,32,191.99,354,0.00,12.00,-1006.00
2024-05-17 17:00:45.871053,0,0,1,0,0,0,70,72,132,120,32,191.94,354,3.00,15.00,-998.00
2024-05-17 17:00:45.973216,0,0,1,0,0,0,70,72,132,120,32,191.96,354,27.00,11.00,-995.00
2024-05-17 17:00:46.071878,0,0,1,0,0,0,70,72,133,120,32,192.01,354,-3.00,19.00,-999.00
2024-05-17 17:00:46.192576,0,0,1,0,0,0,70,72,133,120,32,192.03,354,3.00,11.00,-1008.00
2024-05-17 17:00:46.275597,0,0,1,0,0,0,70,72,133,120,31,192.06,354,-22.00,53.00,-1024.00
2024-05-17 17:00:46.397458,0,0,1,0,0,0,70,72,134,120,31,192.03,355,-1.00,21.00,-984.00
2024-05-17 17:00:46.479853,0,0,1,0,0,0,70,72,134,120,31,192.05,355,22.00,-14.00,-991.00
2024-05-17 17:00:46.602563,0,0,1,0,0,0,70,72,134,120,31,192.02,355,-18.00,15.00,-999.00
2024-05-17 17:00:46.683553,0,0,1,0,0,0,70,72,134,120,31,192.02,355,-12.00,21.00,-999.00
2024-05-17 17:00:46.806858,0,0,1,0,0,0,70,72,135,120,31,192.02,355,-23.00,5.00,-969.00
2024-05-17 17:00:46.887530,0,0,1,0,0,0,70,72,135,120,31,192.04,355,-43.00,34.00,-993.00
2024-05-17 17:00:47.011890,0,0,1,0,0,0,70,72,136,120,31,192.05,355,-15.00,23.00,-1005.00
2024-05-17 17:00:47.094426,0,0,1,0,0,0,70,72,136,120,31,192.02,355,-10.00,20.00,-992.00
2024-05-17 17:00:47.193738,0,0,2,0,0,0,70,72,136,120,31,192.09,355,-12.00,6.00,-989.00
2024-05-17 17:00:47.318913,0,0,8,0,0,0,70,72,137,120,31,192.06,355,-21.00,14.00,-1005.00
2024-05-17 17:00:47.397593,0,0,14,0,0,0,70,72,137,120,31,192.10,356,-17.00,0.00,-983.00
2024-05-17 17:00:47.529204,0,0,21,0,0,0,70,72,137,120,31,192.11,356,-20.00,-8.00,-956.00
2024-05-17 17:00:47.602310,0,0,27,0,0,0,70,72,137,120,31,192.02,356,-51.00,45.00,-996.00
2024-05-17 17:00:47.728435,0,0,33,0,0,0,70,72,137,120,31,192.01,356,-2.00,10.00,-998.00
2024-05-17 17:00:47.806354,0,0,39,0,0,0,70,72,136,120,31,191.96,356,36.00,10.00,-999.00
2024-05-17 17:00:47.934342,0,0,45,0,0,0,70,72,136,120,31,192.02,356,-13.00,24.00,-1003.00
2024-05-17 17:00:48.010278,0,0,52,0,0,0,70,72,136,120,31,192.04,356,-8.00,11.00,-989.00
2024-05-17 17:00:48.138102,0,0,58,0,0,0,70,72,136,120,31,192.03,356,-18.00,11.00,-998.00
2024-05-17 17:00:48.214297,0,0,64,0,0,0,70,72,136,120,31,192.08,356,5.00,0.00,-988.00
2024-05-17 17:00:48.342888,0,0,70,0,0,0,70,72,136,120,31,192.01,356,15.00,-4.00,-981.00
2024-05-17 17:00:48.418247,0,0,77,0,0,0,70,72,135,120,31,192.10,357,-3.00,13.00,-1008.00
2024-05-17 17:00:48.520376,0,0,83,0,0,0,70,72,135,120,31,192.11,357,-3.00,22.00,-989.00
2024-05-17 17:00:48.650041,0,0,89,0,0,0,70,72,135,120,31,192.08,357,2.00,18.00,-984.00
2024-05-17 17:00:48.724322,0,0,95,0,0,0,70,72,135,120,31,192.07,357,4.00,10.00,-989.00
2024-05-17 17:00:48.854784,0,0,101,0,0,0,70,72,134,120,31,192.05,357,7.00,16.00,-1008.00
2024-05-17 17:00:48.931251,0,0,107,0,0,0,69,71,133,120,31,191.97,357,-8.00,9.00,-1010.00
2024-05-17 17:00:49.030632,0,0,114,0,0,0,69,71,133,120,31,192.05,357,-2.00,14.00,-1003.00
2024-05-17 17:00:49.132373,0,0,120,0,0,0,69,71,133,120,31,192.05,357,4.00,9.00,-1015.00
2024-05-17 17:00:49.234229,0,0,126,0,0,0,69,71,134,120,30,192.02,357,8.00,8.00,-993.00
2024-05-17 17:00:49.366878,0,0,132,0,0,0,69,71,134,120,30,192.04,357,2.00,30.00,-1030.00
2024-05-17 17:00:49.438861,0,0,138,0,0,0,69,71,134,120,30,191.97,358,26.00,-11.00,-998.00
2024-05-17 17:00:49.540533,0,0,144,0,0,0,69,71,134,120,30,192.02,358,11.00,1.00,-993.00
2024-05-17 17:00:49.674191,0,0,150,0,0,0,69,71,134,120,30,192.01,358,0.00,8.00,-1010.00
2024-05-17 17:00:49.744161,0,0,156,0,0,0,69,71,135,120,30,192.06,358,1.00,0.00,-993.00
2024-05-17 17:00:49.795366,0,0,162,0,0,0,69,71,135,120,30,192.06,358,13.00,-11.00,-990.00
2024-05-17 17:00:49.981275,0,0,168,0,0,0,70,72,135,120,30,192.07,358,15.00,-4.00,-999.00
2024-05-17 17:00:50.050196,0,0,174,0,0,0,70,72,135,120,30,192.01,358,10.00,-14.00,-999.00
2024-05-17 17:00:50.101424,0,0,-178,0,0,0,70,72,136,120,30,192.04,358,5.00,18.00,-1003.00
2024-05-17 17:00:50.288480,0,0,-173,0,0,0,70,72,136,120,30,192.06,358,-16.00,13.00,-1015.00
2024-05-17 17:00:50.305303,0,0,-167,0,0,0,70,72,136,120,30,192.10,358,11.00,-20.00,-979.00
2024-05-17 17:00:50.493214,0,0,-161,0,0,0,70,72,136,120,30,192.06,359,-12.00,3.00,-1007.00
2024-05-17 17:00:50.509732,0,0,-155,0,0,0,70,72,137,120,30,192.05,359,-4.00,15.00,-1004.00
2024-05-17 17:00:50.702675,0,0,-149,0,0,0,70,72,137,120,30,192.06,359,-1.00,6.00,-1000.00
2024-05-17 17:00:50.713327,0,0,-143,0,0,0,70,72,137,120,30,192.02,359,-1.00,15.00,-999.00
2024-05-17 17:00:50.906537,0,0,-137,0,0,0,70,72,138,120,30,192.05,359,-11.00,24.00,-992.00
2024-05-17 17:00:50.917411,0,0,-131,0,0,0,70,72,138,120,30,192.02,359,1.00,11.00,-1004.00
2024-05-17 17:00:51.107733,0,0,-125,0,0,0,70,72,138,120,30,192.09,359,-7.00,-1.00,-994.00
2024-05-17 17:00:51.121319,0,0,-120,0,0,0,70,72,138,120,30,192.04,359,-14.00,2.00,-1005.00
2024-05-17 17:00:51.312783,0,0,-114,0,0,0,70,72,138,120,30,191.94,359,-18.00,9.00,-974.00
2024-05-17 17:00:51.325384,0,0,-108,0,0,0,70,72,138,120,30,192.04,359,7.00,5.00,-1008.00
2024-05-17 17:00:51.517292,0,0,-102,0,0,0,70,72,138,120,30,192.08,360,16.00,-20.00,-988.00
2024-05-17 17:00:51.531082,0,0,-97,0,0,0,70,72,138,120,30,192.05,360,2.00,9.00,-995.00
2024-05-17 17:00:51.631640,0,0,-91,0,0,0,70,72,138,120,30,192.12,360,16.00,-22.00,-992.00
2024-05-17 17:00:51.733273,0,0,-85,0,0,0,70,72,138,120,30,192.10,360,-48.00,30.00,-991.00
2024-05-17 17:00:51.927976,0,0,-79,0,0,0,70,72,138,120,30,192.00,360,1.00,-18.00,-984.00
2024-05-17 17:00:51.937304,0,0,-73,0,0,0,70,72,138,120,30,192.00,360,38.00,-36.00,-1010.00
2024-05-17 17:00:52.131621,0,0,-66,0,0,0,70,72,137,120,30,192.06,360,-19.00,-7.00,-1008.00
2024-05-17 17:00:52.141394,0,0,-60,0,0,0,70,72,137,120,30,191.96,360,-1.00,-3.00,-987.00
2024-05-17 17:00:52.245473,0,0,-54,0,0,0,70,72,137,120,29,192.06,360,-29.00,28.00,-984.00
2024-05-17 17:00:52.345879,0,0,-48,0,0,0,70,72,137,120,29,192.02,360,-9.00,8.00,-1001.00
2024-05-17 17:00:52.447214,0,0,-41,0,0,0,70,72,137,120,29,192.01,361,9.00,2.00,-990.00
2024-05-17 17:00:52.549220,0,0,-35,0,0,0,70,72,137,120,29,191.96,361,0.00,0.00,-999.00
2024-05-17 17:00:52.652296,0,0,-29,0,0,0,70,72,137,120,29,191.96,361,0.00,6.00,-998.00
2024-05-17 17:00:52.753546,0,0,-23,0,0,0,70,72,137,120,29,192.05,361,-1.00,18.00,-1018.00
2024-05-17 17:00:52.855366,0,0,-17,0,0,0,70,72,137,120,29,192.03,361,5.00,7.00,-990.00
2024-05-17 17:00:53.053202,0,0,-12,0,0,0,69,72,137,120,29,192.10,361,-21.00,1.00,-1013.00
2024-05-17 17:00:53.060105,0,0,-8,0,0,0,69,72,136,120,29,192.03,361,-20.00,3.00,-1006.00
2024-05-17 17:00:53.258008,0,0,-6,0,0,0,69,72,137,120,29,191.99,361,-34.00,0.00,-994.00
2024-05-17 17:00:53.266586,0,0,-3,0,0,0,69,72,136,120,29,192.06,361,-43.00,14.00,-1016.00
2024-05-17 17:00:53.365231,0,0,-2,0,0,0,69,72,137,120,29,192.03,361,4.00,-10.00,-1006.00
2024-05-17 17:00:53.565199,0,0,-1,0,0,0,69,72,136,120,29,192.00,362,-1.00,-16.00,-1003.00
2024-05-17 17:00:53.569153,0,0,0,0,0,0,69,72,136,120,29,192.00,362,-31.00,0.00,-1003.00
2024-05-17 17:00:53.671731,0,0,0,0,0,0,69,72,136,120,29,191.98,362,1.00,-3.00,-1011.00
2024-05-17 17:00:53.770470,0,0,0,0,0,0,69,72,136,120,29,192.00,362,-15.00,7.00,-1006.00
2024-05-17 17:00:53.824027,0,0,0,0,0,0,69,72,136,120,29,191.93,362,0.00,-11.00,-998.00
2024-05-17 17:00:53.977262,0,0,0,0,0,0,70,71,136,120,29,192.05,362,-5.00,1.00,-1023.00
2024-05-17 17:00:54.027914,0,0,0,0,0,0,70,71,136,120,29,192.01,362,-22.00,-6.00,-1012.00
2024-05-17 17:00:54.179831,0,0,0,0,0,0,70,71,136,120,29,191.97,362,-23.00,-14.00,-1006.00
2024-05-17 17:00:54.232053,0,0,0,0,0,0,70,71,135,120,28,192.00,362,2.00,-1.00,-1009.00
2024-05-17 17:00:54.384576,0,0,0,0,0,0,70,71,135,120,28,192.02,362,-8.00,-4.00,-1001.00
2024-05-17 17:00:54.437160,0,0,0,0,0,0,70,71,135,120,28,192.04,363,-7.00,-1.00,-987.00
2024-05-17 17:00:54.538090,0,0,0,0,0,0,70,71,135,120,28,192.00,363,-11.00,-1.00,-996.00
2024-05-17 17:00:54.691798,0,0,0,0,0,0,70,71,135,120,28,191.98,363,13.00,-16.00,-997.00
2024-05-17 17:00:54.744051,0,0,0,0,0,0,70,71,134,120,28,192.02,363,-19.00,14.00,-1008.00
2024-05-17 17:00:54.844014,0,0,0,0,0,0,70,71,135,120,28,192.05,363,-10.00,-7.00,-1004.00
2024-05-17 17:00:54.999005,0,0,0,0,0,0,69,72,135,120,28,192.03,363,0.00,22.00,-987.00
2024-05-17 17:00:55.047974,0,0,0,0,0,0,69,72,136,120,28,191.94,363,-1.00,3.00,-1010.00
2024-05-17 17:00:55.203751,0,0,0,0,0,0,69,72,136,120,28,192.02,363,3.00,-6.00,-994.00
2024-05-17 17:00:55.252104,0,0,0,0,0,0,69,72,136,120,28,192.01,363,-31.00,25.00,-991.00
2024-05-17 17:00:55.409007,0,0,0,0,0,0,69,72,136,120,28,192.05,363,-33.00,7.00,-1022.00
2024-05-17 17:00:55.455953,0,0,0,0,0,0,69,72,136,120,28,192.00,364,22.00,8.00,-1004.00
2024-05-17 17:00:55.557948,0,0,0,0,0,0,69,72,136,120,28,192.01,364,-1.00,8.00,-993.00
2024-05-17 17:00:55.659775,0,0,0,0,0,0,69,72,136,120,28,192.04,364,-2.00,-3.00,-1010.00
2024-05-17 17:00:55.821709,0,0,-1,0,0,0,69,72,136,120,28,192.06,364,-2.00,19.00,-998.00
2024-05-17 17:00:55.864223,0,0,-6,0,0,0,69,72,136,120,28,192.06,364,-10.00,26.00,-1000.00
2024-05-17 17:00:55.966475,0,0,-12,0,0,0,70,71,137,120,28,191.98,364,0.00,-2.00,-994.00
2024-05-17 17:00:56.125268,0,0,-18,0,0,0,70,71,136,120,28,192.00,364,0.00,-1.00,-993.00
2024-05-17 17:00:56.169961,0,0,-24,0,0,0,70,71,137,120,28,192.04,364,23.00,0.00,-989.00
2024-05-17 17:00:56.334018,0,0,-30,0,0,0,70,71,137,120,28,191.97,364,11.00,-4.00,-996.00
2024-05-17 17:00:56.374002,0,0,-35,0,0,0,70,71,137,120,28,192.10,364,-5.00,12.00,-986.00
2024-05-17 17:00:56.538747,0,0,-41,0,0,0,70,71,137,120,28,192.02,365,-5.00,18.00,-987.00
2024-05-17 17:00:56.577793,0,0,-48,0,0,0,70,71,137,120,28,192.01,365,-7.00,15.00,-1004.00
2024-05-17 17:00:56.741357,0,0,-54,0,0,0,70,71,138,120,28,191.97,365,-22.00,14.00,-982.00
2024-05-17 17:00:56.781840,0,0,-60,0,0,0,70,71,139,120,28,191.99,365,-24.00,13.00,-977.00
2024-05-17 17:00:56.944443,0,0,-66,0,0,0,70,71,138,120,28,192.00,365,-14.00,22.00,-990.00
2024-05-17 17:00:56.985857,0,0,-73,0,0,0,69,72,139,120,28,192.09,365,-20.00,9.00,-986.00
2024-05-17 17:00:57.149368,0,0,-79,0,0,0,69,72,138,120,28,192.02,365,-16.00,13.00,-983.00
2024-05-17 17:00:57.189914,0,0,-85,0,0,0,69,72,138,120,28,191.98,365,-11.00,6.00,-1017.00
2024-05-17 17:00:57.355317,0,-1,-91,0,0,0,69,72,138,120,28,191.94,365,-36.00,13.00,-1014.00
2024-05-17 17:00:57.393901,0,-1,-97,0,0,0,69,72,137,120,28,191.96,365,-12.00,7.00,-1007.00
2024-05-17 17:00:57.558840,0,0,-103,0,0,0,69,72,137,120,28,192.06,366,-12.00,18.00,-1008.00
2024-05-17 17:00:57.597809,0,0,-109,0,0,0,69,72,136,120,28,192.09,366,-15.00,5.00,-993.00
2024-05-17 17:00:57.649708,0,0,-115,0,0,0,69,72,135,120,28,192.04,366,-9.00,3.00,-993.00
2024-05-17 17:00:57.763569,0,0,-121,0,0,0,69,72,135,120,28,192.00,366,-2.00,3.00,-1010.00
2024-05-17 17:00:57.856584,0,0,-127,0,0,0,69,72,135,120,28,192.04,366,-15.00,25.00,-990.00
2024-05-17 17:00:58.006301,0,0,-139,0,0,0,69,71,135,120,28,192.02,366,-1.00,0.00,-1004.00
2024-05-17 17:00:58.056989,0,0,-145,0,0,0,69,71,135,120,28,192.10,366,-3.00,3.00,-999.00
2024-05-17 17:00:58.173232,0,0,-151,0,0,0,69,71,135,120,28,192.03,366,1.00,12.00,-988.00
2024-05-17 17:00:58.261589,0,0,-157,0,0,0,69,71,135,120,27,192.04,366,-9.00,4.00,-997.00
2024-05-17 17:00:58.378584,0,0,-163,0,0,0,69,71,135,120,27,192.01,367,-25.00,4.00,-982.00
2024-05-17 17:00:58.465018,0,0,-170,0,0,0,69,71,135,120,27,192.07,367,-5.00,1.00,-985.00
2024-05-17 17:00:58.567089,0,0,-176,0,0,0,69,71,136,120,27,192.08,367,6.00,13.00,-1018.00
2024-05-17 17:00:58.670741,0,0,177,0,0,0,69,71,135,120,27,192.04,367,6.00,5.00,-1011.00
2024-05-17 17:00:58.771220,0,0,171,0,0,0,69,71,135,120,27,192.04,367,-15.00,1.00,-998.00
2024-05-17 17:00:58.873079,0,0,165,0,0,0,69,71,135,120,27,192.03,367,-1.00,12.00,-995.00
2024-05-17 17:00:58.992344,0,0,159,0,0,0,69,72,135,120,27,192.04,367,-7.00,-4.00,-1003.00
2024-05-17 17:00:59.077006,0,0,152,0,0,0,69,72,135,120,27,191.99,367,14.00,-20.00,-998.00
2024-05-17 17:00:59.179171,0,0,146,0,0,0,69,72,135,120,27,191.99,367,-1.00,7.00,-1012.00
2024-05-17 17:00:59.299632,0,0,140,0,0,0,69,72,135,120,27,192.05,367,16.00,-20.00,-978.00
2024-05-17 17:00:59.382915,0,0,134,0,0,0,69,72,135,120,27,192.04,368,5.00,9.00,-1000.00
2024-05-17 17:00:59.504422,0,0,129,0,0,0,69,72,135,120,27,191.99,368,17.00,0.00,-1004.00
2024-05-17 17:00:59.586878,0,0,123,0,0,0,69,72,135,120,27,191.99,368,0.00,4.00,-986.00
2024-05-17 17:00:59.709760,0,0,117,0,0,0,69,72,134,120,27,192.02,368,-6.00,-3.00,-1000.00
2024-05-17 17:00:59.791115,0,0,111,0,0,0,69,72,134,120,27,192.06,368,-9.00,5.00,-1006.00
2024-05-17 17:00:59.914011,0,0,105,0,0,0,69,72,134,120,27,192.06,368,-5.00,-3.00,-999.00
2024-05-17 17:00:59.994859,0,0,99,0,0,0,68,71,134,120,27,191.97,368,-10.00,6.00,-995.00
2024-05-17 17:01:00.118817,0,0,93,0,0,0,68,71,134,120,27,192.04,368,-14.00,-11.00,-994.00
2024-05-17 17:01:00.202310,0,0,87,0,0,0,68,71,135,120,27,192.00,368,-4.00,5.00,-1003.00
2024-05-17 17:01:00.300988,0,0,81,0,0,0,68,71,135,120,27,191.96,368,0.00,-19.00,-994.00
2024-05-17 17:01:00.426001,0,0,75,0,0,0,68,71,135,120,27,191.97,369,-11.00,4.00,-1005.00
2024-05-17 17:01:00.504907,0,0,68,0,0,0,68,71,135,120,27,191.96,369,32.00,-29.00,-1001.00
2024-05-17 17:01:00.608319,0,0,62,0,0,0,68,71,135,120,27,192.00,369,-18.00,-4.00,-996.00
2024-05-17 17:01:00.736305,0,0,56,0,0,0,68,71,135,120,27,192.00,369,-1.00,6.00,-978.00
2024-05-17 17:01:00.825019,0,0,50,0,0,0,68,71,135,120,27,192.04,369,4.00,-12.00,-992.00
2024-05-17 17:01:00.917909,0,0,44,0,0,0,68,71,135,120,27,191.97,369,11.00,-8.00,-1018.00
2024-05-17 17:01:01.014840,0,0,38,0,0,0,69,71,134,120,27,191.99,369,-2.00,-6.00,-1004.00
2024-05-17 17:01:01.117562,0,0,32,0,0,0,69,71,134,120,27,192.04,369,7.00,-6.00,-994.00
2024-05-17 17:01:01.219162,0,0,26,0,0,0,69,71,134,120,27,192.04,369,2.00,-3.00,-1008.00
2024-05-17 17:01:01.321943,0,0,20,0,0,0,69,71,134,120,26,192.03,369,21.00,-4.00,-986.00
2024-05-17 17:01:01.423782,0,0,15,0,0,0,69,71,134,120,26,191.98,370,5.00,-8.00,-985.00
2024-05-17 17:01:01.526729,0,0,11,0,0,0,69,71,134,120,26,192.05,370,17.00,3.00,-1013.00
2024-05-17 17:01:01.630531,0,0,8,0,0,0,69,71,134,120,26,192.08,370,0.00,-2.00,-1015.00
2024-05-17 17:01:01.730873,0,0,6,0,0,0,69,71,135,120,26,192.11,370,24.00,-22.00,-979.00
2024-05-17 17:01:01.859533,0,0,5,0,0,0,69,71,135,120,26,192.07,370,6.00,0.00,-992.00
2024-05-17 17:01:01.884437,0,0,4,0,0,0,69,71,135,120,26,192.12,370,21.00,-16.00,-995.00
2024-05-17 17:01:02.064425,0,0,3,0,0,0,68,71,135,120,26,192.02,370,-9.00,22.00,-1015.00
2024-05-17 17:01:02.089177,0,0,2,0,0,0,68,71,135,120,26,192.02,370,-12.00,20.00,-1018.00
2024-05-17 17:01:02.189679,0,0,1,0,0,0,68,71,135,120,26,192.02,370,0.00,0.00,-992.00
2024-05-17 17:01:02.291045,0,0,1,0,0,0,68,71,134,120,26,191.97,370,18.00,-9.00,-996.00
2024-05-17 17:01:02.474344,0,0,1,0,0,0,68,71,134,120,26,192.00,371,11.00,10.00,-990.00
2024-05-17 17:01:02.494925,0,0,1,0,0,0,68,71,134,120,26,192.02,371,6.00,4.00,-1005.00
2024-05-17 17:01:02.598042,0,0,1,0,0,0,68,71,134,120,26,191.98,371,0.00,7.00,-1002.00
2024-05-17 17:01:02.701622,0,0,1,0,0,0,68,71,134,120,26,192.09,371,16.00,-8.00,-989.00
2024-05-17 17:01:02.801389,0,0,1,0,0,0,68,71,135,120,26,191.94,371,4.00,4.00,-1011.00
2024-05-17 17:01:02.991674,0,0,1,0,0,0,68,71,134,120,26,192.08,371,-3.00,5.00,-1006.00
2024-05-17 17:01:03.004828,0,0,1,0,0,0,68,71,134,120,26,192.10,371,19.00,0.00,-1003.00
2024-05-17 17:01:03.190922,0,0,2,0,0,0,68,71,134,120,26,192.08,371,9.00,10.00,-1013.00
2024-05-17 17:01:03.208958,0,0,2,0,0,0,68,71,134,120,25,192.04,371,12.00,-5.00,-991.00
2024-05-17 17:01:03.311835,0,0,2,0,0,0,68,71,134,120,25,192.03,371,-20.00,29.00,-997.00
2024-05-17 17:01:03.412906,0,0,2,0,0,0,68,71,134,120,25,192.06,372,3.00,9.00,-972.00
2024-05-17 17:01:03.600509,0,0,2,0,0,0,68,71,134,120,25,192.03,372,3.00,11.00,-1003.00
2024-05-17 17:01:03.618058,0,0,2,0,0,0,68,71,134,120,25,192.08,372,-4.00,8.00,-1020.00
2024-05-17 17:01:03.805579,0,0,1,0,0,0,68,71,134,120,25,191.97,372,27.00,-11.00,-989.00
2024-05-17 17:01:03.822136,0,0,2,0,0,0,68,71,135,120,25,192.04,372,47.00,-5.00,-993.00
2024-05-17 17:01:04.010395,0,0,2,0,0,0,68,71,135,120,25,192.06,372,25.00,1.00,-997.00
2024-05-17 17:01:04.026408,1,0,1,0,0,0,68,72,135,120,25,192.03,372,32.00,1.00,-1000.00
2024-05-17 17:01:04.192631,1,0,1,0,0,0,68,72,135,120,25,192.02,372,5.00,8.00,-1009.00
2024-05-17 17:01:04.230281,1,0,1,0,0,0,68,72,136,120,25,192.02,372,7.00,12.00,-1011.00
2024-05-17 17:01:04.419861,1,0,1,0,0,0,68,72,136,120,25,192.03,372,28.00,1.00,-973.00
2024-05-17 17:01:04.437762,1,0,1,0,0,0,68,72,135,120,25,192.05,373,0.00,13.00,-980.00
2024-05-17 17:01:04.535659,1,0,1,0,0,0,68,72,135,120,25,192.04,373,4.00,26.00,-1001.00
2024-05-17 17:01:04.637574,1,0,1,0,0,0,68,72,135,120,25,192.07,373,10.00,27.00,-1024.00
2024-05-17 17:01:04.829447,1,0,1,0,0,0,68,72,135,120,25,192.05,373,12.00,11.00,-1002.00
2024-05-17 17:01:04.841502,1,0,1,0,0,0,68,72,135,120,25,192.06,373,37.00,-3.00,-996.00
2024-05-17 17:01:05.034145,1,0,1,0,0,0,68,72,135,120,25,191.95,373,29.00,1.00,-996.00
2024-05-17 17:01:05.045428,1,0,2,0,0,0,69,71,136,120,25,192.03,373,20.00,5.00,-1001.00
2024-05-17 17:01:05.238993,1,0,2,0,0,0,69,71,135,120,25,192.03,373,-11.00,28.00,-1018.00
2024-05-17 17:01:05.249439,1,0,2,0,0,0,69,71,135,120,25,192.01,373,-7.00,13.00,-1012.00
2024-05-17 17:01:05.443619,1,0,2,0,0,0,69,71,135,120,25,191.99,373,13.00,15.00,-975.00
2024-05-17 17:01:05.453464,1,0,2,0,0,0,69,71,135,120,25,192.00,374,34.00,-6.00,-993.00
2024-05-17 17:01:05.555490,1,0,2,0,0,0,69,71,135,120,25,191.94,374,-18.00,30.00,-1013.00
2024-05-17 17:01:05.607479,0,0,2,0,0,0,69,71,135,120,25,191.99,374,13.00,15.00,-987.00
2024-05-17 17:01:05.754171,1,0,1,0,0,0,69,71,135,120,25,192.00,374,16.00,19.00,-981.00
2024-05-17 17:01:05.811533,0,0,1,0,0,0,69,71,135,120,25,191.99,374,9.00,10.00,-985.00
2024-05-17 17:01:05.955883,1,0,1,0,0,0,69,71,135,120,25,191.95,374,25.00,-6.00,-980.00
2024-05-17 17:01:06.066819,1,0,1,0,0,0,68,70,135,120,25,191.94,374,15.00,5.00,-1002.00
2024-05-17 17:01:06.117527,1,0,1,0,0,0,68,70,135,120,25,192.02,374,2.00,24.00,-1004.00
2024-05-17 17:01:06.262921,1,0,1,0,0,0,68,70,135,120,24,192.03,374,6.00,19.00,-1018.00
2024-05-17 17:01:06.321510,1,0,1,0,0,0,68,70,135,120,24,192.05,374,9.00,19.00,-1021.00
2024-05-17 17:01:06.468498,1,0,1,0,0,0,68,70,135,120,24,191.99,375,27.00,9.00,-1000.00
2024-05-17 17:01:06.526321,1,0,1,0,0,0,68,70,136,120,24,192.03,375,11.00,15.00,-989.00
2024-05-17 17:01:06.627470,1,0,1,0,0,0,68,70,136,120,24,192.02,375,-6.00,35.00,-992.00
2024-05-17 17:01:06.778840,1,-1,1,0,0,0,68,70,135,120,24,192.02,375,28.00,0.00,-989.00
2024-05-17 17:01:06.838525,0,-1,1,0,0,0,68,70,135,120,24,191.98,375,7.00,18.00,-1012.00
2024-05-17 17:01:06.933631,0,-1,1,0,0,0,68,70,135,120,24,192.02,375,4.00,20.00,-1006.00
2024-05-17 17:01:07.082162,0,-1,1,0,0,0,68,70,136,120,24,192.05,375,8.00,12.00,-995.00
2024-05-17 17:01:07.137463,0,0,1,0,0,0,68,70,136,120,24,192.05,375,26.00,7.00,-998.00
2024-05-17 17:01:07.240197,1,0,1,0,0,0,68,70,137,120,24,191.98,375,8.00,26.00,-996.00
2024-05-17 17:01:07.341520,0,-1,1,0,0,0,68,70,137,120,24,192.00,375,1.00,23.00,-1005.00
2024-05-17 17:01:07.491682,0,-1,1,0,0,0,68,70,137,120,24,191.97,376,-6.00,35.00,-996.00
2024-05-17 17:01:07.545628,0,0,1,0,0,0,68,70,137,120,24,192.06,376,4.00,21.00,-996.00
2024-05-17 17:01:07.700600,0,-1,1,0,0,0,68,70,136,120,24,191.94,376,0.00,15.00,-1003.00
2024-05-17 17:01:07.749425,0,0,1,0,0,0,68,70,136,120,24,191.94,376,-2.00,21.00,-997.00
2024-05-17 17:01:07.851586,0,0,1,0,0,0,68,70,137,120,24,192.03,376,9.00,17.00,-1015.00
2024-05-17 17:01:08.003742,0,0,1,0,0,0,68,70,137,120,24,192.01,376,12.00,5.00,-994.00
2024-05-17 17:01:08.055395,0,0,1,0,0,0,68,70,137,120,24,191.96,376,-1.00,15.00,-1006.00
2024-05-17 17:01:08.208344,0,0,1,0,0,0,68,70,137,120,24,191.99,376,-7.00,23.00,-991.00
2024-05-17 17:01:08.259329,0,0,1,0,0,0,68,70,136,120,24,192.06,376,10.00,14.00,-987.00
2024-05-17 17:01:08.413401,0,0,1,0,0,0,68,70,137,120,24,192.11,376,1.00,14.00,-1004.00
2024-05-17 17:01:08.463778,0,0,1,0,0,0,68,70,137,120,24,192.03,377,25.00,2.00,-993.00
2024-05-17 17:01:08.584350,0,0,1,0,0,0,68,70,137,120,24,192.01,377,27.00,0.00,-955.00
2024-05-17 17:01:08.667502,0,0,1,0,0,0,68,70,136,120,24,192.00,377,13.00,3.00,-1002.00
2024-05-17 17:01:08.823208,0,0,1,0,0,0,68,70,136,120,24,192.02,377,6.00,2.00,-1010.00
2024-05-17 17:01:08.871440,0,0,1,0,0,0,68,70,137,120,24,192.06,377,-7.00,7.00,-990.00
2024-05-17 17:01:09.027745,0,0,1,0,0,0,68,70,136,120,24,192.06,377,-2.00,12.00,-999.00
2024-05-17 17:01:09.075681,0,0,1,0,0,0,68,70,136,120,24,192.10,377,-2.00,5.00,-988.00
2024-05-17 17:01:09.232524,0,0,1,0,0,0,68,70,136,120,24,192.04,377,-5.00,0.00,-1005.00
2024-05-17 17:01:09.281079,0,0,1,0,0,0,68,70,136,120,23,192.02,377,-16.00,25.00,-1009.00
2024-05-17 17:01:09.381580,0,0,1,0,0,0,68,70,136,120,23,191.96,377,21.00,15.00,-1004.00
2024-05-17 17:01:09.483485,0,0,1,0,0,0,68,70,136,120,23,191.97,378,6.00,0.00,-964.00
2024-05-17 17:01:09.585456,0,0,1,0,0,0,68,70,136,120,23,192.05,378,-15.00,24.00,-994.00
2024-05-17 17:01:09.751491,0,0,1,0,0,0,68,70,136,120,23,192.12,378,11.00,-4.00,-1003.00
2024-05-17 17:01:09.751782,0,0,1,0,0,0,68,70,135,120,23,192.10,378,14.00,-8.00,-1003.00
2024-05-17 17:01:09.840571,0,0,1,0,0,0,68,70,135,120,23,191.98,378,-7.00,1.00,-985.00
2024-05-17 17:01:09.949538,0,0,1,0,0,0,68,70,135,120,23,192.03,378,-11.00,7.00,-1002.00
2024-05-17 17:01:10.044508,0,0,1,0,0,0,68,71,135,120,23,192.05,378,7.00,-10.00,-986.00
2024-05-17 17:01:10.154026,0,0,1,0,0,0,68,71,135,120,23,192.04,378,2.00,-5.00,-986.00
2024-05-17 17:01:10.248457,0,0,1,0,0,0,68,71,135,120,23,192.06,378,-20.00,10.00,-1007.00
2024-05-17 17:01:10.350574,0,0,1,0,0,0,68,71,135,120,23,192.01,378,0.00,1.00,-995.00
2024-05-17 17:01:10.461172,0,0,1,0,0,0,68,71,136,120,23,191.98,379,-4.00,16.00,-1001.00
2024-05-17 17:01:10.555046,0,0,1,0,0,0,68,71,136,120,23,192.03,379,23.00,8.00,-1014.00
2024-05-17 17:01:10.666422,0,0,1,0,0,0,68,71,136,120,23,191.96,379,-22.00,15.00,-1009.00
2024-05-17 17:01:10.758806,0,0,1,0,0,0,68,71,136,120,23,191.99,379,3.00,6.00,-995.00
2024-05-17 17:01:10.870902,0,0,1,0,0,0,68,71,136,120,23,191.98,379,14.00,2.00,-1026.00
2024-05-17 17:01:10.962522,0,0,1,0,0,0,68,71,136,120,23,192.04,379,-7.00,6.00,-994.00
2024-05-17 17:01:11.178894,0,0,1,0,0,0,68,71,136,120,23,192.00,379,-6.00,5.00,-1005.00
2024-05-17 17:01:11.179028,0,0,1,0,0,0,68,71,136,120,23,191.98,379,-5.00,16.00,-1005.00
2024-05-17 17:01:11.269222,0,0,1,0,0,0,68,71,137,120,23,192.04,379,17.00,16.00,-997.00
2024-05-17 17:01:11.382906,0,0,1,0,0,0,68,71,137,120,23,191.97,379,14.00,0.00,-983.00
2024-05-17 17:01:11.472444,0,0,1,0,0,0,68,71,137,120,23,191.99,380,-4.00,2.00,-976.00
2024-05-17 17:01:11.574693,0,0,1,0,0,0,68,71,136,120,23,192.00,380,-6.00,15.00,-1000.00
2024-05-17 17:01:11.693510,0,0,1,0,0,0,68,71,136,120,23,191.99,380,-2.00,6.00,-986.00
2024-05-17 17:01:11.778537,0,0,1,0,0,0,68,71,136,120,23,192.09,380,4.00,4.00,-989.00
2024-05-17 17:01:11.895192,0,0,1,0,0,0,68,71,136,120,23,192.02,380,11.00,-2.00,-1015.00
2024-05-17 17:01:11.982584,0,0,1,0,0,0,68,71,136,120,23,192.02,380,-27.00,5.00,-1002.00
2024-05-17 17:01:12.084665,0,0,1,0,0,0,68,70,136,120,23,192.02,380,-15.00,16.00,-999.00
2024-05-17 17:01:12.188356,0,0,1,0,0,0,68,70,136,120,23,192.00,380,11.00,4.00,-1000.00
2024-05-17 17:01:12.289149,0,0,1,0,0,0,68,70,136,120,22,191.99,380,-14.00,18.00,-998.00
2024-05-17 17:01:12.390399,0,0,1,0,0,0,68,70,136,120,22,192.02,380,-10.00,19.00,-988.00
2024-05-17 17:01:12.492396,0,0,1,0,0,0,68,70,136,120,22,191.95,381,-3.00,5.00,-995.00
2024-05-17 17:01:12.594414,0,0,1,0,0,0,68,70,136,120,22,192.01,381,0.00,9.00,-995.00
2024-05-17 17:01:12.714011,0,0,1,0,0,0,68,70,136,120,22,192.06,381,-10.00,-7.00,-975.00
2024-05-17 17:01:12.751538,0,0,1,0,0,0,68,70,137,120,22,192.02,381,0.00,7.00,-991.00
2024-05-17 17:01:12.849135,0,0,1,0,0,0,68,70,137,120,22,192.04,381,12.00,0.00,-996.00
2024-05-17 17:01:13.025500,0,0,1,0,0,0,68,70,137,120,22,192.04,381,0.00,10.00,-1000.00
2024-05-17 17:01:13.104251,0,0,1,0,0,0,68,70,137,120,22,192.02,381,0.00,18.00,-987.00
2024-05-17 17:01:13.226065,0,0,1,0,0,0,68,70,137,120,22,192.00,381,-8.00,17.00,-1007.00
2024-05-17 17:01:13.257125,0,0,1,0,0,0,68,70,137,120,22,192.03,381,-2.00,10.00,-987.00
2024-05-17 17:01:13.360255,0,0,1,0,0,0,68,70,137,120,22,192.01,382,2.00,14.00,-996.00
2024-05-17 17:01:13.533314,0,-1,1,0,0,0,68,70,137,120,22,191.98,382,-6.00,8.00,-1011.00
2024-05-17 17:01:13.563357,0,-1,1,0,0,0,68,70,137,120,22,192.02,382,-14.00,16.00,-981.00
2024-05-17 17:01:13.738308,0,-1,1,0,0,0,68,70,137,120,22,192.02,382,-6.00,13.00,-1000.00
2024-05-17 17:01:13.768852,0,0,1,0,0,0,68,70,137,120,22,192.03,382,-6.00,10.00,-1000.00
2024-05-17 17:01:13.942876,0,0,1,0,0,0,68,70,137,120,22,192.05,382,0.00,15.00,-1005.00
2024-05-17 17:01:13.972417,0,-1,1,0,0,0,68,70,137,120,22,192.02,382,1.00,12.00,-979.00
2024-05-17 17:01:14.074468,0,-1,1,0,0,0,69,70,137,120,22,192.12,382,-5.00,34.00,-996.00
2024-05-17 17:01:14.250052,0,-1,1,0,0,0,69,70,137,120,22,192.11,382,26.00,1.00,-990.00
2024-05-17 17:01:14.278367,0,-1,1,0,0,0,69,70,136,120,22,192.07,382,-32.00,48.00,-981.00
2024-05-17 17:01:14.380400,0,-1,1,0,0,0,69,70,136,120,22,192.08,383,-5.00,25.00,-1001.00
2024-05-17 17:01:14.482672,0,-1,1,0,0,0,69,70,136,120,22,192.05,383,20.00,13.00,-1011.00
2024-05-17 17:01:14.659790,0,-1,1,0,0,0,69,70,136,120,22,192.05,383,0.00,24.00,-1001.00
2024-05-17 17:01:14.686000,0,-1,1,0,0,0,69,70,135,120,22,192.04,383,8.00,28.00,-1011.00
2024-05-17 17:01:14.865525,0,-1,1,0,0,0,69,70,135,120,22,192.05,383,22.00,0.00,-996.00
2024-05-17 17:01:14.890026,0,-1,1,0,0,0,69,70,135,120,22,192.00,383,-11.00,13.00,-982.00
2024-05-17 17:01:15.069193,0,-1,1,0,0,0,69,70,135,120,22,191.97,383,0.00,50.00,-1048.00
2024-05-17 17:01:15.094282,0,-1,1,0,0,0,67,71,135,120,22,191.99,383,12.00,-6.00,-976.00
2024-05-17 17:01:15.274676,0,-1,1,0,0,0,67,71,136,120,22,192.05,383,4.00,25.00,-993.00
2024-05-17 17:01:15.298476,0,0,1,0,0,0,67,71,136,120,22,191.98,383,1.00,23.00,-988.00
2024-05-17 17:01:15.478896,0,0,1,0,0,0,67,71,136,120,22,192.01,384,23.00,7.00,-1008.00
2024-05-17 17:01:15.502401,0,-1,1,0,0,0,67,71,136,120,22,191.97,384,-29.00,48.00,-1021.00
2024-05-17 17:01:15.605500,0,-1,1,0,0,0,67,71,135,120,22,191.97,384,-4.00,5.00,-983.00
2024-05-17 17:01:15.786508,0,-1,1,0,0,0,67,71,135,120,22,192.08,384,-1.00,-12.00,-972.00
2024-05-17 17:01:15.809057,0,0,1,0,0,0,67,71,136,120,22,192.05,384,24.00,-5.00,-960.00
2024-05-17 17:01:15.990821,0,0,1,0,0,0,67,71,136,120,22,191.94,384,-11.00,0.00,-1012.00
2024-05-17 17:01:16.013077,0,0,1,0,0,0,67,71,136,120,22,192.04,384,0.00,31.00,-1042.00
2024-05-17 17:01:16.195605,0,0,1,0,0,0,67,70,136,120,22,192.03,384,-2.00,9.00,-997.00
2024-05-17 17:01:16.217045,0,0,1,0,0,0,67,70,136,120,22,192.01,384,7.00,20.00,-1008.00
2024-05-17 17:01:16.319103,0,0,1,0,0,0,67,70,136,120,22,192.01,384,9.00,2.00,-994.00
2024-05-17 17:01:16.506577,0,0,1,0,0,0,67,70,136,120,22,191.94,385,-6.00,8.00,-999.00
2024-05-17 17:01:16.522941,0,0,1,0,0,0,67,70,136,120,22,192.04,385,-9.00,31.00,-1012.00
2024-05-17 17:01:16.624884,0,0,1,0,0,0,67,70,135,120,22,192.02,385,10.00,-6.00,-981.00
2024-05-17 17:01:16.809905,0,0,1,0,0,0,67,70,135,120,22,191.98,385,-13.00,8.00,-982.00
2024-05-17 17:01:16.828931,0,0,1,0,0,0,67,70,136,120,22,192.00,385,13.00,-1.00,-978.00
2024-05-17 17:01:17.014683,0,0,1,0,0,0,67,70,136,120,22,192.07,385,-14.00,29.00,-962.00
2024-05-17 17:01:17.014835,0,0,1,0,0,0,67,70,134,120,22,191.95,385,-20.00,37.00,-927.00
2024-05-17 17:01:17.134891,0,0,1,0,0,1,68,70,133,120,22,191.98,385,-10.00,16.00,-927.00
2024-05-17 17:01:17.190456,0,0,1,0,0,2,68,70,131,120,22,191.95,385,22.00,-1.00,-897.00
2024-05-17 17:01:17.288183,0,0,1,0,0,3,68,70,128,120,22,191.89,385,6.00,14.00,-911.00
2024-05-17 17:01:17.424314,0,0,1,0,0,4,68,70,124,110,22,191.90,386,-3.00,6.00,-889.00
2024-05-17 17:01:17.491983,0,-1,2,0,0,5,68,70,120,110,22,191.91,386,0.00,7.00,-899.00
2024-05-17 17:01:17.594448,0,-1,2,0,0,6,68,70,114,100,22,191.86,386,-15.00,19.00,-912.00
2024-05-17 17:01:17.731508,0,-1,2,0,0,7,68,70,106,100,22,191.77,386,14.00,-8.00,-940.00
2024-05-17 17:01:17.798204,0,-1,2,0,0,7,68,70,98,90,22,191.70,386,-17.00,9.00,-976.00
2024-05-17 17:01:17.936284,0,0,2,0,0,7,68,70,90,80,22,191.64,386,-12.00,17.00,-1003.00
2024-05-17 17:01:18.001981,0,0,2,0,0,7,68,70,83,70,22,191.56,386,-7.00,16.00,-1031.00
2024-05-17 17:01:18.104398,0,-1,2,0,0,7,67,71,77,70,22,191.60,386,-4.00,10.00,-1044.00
2024-05-17 17:01:18.207023,-1,0,2,0,0,6,67,71,71,60,22,191.45,386,-53.00,34.00,-1059.00
2024-05-17 17:01:18.308642,-1,0,2,0,0,6,67,71,66,50,22,191.37,386,-2.00,-7.00,-1048.00
2024-05-17 17:01:18.451188,0,0,2,0,0,5,67,71,59,50,22,191.38,387,12.00,0.00,-1010.00
2024-05-17 17:01:18.513486,0,0,2,0,0,5,67,71,54,40,22,191.30,387,-4.00,11.00,-1042.00
2024-05-17 17:01:18.615749,0,0,2,0,0,4,67,71,49,40,22,191.24,387,25.00,-18.00,-1003.00
2024-05-17 17:01:18.716180,0,0,2,0,0,4,67,71,43,30,22,191.25,387,-63.00,42.00,-1027.00
2024-05-17 17:01:18.818078,0,0,2,0,0,4,67,71,38,30,22,191.21,387,-6.00,26.00,-979.00
2024-05-17 17:01:18.960289,-1,-1,2,0,0,4,67,71,35,20,22,191.04,387,-34.00,31.00,-1021.00
2024-05-17 17:01:19.021978,-1,-1,2,0,0,4,67,71,31,20,22,190.98,387,-36.00,30.00,-1006.00
2024-05-17 17:01:19.166497,-1,-1,2,0,0,4,68,71,27,10,22,190.96,387,-26.00,33.00,-998.00
2024-05-17 17:01:19.225947,-1,-1,2,0,0,4,68,71,21,10,22,190.83,387,-19.00,24.00,-1023.00
2024-05-17 17:01:19.369879,-1,-1,2,0,0,4,68,71,17,10,22,190.71,387,-25.00,13.00,-988.00
2024-05-17 17:01:19.430031,-1,0,2,0,0,4,68,71,14,0,22,190.19,388,-22.00,11.00,-1042.00
2024-05-17 17:01:19.574816,0,0,2,0,0,3,68,71,10,0,22,189.48,388,-29.00,26.00,-1053.00
2024-05-17 17:01:19.639112,0,0,1,0,0,3,68,71,10,0,22,188.42,388,-23.00,33.00,-1052.00
2024-05-17 17:01:19.736140,0,0,1,0,0,2,68,71,10,0,22,186.88,388,-4.00,3.00,-1106.00
2024-05-17 17:01:19.881875,-1,-1,2,0,0,0,68,71,10,0,22,188.22,388,9.00,4.00,-852.00
2024-05-17 17:01:19.941316,-1,-2,1,0,0,0,68,71,10,0,22,187.49,388,0.00,-3.00,-802.00
2024-05-17 17:01:20.041729,-1,0,1,0,0,0,68,71,10,0,22,187.73,388,-16.00,28.00,-861.00
2024-05-17 17:01:20.190543,0,0,1,0,0,0,67,70,10,0,22,188.25,388,-27.00,-50.00,-1140.00
2024-05-17 17:01:20.245685,0,0,2,0,0,0,67,70,10,0,22,189.00,388,-9.00,-20.00,-1048.00
2024-05-17 17:01:20.393858,0,0,4,0,0,0,67,70,10,0,22,189.55,388,43.00,-37.00,-1033.00
2024-05-17 17:01:20.449683,0,0,5,0,0,0,67,70,10,0,22,189.74,389,1.00,19.00,-999.00
2024-05-17 17:01:20.598665,0,0,6,0,0,0,67,70,10,0,22,189.88,389,25.00,2.00,-999.00
2024-05-17 17:01:20.603003,0,0,6,0,0,0,67,70,10,0,22,190.08,389,0.00,-1.00,-995.00
2024-05-17 17:01:20.803475,0,0,6,0,0,0,67,70,10,0,22,190.00,389,4.00,7.00,-998.00
2024-05-17 17:01:20.806626,0,0,6,0,0,0,67,70,10,0,22,190.04,389,16.00,1.00,-998.00
2024-05-17 17:01:20.908676,0,0,6,0,0,0,67,70,10,0,22,190.09,389,9.00,3.00,-997.00
2024-05-17 17:01:21.010762,0,0,6,0,0,0,67,70,10,0,22,190.31,389,8.00,15.00,-997.00
2024-05-17 17:01:21.113987,0,0,6,0,0,0,67,70,10,0,22,190.38,389,5.00,-3.00,-998.00
2024-05-17 17:01:21.214916,0,0,6,0,0,0,67,70,10,0,21,190.43,389,11.00,8.00,-998.00
2024-05-17 17:01:21.359730,0,0,6,0,0,0,67,70,10,0,21,190.55,389,3.00,-4.00,-997.00
