TS,pitch,roll,yaw,vgx,vgy,vgz,templ,temph,tof,h,bat,baro,time,agx,agy,agz
2024-05-19 09:53:10.308339,0,0,0,0,0,0,57,59,10,0,93,130.18,0,9.00,10.00,-1000.00
2024-05-19 09:53:10.381281,0,0,0,0,0,0,57,59,10,0,93,130.21,0,10.00,8.00,-1000.00
2024-05-19 09:53:10.523819,0,0,0,0,0,0,57,59,10,0,93,130.21,0,10.00,10.00,-1000.00
2024-05-19 09:53:10.585330,0,0,0,0,0,0,57,59,10,0,93,130.20,0,9.00,10.00,-1002.00
2024-05-19 09:53:10.728514,0,0,0,0,0,0,57,59,10,0,93,130.21,0,10.00,11.00,-1001.00
2024-05-19 09:53:10.789202,0,0,0,0,0,0,57,59,10,0,93,130.16,0,10.00,9.00,-1000.00
2024-05-19 09:53:10.933182,0,0,0,0,0,0,57,59,10,0,93,130.19,0,9.00,7.00,-998.00
2024-05-19 09:53:10.993230,0,0,0,0,0,0,57,59,10,0,93,130.09,0,11.00,10.00,-1001.00
2024-05-19 09:53:11.138029,0,0,0,0,0,0,57,59,10,0,93,130.16,0,9.00,10.00,-1000.00
2024-05-19 09:53:11.197194,0,0,0,0,0,0,57,59,10,0,93,130.21,0,9.00,10.00,-1001.00
2024-05-19 09:53:11.342809,0,0,0,0,0,0,58,59,10,0,93,130.19,0,10.00,10.00,-1001.00
2024-05-19 09:53:11.401195,0,0,0,0,0,0,58,59,10,0,93,130.21,0,10.00,8.00,-998.00
2024-05-19 09:53:11.547655,0,0,0,0,0,0,58,59,10,0,93,130.18,0,10.00,9.00,-999.00
2024-05-19 09:53:11.605355,0,0,0,0,0,0,58,59,10,0,93,130.25,0,10.00,9.00,-998.00
2024-05-19 09:53:11.752258,0,0,0,0,0,0,58,59,10,0,93,130.28,0,11.00,8.00,-1001.00
2024-05-19 09:53:11.809011,0,0,0,0,0,0,58,59,10,0,93,130.18,0,10.00,9.00,-1003.00
2024-05-19 09:53:11.859978,0,0,0,0,0,0,58,59,10,0,93,130.20,0,10.00,9.00,-999.00
2024-05-19 09:53:12.059726,0,0,0,0,0,0,58,59,10,0,93,130.19,0,9.00,10.00,-999.00
2024-05-19 09:53:12.063942,0,0,0,0,0,0,58,59,10,0,93,130.20,0,9.00,10.00,-1001.00
2024-05-19 09:53:12.264760,0,0,0,0,0,0,58,59,10,0,93,130.23,0,10.00,9.00,-998.00
2024-05-19 09:53:12.319429,0,0,0,0,0,0,58,60,10,0,93,130.23,0,10.00,9.00,-1001.00
2024-05-19 09:53:12.369886,0,0,0,0,0,0,58,60,10,0,93,130.22,0,9.00,9.00,-999.00
2024-05-19 09:53:12.472051,0,0,0,0,0,0,58,60,10,0,93,130.16,0,10.00,10.00,-1000.00
2024-05-19 09:53:12.574044,0,0,0,0,0,0,58,60,10,0,93,130.18,0,9.00,9.00,-999.00
2024-05-19 09:53:12.675995,0,0,0,0,0,0,58,60,10,0,93,130.24,0,11.00,10.00,-999.00
2024-05-19 09:53:12.777975,0,0,0,0,0,0,58,60,10,0,93,130.22,0,9.00,9.00,-999.00
2024-05-19 09:53:12.879768,0,0,0,0,0,0,58,60,10,0,93,130.21,0,9.00,10.00,-998.00
2024-05-19 09:53:13.083546,0,0,0,0,0,0,58,60,10,0,93,130.18,0,9.00,7.00,-1004.00
2024-05-19 09:53:13.083819,0,0,0,0,0,0,58,60,10,0,93,130.18,0,11.00,1.00,-1001.00
2024-05-19 09:53:13.185917,0,0,0,0,0,0,58,60,10,0,93,130.18,0,8.00,8.00,-997.00
2024-05-19 09:53:13.287871,0,0,1,0,0,0,58,60,10,0,93,130.18,0,14.00,14.00,-998.00
2024-05-19 09:53:13.390715,0,0,2,0,0,0,58,60,10,0,93,130.18,0,28.00,13.00,-1000.00
2024-05-19 09:53:13.493123,0,0,2,0,0,0,58,60,10,0,93,130.18,0,-26.00,12.00,-1020.00
2024-05-19 09:53:13.595448,0,0,2,0,0,-3,58,60,10,0,93,130.18,0,-1.00,21.00,-1035.00
2024-05-19 09:53:13.695867,0,0,2,0,0,-6,58,60,10,0,93,130.18,0,9.00,4.00,-1145.00
2024-05-19 09:53:13.797898,-1,-1,2,0,0,-7,58,60,13,0,93,130.33,0,-3.00,13.00,-1322.00
2024-05-19 09:53:13.902745,-1,-1,2,0,0,-7,58,60,22,10,93,130.50,0,17.00,16.00,-1172.00
2024-05-19 09:53:14.001843,-1,0,2,0,0,-7,58,60,31,20,93,130.59,1,-10.00,18.00,-1078.00
2024-05-19 09:53:14.107531,-1,0,2,0,0,-6,58,60,39,20,93,130.69,1,-30.00,14.00,-1040.00
2024-05-19 09:53:14.205971,0,0,2,0,0,-6,58,60,46,30,93,130.74,1,25.00,7.00,-969.00
2024-05-19 09:53:14.312553,0,0,2,0,0,-5,59,61,54,30,93,130.90,1,14.00,4.00,-902.00
2024-05-19 09:53:14.410180,0,0,2,0,0,-4,59,61,60,40,93,130.93,1,-12.00,30.00,-923.00
2024-05-19 09:53:14.517144,0,0,2,0,0,-3,59,61,66,40,93,130.98,1,0.00,25.00,-903.00
2024-05-19 09:53:14.613792,0,-1,2,0,0,-2,59,61,71,40,93,131.00,1,24.00,3.00,-908.00
2024-05-19 09:53:14.721857,0,-1,2,0,0,-1,59,61,75,50,93,130.99,1,23.00,17.00,-949.00
2024-05-19 09:53:14.817702,1,-1,2,0,0,-1,59,61,78,50,93,131.05,1,-20.00,40.00,-949.00
2024-05-19 09:53:14.926741,0,-1,2,0,0,0,59,61,81,50,93,131.08,1,20.00,18.00,-946.00
2024-05-19 09:53:15.021800,1,-1,2,0,0,0,59,61,83,50,93,131.08,2,30.00,11.00,-997.00
2024-05-19 09:53:15.131418,1,-1,2,0,0,0,59,61,85,50,93,131.15,2,21.00,15.00,-938.00
2024-05-19 09:53:15.225653,1,-1,2,0,0,0,59,61,86,60,93,131.18,2,41.00,20.00,-978.00
2024-05-19 09:53:15.327754,1,-2,2,0,0,0,57,61,88,60,93,131.27,2,18.00,39.00,-984.00
2024-05-19 09:53:15.438654,1,-2,2,0,0,0,57,61,89,60,93,131.19,2,-13.00,43.00,-937.00
2024-05-19 09:53:15.531700,1,-2,2,0,0,0,57,61,90,60,93,131.26,2,1.00,38.00,-936.00
2024-05-19 09:53:15.643420,1,-2,2,0,0,0,57,61,90,60,93,131.20,2,25.00,33.00,-966.00
2024-05-19 09:53:15.735688,1,-2,2,0,0,0,57,61,90,60,93,131.18,2,35.00,31.00,-999.00
2024-05-19 09:53:15.848248,1,-2,2,0,0,0,57,61,90,60,93,131.19,2,40.00,18.00,-987.00
2024-05-19 09:53:15.939639,1,-2,2,0,0,0,57,61,90,60,93,131.16,2,-9.00,46.00,-968.00
2024-05-19 09:53:15.994060,1,-2,2,0,0,0,57,61,90,60,93,131.23,3,23.00,39.00,-966.00
2024-05-19 09:53:16.092863,1,-2,2,0,0,0,57,61,89,60,93,131.14,3,-4.00,44.00,-968.00
2024-05-19 09:53:16.195023,1,-2,2,0,0,0,57,61,88,60,93,131.26,3,38.00,26.00,-1003.00
2024-05-19 09:53:16.360304,1,-2,2,0,0,0,58,61,88,60,93,131.21,3,16.00,36.00,-997.00
2024-05-19 09:53:16.398970,1,-2,2,0,0,0,58,61,88,60,93,131.12,3,11.00,42.00,-1000.00
2024-05-19 09:53:16.565138,1,-2,2,0,0,0,58,61,87,60,93,131.18,3,23.00,35.00,-1013.00
2024-05-19 09:53:16.603007,1,-2,2,0,0,0,58,61,87,60,93,131.17,3,23.00,28.00,-1014.00
2024-05-19 09:53:16.769910,1,-2,2,0,0,0,58,61,86,60,93,131.15,3,18.00,42.00,-990.00
2024-05-19 09:53:16.806884,1,-2,2,0,0,0,58,61,85,60,93,131.09,3,45.00,20.00,-1038.00
2024-05-19 09:53:16.974771,1,-2,2,0,0,0,58,61,84,60,93,131.09,3,12.00,19.00,-969.00
2024-05-19 09:53:17.010870,1,-1,2,0,0,0,58,61,83,60,93,131.15,4,0.00,52.00,-1007.00
2024-05-19 09:53:17.179505,0,-2,2,0,0,0,58,61,81,60,93,131.12,4,-5.00,59.00,-999.00
2024-05-19 09:53:17.216318,0,-3,2,0,0,0,58,61,80,60,93,131.13,4,38.00,35.00,-1025.00
2024-05-19 09:53:17.317062,0,-3,2,0,0,0,59,61,79,60,93,131.14,4,5.00,39.00,-999.00
2024-05-19 09:53:17.486703,0,-3,2,0,0,0,59,61,79,50,93,131.01,4,-20.00,50.00,-1030.00
2024-05-19 09:53:17.522287,0,-3,2,0,0,0,59,61,78,50,93,131.17,4,10.00,35.00,-1024.00
2024-05-19 09:53:17.624824,0,-3,2,0,0,0,59,61,78,50,93,131.07,4,26.00,28.00,-1069.00
2024-05-19 09:53:17.727317,0,-2,2,0,0,0,59,61,77,50,93,131.11,4,16.00,19.00,-1005.00
2024-05-19 09:53:17.829778,0,-1,2,0,0,0,59,61,77,50,93,131.12,4,27.00,16.00,-1010.00
2024-05-19 09:53:17.932063,0,0,2,0,0,0,59,61,77,50,93,131.05,4,13.00,28.00,-963.00
2024-05-19 09:53:18.034215,1,0,2,0,0,0,59,61,77,50,93,131.12,5,-1.00,38.00,-982.00
2024-05-19 09:53:18.132785,1,-1,2,0,0,0,59,61,76,50,93,131.10,5,3.00,23.00,-1024.00
2024-05-19 09:53:18.234799,1,-1,2,0,0,0,59,61,76,50,93,130.98,5,5.00,25.00,-1023.00
2024-05-19 09:53:18.408602,0,-1,2,0,0,0,60,62,76,50,93,131.02,5,13.00,24.00,-1010.00
2024-05-19 09:53:18.438632,0,-1,1,0,0,0,60,62,76,50,93,131.11,5,-9.00,14.00,-1012.00
2024-05-19 09:53:18.613076,0,-1,1,0,0,0,60,62,75,50,93,131.04,5,17.00,21.00,-995.00
2024-05-19 09:53:18.642967,0,-1,1,0,0,0,60,62,75,50,93,131.00,5,-11.00,18.00,-1007.00
2024-05-19 09:53:18.817858,0,-1,2,0,0,0,60,62,74,50,93,131.02,5,2.00,24.00,-983.00
2024-05-19 09:53:18.846802,0,-1,2,0,0,0,60,62,74,50,93,131.05,5,19.00,23.00,-1000.00
2024-05-19 09:53:19.022743,0,-1,2,0,0,0,60,62,74,50,93,131.04,5,3.00,23.00,-990.00
2024-05-19 09:53:19.050792,0,-1,2,0,0,0,60,62,75,50,93,131.10,6,-8.00,33.00,-1036.00
2024-05-19 09:53:19.227524,0,-1,2,0,0,0,60,62,75,50,93,131.07,6,-26.00,38.00,-998.00
2024-05-19 09:53:19.254895,0,-2,2,0,0,0,60,62,75,50,93,131.11,6,0.00,8.00,-993.00
2024-05-19 09:53:19.432662,0,-1,2,0,0,0,59,62,75,50,93,131.09,6,8.00,20.00,-992.00
2024-05-19 09:53:19.459024,0,-1,2,0,0,0,59,62,75,50,93,131.08,6,0.00,14.00,-975.00
2024-05-19 09:53:19.637171,0,-1,2,0,0,0,59,62,75,50,93,131.04,6,0.00,34.00,-967.00
2024-05-19 09:53:19.663132,0,-1,2,0,0,0,59,62,75,50,93,131.08,6,4.00,25.00,-1029.00
2024-05-19 09:53:19.841992,0,-1,2,0,0,0,59,62,75,50,93,131.07,6,14.00,21.00,-1040.00
2024-05-19 09:53:19.866950,0,-1,2,0,0,0,59,62,75,50,93,131.01,6,15.00,17.00,-1011.00
2024-05-19 09:53:19.917690,0,-1,2,0,0,0,59,62,75,50,93,131.02,6,20.00,43.00,-1013.00
2024-05-19 09:53:20.046800,0,-1,2,0,0,0,59,62,75,50,93,131.07,7,-2.00,39.00,-997.00
2024-05-19 09:53:20.121703,0,-1,2,0,0,0,59,62,75,50,93,131.01,7,-16.00,25.00,-1004.00
2024-05-19 09:53:20.223734,0,-1,2,0,0,0,59,62,75,50,93,131.13,7,7.00,35.00,-995.00
2024-05-19 09:53:20.376912,0,-1,2,0,0,0,60,62,76,50,93,131.05,7,-16.00,23.00,-992.00
2024-05-19 09:53:20.558733,0,-2,2,0,0,0,60,62,76,50,93,131.06,7,13.00,30.00,-971.00
2024-05-19 09:53:20.580755,0,-1,2,0,0,0,60,62,76,50,93,131.13,7,-3.00,26.00,-988.00
2024-05-19 09:53:20.631518,0,-1,2,0,0,0,60,62,76,50,93,130.96,7,26.00,22.00,-1016.00
2024-05-19 09:53:20.763982,0,-1,2,0,0,0,60,62,77,50,93,130.99,7,21.00,12.00,-974.00
2024-05-19 09:53:20.886775,0,-1,2,0,0,0,60,62,77,50,93,131.08,7,33.00,14.00,-1001.00
2024-05-19 09:53:20.937571,0,-1,2,0,0,0,60,62,78,50,93,131.05,7,23.00,26.00,-1036.00
2024-05-19 09:53:21.070649,0,-1,2,0,0,0,60,62,79,50,93,131.09,8,22.00,27.00,-1082.00
2024-05-19 09:53:21.142575,0,-1,2,0,0,-1,60,62,81,50,93,131.12,8,-11.00,40.00,-1122.00
2024-05-19 09:53:21.245471,0,-1,2,0,0,-2,60,62,83,60,93,131.14,8,6.00,26.00,-1105.00
2024-05-19 09:53:21.345962,0,-1,2,0,0,-3,61,63,87,60,93,131.22,8,6.00,35.00,-1056.00
2024-05-19 09:53:21.447445,0,-1,2,0,0,-4,61,63,92,60,93,131.21,8,-14.00,39.00,-1024.00
2024-05-19 09:53:21.550828,0,-1,2,0,0,-4,61,63,97,70,93,131.24,8,16.00,24.00,-1054.00
2024-05-19 09:53:21.651397,0,-1,2,0,0,-5,61,63,102,70,93,131.31,8,30.00,26.00,-1030.00
2024-05-19 09:53:21.787468,0,-1,2,0,0,-5,61,63,107,80,93,131.39,8,1.00,35.00,-1009.00
2024-05-19 09:53:21.855433,0,-1,2,0,0,-5,61,63,113,80,93,131.49,8,-1.00,42.00,-1034.00
2024-05-19 09:53:21.992614,0,-1,2,0,0,-5,61,63,118,90,93,131.52,8,8.00,37.00,-968.00
2024-05-19 09:53:22.059538,0,-2,2,0,0,-5,61,63,124,90,93,131.54,9,19.00,14.00,-983.00
2024-05-19 09:53:22.197050,0,-1,2,0,0,-5,61,63,130,100,93,131.56,9,18.00,22.00,-959.00
2024-05-19 09:53:22.267126,0,-1,2,0,0,-5,61,63,135,100,93,131.64,9,-15.00,37.00,-941.00
2024-05-19 09:53:22.365443,0,-1,2,0,0,-4,60,63,140,110,93,131.66,9,33.00,-11.00,-973.00
2024-05-19 09:53:22.504196,0,-1,2,0,0,-4,60,63,145,110,93,131.76,9,15.00,10.00,-947.00
2024-05-19 09:53:22.569245,0,-1,2,0,0,-4,60,63,148,120,93,131.75,9,9.00,26.00,-951.00
2024-05-19 09:53:22.709065,0,-1,2,0,0,-3,60,63,153,120,93,131.78,9,6.00,21.00,-1017.00
2024-05-19 09:53:22.773789,1,-1,2,0,0,-3,60,63,156,130,93,131.81,9,38.00,10.00,-977.00
2024-05-19 09:53:22.913859,1,-1,2,0,0,-3,60,63,159,130,93,131.90,9,3.00,24.00,-942.00
2024-05-19 09:53:22.977355,1,-1,2,0,0,-2,60,63,162,130,93,131.92,9,20.00,8.00,-963.00
2024-05-19 09:53:23.118648,0,-1,2,0,0,-2,60,63,164,140,93,131.91,10,33.00,24.00,-948.00
2024-05-19 09:53:23.181976,0,-1,2,0,0,-2,60,63,166,140,93,131.97,10,19.00,32.00,-958.00
2024-05-19 09:53:23.323433,0,-1,2,0,0,-1,60,63,168,140,93,131.99,10,-31.00,35.00,-949.00
2024-05-19 09:53:23.385398,0,-1,2,0,0,-1,61,63,169,140,93,132.06,10,4.00,35.00,-991.00
2024-05-19 09:53:23.528292,0,-2,2,0,0,-1,61,63,170,140,93,131.99,10,26.00,32.00,-1036.00
2024-05-19 09:53:23.589347,0,-2,2,0,0,-1,61,63,172,150,93,132.05,10,29.00,40.00,-993.00
2024-05-19 09:53:23.691687,0,-2,2,0,0,-1,61,63,173,150,93,131.99,10,41.00,29.00,-1009.00
2024-05-19 09:53:23.835911,1,-2,2,0,0,-1,61,63,174,150,93,131.81,10,15.00,44.00,-953.00
2024-05-19 09:53:23.895421,2,-2,2,0,0,0,61,63,175,150,93,132.01,10,19.00,35.00,-968.00
2024-05-19 09:53:24.040432,2,-2,2,0,0,0,61,63,176,150,93,131.97,10,40.00,20.00,-987.00
2024-05-19 09:53:24.048669,2,-2,2,0,0,0,61,63,176,150,93,131.97,11,53.00,7.00,-977.00
2024-05-19 09:53:24.245891,2,-1,2,0,0,0,61,63,176,150,93,131.92,11,33.00,35.00,-1003.00
2024-05-19 09:53:24.252736,2,-2,2,0,0,0,61,63,177,150,93,131.90,11,62.00,21.00,-995.00
2024-05-19 09:53:24.449983,2,-2,2,0,0,0,61,63,176,150,93,131.95,11,97.00,11.00,-976.00
2024-05-19 09:53:24.456583,3,-1,2,0,0,0,61,63,176,150,93,132.05,11,84.00,0.00,-974.00
2024-05-19 09:53:24.654649,4,-1,2,1,0,0,61,63,175,150,93,131.99,11,60.00,16.00,-1008.00
2024-05-19 09:53:24.660669,4,-1,2,0,0,0,61,63,176,150,93,132.07,11,89.00,11.00,-987.00
2024-05-19 09:53:24.859558,4,-1,2,0,0,0,61,63,175,150,93,131.96,11,87.00,0.00,-1013.00
2024-05-19 09:53:24.864654,4,-1,2,0,0,0,61,63,174,150,93,131.92,11,70.00,-1.00,-1034.00
2024-05-19 09:53:25.064359,3,0,1,0,0,0,61,63,175,150,93,131.98,11,81.00,12.00,-1027.00
2024-05-19 09:53:25.068705,4,0,1,0,0,0,61,63,174,150,93,131.90,12,85.00,30.00,-978.00
2024-05-19 09:53:25.269092,4,0,1,0,0,0,61,63,173,150,93,131.83,12,80.00,-1.00,-1016.00
2024-05-19 09:53:25.272486,4,0,2,0,0,0,61,63,175,150,93,131.93,12,88.00,9.00,-1009.00
2024-05-19 09:53:25.374722,4,-1,2,0,0,0,61,63,176,150,93,131.93,12,68.00,20.00,-953.00
2024-05-19 09:53:25.476628,4,-1,2,0,0,0,61,63,176,150,93,131.83,12,101.00,-5.00,-934.00
2024-05-19 09:53:25.578834,4,-1,2,0,0,0,61,63,177,150,93,132.05,12,94.00,0.00,-962.00
2024-05-19 09:53:25.680400,4,0,2,0,0,0,61,63,176,150,93,131.90,12,104.00,23.00,-1000.00
2024-05-19 09:53:25.883368,4,0,2,0,0,0,61,63,177,150,93,132.02,12,83.00,15.00,-1007.00
2024-05-19 09:53:25.884762,4,-1,2,0,0,0,61,63,177,150,93,131.84,12,66.00,41.00,-967.00
2024-05-19 09:53:26.088105,4,-1,2,0,0,0,61,63,177,150,93,132.01,12,61.00,17.00,-938.00
2024-05-19 09:53:26.088426,4,-2,2,0,0,0,61,63,176,150,93,131.92,13,66.00,34.00,-938.00
2024-05-19 09:53:26.191121,4,-2,2,0,0,1,61,63,175,150,93,131.93,13,33.00,37.00,-936.00
2024-05-19 09:53:26.292708,4,-2,2,0,0,1,61,63,173,150,93,131.93,13,103.00,5.00,-980.00
2024-05-19 09:53:26.395374,4,-2,2,0,0,2,61,63,171,140,93,131.98,13,91.00,28.00,-955.00
2024-05-19 09:53:26.498272,4,-2,2,0,0,2,61,63,168,140,92,131.76,13,81.00,33.00,-959.00
2024-05-19 09:53:26.598395,4,-2,2,0,0,2,61,63,164,140,92,131.74,13,117.00,19.00,-1000.00
2024-05-19 09:53:26.702573,4,-1,2,0,0,2,61,63,163,140,92,131.75,13,77.00,41.00,-988.00
2024-05-19 09:53:26.802484,5,-1,2,0,0,3,61,63,160,130,92,131.76,13,86.00,17.00,-973.00
2024-05-19 09:53:26.907377,5,-1,2,0,0,3,61,63,156,130,92,131.64,13,82.00,0.00,-1001.00
2024-05-19 09:53:27.006307,5,0,2,0,0,3,61,63,153,130,92,131.65,14,65.00,37.00,-1019.00
2024-05-19 09:53:27.112173,4,0,2,0,0,2,61,63,150,120,92,131.70,14,49.00,35.00,-977.00
2024-05-19 09:53:27.210400,3,-1,2,0,0,2,61,63,146,120,92,131.64,14,25.00,52.00,-1012.00
2024-05-19 09:53:27.316958,3,-2,2,0,0,2,61,63,144,120,92,131.60,14,93.00,42.00,-1016.00
2024-05-19 09:53:27.417705,3,-2,2,0,0,2,62,64,140,110,92,131.57,14,38.00,31.00,-995.00
2024-05-19 09:53:27.517050,2,-2,2,0,0,2,62,64,139,110,92,131.52,14,75.00,34.00,-976.00
2024-05-19 09:53:27.624152,2,-1,2,0,0,1,62,64,137,110,92,131.51,14,48.00,38.00,-996.00
2024-05-19 09:53:27.721112,3,-2,2,0,0,1,62,64,135,110,92,131.41,14,55.00,42.00,-1020.00
2024-05-19 09:53:27.828970,3,-2,2,0,0,1,62,64,134,110,92,131.51,14,73.00,47.00,-1010.00
2024-05-19 09:53:27.877880,2,-1,2,0,0,1,62,64,132,110,92,131.54,14,58.00,19.00,-1015.00
2024-05-19 09:53:27.976275,3,-1,2,0,0,0,62,64,131,110,92,131.39,15,47.00,33.00,-1029.00
2024-05-19 09:53:28.078415,3,-1,2,0,0,0,62,64,130,100,92,131.48,15,81.00,12.00,-966.00
2024-05-19 09:53:28.238707,3,-1,2,0,0,0,62,64,130,100,92,131.42,15,89.00,21.00,-1033.00
2024-05-19 09:53:28.282718,3,-1,2,0,0,0,62,64,129,100,92,131.42,15,41.00,24.00,-974.00
2024-05-19 09:53:28.443548,3,-2,2,0,0,0,62,65,129,100,92,131.48,15,74.00,33.00,-960.00
2024-05-19 09:53:28.537065,3,-2,2,0,0,0,62,65,129,100,92,131.37,15,67.00,37.00,-1010.00
2024-05-19 09:53:28.588409,3,-1,2,0,0,0,62,65,129,100,92,131.44,15,70.00,14.00,-993.00
2024-05-19 09:53:28.750590,4,0,2,0,0,0,62,65,129,100,92,131.36,15,58.00,28.00,-1000.00
2024-05-19 09:53:28.792530,4,0,2,0,0,0,62,65,129,100,92,131.31,15,116.00,-1.00,-999.00
2024-05-19 09:53:28.955461,4,0,2,0,0,0,62,65,129,100,92,131.31,15,60.00,20.00,-986.00
2024-05-19 09:53:28.996428,4,0,2,0,0,0,62,65,129,100,92,131.40,16,40.00,16.00,-1023.00
2024-05-19 09:53:29.160284,4,0,2,0,0,0,62,65,129,100,92,131.33,16,43.00,33.00,-1033.00
2024-05-19 09:53:29.200559,3,-1,2,0,0,0,62,65,129,100,92,131.34,16,53.00,30.00,-1074.00
2024-05-19 09:53:29.365004,3,-1,2,0,0,0,62,65,130,100,92,131.37,16,74.00,8.00,-962.00
2024-05-19 09:53:29.404337,3,-1,2,0,0,0,62,65,130,100,92,131.32,16,41.00,35.00,-997.00
2024-05-19 09:53:29.570786,3,-1,2,0,0,0,62,65,130,100,92,131.38,16,73.00,-3.00,-977.00
2024-05-19 09:53:29.609689,3,-1,2,0,0,0,62,65,130,100,92,131.34,16,91.00,4.00,-999.00
2024-05-19 09:53:29.774696,3,-1,2,0,0,0,62,65,130,100,92,131.50,16,49.00,16.00,-981.00
2024-05-19 09:53:29.812277,3,-1,2,0,0,0,62,65,130,100,92,131.40,16,33.00,26.00,-993.00
2024-05-19 09:53:29.979495,3,-1,2,0,0,0,62,65,131,100,92,131.42,16,47.00,9.00,-999.00
2024-05-19 09:53:30.016320,2,0,2,0,0,0,62,65,130,100,92,131.47,17,20.00,23.00,-955.00
2024-05-19 09:53:30.118318,2,0,2,0,0,0,62,65,130,100,92,131.33,17,50.00,26.00,-994.00
2024-05-19 09:53:30.287346,0,-1,2,0,0,0,62,65,130,100,92,131.30,17,46.00,25.00,-1030.00
2024-05-19 09:53:30.322418,-5,-1,2,0,0,0,62,65,129,100,92,131.40,17,32.00,31.00,-1003.00
2024-05-19 09:53:30.424627,-6,-1,2,2,0,0,63,66,129,100,92,131.53,17,55.00,10.00,-1005.00
2024-05-19 09:53:30.527325,-6,-1,2,3,0,0,63,66,129,100,91,131.51,17,8.00,39.00,-1031.00
2024-05-19 09:53:30.629404,-5,-1,2,4,0,0,63,66,128,100,91,131.42,17,-12.00,24.00,-981.00
2024-05-19 09:53:30.732109,-4,-1,2,5,0,0,63,66,128,100,91,131.48,17,11.00,27.00,-1056.00
2024-05-19 09:53:30.834185,-4,-1,2,6,0,0,63,66,128,100,91,131.46,17,0.00,28.00,-990.00
2024-05-19 09:53:30.936857,-3,-1,2,6,0,0,63,66,128,100,91,131.42,17,5.00,-9.00,-1021.00
2024-05-19 09:53:31.037215,-2,-1,2,7,0,0,63,66,128,100,91,131.47,18,8.00,8.00,-1002.00
2024-05-19 09:53:31.208185,0,-1,2,7,0,0,63,66,128,100,91,131.44,18,-44.00,28.00,-1009.00
2024-05-19 09:53:31.244079,2,-1,2,7,0,0,63,66,129,100,91,131.50,18,-8.00,15.00,-1016.00
2024-05-19 09:53:31.342311,5,0,2,6,0,0,63,66,129,100,91,131.55,18,-10.00,50.00,-977.00
2024-05-19 09:53:31.515361,6,-1,2,5,0,0,62,65,130,100,91,131.63,18,-4.00,27.00,-1002.00
2024-05-19 09:53:31.546128,6,-1,2,4,0,0,62,65,130,100,91,131.53,18,-18.00,60.00,-1025.00
2024-05-19 09:53:31.720190,3,-1,2,3,0,0,62,65,130,100,91,131.61,18,7.00,24.00,-1015.00
2024-05-19 09:53:31.750447,2,-2,2,2,0,0,62,65,130,100,91,131.63,18,-17.00,46.00,-1041.00
2024-05-19 09:53:31.925203,1,-2,2,2,0,0,62,65,130,100,91,131.65,18,-2.00,39.00,-983.00
2024-05-19 09:53:31.954186,0,-2,2,1,0,0,62,65,130,100,91,131.59,18,6.00,51.00,-985.00
2024-05-19 09:53:32.130117,0,-2,2,1,0,0,62,65,129,100,91,131.66,19,4.00,27.00,-1007.00
2024-05-19 09:53:32.130169,0,-2,2,1,0,0,62,65,129,100,91,131.61,19,-11.00,70.00,-981.00
2024-05-19 09:53:32.209096,0,-3,2,1,0,0,62,65,129,100,91,131.56,19,15.00,49.00,-975.00
2024-05-19 09:53:32.334589,0,-3,2,1,0,0,62,65,129,100,91,131.58,19,-8.00,31.00,-978.00
2024-05-19 09:53:32.412881,0,-3,2,1,0,0,63,65,128,100,90,131.56,19,-19.00,47.00,-1001.00
2024-05-19 09:53:32.539378,0,-2,2,1,0,0,63,65,129,100,90,131.47,19,-14.00,90.00,-1002.00
2024-05-19 09:53:32.620315,0,-3,2,1,0,0,63,65,129,100,90,131.59,19,-6.00,30.00,-1010.00
2024-05-19 09:53:32.718959,0,-3,2,1,0,0,63,65,129,100,90,131.53,19,-5.00,82.00,-1004.00
2024-05-19 09:53:32.822339,0,-5,2,1,0,0,63,65,129,100,90,131.52,19,1.00,65.00,-1075.00
2024-05-19 09:53:32.922883,0,-6,2,1,0,0,63,65,129,100,90,131.56,19,6.00,42.00,-1016.00
2024-05-19 09:53:33.051386,0,-5,2,1,0,0,63,65,130,100,90,131.51,20,-6.00,43.00,-944.00
2024-05-19 09:53:33.126825,0,-4,2,1,-1,0,63,65,129,100,90,131.56,20,20.00,51.00,-957.00
2024-05-19 09:53:33.256176,0,-2,2,1,-1,0,63,65,129,100,90,131.63,20,-10.00,39.00,-1005.00
2024-05-19 09:53:33.332059,-1,0,2,0,0,0,63,65,128,100,90,131.56,20,-43.00,53.00,-1002.00
2024-05-19 09:53:33.460962,-1,0,2,0,0,0,63,66,128,100,90,131.57,20,-61.00,75.00,-984.00
2024-05-19 09:53:33.535960,-1,-1,2,0,0,0,63,66,127,100,90,131.64,20,-31.00,42.00,-1037.00
2024-05-19 09:53:33.665956,-1,-1,2,0,0,0,63,66,127,100,90,131.56,20,-52.00,61.00,-956.00
2024-05-19 09:53:33.739962,3,-1,1,0,0,0,63,66,128,100,90,131.68,20,-28.00,-5.00,-971.00
2024-05-19 09:53:33.870586,1,-1,1,0,0,0,63,66,128,100,90,131.64,20,0.00,27.00,-1023.00
2024-05-19 09:53:33.944080,0,-1,2,0,0,0,63,66,127,100,90,131.66,20,-12.00,76.00,-1061.00
2024-05-19 09:53:34.075508,0,-1,2,0,0,0,63,66,128,100,90,131.73,21,34.00,70.00,-970.00
2024-05-19 09:53:34.148110,0,-2,1,0,0,0,63,66,128,100,90,131.68,21,-2.00,36.00,-984.00
2024-05-19 09:53:34.250570,0,-1,1,0,0,0,63,66,128,100,90,131.75,21,19.00,57.00,-965.00
2024-05-19 09:53:34.382694,0,-1,1,0,0,0,63,66,128,100,90,131.82,21,-30.00,44.00,-988.00
2024-05-19 09:53:34.454096,0,-1,1,-1,0,0,65,66,128,100,90,131.57,21,-9.00,72.00,-981.00
2024-05-19 09:53:34.587554,-1,-2,1,-1,0,0,65,66,128,100,90,131.62,21,-21.00,22.00,-1014.00
2024-05-19 09:53:34.658113,-2,-2,2,-1,0,0,65,66,128,100,90,131.61,21,-44.00,10.00,-1016.00
2024-05-19 09:53:34.792344,-2,-2,2,-1,0,0,65,66,128,100,90,131.63,21,-53.00,82.00,-1027.00
2024-05-19 09:53:34.862544,-2,-2,2,-1,0,0,65,66,129,100,90,131.75,21,8.00,31.00,-963.00
2024-05-19 09:53:34.997167,-2,-2,2,-1,0,0,65,66,130,100,90,131.72,21,-19.00,48.00,-996.00
2024-05-19 09:53:35.066097,-2,-2,2,0,0,0,65,66,130,100,90,131.69,22,-24.00,35.00,-1008.00
2024-05-19 09:53:35.201825,-2,-3,2,0,0,0,65,66,132,100,90,131.67,22,-16.00,32.00,-1005.00
2024-05-19 09:53:35.270123,-2,-2,2,0,0,0,65,66,132,110,90,131.69,22,-17.00,58.00,-969.00
2024-05-19 09:53:35.406713,-2,-2,2,0,0,0,65,66,133,110,90,131.62,22,25.00,26.00,-1006.00
2024-05-19 09:53:35.474064,-1,-2,2,0,0,0,65,67,133,110,89,131.51,22,12.00,25.00,-945.00
2024-05-19 09:53:35.611462,0,-2,2,0,0,0,65,67,134,110,89,131.56,22,-21.00,36.00,-981.00
2024-05-19 09:53:35.677908,0,-2,2,0,0,0,65,67,134,110,89,131.64,22,27.00,38.00,-948.00
2024-05-19 09:53:35.816272,0,-2,2,0,0,0,65,67,134,110,89,131.74,22,14.00,29.00,-1019.00
2024-05-19 09:53:35.882257,0,-2,2,0,0,0,65,67,134,110,89,131.74,22,-2.00,73.00,-949.00
2024-05-19 09:53:36.020960,0,-1,2,0,0,0,65,67,135,110,89,131.78,22,7.00,26.00,-979.00
2024-05-19 09:53:36.035663,1,-2,2,0,0,0,65,67,135,110,89,131.72,23,13.00,41.00,-971.00
2024-05-19 09:53:36.225772,8,-1,2,0,0,0,65,67,135,110,89,131.68,23,32.00,34.00,-1014.00
2024-05-19 09:53:36.238803,8,-1,2,0,0,0,65,67,136,110,89,131.76,23,25.00,56.00,-997.00
2024-05-19 09:53:36.430547,8,0,2,-1,0,0,65,67,136,110,89,131.70,23,11.00,46.00,-1019.00
2024-05-19 09:53:36.442555,8,-1,2,-3,0,0,65,68,136,110,89,131.71,23,64.00,31.00,-992.00
2024-05-19 09:53:36.635350,8,-1,2,-4,0,0,65,68,134,110,89,131.68,23,53.00,30.00,-1001.00
2024-05-19 09:53:36.646702,8,-2,2,-5,0,0,65,68,133,110,89,131.64,23,44.00,59.00,-998.00
2024-05-19 09:53:36.840167,8,-3,2,-6,0,0,65,68,132,110,89,131.66,23,59.00,17.00,-970.00
2024-05-19 09:53:36.850627,7,-3,2,-7,0,0,65,68,130,110,89,131.67,23,44.00,69.00,-1007.00
2024-05-19 09:53:37.044952,5,-4,2,-8,0,0,65,68,130,110,89,131.61,23,36.00,56.00,-996.00
2024-05-19 09:53:37.054650,2,-4,2,-8,0,0,65,68,128,110,89,131.62,24,27.00,57.00,-969.00
2024-05-19 09:53:37.249738,0,-4,2,-8,0,0,65,68,127,110,89,131.66,24,40.00,61.00,-1039.00
2024-05-19 09:53:37.258619,-3,-3,2,-7,0,0,65,68,126,110,89,131.57,24,21.00,42.00,-982.00
2024-05-19 09:53:37.454802,-4,-3,2,-6,0,0,65,68,125,100,89,131.58,24,8.00,63.00,-1018.00
2024-05-19 09:53:37.462566,-4,-3,2,-5,0,0,65,67,124,100,88,131.53,24,24.00,42.00,-1080.00
2024-05-19 09:53:37.659278,-3,-1,2,-4,0,0,65,67,122,100,88,131.53,24,62.00,35.00,-1055.00
2024-05-19 09:53:37.666561,-2,-1,2,-3,0,0,65,67,122,100,88,131.57,24,35.00,25.00,-985.00
2024-05-19 09:53:37.864083,-1,-2,2,-3,0,0,65,67,121,100,88,131.57,24,49.00,40.00,-1032.00
2024-05-19 09:53:37.872547,-1,-2,2,-3,0,0,65,67,121,100,88,131.57,24,20.00,54.00,-1003.00
2024-05-19 09:53:37.972533,-1,-2,2,-2,0,0,65,67,120,100,88,131.61,24,10.00,56.00,-990.00
2024-05-19 09:53:38.074505,-3,-3,2,-2,0,0,65,67,120,100,88,131.48,25,34.00,38.00,-956.00
2024-05-19 09:53:38.273981,-3,-5,2,-1,0,0,65,67,120,100,88,131.46,25,-17.00,43.00,-978.00
2024-05-19 09:53:38.278483,-2,-7,2,-1,0,0,65,67,120,100,88,131.50,25,-11.00,61.00,-969.00
2024-05-19 09:53:38.478480,-1,-6,2,0,0,0,65,67,120,100,88,131.54,25,-5.00,41.00,-983.00
2024-05-19 09:53:38.482647,0,-4,2,0,-1,0,65,68,120,100,88,131.43,25,-39.00,74.00,-1019.00
2024-05-19 09:53:38.584529,-1,0,2,0,-1,0,65,68,120,100,88,131.47,25,-26.00,57.00,-1017.00
2024-05-19 09:53:38.686601,-1,0,2,0,0,0,65,68,120,100,88,131.57,25,15.00,27.00,-947.00
2024-05-19 09:53:38.788626,-1,0,2,0,0,0,65,68,121,100,88,131.55,25,-39.00,36.00,-1048.00
2024-05-19 09:53:38.890608,-1,-1,2,0,0,0,65,68,121,100,88,131.55,25,-25.00,60.00,-992.00
2024-05-19 09:53:38.992630,-1,-1,2,0,0,0,65,68,121,100,88,131.59,25,-10.00,40.00,-986.00
2024-05-19 09:53:39.094646,-1,-2,2,0,0,0,65,68,121,100,88,131.63,26,10.00,7.00,-995.00
2024-05-19 09:53:39.297805,-1,-1,2,0,0,0,65,68,122,100,88,131.62,26,-26.00,29.00,-1034.00
2024-05-19 09:53:39.298540,-1,-1,1,0,0,0,65,68,122,100,88,131.66,26,-19.00,43.00,-999.00
2024-05-19 09:53:39.502812,-1,-1,1,0,0,0,65,68,123,100,88,131.62,26,-34.00,23.00,-1023.00
2024-05-19 09:53:39.502993,-1,-1,1,0,0,0,65,68,124,100,88,131.63,26,-19.00,34.00,-954.00
2024-05-19 09:53:39.605191,-1,-1,1,0,0,0,65,68,125,100,88,131.53,26,-53.00,44.00,-988.00
2024-05-19 09:53:39.707394,-1,-1,1,0,0,0,65,68,125,100,88,131.63,26,5.00,28.00,-997.00
2024-05-19 09:53:39.809698,-1,-1,1,0,0,0,65,68,126,100,88,131.71,26,-26.00,12.00,-1000.00
2024-05-19 09:53:39.859944,-1,0,1,0,0,0,65,68,126,100,88,131.78,26,-59.00,55.00,-1017.00
2024-05-19 09:53:40.014744,-1,0,1,0,0,0,65,68,127,100,88,131.85,26,-22.00,27.00,-1032.00
2024-05-19 09:53:40.063985,-1,-1,1,0,0,0,65,68,127,100,88,131.60,27,-46.00,4.00,-987.00
2024-05-19 09:53:40.219758,-1,-1,1,0,0,0,65,68,128,100,88,131.71,27,-39.00,19.00,-1018.00
2024-05-19 09:53:40.268259,-2,0,2,0,0,0,65,68,129,100,88,131.48,27,-2.00,33.00,-1029.00
2024-05-19 09:53:40.425741,-1,0,2,0,0,0,65,68,129,100,88,131.51,27,-52.00,8.00,-993.00
2024-05-19 09:53:40.473563,-1,0,2,0,0,0,65,68,130,100,87,131.48,27,-3.00,34.00,-976.00
2024-05-19 09:53:40.575716,-1,0,2,0,0,0,65,68,131,110,87,131.54,27,-16.00,0.00,-1001.00
2024-05-19 09:53:40.678085,-1,0,2,0,0,0,65,68,132,110,87,131.64,27,-11.00,40.00,-998.00
2024-05-19 09:53:40.780171,0,-4,2,0,0,0,65,68,132,110,87,131.53,27,-23.00,30.00,-968.00
2024-05-19 09:53:40.880534,0,-8,2,0,-1,0,65,68,133,110,87,131.70,27,-19.00,-18.00,-1036.00
2024-05-19 09:53:40.981984,0,-8,2,0,-2,0,65,68,133,110,87,131.70,28,-6.00,30.00,-1067.00
2024-05-19 09:53:41.085659,0,-5,2,0,-3,0,65,68,133,110,87,131.77,28,25.00,41.00,-1010.00
2024-05-19 09:53:41.185764,0,-2,2,0,-4,0,65,68,133,110,87,131.81,28,20.00,34.00,-992.00
2024-05-19 09:53:41.287666,0,0,2,0,-4,0,65,68,133,110,87,131.79,28,-16.00,27.00,-979.00
2024-05-19 09:53:41.448111,0,0,2,0,-3,0,65,68,134,110,87,131.74,28,12.00,41.00,-936.00
2024-05-19 09:53:41.491546,0,0,2,0,-3,0,66,68,134,110,87,131.76,28,-21.00,41.00,-993.00
2024-05-19 09:53:41.652922,0,-1,2,0,-2,0,66,68,133,110,87,131.84,28,11.00,53.00,-955.00
2024-05-19 09:53:41.695812,0,-1,1,0,-2,0,66,68,133,110,87,131.88,28,-28.00,63.00,-983.00
2024-05-19 09:53:41.857693,0,-1,1,0,-2,0,66,68,132,110,87,131.69,28,5.00,44.00,-982.00
2024-05-19 09:53:41.899635,0,-1,1,0,-3,0,66,68,132,110,87,131.55,28,23.00,27.00,-1002.00
2024-05-19 09:53:42.062495,0,-1,2,0,-3,0,66,68,131,100,87,131.44,29,-57.00,20.00,-1004.00
2024-05-19 09:53:42.103614,-1,-1,2,0,-3,0,66,68,131,100,87,131.60,29,-18.00,56.00,-1008.00
2024-05-19 09:53:42.267314,-1,0,2,0,-3,0,66,68,131,100,87,131.60,29,-39.00,62.00,-971.00
2024-05-19 09:53:42.307568,-2,1,2,0,-2,0,66,68,131,100,87,131.73,29,-31.00,21.00,-1035.00
2024-05-19 09:53:42.472092,-2,3,2,0,-1,0,66,68,132,100,87,131.75,29,-38.00,22.00,-1044.00
2024-05-19 09:53:42.511644,-2,2,2,0,-1,0,66,68,132,110,86,131.71,29,-26.00,14.00,-961.00
2024-05-19 09:53:42.613782,-2,0,2,0,0,0,66,68,133,110,86,131.74,29,1.00,34.00,-979.00
2024-05-19 09:53:42.783021,-2,0,2,0,0,0,66,68,133,110,86,131.71,29,-46.00,35.00,-1005.00
2024-05-19 09:53:42.817822,-1,-1,2,0,0,0,66,68,134,110,86,131.75,29,23.00,-3.00,-959.00
2024-05-19 09:53:42.984065,-1,-1,2,0,0,0,66,68,134,110,86,131.69,29,-8.00,29.00,-971.00
2024-05-19 09:53:43.021750,-2,-1,2,0,0,0,66,68,134,110,86,131.65,30,-28.00,9.00,-959.00
2024-05-19 09:53:43.189444,-2,-1,2,0,0,0,66,68,135,110,86,131.55,30,-19.00,37.00,-965.00
2024-05-19 09:53:43.225715,-1,-1,2,0,0,0,66,68,134,110,86,131.69,30,-29.00,28.00,-1024.00
2024-05-19 09:53:43.393815,-1,-1,2,0,0,0,66,68,134,110,86,131.67,30,16.00,-2.00,-1001.00
2024-05-19 09:53:43.429874,-1,-1,2,0,0,0,66,68,134,110,86,131.64,30,-12.00,29.00,-959.00
2024-05-19 09:53:43.532135,-1,-1,2,0,0,0,65,68,134,110,86,131.67,30,9.00,27.00,-921.00
2024-05-19 09:53:43.634721,0,-1,2,0,0,0,65,68,133,110,86,131.63,30,35.00,25.00,-982.00
2024-05-19 09:53:43.736553,0,-2,2,0,0,0,65,68,133,110,86,131.70,30,4.00,42.00,-987.00
2024-05-19 09:53:43.839471,0,-2,2,0,0,0,65,68,132,110,86,131.61,30,-4.00,60.00,-1006.00
2024-05-19 09:53:43.940406,0,-2,2,0,0,0,65,68,132,110,86,131.77,30,-23.00,19.00,-1045.00
2024-05-19 09:53:43.990423,0,-2,2,0,0,0,65,68,132,110,86,131.59,31,9.00,-8.00,-1024.00
2024-05-19 09:53:44.110428,0,-2,2,0,0,0,65,68,131,110,86,131.63,31,23.00,51.00,-976.00
2024-05-19 09:53:44.194386,0,-2,2,0,0,0,65,68,131,110,86,131.68,31,31.00,32.00,-944.00
2024-05-19 09:53:44.296810,0,-2,2,0,0,0,65,68,132,110,86,131.66,31,11.00,22.00,-1007.00
2024-05-19 09:53:44.418829,0,-2,2,0,0,0,65,68,131,110,86,131.66,31,17.00,39.00,-1045.00
2024-05-19 09:53:44.507717,0,-2,2,0,0,0,66,69,131,110,86,131.67,31,16.00,33.00,-987.00
2024-05-19 09:53:44.602380,0,-2,2,0,0,0,66,69,131,110,86,131.66,31,-11.00,43.00,-1034.00
2024-05-19 09:53:44.724826,0,-1,2,0,0,0,66,69,130,110,86,131.70,31,6.00,-8.00,-992.00
2024-05-19 09:53:44.806193,0,6,2,0,0,0,66,69,130,110,86,131.80,31,13.00,60.00,-973.00
2024-05-19 09:53:44.929580,0,6,2,0,1,0,66,69,130,100,86,131.84,31,-13.00,12.00,-1024.00
2024-05-19 09:53:45.011146,0,3,2,0,2,0,66,69,130,100,86,131.80,32,13.00,-12.00,-1046.00
2024-05-19 09:53:45.112106,0,1,2,0,3,0,66,69,129,100,86,131.74,32,35.00,-16.00,-986.00
2024-05-19 09:53:45.214284,0,-1,2,0,3,0,66,69,130,100,86,131.81,32,0.00,-5.00,-1006.00
2024-05-19 09:53:45.316150,0,-2,2,0,3,0,66,69,130,100,86,131.81,32,29.00,-17.00,-993.00
2024-05-19 09:53:45.441608,0,-2,2,0,2,0,66,69,130,100,86,131.84,32,33.00,-12.00,-956.00
2024-05-19 09:53:45.520473,2,-1,2,0,2,0,67,69,130,100,86,131.80,32,-22.00,-31.00,-1016.00
2024-05-19 09:53:45.646332,2,0,2,0,1,0,67,69,129,100,86,131.81,32,28.00,12.00,-996.00
2024-05-19 09:53:45.724955,2,0,2,0,1,0,67,69,129,100,86,131.82,32,13.00,5.00,-1000.00
2024-05-19 09:53:45.851299,1,0,2,0,1,0,67,69,129,100,86,131.77,32,2.00,-6.00,-1016.00
2024-05-19 09:53:45.928082,1,0,2,0,2,0,67,69,129,100,86,131.80,32,34.00,24.00,-996.00
2024-05-19 09:53:46.055942,1,0,2,0,2,0,67,69,129,100,86,131.77,33,-4.00,69.00,-1029.00
2024-05-19 09:53:46.132128,1,0,2,0,2,0,67,69,129,100,86,131.81,33,43.00,21.00,-1015.00
2024-05-19 09:53:46.261113,1,0,2,0,2,0,67,69,129,100,86,131.75,33,19.00,-9.00,-1014.00
2024-05-19 09:53:46.336097,2,0,2,0,2,0,67,69,129,100,86,131.79,33,20.00,8.00,-993.00
2024-05-19 09:53:46.465587,2,-1,2,0,2,0,67,69,129,100,85,131.80,33,12.00,15.00,-983.00
2024-05-19 09:53:46.540094,2,-1,2,0,2,0,67,69,130,100,85,131.71,33,26.00,-3.00,-998.00
2024-05-19 09:53:46.670407,-1,-1,2,0,2,0,67,69,130,100,85,131.72,33,46.00,-6.00,-958.00
2024-05-19 09:53:46.744139,0,-2,2,0,1,0,67,69,131,110,85,131.77,33,21.00,-6.00,-926.00
2024-05-19 09:53:46.875455,0,-5,2,0,1,0,67,69,131,110,85,131.75,33,30.00,-4.00,-1025.00
2024-05-19 09:53:46.948294,0,-3,2,0,0,0,67,69,131,110,85,131.89,33,63.00,-1.00,-936.00
2024-05-19 09:53:47.080133,0,-2,2,0,0,0,67,69,131,110,85,131.77,34,30.00,2.00,-992.00
2024-05-19 09:53:47.152229,1,-1,2,0,0,0,67,69,131,110,85,131.88,34,21.00,17.00,-977.00
2024-05-19 09:53:47.284940,0,0,2,0,0,0,67,69,130,110,85,131.78,34,7.00,-14.00,-1010.00
2024-05-19 09:53:47.356190,0,0,2,0,0,0,67,69,130,110,85,131.82,34,26.00,-2.00,-969.00
2024-05-19 09:53:47.489775,1,0,2,0,0,0,67,69,130,110,85,131.79,34,2.00,-5.00,-995.00
2024-05-19 09:53:47.560228,1,0,2,0,0,0,67,69,130,110,85,131.78,34,0.00,4.00,-962.00
2024-05-19 09:53:47.694524,1,0,2,0,0,0,67,69,130,100,85,131.70,34,-24.00,-39.00,-1051.00
2024-05-19 09:53:47.764191,1,0,2,0,0,0,67,69,130,100,85,131.68,34,27.00,4.00,-994.00
2024-05-19 09:53:47.815397,0,0,2,0,0,0,67,69,130,100,85,131.43,34,54.00,-32.00,-930.00
2024-05-19 09:53:48.007568,0,1,2,0,0,0,67,69,129,100,85,131.55,34,38.00,-15.00,-952.00
2024-05-19 09:53:48.019744,0,1,2,0,0,0,67,69,129,100,85,131.67,35,6.00,-16.00,-1018.00
2024-05-19 09:53:48.207422,0,1,2,0,0,0,67,69,129,100,85,131.79,35,35.00,-30.00,-968.00
2024-05-19 09:53:48.223394,0,1,2,0,0,0,67,69,130,100,85,131.64,35,3.00,-41.00,-991.00
2024-05-19 09:53:48.330718,0,1,2,0,0,0,67,69,129,100,85,131.79,35,-13.00,-31.00,-1026.00
2024-05-19 09:53:48.427477,0,2,2,0,0,0,67,69,130,100,85,131.72,35,-14.00,-24.00,-996.00
2024-05-19 09:53:48.616162,0,2,2,0,0,0,67,70,130,100,85,131.68,35,24.00,-60.00,-979.00
2024-05-19 09:53:48.631346,0,2,2,0,0,0,67,70,130,100,85,131.70,35,22.00,-56.00,-974.00
2024-05-19 09:53:48.821050,0,2,2,0,0,0,67,70,130,100,85,131.67,35,10.00,-51.00,-995.00
2024-05-19 09:53:48.835360,0,2,2,0,0,0,67,70,131,100,85,131.61,35,13.00,-35.00,-1016.00
2024-05-19 09:53:48.951458,0,2,2,0,0,0,67,70,131,100,85,131.69,35,11.00,-31.00,-930.00
2024-05-19 09:53:49.039287,0,2,2,0,0,0,67,70,131,100,85,131.68,36,-14.00,-15.00,-1003.00
2024-05-19 09:53:49.230481,0,1,5,0,0,0,67,70,132,100,85,131.68,36,16.00,-24.00,-1002.00
2024-05-19 09:53:49.243311,0,1,12,0,0,0,67,70,132,110,85,131.67,36,23.00,-21.00,-961.00
2024-05-19 09:53:49.435235,0,1,20,0,0,0,67,70,133,110,85,131.67,36,15.00,-25.00,-986.00
2024-05-19 09:53:49.450688,0,1,27,0,0,0,67,70,133,110,84,131.64,36,-1.00,-28.00,-1014.00
2024-05-19 09:53:49.549238,-1,0,33,0,0,0,68,70,134,110,84,131.75,36,32.00,-39.00,-1020.00
2024-05-19 09:53:49.742460,-1,0,40,0,0,0,68,70,135,110,84,131.67,36,-29.00,-12.00,-976.00
2024-05-19 09:53:49.753262,-1,0,47,0,0,0,68,70,136,110,84,131.76,36,-19.00,-20.00,-1023.00
2024-05-19 09:53:49.947206,-1,0,54,0,0,0,68,70,136,110,84,131.79,36,-8.00,-21.00,-938.00
2024-05-19 09:53:49.957196,-1,0,61,0,0,0,68,70,136,110,84,131.72,36,-51.00,0.00,-970.00
2024-05-19 09:53:50.151950,-1,0,68,0,0,0,68,70,136,110,84,131.77,37,-6.00,-18.00,-1016.00
2024-05-19 09:53:50.161474,-1,0,75,0,0,0,68,70,136,110,84,131.65,37,-34.00,16.00,-955.00
2024-05-19 09:53:50.356836,-1,0,82,0,0,0,68,70,135,110,84,131.65,37,-22.00,4.00,-995.00
2024-05-19 09:53:50.365301,-1,0,89,0,0,0,68,70,135,110,84,131.70,37,-36.00,6.00,-990.00
2024-05-19 09:53:50.561642,-1,0,96,0,0,0,68,70,134,110,84,131.64,37,-32.00,18.00,-969.00
2024-05-19 09:53:50.569090,-1,0,102,0,0,0,68,69,134,110,84,131.77,37,-46.00,12.00,-1010.00
2024-05-19 09:53:50.766378,-1,-1,109,0,0,0,68,69,133,110,84,131.81,37,25.00,-5.00,-1043.00
2024-05-19 09:53:50.773148,-1,0,116,0,0,0,68,69,132,110,84,131.81,37,-23.00,13.00,-992.00
2024-05-19 09:53:50.971217,-1,0,122,0,0,0,68,69,132,110,84,131.76,37,10.00,-5.00,-1013.00
2024-05-19 09:53:50.977149,-1,0,129,0,0,0,68,69,132,110,84,131.75,37,-45.00,23.00,-997.00
2024-05-19 09:53:51.079297,-1,-1,135,0,0,0,68,69,131,110,84,131.69,38,-20.00,26.00,-1023.00
2024-05-19 09:53:51.278455,-1,-1,141,0,0,0,68,69,130,100,84,131.73,38,-18.00,16.00,-972.00
2024-05-19 09:53:51.283150,-1,-1,148,0,0,0,68,69,130,100,84,131.72,38,-15.00,31.00,-1004.00
2024-05-19 09:53:51.483199,-1,-1,154,0,0,0,68,69,130,100,84,131.77,38,11.00,29.00,-1034.00
2024-05-19 09:53:51.483266,0,-1,160,0,0,0,68,69,129,100,84,131.62,38,9.00,36.00,-1009.00
2024-05-19 09:53:51.589112,0,-2,166,0,0,0,68,70,129,100,84,131.69,38,-1.00,26.00,-1004.00
2024-05-19 09:53:51.691097,0,-2,172,0,0,0,68,70,130,100,84,131.68,38,-21.00,47.00,-1014.00
2024-05-19 09:53:51.793159,0,-2,178,0,0,0,68,70,129,100,84,131.70,38,-5.00,52.00,-973.00
2024-05-19 09:53:51.892803,0,-1,-176,0,0,0,68,70,129,100,84,131.65,38,6.00,42.00,-1028.00
2024-05-19 09:53:51.946005,0,-1,-170,0,0,0,68,70,129,100,84,131.66,38,13.00,38.00,-1007.00
2024-05-19 09:53:52.047812,0,-1,-164,0,0,0,68,70,130,100,84,131.72,39,14.00,43.00,-1022.00
2024-05-19 09:53:52.201487,0,-1,-158,0,0,0,68,70,129,100,84,131.68,39,38.00,38.00,-1023.00
2024-05-19 09:53:52.252018,0,-1,-152,0,0,0,68,70,130,100,84,131.70,39,34.00,23.00,-1003.00
2024-05-19 09:53:52.404799,1,-1,-146,0,0,0,68,70,130,100,84,131.73,39,57.00,22.00,-1046.00
2024-05-19 09:53:52.455728,1,-1,-139,0,0,0,68,70,130,100,84,131.65,39,76.00,7.00,-1046.00
2024-05-19 09:53:52.609679,1,-1,-133,0,0,0,68,71,130,100,84,131.71,39,73.00,2.00,-1032.00
2024-05-19 09:53:52.659836,1,0,-127,0,0,0,68,71,130,100,84,131.71,39,43.00,17.00,-1016.00
2024-05-19 09:53:52.814435,2,0,-120,0,0,0,68,71,130,100,84,131.63,39,48.00,11.00,-1024.00
2024-05-19 09:53:52.863819,2,0,-114,0,0,0,68,71,130,100,84,131.63,39,29.00,18.00,-1003.00
2024-05-19 09:53:53.019190,1,0,-108,0,0,0,68,71,130,100,84,131.60,39,79.00,-26.00,-1015.00
2024-05-19 09:53:53.069056,1,0,-102,0,0,0,68,71,129,100,84,131.64,40,31.00,0.00,-1048.00
2024-05-19 09:53:53.223888,1,0,-95,0,0,0,68,71,129,100,84,131.60,40,66.00,-19.00,-1010.00
2024-05-19 09:53:53.273201,1,0,-89,0,0,0,68,71,129,100,84,131.60,40,46.00,-7.00,-1028.00
2024-05-19 09:53:53.428820,1,0,-83,0,0,0,68,71,129,100,84,131.75,40,57.00,-30.00,-981.00
2024-05-19 09:53:53.478119,1,0,-77,0,0,0,68,71,129,100,84,131.58,40,16.00,-19.00,-1028.00
2024-05-19 09:53:53.578497,1,1,-71,0,0,0,68,70,129,100,84,131.54,40,19.00,-28.00,-1002.00
2024-05-19 09:53:53.679886,0,1,-64,0,0,0,68,70,129,100,84,131.55,40,43.00,-32.00,-994.00
2024-05-19 09:53:53.838394,0,1,-58,0,0,0,68,70,129,100,84,131.65,40,20.00,-19.00,-953.00
2024-05-19 09:53:53.887374,0,1,-52,0,0,0,68,70,129,100,84,131.66,40,24.00,-28.00,-994.00
2024-05-19 09:53:53.985776,0,1,-46,0,0,0,68,70,129,100,84,131.65,40,-14.00,-18.00,-971.00
2024-05-19 09:53:54.087754,0,2,-40,0,0,0,68,70,130,100,84,131.67,41,-41.00,1.00,-973.00
2024-05-19 09:53:54.247899,0,2,-33,0,0,0,68,70,130,100,84,131.61,41,12.00,-27.00,-1018.00
2024-05-19 09:53:54.291983,0,2,-27,0,0,0,68,70,130,100,84,131.59,41,-23.00,-18.00,-941.00
2024-05-19 09:53:54.452784,0,2,-21,0,0,0,68,70,130,100,84,131.57,41,-13.00,-21.00,-985.00
2024-05-19 09:53:54.495849,0,1,-15,0,0,0,68,70,130,100,84,131.54,41,4.00,-35.00,-990.00
2024-05-19 09:53:54.657590,0,1,-11,0,0,0,68,70,130,100,84,131.52,41,8.00,-28.00,-988.00
2024-05-19 09:53:54.699663,0,2,-8,0,0,0,68,70,130,100,84,131.60,41,6.00,-34.00,-968.00
2024-05-19 09:53:54.801799,0,1,-6,0,0,0,68,70,130,100,84,131.61,41,-3.00,-26.00,-992.00
2024-05-19 09:53:54.964786,0,1,-4,0,0,0,68,70,129,100,84,131.57,41,23.00,-39.00,-1011.00
2024-05-19 09:53:55.005744,0,1,-2,0,0,0,68,70,129,100,84,131.60,41,3.00,-33.00,-1022.00
2024-05-19 09:53:55.169569,0,1,-1,0,0,0,68,70,129,100,84,131.59,42,6.00,-33.00,-994.00
2024-05-19 09:53:55.169776,0,1,0,0,0,0,68,70,129,100,84,131.66,42,31.00,-35.00,-962.00
2024-05-19 09:53:55.261536,0,1,0,0,0,0,68,70,129,100,84,131.59,42,-3.00,-26.00,-1010.00
2024-05-19 09:53:55.374402,0,1,0,0,0,0,68,70,128,100,84,131.59,42,30.00,-49.00,-1017.00
2024-05-19 09:53:55.465542,0,1,0,0,0,0,68,70,128,100,83,131.61,42,-9.00,-23.00,-998.00
2024-05-19 09:53:55.617857,0,1,0,0,0,0,69,71,128,100,83,131.66,42,0.00,-39.00,-997.00
2024-05-19 09:53:55.785662,0,1,0,0,0,0,69,71,128,100,83,131.66,42,-16.00,-11.00,-1000.00
2024-05-19 09:53:55.785826,0,1,0,0,0,0,69,71,128,100,83,131.64,42,-19.00,-18.00,-1062.00
2024-05-19 09:53:55.877949,0,1,0,0,0,0,69,71,129,100,83,131.63,42,-9.00,-17.00,-1004.00
2024-05-19 09:53:55.977530,0,1,0,0,0,0,69,71,129,100,83,131.65,43,-17.00,-19.00,-994.00
2024-05-19 09:53:56.077681,0,1,0,0,0,0,69,71,130,100,83,131.58,43,-5.00,-19.00,-993.00
2024-05-19 09:53:56.178933,0,1,0,0,0,0,69,71,130,100,83,131.61,43,-11.00,-29.00,-997.00
2024-05-19 09:53:56.296177,0,1,0,0,0,0,69,71,131,100,83,131.66,43,-27.00,-14.00,-946.00
2024-05-19 09:53:56.383077,0,1,0,0,0,0,69,71,131,100,83,131.60,43,0.00,-30.00,-996.00
2024-05-19 09:53:56.501754,0,0,0,0,0,0,69,71,131,110,83,131.65,43,-7.00,-34.00,-1018.00
2024-05-19 09:53:56.586983,0,0,0,0,0,0,69,71,132,110,83,131.65,43,5.00,-25.00,-969.00
2024-05-19 09:53:56.705745,0,0,0,0,0,0,69,71,132,110,83,131.63,43,-8.00,-8.00,-1015.00
2024-05-19 09:53:56.790886,0,0,0,0,0,0,69,71,132,110,83,131.63,43,39.00,-31.00,-984.00
2024-05-19 09:53:56.910440,-1,0,0,0,0,0,69,71,133,110,83,131.69,43,-11.00,-26.00,-969.00
2024-05-19 09:53:56.995657,-1,0,0,0,0,0,69,71,133,110,83,131.67,44,-19.00,-25.00,-1010.00
2024-05-19 09:53:57.115722,-1,0,0,0,0,0,69,71,133,110,83,131.67,44,-38.00,-15.00,-1029.00
2024-05-19 09:53:57.198815,-2,0,0,0,0,0,69,71,133,110,83,131.69,44,-44.00,3.00,-1027.00
2024-05-19 09:53:57.320204,-2,0,0,0,0,0,69,71,133,110,83,131.68,44,-37.00,-3.00,-976.00
2024-05-19 09:53:57.403179,-1,0,0,0,0,0,69,71,134,110,83,131.69,44,-25.00,0.00,-1019.00
2024-05-19 09:53:57.504941,-1,0,0,0,0,0,69,71,134,110,83,131.63,44,-35.00,9.00,-989.00
2024-05-19 09:53:57.627483,-1,0,-4,0,0,0,69,71,134,110,83,131.74,44,-15.00,11.00,-1008.00
2024-05-19 09:53:57.708867,-1,0,-10,0,0,0,69,71,134,110,83,131.67,44,-5.00,-7.00,-963.00
2024-05-19 09:53:57.832643,-1,0,-16,0,0,0,69,71,134,110,83,131.74,44,-54.00,16.00,-986.00
2024-05-19 09:53:57.912831,-1,0,-22,0,0,0,69,71,134,110,83,131.69,44,4.00,-13.00,-1002.00
2024-05-19 09:53:58.036766,-1,0,-28,0,0,0,69,71,134,110,83,131.69,45,-3.00,-10.00,-984.00
2024-05-19 09:53:58.116937,0,0,-35,0,0,0,69,71,134,110,83,131.67,45,4.00,-7.00,-994.00
2024-05-19 09:53:58.241577,0,0,-41,0,0,0,69,71,134,110,83,131.71,45,12.00,-21.00,-979.00
2024-05-19 09:53:58.320997,0,0,-47,0,0,0,69,71,133,110,83,131.75,45,-7.00,10.00,-1014.00
2024-05-19 09:53:58.446387,0,0,-53,0,0,0,69,71,133,110,83,131.72,45,-1.00,-18.00,-995.00
2024-05-19 09:53:58.525146,0,0,-59,0,0,0,69,71,133,110,83,131.71,45,4.00,-4.00,-1008.00
2024-05-19 09:53:58.626899,0,0,-65,0,0,0,68,71,133,110,83,131.81,45,11.00,2.00,-973.00
2024-05-19 09:53:58.753480,0,0,-72,0,0,0,68,71,133,110,83,131.68,45,14.00,7.00,-962.00
2024-05-19 09:53:58.831730,0,0,-78,0,0,0,68,71,132,110,83,131.64,45,15.00,0.00,-1018.00
2024-05-19 09:53:58.958383,0,0,-84,0,0,0,68,71,133,110,83,131.72,45,-9.00,6.00,-969.00
2024-05-19 09:53:59.035730,0,0,-90,0,0,0,68,71,132,110,83,131.67,46,11.00,1.00,-1011.00
2024-05-19 09:53:59.086766,0,0,-97,0,0,0,68,71,133,110,83,131.76,46,5.00,25.00,-996.00
2024-05-19 09:53:59.265557,0,0,-103,0,0,0,68,71,132,110,83,131.72,46,4.00,16.00,-973.00
2024-05-19 09:53:59.290967,0,-1,-109,0,0,0,68,71,133,110,83,131.78,46,20.00,20.00,-970.00
2024-05-19 09:53:59.471532,0,-1,-115,0,0,0,68,71,133,110,83,131.70,46,-8.00,10.00,-1003.00
2024-05-19 09:53:59.494948,0,0,-121,0,0,0,68,71,133,110,83,131.78,46,18.00,-4.00,-1029.00
2024-05-19 09:53:59.675978,-1,0,-127,0,0,0,69,71,133,110,83,131.79,46,0.00,15.00,-995.00
2024-05-19 09:53:59.698797,0,0,-133,0,0,0,69,71,133,110,83,131.81,46,-33.00,9.00,-960.00
2024-05-19 09:53:59.879900,0,0,-139,0,0,0,69,71,133,110,83,131.68,46,-27.00,19.00,-987.00
2024-05-19 09:53:59.902703,0,0,-145,0,0,0,69,71,133,110,83,131.73,46,-27.00,24.00,-1017.00
2024-05-19 09:54:00.084770,0,0,-150,0,0,0,69,71,133,110,83,131.76,47,-24.00,21.00,-997.00
2024-05-19 09:54:00.106733,-1,0,-156,0,0,0,69,71,132,110,83,131.77,47,4.00,1.00,-990.00
2024-05-19 09:54:00.289546,-1,0,-161,0,0,0,69,71,132,110,83,131.70,47,-7.00,9.00,-1012.00
2024-05-19 09:54:00.310905,-1,0,-167,0,0,0,69,71,131,110,83,131.96,47,-18.00,0.00,-1026.00
2024-05-19 09:54:00.494373,-1,0,-171,0,0,0,69,71,131,110,83,131.72,47,-32.00,39.00,-980.00
2024-05-19 09:54:00.515502,-1,0,-177,0,0,0,69,71,131,110,83,131.72,47,-23.00,43.00,-978.00
2024-05-19 09:54:00.699149,-2,0,177,0,0,0,69,71,130,110,83,131.75,47,0.00,21.00,-988.00
2024-05-19 09:54:00.718826,-1,0,172,0,0,0,69,71,129,100,83,131.75,47,-69.00,55.00,-969.00
2024-05-19 09:54:00.905884,-1,-1,167,0,0,0,69,71,129,100,83,131.64,47,-85.00,66.00,-1033.00
2024-05-19 09:54:00.922425,-2,-1,161,0,0,0,69,71,129,100,83,131.61,47,-34.00,16.00,-1013.00
2024-05-19 09:54:01.108719,-1,0,156,0,0,0,69,71,128,100,83,131.77,48,56.00,-19.00,-1062.00
2024-05-19 09:54:01.126538,-1,0,151,0,0,0,69,71,129,100,83,131.68,48,-88.00,24.00,-999.00
2024-05-19 09:54:01.313565,-2,0,146,0,0,0,69,71,128,100,83,131.52,48,1.00,-21.00,-1011.00
2024-05-19 09:54:01.330641,-2,0,140,0,0,0,69,71,128,100,83,131.60,48,-26.00,-9.00,-983.00
2024-05-19 09:54:01.518368,-2,0,134,0,0,0,69,71,128,100,83,131.62,48,-87.00,12.00,-996.00
2024-05-19 09:54:01.534666,-3,0,128,0,0,0,69,71,129,100,83,131.63,48,-51.00,-2.00,-990.00
2024-05-19 09:54:01.723186,-3,0,122,0,0,0,69,71,129,100,83,131.65,48,-37.00,-13.00,-995.00
2024-05-19 09:54:01.738625,-3,0,115,0,0,0,69,71,129,100,83,131.46,48,-46.00,-6.00,-1001.00
2024-05-19 09:54:01.928594,-3,1,109,0,0,0,69,71,129,100,83,131.54,48,-60.00,-12.00,-961.00
2024-05-19 09:54:01.942346,-3,2,103,0,0,0,69,71,128,100,83,131.57,48,-51.00,-21.00,-1012.00
2024-05-19 09:54:02.133876,-3,2,97,0,0,0,69,71,128,100,83,131.69,49,-61.00,-45.00,-988.00
2024-05-19 09:54:02.146286,-2,2,91,0,0,0,69,71,128,100,83,131.63,49,-49.00,-55.00,-982.00
2024-05-19 09:54:02.337553,-2,3,85,0,0,0,69,71,129,100,83,131.68,49,-56.00,-38.00,-965.00
2024-05-19 09:54:02.350571,-2,3,79,0,0,0,69,71,129,100,83,131.67,49,-63.00,-17.00,-955.00
2024-05-19 09:54:02.542369,-3,3,73,0,0,0,69,71,129,100,83,131.55,49,-37.00,-44.00,-1011.00
2024-05-19 09:54:02.554677,-3,3,67,0,0,0,69,71,128,100,83,131.60,49,0.00,-77.00,-1011.00
2024-05-19 09:54:02.747162,-3,3,62,0,0,0,69,72,129,100,83,131.74,49,1.00,-62.00,-998.00
2024-05-19 09:54:02.758816,-2,3,56,0,0,0,69,72,129,100,83,131.61,49,1.00,-51.00,-1005.00
2024-05-19 09:54:02.951973,-2,3,50,0,0,0,69,72,128,100,83,131.73,49,-7.00,-68.00,-995.00
2024-05-19 09:54:02.963346,-1,3,44,0,0,0,69,72,129,100,83,131.69,49,5.00,-64.00,-1025.00
2024-05-19 09:54:03.014676,0,4,37,0,0,0,69,72,129,100,83,131.96,50,33.00,-80.00,-957.00
2024-05-19 09:54:03.156747,1,5,31,0,0,0,69,72,130,100,83,131.84,50,39.00,-70.00,-1006.00
2024-05-19 09:54:03.218645,1,4,24,0,0,0,69,72,129,100,83,131.75,50,25.00,-66.00,-993.00
2024-05-19 09:54:03.361974,1,3,18,0,0,0,69,72,129,100,83,131.68,50,51.00,-69.00,-990.00
2024-05-19 09:54:03.422338,2,2,13,0,0,0,69,72,129,100,83,131.61,50,56.00,-70.00,-967.00
2024-05-19 09:54:03.566519,2,2,10,0,0,0,69,72,129,100,83,131.54,50,36.00,-53.00,-952.00
2024-05-19 09:54:03.626590,3,2,7,0,0,0,69,72,129,100,83,131.54,50,34.00,-26.00,-1016.00
2024-05-19 09:54:03.771137,3,1,5,0,0,0,69,72,129,100,83,131.60,50,22.00,-15.00,-980.00
2024-05-19 09:54:03.832572,2,1,4,0,0,0,69,72,129,100,83,131.56,50,55.00,-31.00,-1015.00
2024-05-19 09:54:03.932379,2,1,3,0,0,0,69,72,129,100,83,131.65,50,43.00,-52.00,-969.00
2024-05-19 09:54:04.078973,2,1,3,0,0,0,69,72,130,100,83,131.72,51,-35.00,-36.00,-996.00
2024-05-19 09:54:04.136262,1,2,4,-1,0,0,69,72,129,100,83,131.60,51,12.00,-46.00,-986.00
2024-05-19 09:54:04.283161,0,2,4,-1,0,0,69,72,129,100,83,131.71,51,-48.00,-44.00,-993.00
2024-05-19 09:54:04.340631,0,3,4,-1,0,0,69,72,129,100,83,131.68,51,-49.00,-29.00,-1018.00
2024-05-19 09:54:04.487837,-1,3,3,-1,0,0,69,72,128,100,82,131.63,51,1.00,-59.00,-1054.00
2024-05-19 09:54:04.544362,-2,2,2,-1,0,0,69,72,128,100,82,131.67,51,-19.00,-56.00,-1037.00
2024-05-19 09:54:04.646404,-2,3,2,-1,0,0,70,71,129,100,82,131.77,51,49.00,-90.00,-1050.00
2024-05-19 09:54:04.795613,-2,4,1,-1,0,0,70,71,129,100,82,131.69,51,7.00,-61.00,-986.00
2024-05-19 09:54:04.851547,-1,4,1,0,0,0,70,71,130,100,82,131.66,51,7.00,-76.00,-1007.00
2024-05-19 09:54:04.999969,-1,3,1,0,0,0,70,71,131,100,82,131.67,51,-43.00,-43.00,-994.00
2024-05-19 09:54:05.054570,-1,3,1,0,0,0,70,71,130,110,82,131.62,52,-6.00,-67.00,-1000.00
2024-05-19 09:54:05.204870,-1,3,1,0,0,0,70,71,130,110,82,131.60,52,-32.00,-54.00,-990.00
2024-05-19 09:54:05.261156,-1,3,1,0,0,0,70,71,131,110,82,131.71,52,-17.00,-81.00,-1006.00
2024-05-19 09:54:05.363951,-2,3,1,0,0,0,70,71,131,110,82,131.75,52,0.00,-84.00,-981.00
2024-05-19 09:54:05.462596,-2,4,1,0,0,0,70,71,131,110,82,131.75,52,19.00,-74.00,-951.00
2024-05-19 09:54:05.614399,-1,4,1,0,0,0,70,71,130,110,82,131.70,52,64.00,-76.00,-993.00
2024-05-19 09:54:05.666527,0,4,1,0,0,0,70,72,131,110,82,131.72,52,35.00,-77.00,-987.00
2024-05-19 09:54:05.822179,1,3,1,1,0,0,70,72,130,110,82,131.64,52,-7.00,-97.00,-1015.00
2024-05-19 09:54:05.870494,2,3,2,0,0,0,70,72,130,100,82,131.79,52,17.00,-110.00,-993.00
2024-05-19 09:54:06.023867,1,4,1,0,0,0,70,72,130,100,82,131.73,52,13.00,-85.00,-1013.00
2024-05-19 09:54:06.074098,1,5,1,0,0,0,70,72,130,100,82,131.67,53,11.00,-72.00,-1017.00
2024-05-19 09:54:06.228833,0,5,1,0,0,0,70,72,129,100,82,131.72,53,47.00,-89.00,-943.00
2024-05-19 09:54:06.278131,1,5,1,0,0,0,70,72,130,100,82,131.66,53,40.00,-83.00,-994.00
2024-05-19 09:54:06.380539,1,4,1,0,0,0,70,72,130,100,82,131.69,53,4.00,-53.00,-1045.00
2024-05-19 09:54:06.497045,2,4,1,1,0,0,70,72,129,100,82,131.67,53,71.00,-90.00,-970.00
2024-05-19 09:54:06.585156,3,4,1,1,0,0,70,72,129,100,82,131.74,53,58.00,-80.00,-984.00
2024-05-19 09:54:06.686407,3,3,1,0,0,0,70,73,130,100,82,131.71,53,110.00,-79.00,-1431.00
2024-05-19 09:54:06.788411,1,-2,1,1,0,-3,70,73,136,100,82,131.77,53,95.00,-129.00,-1701.00
2024-05-19 09:54:06.946477,0,-11,1,1,-2,-9,70,73,211,110,82,131.91,53,28.00,223.00,-1119.00
2024-05-19 09:54:06.994387,0,-93,1,1,-8,-9,70,73,468,120,82,132.08,53,21.00,529.00,-1093.00
2024-05-19 09:54:07.094855,0,145,1,2,-13,4,70,73,381,130,82,131.84,54,-11.00,542.00,-857.00
2024-05-19 09:54:07.197488,0,30,1,1,-7,15,70,73,133,120,82,131.62,54,16.00,-109.00,-1670.00
2024-05-19 09:54:07.247079,1,-3,1,1,-6,12,70,73,121,100,82,131.43,54,-36.00,26.00,-1395.00
2024-05-19 09:54:07.349100,0,3,1,1,-6,9,70,73,114,90,82,131.49,54,82.00,-69.00,-1469.00
2024-05-19 09:54:07.457521,0,4,1,2,-5,5,70,73,111,80,82,131.45,54,-3.00,-24.00,-1298.00
2024-05-19 09:54:07.553126,1,3,2,2,-4,1,70,73,110,80,82,131.42,54,-19.00,-11.00,-1241.00
2024-05-19 09:54:07.662292,1,2,2,1,-4,0,70,72,113,80,82,131.49,54,8.00,-23.00,-1130.00
2024-05-19 09:54:07.757156,1,2,2,1,-3,-2,70,72,116,80,82,131.41,54,34.00,-24.00,-1080.00
2024-05-19 09:54:07.867013,1,2,1,1,-3,-2,70,72,120,80,82,131.47,54,-1.00,-31.00,-1003.00
2024-05-19 09:54:07.961090,1,1,1,1,-2,-2,70,72,123,90,82,131.57,54,24.00,-39.00,-967.00
2024-05-19 09:54:08.071792,1,2,1,1,-2,-2,70,72,126,90,82,131.53,55,-2.00,-27.00,-952.00
2024-05-19 09:54:08.166059,1,3,2,1,-2,-2,70,72,129,90,82,131.51,55,-6.00,-18.00,-963.00
2024-05-19 09:54:08.276691,0,3,2,0,-2,-1,70,72,131,100,82,131.56,55,23.00,-69.00,-905.00
2024-05-19 09:54:08.369109,1,3,2,0,-2,-1,70,72,133,100,82,131.61,55,16.00,-40.00,-953.00
2024-05-19 09:54:08.481495,1,4,2,0,-2,0,70,72,134,100,82,131.66,55,26.00,-39.00,-935.00
2024-05-19 09:54:08.573001,1,4,2,0,-2,0,70,72,134,100,82,131.62,55,-5.00,-37.00,-1015.00
2024-05-19 09:54:08.686280,0,3,2,0,-2,0,71,73,135,100,82,131.64,55,22.00,-57.00,-1036.00
2024-05-19 09:54:08.777783,1,5,2,0,-1,0,71,73,136,100,82,131.64,55,2.00,-35.00,-985.00
2024-05-19 09:54:08.890962,1,4,2,0,0,0,71,73,135,100,82,131.66,55,-4.00,-27.00,-982.00
2024-05-19 09:54:08.981694,0,4,2,0,0,0,71,73,135,100,82,131.61,56,-8.00,-26.00,-995.00
2024-05-19 09:54:09.095878,0,3,2,0,0,0,71,73,135,100,82,131.60,56,18.00,-41.00,-1021.00
2024-05-19 09:54:09.186465,0,3,2,0,0,0,71,73,135,100,82,131.57,56,12.00,-43.00,-1034.00
2024-05-19 09:54:09.300687,0,3,2,0,0,0,71,73,135,100,82,131.59,56,-31.00,-41.00,-996.00
2024-05-19 09:54:09.389044,0,2,2,0,0,0,71,73,135,100,82,131.56,56,-19.00,-28.00,-1018.00
2024-05-19 09:54:09.505374,0,2,2,0,0,0,71,73,135,100,81,131.57,56,-52.00,-12.00,-996.00
2024-05-19 09:54:09.593017,-1,2,2,0,0,0,71,73,134,100,81,131.50,56,55.00,-84.00,-1014.00
2024-05-19 09:54:09.710277,-1,2,2,0,0,0,71,73,134,100,81,131.68,56,32.00,-75.00,-1046.00
2024-05-19 09:54:09.796961,-1,2,2,0,0,0,71,73,134,100,81,131.56,56,-42.00,-12.00,-997.00
2024-05-19 09:54:09.915058,-2,2,2,0,0,0,71,73,134,100,81,131.61,56,-55.00,-8.00,-998.00
2024-05-19 09:54:10.001055,-2,2,2,0,0,0,71,73,134,100,81,131.55,57,-80.00,-2.00,-1003.00
2024-05-19 09:54:10.119850,-2,2,2,0,0,0,71,73,134,100,81,131.58,57,34.00,-73.00,-1004.00
2024-05-19 09:54:10.204998,-2,2,2,0,0,0,71,73,135,100,81,131.51,57,-17.00,-36.00,-1004.00
2024-05-19 09:54:10.324795,-2,1,2,0,0,0,71,73,134,100,81,131.59,57,-49.00,-8.00,-970.00
2024-05-19 09:54:10.409040,-3,0,2,0,0,0,71,73,134,100,81,131.64,57,-16.00,-36.00,-1005.00
2024-05-19 09:54:10.529605,-3,0,2,0,0,0,71,73,134,100,81,131.69,57,-8.00,-50.00,-982.00
2024-05-19 09:54:10.613513,-2,0,1,0,0,0,71,73,134,100,81,131.62,57,-23.00,-27.00,-1026.00
2024-05-19 09:54:10.734452,-2,1,1,0,0,0,71,74,135,100,81,131.54,57,-8.00,-30.00,-1032.00
2024-05-19 09:54:10.816910,-1,1,1,0,0,0,71,74,135,110,81,131.64,57,-41.00,-18.00,-1009.00
2024-05-19 09:54:10.938991,-1,2,1,0,0,0,71,74,135,110,81,131.54,57,26.00,-61.00,-991.00
2024-05-19 09:54:11.021098,0,2,1,0,0,0,71,74,135,110,81,131.59,58,-30.00,-34.00,-987.00
2024-05-19 09:54:11.143953,0,2,1,0,0,0,71,74,135,110,81,131.55,58,0.00,-49.00,-986.00
2024-05-19 09:54:11.174693,0,2,1,0,0,0,71,74,135,110,81,131.59,58,-18.00,-36.00,-973.00
2024-05-19 09:54:11.348790,0,2,1,1,0,0,71,74,135,110,81,131.65,58,26.00,-63.00,-1067.00
2024-05-19 09:54:11.377949,0,2,1,1,0,0,71,74,135,110,81,131.70,58,5.00,-38.00,-967.00
2024-05-19 09:54:11.553581,1,3,1,1,0,0,71,74,134,110,80,131.86,58,40.00,-68.00,-961.00
2024-05-19 09:54:11.589827,2,3,1,1,0,0,71,74,134,110,80,131.90,58,40.00,-61.00,-1022.00
2024-05-19 09:54:11.758450,2,4,1,1,0,0,71,73,134,110,80,131.85,58,24.00,-79.00,-1009.00
2024-05-19 09:54:11.785989,3,4,1,1,0,0,71,73,133,110,80,131.92,58,10.00,-61.00,-1015.00
2024-05-19 09:54:11.963570,3,5,1,1,0,0,71,73,133,100,80,131.86,58,32.00,-59.00,-1030.00
2024-05-19 09:54:11.989998,2,4,1,0,0,0,71,73,132,100,80,131.84,59,53.00,-93.00,-1010.00
2024-05-19 09:54:12.168028,2,4,1,1,0,0,71,73,132,100,80,131.86,59,68.00,-112.00,-970.00
2024-05-19 09:54:12.194022,3,5,1,1,0,0,71,73,131,100,80,131.80,59,49.00,-68.00,-1035.00
2024-05-19 09:54:12.373371,4,5,1,1,0,0,71,73,132,100,80,131.76,59,27.00,-80.00,-1018.00
2024-05-19 09:54:12.397939,4,5,1,0,0,0,71,73,131,100,80,131.72,59,21.00,-47.00,-1034.00
2024-05-19 09:54:12.577476,3,4,1,0,0,0,71,73,131,100,80,131.87,59,72.00,-64.00,-1004.00
2024-05-19 09:54:12.602216,3,4,1,0,0,0,71,73,131,100,80,131.84,59,39.00,-49.00,-1009.00
2024-05-19 09:54:12.782431,3,4,1,0,0,0,71,73,130,100,80,131.89,59,15.00,-44.00,-997.00
2024-05-19 09:54:12.805741,2,3,1,0,0,0,71,73,130,100,80,131.83,59,42.00,-48.00,-1011.00
2024-05-19 09:54:12.987264,2,3,1,0,0,0,71,73,130,100,80,131.68,59,62.00,-93.00,-986.00
2024-05-19 09:54:13.009814,2,3,1,0,0,0,71,73,130,100,80,131.82,60,97.00,-110.00,-985.00
2024-05-19 09:54:13.125578,3,4,1,0,0,0,71,73,129,100,80,131.69,60,71.00,-94.00,-991.00
2024-05-19 09:54:13.214851,4,4,1,0,0,0,71,73,129,100,80,131.71,60,59.00,-50.00,-1040.00
2024-05-19 09:54:13.396623,1,5,1,0,0,-2,71,73,130,100,80,131.68,60,72.00,-109.00,-1606.00
2024-05-19 09:54:13.418070,0,8,0,0,0,-9,71,73,140,110,80,131.72,60,54.00,-170.00,-1754.00
2024-05-19 09:54:13.601445,1,65,1,1,4,-13,71,73,372,120,80,131.84,60,79.00,192.00,-1426.00
2024-05-19 09:54:13.621811,1,-167,0,1,11,-2,71,73,458,130,80,131.54,60,34.00,931.00,-1037.00
2024-05-19 09:54:13.806225,2,-42,6,2,4,9,72,74,179,120,80,131.59,60,66.00,794.00,-1207.00
2024-05-19 09:54:13.825809,0,10,9,2,2,8,72,74,140,110,80,131.82,60,80.00,129.00,-811.00
2024-05-19 09:54:14.011044,0,-1,16,2,3,5,72,74,130,110,80,131.68,60,21.00,-95.00,-1467.00
2024-05-19 09:54:14.029786,3,-3,22,2,2,1,72,74,127,100,80,131.59,61,39.00,-110.00,-1309.00
2024-05-19 09:54:14.215967,2,0,19,2,0,0,72,74,125,100,80,131.54,61,-33.00,-28.00,-1151.00
2024-05-19 09:54:14.233835,2,2,8,2,0,-1,72,74,125,100,80,131.57,61,-17.00,-26.00,-1071.00
2024-05-19 09:54:14.420582,1,2,2,2,0,-1,72,74,125,100,80,131.52,61,32.00,-93.00,-1003.00
2024-05-19 09:54:14.437731,2,2,1,1,0,-1,72,74,126,110,80,131.59,61,63.00,-48.00,-999.00
2024-05-19 09:54:14.625441,2,2,1,1,0,-1,72,74,127,110,80,131.58,61,14.00,-37.00,-985.00
2024-05-19 09:54:14.641704,3,2,1,2,0,-1,72,74,127,110,80,131.64,61,55.00,-50.00,-920.00
2024-05-19 09:54:14.830228,5,1,1,1,0,0,72,74,127,110,80,131.55,61,49.00,-71.00,-958.00
2024-05-19 09:54:14.845713,4,2,1,1,-1,0,72,74,126,110,80,131.65,61,49.00,-76.00,-981.00
2024-05-19 09:54:15.035033,4,3,1,0,-1,0,72,74,126,110,80,131.63,61,8.00,-70.00,-963.00
2024-05-19 09:54:15.049955,3,4,1,0,-1,0,72,74,125,110,80,131.57,62,-5.00,-50.00,-994.00
2024-05-19 09:54:15.239723,2,4,1,0,-1,0,72,74,124,100,80,131.58,62,23.00,-60.00,-1018.00
2024-05-19 09:54:15.239821,2,4,1,0,-1,0,72,74,124,100,80,131.57,62,57.00,-60.00,-1033.00
2024-05-19 09:54:15.306989,2,4,1,0,0,0,72,74,123,100,80,131.53,62,24.00,-65.00,-1010.00
2024-05-19 09:54:15.406694,2,3,1,0,0,0,72,74,124,100,79,131.64,62,54.00,-91.00,-1054.00
2024-05-19 09:54:15.547016,2,4,1,0,0,0,72,74,123,100,79,131.59,62,25.00,-77.00,-1056.00
2024-05-19 09:54:15.610673,1,4,1,0,0,0,72,74,123,100,79,131.58,62,31.00,-57.00,-1049.00
2024-05-19 09:54:15.751740,1,3,1,0,0,0,72,74,124,100,79,131.58,62,16.00,-60.00,-958.00
2024-05-19 09:54:15.814739,1,3,1,0,0,0,72,74,124,100,79,131.63,62,48.00,-86.00,-978.00
2024-05-19 09:54:15.956652,1,3,1,0,0,0,72,74,124,100,79,131.62,62,6.00,-37.00,-1008.00
2024-05-19 09:54:16.018741,1,3,1,0,0,0,72,74,124,100,79,131.61,63,52.00,-59.00,-1021.00
2024-05-19 09:54:16.161421,2,2,1,0,0,0,72,74,124,100,79,131.62,63,38.00,-71.00,-1053.00
2024-05-19 09:54:16.225567,2,2,1,0,0,0,72,74,125,100,79,131.43,63,29.00,-81.00,-980.00
2024-05-19 09:54:16.324717,1,3,2,0,0,0,72,74,125,100,79,131.46,63,4.00,-76.00,-1012.00
2024-05-19 09:54:16.468604,1,3,2,0,0,0,72,74,126,100,79,131.54,63,-21.00,-56.00,-1003.00
2024-05-19 09:54:16.528642,0,3,2,-1,0,0,72,74,127,100,79,131.61,63,-25.00,-49.00,-1013.00
2024-05-19 09:54:16.673438,0,2,2,-1,0,0,72,74,127,100,79,131.57,63,17.00,-67.00,-1047.00
2024-05-19 09:54:16.732852,-1,2,1,0,0,0,72,74,128,100,79,131.53,63,18.00,-43.00,-977.00
2024-05-19 09:54:16.878304,0,2,1,0,0,0,72,74,129,100,79,131.54,63,-11.00,-33.00,-1016.00
2024-05-19 09:54:16.937736,0,1,1,0,0,0,72,74,130,100,79,131.53,63,53.00,-52.00,-993.00
2024-05-19 09:54:17.083158,0,2,1,0,0,0,72,74,131,100,79,131.58,64,25.00,-51.00,-1056.00
2024-05-19 09:54:17.141702,1,2,1,0,0,0,72,74,132,100,79,131.55,64,21.00,-41.00,-974.00
2024-05-19 09:54:17.287974,1,2,1,0,0,0,72,74,132,100,79,131.54,64,30.00,-58.00,-1001.00
2024-05-19 09:54:17.345742,1,2,1,0,0,0,72,74,134,100,79,131.67,64,45.00,-48.00,-1010.00
2024-05-19 09:54:17.492742,1,1,1,0,0,0,72,74,135,100,79,131.52,64,52.00,-56.00,-976.00
2024-05-19 09:54:17.549727,1,1,1,0,0,0,72,74,137,100,79,131.65,64,43.00,-39.00,-964.00
2024-05-19 09:54:17.697415,2,1,1,0,0,0,72,74,138,100,79,131.61,64,48.00,-40.00,-992.00
2024-05-19 09:54:17.753728,2,1,1,0,0,0,73,75,139,110,79,131.60,64,30.00,-36.00,-965.00
2024-05-19 09:54:17.902349,2,1,1,0,0,0,73,75,140,110,79,131.68,64,-10.00,-45.00,-1004.00
2024-05-19 09:54:17.958462,2,1,1,0,0,0,73,75,140,110,79,131.67,64,42.00,-39.00,-960.00
2024-05-19 09:54:18.108549,2,1,1,0,0,0,73,75,141,110,79,131.68,65,60.00,-52.00,-903.00
2024-05-19 09:54:18.163662,2,1,1,0,0,0,73,75,141,110,79,131.70,65,21.00,-38.00,-948.00
2024-05-19 09:54:18.263841,2,2,1,0,0,0,73,75,141,110,79,131.77,65,0.00,-50.00,-983.00
