TS,pitch,roll,yaw,vgx,vgy,vgz,templ,temph,tof,h,bat,baro,time,agx,agy,agz
2024-05-19 09:55:06.746777,0,0,7,0,0,0,77,80,10,0,77,130.24,83,11.00,4.00,-1002.00
2024-05-19 09:55:06.815256,0,0,7,0,0,0,77,80,10,0,77,130.24,83,10.00,3.00,-999.00
2024-05-19 09:55:06.951510,0,0,7,0,0,0,77,80,10,0,77,130.24,83,10.00,4.00,-1000.00
2024-05-19 09:55:07.019271,0,0,7,0,0,0,77,80,10,0,77,130.29,83,10.00,5.00,-1000.00
2024-05-19 09:55:07.156229,0,0,7,0,0,0,77,80,10,0,77,130.22,83,10.00,3.00,-1001.00
2024-05-19 09:55:07.223111,0,0,7,0,0,0,77,80,10,0,77,130.24,83,9.00,6.00,-998.00
2024-05-19 09:55:07.361153,0,0,7,0,0,0,77,80,10,0,77,130.26,83,11.00,5.00,-999.00
2024-05-19 09:55:07.427236,0,0,7,0,0,0,77,80,10,0,77,130.21,83,11.00,4.00,-999.00
2024-05-19 09:55:07.529135,0,0,7,0,0,0,77,80,10,0,77,130.20,83,11.00,6.00,-999.00
2024-05-19 09:55:07.668312,0,0,7,0,0,0,77,80,10,0,77,130.27,83,9.00,4.00,-1001.00
2024-05-19 09:55:07.733042,0,0,7,0,0,0,77,80,10,0,77,130.25,83,9.00,3.00,-1001.00
2024-05-19 09:55:07.873157,0,0,7,0,0,0,77,80,10,0,77,130.22,83,10.00,4.00,-1000.00
2024-05-19 09:55:07.937224,0,0,7,0,0,0,77,80,10,0,77,130.28,83,8.00,4.00,-1001.00
2024-05-19 09:55:08.077873,0,0,7,0,0,0,78,80,10,0,77,130.21,83,11.00,3.00,-1000.00
2024-05-19 09:55:08.141124,0,0,7,0,0,0,78,80,10,0,77,130.24,83,10.00,4.00,-1000.00
2024-05-19 09:55:08.282703,0,0,7,0,0,0,78,80,10,0,77,130.22,83,11.00,4.00,-1001.00
2024-05-19 09:55:08.344987,0,0,7,0,0,0,78,80,10,0,77,130.23,83,10.00,4.00,-998.00
2024-05-19 09:55:08.487447,0,0,7,0,0,0,78,80,10,0,77,130.22,83,10.00,4.00,-1001.00
2024-05-19 09:55:08.549268,0,0,7,0,0,0,78,80,10,0,77,130.21,83,11.00,4.00,-1001.00
2024-05-19 09:55:08.692276,0,0,7,0,0,0,78,80,10,0,77,130.22,83,11.00,4.00,-1000.00
2024-05-19 09:55:08.753290,0,0,7,0,0,0,78,80,10,0,77,130.23,83,11.00,3.00,-997.00
2024-05-19 09:55:08.855014,0,0,7,0,0,0,78,80,10,0,77,130.24,83,10.00,4.00,-1002.00
2024-05-19 09:55:08.905949,0,0,7,0,0,0,78,80,10,0,77,130.21,83,3.00,6.00,-1009.00
2024-05-19 09:55:09.101722,0,0,7,0,0,0,77,79,10,0,77,130.21,83,9.00,-1.00,-1001.00
2024-05-19 09:55:09.109926,0,0,7,0,0,0,77,79,10,0,77,130.21,83,-5.00,11.00,-1023.00
2024-05-19 09:55:09.306513,0,0,7,0,0,0,77,79,10,0,77,130.21,83,-7.00,-36.00,-963.00
2024-05-19 09:55:09.313899,0,0,8,0,0,0,77,79,10,0,77,130.21,83,22.00,30.00,-1060.00
2024-05-19 09:55:09.511312,1,0,8,0,0,0,77,79,10,0,77,130.21,83,1.00,9.00,-1130.00
2024-05-19 09:55:09.518306,1,0,9,0,0,-1,77,79,10,0,77,130.21,84,-19.00,2.00,-1250.00
2024-05-19 09:55:09.716215,0,0,9,0,0,-4,77,79,10,0,77,130.21,84,15.00,12.00,-1291.00
2024-05-19 09:55:09.723509,-2,1,9,0,0,-6,77,79,16,0,77,130.37,84,26.00,17.00,-1153.00
2024-05-19 09:55:09.823977,-1,0,9,0,0,-7,77,79,24,0,77,130.60,84,-9.00,10.00,-1119.00
2024-05-19 09:55:10.023365,-1,0,9,0,0,-8,77,79,34,10,77,130.69,84,-35.00,8.00,-1031.00
2024-05-19 09:55:10.027861,-1,0,9,0,0,-7,77,80,42,20,77,130.73,84,-21.00,5.00,-999.00
2024-05-19 09:55:10.228202,-1,0,9,0,0,-7,77,80,50,20,77,130.85,84,-10.00,-3.00,-957.00
2024-05-19 09:55:10.231873,-1,0,9,0,0,-6,77,80,59,30,77,130.80,84,-28.00,6.00,-867.00
2024-05-19 09:55:10.433027,-1,0,9,0,0,-5,77,80,65,30,77,130.93,84,-17.00,-15.00,-856.00
2024-05-19 09:55:10.435799,-2,0,9,0,0,-3,77,80,70,40,77,131.01,84,-19.00,12.00,-782.00
2024-05-19 09:55:10.537910,-1,0,9,0,0,-2,77,80,74,40,77,131.12,85,-24.00,-11.00,-807.00
2024-05-19 09:55:10.639908,-1,0,9,0,0,-1,77,80,78,40,77,131.22,85,-10.00,-3.00,-886.00
2024-05-19 09:55:10.743328,-1,0,9,0,0,0,77,80,81,50,77,131.16,85,-16.00,-5.00,-886.00
2024-05-19 09:55:10.843908,-1,0,9,0,0,0,77,80,83,50,77,131.23,85,-9.00,-9.00,-965.00
2024-05-19 09:55:11.048212,-1,0,9,0,0,0,77,80,84,50,77,131.22,85,0.00,0.00,-957.00
2024-05-19 09:55:11.048263,-1,0,9,0,0,0,78,80,86,50,77,131.22,85,-21.00,0.00,-960.00
2024-05-19 09:55:11.149885,-1,0,9,0,0,0,78,80,87,50,77,131.20,85,-21.00,0.00,-974.00
2024-05-19 09:55:11.251972,-1,0,9,0,0,0,78,80,88,50,77,131.20,85,-19.00,5.00,-972.00
2024-05-19 09:55:11.354338,-1,0,9,0,0,0,78,80,89,50,77,131.22,85,-24.00,7.00,-1011.00
2024-05-19 09:55:11.457475,0,0,9,0,0,0,78,80,90,50,77,131.21,85,-11.00,-25.00,-1032.00
2024-05-19 09:55:11.559407,-1,0,9,0,0,0,78,80,90,50,77,131.24,86,-24.00,22.00,-931.00
2024-05-19 09:55:11.659777,0,0,9,0,0,0,78,80,91,50,77,131.17,86,-9.00,-9.00,-1013.00
2024-05-19 09:55:11.764086,-1,0,9,0,0,0,78,80,91,50,77,131.22,86,-18.00,4.00,-987.00
2024-05-19 09:55:11.863774,-1,0,9,0,0,0,78,80,92,50,77,131.25,86,-28.00,9.00,-935.00
2024-05-19 09:55:11.968959,-1,0,9,0,0,0,78,80,91,50,77,131.19,86,-9.00,-6.00,-981.00
2024-05-19 09:55:12.067792,-1,0,9,0,0,0,79,80,92,60,77,131.28,86,-2.00,0.00,-979.00
2024-05-19 09:55:12.173984,-1,0,9,0,0,0,79,80,91,60,77,131.20,86,-10.00,3.00,-957.00
2024-05-19 09:55:12.271739,-1,0,9,0,0,0,79,80,90,60,77,131.20,86,-15.00,4.00,-987.00
2024-05-19 09:55:12.378517,-1,0,9,0,0,0,79,80,89,60,77,131.26,86,-32.00,13.00,-1013.00
2024-05-19 09:55:12.475717,-1,0,9,0,0,0,79,80,89,60,77,131.25,86,-16.00,11.00,-977.00
2024-05-19 09:55:12.583317,-1,0,9,0,0,0,79,80,88,50,77,131.22,87,-13.00,8.00,-987.00
2024-05-19 09:55:12.679835,-1,0,9,0,0,0,79,80,87,50,77,131.18,87,-37.00,15.00,-917.00
2024-05-19 09:55:12.781862,-1,0,9,0,0,0,79,80,86,50,77,131.18,87,-12.00,6.00,-972.00
2024-05-19 09:55:12.832892,-1,-1,9,0,0,0,79,80,85,50,77,131.14,87,-6.00,-5.00,-982.00
2024-05-19 09:55:12.994784,-1,0,9,0,0,0,79,80,84,50,77,131.20,87,-24.00,13.00,-1005.00
2024-05-19 09:55:13.036900,0,0,9,0,0,0,78,80,83,50,77,131.16,87,-14.00,8.00,-1014.00
2024-05-19 09:55:13.197773,0,0,9,0,0,0,78,80,82,50,77,131.06,87,-14.00,-1.00,-1019.00
2024-05-19 09:55:13.240795,0,0,9,0,0,0,78,80,81,50,77,131.08,87,27.00,-15.00,-1006.00
2024-05-19 09:55:13.402533,0,0,9,0,0,0,78,80,80,50,77,131.08,87,-26.00,0.00,-974.00
2024-05-19 09:55:13.444732,0,0,9,0,0,0,78,80,79,50,77,131.10,87,-8.00,0.00,-979.00
2024-05-19 09:55:13.546720,0,0,9,0,0,0,78,80,78,50,77,131.10,88,-18.00,5.00,-1009.00
2024-05-19 09:55:13.710165,0,0,9,0,0,0,78,80,77,50,77,131.08,88,-8.00,-7.00,-1015.00
2024-05-19 09:55:13.750802,0,0,9,0,0,0,78,80,77,50,77,130.99,88,-2.00,3.00,-975.00
2024-05-19 09:55:13.918778,0,0,9,0,0,0,78,80,76,50,77,131.01,88,-20.00,8.00,-1004.00
2024-05-19 09:55:13.954790,0,0,9,0,0,0,78,80,75,50,77,131.06,88,-27.00,4.00,-1023.00
2024-05-19 09:55:14.119273,0,0,9,0,0,0,77,80,75,40,77,131.00,88,13.00,-27.00,-1031.00
2024-05-19 09:55:14.158712,0,0,9,0,0,0,77,80,75,40,77,130.98,88,-25.00,6.00,-1016.00
2024-05-19 09:55:14.324107,0,0,9,0,0,0,77,80,74,40,77,131.05,88,-25.00,3.00,-1019.00
2024-05-19 09:55:14.362730,0,0,9,0,0,0,77,80,74,40,77,131.01,88,-7.00,-2.00,-1037.00
2024-05-19 09:55:14.528799,0,0,9,0,0,0,77,80,74,40,77,130.96,88,-4.00,7.00,-970.00
2024-05-19 09:55:14.566688,0,0,9,0,0,0,77,80,74,40,77,131.02,89,-24.00,6.00,-980.00
2024-05-19 09:55:14.733509,-1,0,9,0,0,0,77,80,75,40,77,131.05,89,21.00,-37.00,-1021.00
2024-05-19 09:55:14.770642,0,0,9,0,0,0,77,80,75,40,77,131.06,89,-14.00,0.00,-979.00
2024-05-19 09:55:14.938478,0,0,9,0,0,0,77,80,75,40,77,131.05,89,-29.00,4.00,-995.00
2024-05-19 09:55:14.977543,0,0,9,0,0,0,77,80,76,40,77,131.04,89,0.00,-12.00,-992.00
2024-05-19 09:55:15.078012,-1,0,8,0,0,0,77,81,76,40,77,131.03,89,-12.00,6.00,-989.00
2024-05-19 09:55:15.179207,-1,0,8,0,0,0,77,81,76,40,77,131.01,89,-39.00,12.00,-977.00
2024-05-19 09:55:15.348083,-1,0,8,0,0,0,77,81,76,40,77,131.05,89,-34.00,3.00,-970.00
2024-05-19 09:55:15.391212,-1,0,8,0,0,0,77,81,76,40,77,130.99,89,-29.00,-2.00,-996.00
2024-05-19 09:55:15.486571,-1,0,8,0,0,0,77,81,76,40,77,131.02,89,-47.00,-20.00,-1002.00
2024-05-19 09:55:15.588988,-1,0,8,0,0,0,77,81,77,40,77,131.04,90,-36.00,-4.00,-956.00
2024-05-19 09:55:15.689446,-1,0,8,0,0,0,77,81,77,40,77,131.02,90,5.00,-30.00,-1027.00
2024-05-19 09:55:15.791948,-1,0,8,0,0,0,77,81,77,40,77,131.01,90,15.00,-1.00,-1016.00
2024-05-19 09:55:15.894181,-1,1,8,0,0,0,77,81,77,50,77,131.06,90,-8.00,-42.00,-1007.00
2024-05-19 09:55:15.994606,0,1,8,0,0,0,77,81,77,50,77,131.02,90,-2.00,-44.00,-1003.00
2024-05-19 09:55:16.167257,0,1,8,0,0,0,77,80,77,50,77,130.97,90,-16.00,-41.00,-1039.00
2024-05-19 09:55:16.198688,0,1,8,0,0,0,77,80,78,50,77,130.99,90,-23.00,-20.00,-1009.00
2024-05-19 09:55:16.249680,0,1,8,0,0,0,77,80,77,50,77,131.06,90,0.00,-43.00,-996.00
2024-05-19 09:55:16.372004,0,2,8,0,0,0,77,80,78,50,77,131.06,90,-12.00,-31.00,-994.00
2024-05-19 09:55:16.453585,0,2,8,0,0,0,77,80,78,50,77,131.08,90,-16.00,-19.00,-983.00
2024-05-19 09:55:16.555539,0,2,8,0,0,0,77,80,78,50,77,131.09,91,-16.00,-44.00,-1045.00
2024-05-19 09:55:16.679265,0,2,8,0,0,0,77,80,78,50,77,131.12,91,-24.00,-9.00,-973.00
2024-05-19 09:55:16.759840,0,2,8,0,0,0,77,80,78,50,77,131.06,91,-12.00,-29.00,-984.00
2024-05-19 09:55:16.884107,0,2,8,0,0,0,77,80,78,50,77,131.02,91,1.00,-33.00,-986.00
2024-05-19 09:55:16.963667,0,1,8,0,0,0,77,80,78,50,77,130.99,91,17.00,-42.00,-979.00
2024-05-19 09:55:17.088828,0,1,8,0,0,0,76,79,78,50,77,131.03,91,-13.00,-21.00,-919.00
2024-05-19 09:55:17.167567,0,1,8,0,0,0,76,79,78,50,77,131.02,91,12.00,-39.00,-1029.00
2024-05-19 09:55:17.293647,0,1,8,0,0,0,76,79,78,50,77,131.01,91,28.00,-61.00,-1005.00
2024-05-19 09:55:17.373789,0,2,8,0,0,0,76,79,78,50,77,131.09,91,6.00,-42.00,-978.00
2024-05-19 09:55:17.473982,0,2,9,0,0,0,76,79,78,50,77,131.07,92,20.00,-44.00,-981.00
2024-05-19 09:55:17.575561,1,2,9,0,0,0,76,79,78,50,77,131.05,92,28.00,-47.00,-978.00
2024-05-19 09:55:17.703381,1,2,8,0,0,0,76,79,78,50,77,131.06,92,9.00,-19.00,-1007.00
2024-05-19 09:55:17.779556,1,1,9,0,0,0,76,79,78,50,77,131.06,92,23.00,-45.00,-982.00
2024-05-19 09:55:17.908112,1,2,9,0,0,0,76,79,78,50,77,130.95,92,22.00,-39.00,-1004.00
2024-05-19 09:55:17.983621,1,1,9,0,0,0,76,79,79,50,77,131.01,92,0.00,-32.00,-1018.00
2024-05-19 09:55:18.112935,0,1,9,0,0,0,77,80,79,50,77,131.02,92,6.00,-23.00,-1016.00
2024-05-19 09:55:18.187765,0,1,9,0,0,0,77,80,79,50,77,131.03,92,0.00,-17.00,-1018.00
2024-05-19 09:55:18.317770,0,1,9,0,0,0,77,80,79,50,77,131.02,92,5.00,-40.00,-1007.00
2024-05-19 09:55:18.391712,0,1,9,0,0,0,77,80,79,50,77,130.92,92,-12.00,-27.00,-999.00
2024-05-19 09:55:18.522712,0,1,9,0,0,0,77,80,79,50,77,131.03,93,-6.00,-22.00,-1013.00
2024-05-19 09:55:18.595835,0,1,9,0,0,0,77,80,79,50,77,131.03,93,5.00,-20.00,-983.00
2024-05-19 09:55:18.727374,0,1,9,0,0,0,77,80,80,50,77,131.03,93,39.00,-19.00,-1020.00
2024-05-19 09:55:18.799870,0,1,9,0,0,0,77,80,79,50,77,131.01,93,-11.00,-23.00,-972.00
2024-05-19 09:55:18.932467,0,1,9,0,0,0,77,80,79,50,77,131.04,93,-8.00,-38.00,-1011.00
2024-05-19 09:55:19.005574,0,1,9,0,0,0,77,80,79,50,77,131.02,93,4.00,-15.00,-1026.00
2024-05-19 09:55:19.106056,0,1,9,0,0,0,77,80,79,50,77,131.02,93,5.00,-22.00,-988.00
2024-05-19 09:55:19.207661,0,1,9,0,0,0,77,80,79,50,77,131.12,93,0.00,-24.00,-996.00
2024-05-19 09:55:19.342011,0,1,8,0,0,0,77,80,79,50,77,131.11,93,-2.00,-25.00,-1026.00
2024-05-19 09:55:19.411507,0,0,8,0,0,0,77,80,79,50,77,131.03,93,0.00,-25.00,-1024.00
2024-05-19 09:55:19.513720,0,0,8,0,0,0,77,80,79,50,77,131.06,94,9.00,-26.00,-1009.00
2024-05-19 09:55:19.648798,0,1,8,0,0,0,77,80,79,50,77,131.09,94,-1.00,-18.00,-1008.00
2024-05-19 09:55:19.717449,0,0,9,0,0,0,77,80,79,50,77,131.07,94,0.00,-10.00,-1063.00
2024-05-19 09:55:19.853639,0,1,9,0,0,-1,77,80,80,50,77,131.03,94,-1.00,-23.00,-1127.00
2024-05-19 09:55:19.921450,0,1,9,0,0,-2,77,80,82,50,77,131.08,94,-12.00,-23.00,-1079.00
2024-05-19 09:55:19.972355,0,0,9,0,0,-3,77,80,84,50,77,131.14,94,-10.00,-24.00,-1107.00
2024-05-19 09:55:20.160818,0,1,9,0,0,-4,77,79,90,60,77,131.22,94,-28.00,-29.00,-1051.00
2024-05-19 09:55:20.227338,0,1,8,0,0,-4,77,79,95,60,77,131.23,94,27.00,-46.00,-1048.00
2024-05-19 09:55:20.365620,0,1,8,0,0,-5,77,79,100,70,77,131.26,94,-12.00,-17.00,-1006.00
2024-05-19 09:55:20.431347,0,1,9,0,0,-5,77,79,105,70,77,131.29,94,-24.00,-18.00,-996.00
2024-05-19 09:55:20.482379,0,1,9,0,0,-5,77,79,111,80,77,131.31,95,1.00,-35.00,-986.00
2024-05-19 09:55:20.584345,0,1,8,0,0,-5,77,79,116,80,77,131.42,95,-17.00,-40.00,-1008.00
2024-05-19 09:55:20.775260,0,1,8,0,0,-5,77,79,121,90,77,131.45,95,-26.00,-29.00,-994.00
2024-05-19 09:55:20.789892,0,1,8,0,0,-5,77,79,127,90,77,131.49,95,-23.00,-37.00,-991.00
2024-05-19 09:55:20.980016,0,2,8,0,0,-5,77,79,132,100,77,131.51,95,-32.00,-40.00,-1008.00
2024-05-19 09:55:20.992400,0,2,9,0,0,-4,77,79,137,100,77,131.59,95,-12.00,-41.00,-996.00
2024-05-19 09:55:21.184822,0,2,8,0,0,-4,77,80,142,110,77,131.64,95,-16.00,-45.00,-1025.00
2024-05-19 09:55:21.196534,0,2,8,0,0,-4,77,80,147,110,77,131.66,95,-15.00,-13.00,-968.00
2024-05-19 09:55:21.389604,-1,2,8,0,0,-4,77,80,150,120,77,131.68,95,-5.00,-51.00,-1035.00
2024-05-19 09:55:21.400342,-1,2,8,0,0,-3,77,80,155,120,77,131.74,95,-6.00,-42.00,-929.00
2024-05-19 09:55:21.594418,-1,2,8,0,0,-3,77,80,158,120,77,131.76,96,-7.00,-76.00,-969.00
2024-05-19 09:55:21.607621,0,2,8,0,0,-2,77,80,161,130,77,131.92,96,25.00,-64.00,-996.00
2024-05-19 09:55:21.706298,0,3,8,0,0,-2,77,80,164,130,77,131.91,96,22.00,-64.00,-962.00
2024-05-19 09:55:21.901619,0,3,8,0,0,-2,77,80,167,130,77,131.74,96,-1.00,-56.00,-973.00
2024-05-19 09:55:21.910290,1,3,9,0,0,-2,77,80,169,130,77,131.74,96,0.00,-50.00,-995.00
2024-05-19 09:55:22.106410,1,3,9,0,0,-1,77,80,172,140,77,131.85,96,2.00,-62.00,-973.00
2024-05-19 09:55:22.114462,1,3,9,0,0,-1,77,79,173,140,77,131.88,96,11.00,-66.00,-974.00
2024-05-19 09:55:22.311225,0,4,9,0,0,-1,77,79,174,140,77,131.93,96,24.00,-73.00,-1012.00
2024-05-19 09:55:22.318531,1,3,9,0,0,-1,77,79,177,140,77,132.00,96,43.00,-90.00,-947.00
2024-05-19 09:55:22.516133,1,4,9,0,0,-1,77,79,177,140,77,132.00,96,0.00,-67.00,-947.00
2024-05-19 09:55:22.522399,1,4,9,0,0,0,77,79,177,140,77,131.96,97,9.00,-36.00,-955.00
2024-05-19 09:55:22.720982,2,3,9,0,0,0,77,79,178,140,77,132.10,97,36.00,-77.00,-942.00
2024-05-19 09:55:22.727405,2,3,9,0,0,0,77,79,177,140,77,131.98,97,26.00,-46.00,-914.00
2024-05-19 09:55:22.925796,2,3,9,0,0,0,77,79,177,140,77,132.01,97,14.00,-44.00,-1010.00
2024-05-19 09:55:22.936375,2,4,9,0,0,0,77,79,176,140,77,132.01,97,56.00,-57.00,-931.00
2024-05-19 09:55:23.033406,2,4,9,0,0,0,77,79,177,140,77,132.05,97,5.00,-31.00,-1007.00
2024-05-19 09:55:23.233012,2,3,9,0,0,0,77,79,176,140,77,132.00,97,19.00,-60.00,-1026.00
2024-05-19 09:55:23.237551,3,3,9,0,0,0,77,79,175,140,77,132.04,97,69.00,-79.00,-1053.00
2024-05-19 09:55:23.437740,3,4,9,0,0,0,77,79,176,140,77,132.03,97,36.00,-61.00,-995.00
2024-05-19 09:55:23.441392,3,4,9,0,0,0,77,79,175,140,77,131.99,97,62.00,-61.00,-1005.00
2024-05-19 09:55:23.642592,2,3,9,0,0,0,77,79,175,140,77,131.95,98,53.00,-69.00,-1020.00
2024-05-19 09:55:23.645751,3,3,9,0,0,0,77,79,175,140,77,131.89,98,48.00,-91.00,-1005.00
2024-05-19 09:55:23.747525,2,3,8,0,0,0,77,79,175,140,77,131.99,98,51.00,-56.00,-1033.00
2024-05-19 09:55:23.849652,3,3,9,0,0,0,77,79,174,140,77,132.03,98,29.00,-39.00,-989.00
2024-05-19 09:55:23.951348,3,3,9,0,0,0,77,79,175,140,77,131.95,98,53.00,-63.00,-924.00
2024-05-19 09:55:24.002243,3,3,9,0,0,0,77,79,174,140,77,131.94,98,24.00,-69.00,-958.00
2024-05-19 09:55:24.155413,3,3,9,0,0,0,77,79,174,140,77,131.96,98,42.00,-66.00,-1003.00
2024-05-19 09:55:24.206291,2,3,8,0,0,0,77,79,174,140,77,132.00,98,42.00,-73.00,-1020.00
2024-05-19 09:55:24.314761,3,3,8,0,0,0,77,79,174,140,77,131.99,98,29.00,-88.00,-987.00
2024-05-19 09:55:24.410179,2,3,8,0,0,0,77,79,174,140,77,131.98,98,67.00,-84.00,-1044.00
2024-05-19 09:55:24.563998,1,4,8,0,0,0,77,79,175,140,77,131.92,99,80.00,-84.00,-900.00
2024-05-19 09:55:24.615355,3,4,9,0,0,0,77,79,174,140,77,131.95,99,60.00,-77.00,-921.00
2024-05-19 09:55:24.768773,4,3,9,0,0,0,77,79,173,140,77,132.00,99,50.00,-48.00,-953.00
2024-05-19 09:55:24.819236,3,3,8,0,0,1,77,79,172,140,77,131.87,99,70.00,-82.00,-910.00
2024-05-19 09:55:24.973590,3,3,8,0,0,1,77,79,170,140,77,131.76,99,93.00,-56.00,-925.00
2024-05-19 09:55:25.023183,4,3,9,0,0,2,77,79,168,140,77,131.84,99,37.00,-46.00,-967.00
2024-05-19 09:55:25.178395,3,2,9,0,0,2,77,80,166,130,77,131.79,99,35.00,-82.00,-966.00
2024-05-19 09:55:25.227876,3,3,9,0,0,2,77,80,164,130,77,131.75,99,41.00,-64.00,-973.00
2024-05-19 09:55:25.329407,2,3,9,0,0,2,77,80,161,130,77,131.69,99,8.00,-45.00,-987.00
2024-05-19 09:55:25.485518,2,3,9,0,0,3,77,80,158,130,77,131.69,99,24.00,-43.00,-1006.00
2024-05-19 09:55:25.535166,1,3,9,0,0,2,77,80,155,120,77,131.67,100,0.00,-61.00,-992.00
2024-05-19 09:55:25.636477,1,3,9,0,0,2,77,80,152,120,77,131.68,100,15.00,-48.00,-999.00
2024-05-19 09:55:25.793166,1,3,9,0,0,2,77,80,150,120,77,131.62,100,27.00,-43.00,-1031.00
2024-05-19 09:55:25.842057,1,2,9,0,0,2,77,80,147,120,77,131.63,100,18.00,-38.00,-1010.00
2024-05-19 09:55:25.943619,1,2,9,0,0,2,77,80,144,110,77,131.55,100,17.00,-39.00,-991.00
2024-05-19 09:55:26.044804,1,2,8,0,0,2,77,80,142,110,77,131.58,100,7.00,-41.00,-988.00
2024-05-19 09:55:26.147280,1,1,8,0,0,1,77,79,140,110,77,131.45,100,21.00,-63.00,-986.00
2024-05-19 09:55:26.249772,1,1,8,0,0,1,77,79,138,110,77,131.37,100,15.00,-46.00,-998.00
2024-05-19 09:55:26.350082,1,2,8,0,0,1,77,79,136,110,77,131.40,100,-2.00,-47.00,-1020.00
2024-05-19 09:55:26.509569,0,2,9,0,0,1,77,79,135,100,77,131.38,100,-15.00,-36.00,-1001.00
2024-05-19 09:55:26.554715,0,2,9,0,0,1,77,79,134,100,77,131.33,101,37.00,-76.00,-1029.00
2024-05-19 09:55:26.714373,0,3,9,0,0,1,77,79,132,100,77,131.37,101,11.00,-56.00,-989.00
2024-05-19 09:55:26.759343,0,3,9,0,0,1,77,79,131,100,77,131.36,101,28.00,-40.00,-1015.00
2024-05-19 09:55:26.919183,0,3,9,0,0,0,77,79,130,100,77,131.41,101,14.00,-29.00,-1050.00
2024-05-19 09:55:26.963978,0,2,9,0,0,0,77,79,129,100,77,131.35,101,-1.00,-43.00,-981.00
2024-05-19 09:55:27.124022,0,2,9,0,0,0,77,79,129,100,77,131.35,101,-12.00,-31.00,-1005.00
2024-05-19 09:55:27.167360,0,1,9,0,0,0,78,79,128,100,77,131.36,101,38.00,-41.00,-1078.00
2024-05-19 09:55:27.328918,0,1,9,-1,0,0,78,79,128,100,77,131.32,101,-10.00,-33.00,-1003.00
2024-05-19 09:55:27.371269,0,1,9,-1,0,0,78,79,128,100,77,131.26,101,-23.00,-8.00,-1033.00
2024-05-19 09:55:27.533804,-1,0,9,-1,0,0,78,79,128,100,77,131.31,101,-21.00,-23.00,-1014.00
2024-05-19 09:55:27.575677,-1,0,9,-1,0,0,78,79,128,100,77,131.37,102,14.00,-14.00,-992.00
2024-05-19 09:55:27.738509,-1,0,8,-1,0,0,78,79,129,100,77,131.46,102,-21.00,-37.00,-1034.00
2024-05-19 09:55:27.738753,-1,1,8,0,0,0,78,79,129,100,77,131.45,102,-19.00,-13.00,-1001.00
2024-05-19 09:55:27.837507,0,0,8,0,0,0,78,79,129,100,77,131.43,102,2.00,-27.00,-993.00
2024-05-19 09:55:27.932387,0,1,8,0,0,0,78,79,130,100,77,131.42,102,-49.00,-32.00,-1002.00
2024-05-19 09:55:28.045700,0,1,8,0,0,0,78,79,129,100,77,131.49,102,-20.00,-15.00,-1032.00
2024-05-19 09:55:28.136903,0,1,8,0,0,0,77,79,130,100,77,131.65,102,-2.00,3.00,-1016.00
2024-05-19 09:55:28.252017,0,1,8,0,0,0,77,79,130,100,77,131.82,102,49.00,58.00,-911.00
2024-05-19 09:55:28.341422,0,0,7,0,1,0,77,79,129,100,77,131.68,102,19.00,29.00,-997.00
2024-05-19 09:55:28.455633,0,-1,7,0,1,0,77,79,129,100,77,131.57,102,23.00,40.00,-981.00
2024-05-19 09:55:28.545969,1,-2,7,0,1,1,77,79,128,100,77,131.64,103,29.00,15.00,-988.00
2024-05-19 09:55:28.646679,2,-3,8,0,1,0,77,79,128,90,77,131.60,103,21.00,18.00,-1010.00
2024-05-19 09:55:28.748517,2,-2,8,0,0,0,77,79,128,90,77,131.58,103,11.00,44.00,-1070.00
2024-05-19 09:55:28.864958,2,-2,8,0,0,0,77,79,128,90,77,131.57,103,26.00,27.00,-1051.00
2024-05-19 09:55:28.952068,2,-2,8,0,0,0,77,79,128,90,77,131.52,103,27.00,46.00,-1016.00
2024-05-19 09:55:29.054411,2,-1,8,0,0,0,77,79,129,100,77,131.61,103,-18.00,9.00,-1054.00
2024-05-19 09:55:29.172007,2,-1,8,0,0,0,77,80,130,100,77,131.53,103,70.00,1.00,-928.00
2024-05-19 09:55:29.259674,-5,0,8,0,0,0,77,80,132,100,77,131.54,103,16.00,20.00,-1007.00
2024-05-19 09:55:29.360023,-7,0,8,2,0,0,77,80,132,100,77,131.52,103,13.00,36.00,-1040.00
2024-05-19 09:55:29.479167,-7,-1,9,3,1,0,77,80,133,100,77,131.48,103,19.00,-49.00,-1000.00
2024-05-19 09:55:29.564141,-7,-1,9,4,1,0,77,80,133,100,77,131.48,104,-2.00,-4.00,-951.00
2024-05-19 09:55:29.683989,-6,0,9,5,1,0,77,80,132,100,77,131.54,104,-41.00,10.00,-924.00
2024-05-19 09:55:29.768040,-5,0,9,6,1,0,77,80,133,100,77,131.57,104,-39.00,-12.00,-987.00
2024-05-19 09:55:29.888753,-4,0,9,7,1,0,77,80,133,100,77,131.53,104,-20.00,-13.00,-1036.00
2024-05-19 09:55:29.971904,-4,0,9,7,1,0,77,80,132,100,77,131.41,104,-15.00,-53.00,-1036.00
2024-05-19 09:55:30.093536,-1,0,9,8,0,0,77,80,133,100,77,131.40,104,-56.00,-13.00,-1012.00
2024-05-19 09:55:30.176314,2,1,9,7,0,0,77,80,133,100,77,131.33,104,-52.00,-11.00,-1007.00
2024-05-19 09:55:30.298369,4,0,9,6,0,0,77,80,134,100,77,131.51,104,-37.00,-31.00,-1002.00
2024-05-19 09:55:30.379951,5,0,9,5,0,0,77,80,134,100,77,131.46,104,-50.00,-13.00,-979.00
2024-05-19 09:55:30.503176,4,1,9,4,0,0,77,80,134,100,77,131.59,104,-21.00,-19.00,-982.00
2024-05-19 09:55:30.583812,2,1,9,3,0,0,77,80,134,100,77,131.52,105,-41.00,0.00,-965.00
2024-05-19 09:55:30.707964,1,1,9,3,0,0,77,80,134,100,77,131.58,105,-36.00,-9.00,-997.00
2024-05-19 09:55:30.787949,1,1,9,2,0,0,77,80,134,100,77,131.57,105,-31.00,-13.00,-964.00
2024-05-19 09:55:30.912742,1,1,9,2,0,0,77,80,133,100,77,131.55,105,-11.00,-15.00,-1013.00
2024-05-19 09:55:30.992213,1,0,9,2,0,0,77,80,132,100,77,131.46,105,-37.00,-7.00,-987.00
2024-05-19 09:55:31.117867,1,1,9,2,0,0,77,80,132,100,77,131.33,105,-48.00,0.00,-1004.00
2024-05-19 09:55:31.196555,4,1,9,1,0,0,77,80,131,100,77,131.54,105,-53.00,8.00,-1015.00
2024-05-19 09:55:31.298277,2,0,9,0,0,0,77,80,131,100,77,131.60,105,-6.00,-26.00,-1009.00
2024-05-19 09:55:31.425017,0,0,9,0,0,0,77,80,130,100,77,131.49,105,-23.00,-21.00,-1013.00
2024-05-19 09:55:31.451052,0,0,9,0,0,0,77,80,129,100,77,131.43,105,7.00,-22.00,-1049.00
2024-05-19 09:55:31.630322,0,0,9,0,0,0,77,80,129,100,77,131.50,106,20.00,-26.00,-1048.00
2024-05-19 09:55:31.654947,0,1,9,0,0,0,77,80,129,100,77,131.47,106,8.00,-35.00,-990.00
2024-05-19 09:55:31.837947,1,1,9,0,0,0,77,80,129,100,77,131.44,106,-16.00,-15.00,-958.00
2024-05-19 09:55:31.858881,0,1,9,0,0,0,77,80,128,100,77,131.45,106,5.00,-30.00,-994.00
2024-05-19 09:55:32.039290,1,1,9,0,0,0,77,80,128,100,77,131.45,106,-8.00,-38.00,-964.00
2024-05-19 09:55:32.062968,1,1,9,0,0,0,77,80,127,100,77,131.37,106,6.00,-45.00,-1007.00
2024-05-19 09:55:32.243987,0,2,8,0,0,0,77,80,127,100,77,131.42,106,-9.00,-19.00,-989.00
2024-05-19 09:55:32.266927,1,2,8,0,0,0,77,80,126,90,77,131.50,106,-2.00,-21.00,-996.00
2024-05-19 09:55:32.448876,1,1,8,0,0,0,77,80,126,90,77,131.53,106,-10.00,-13.00,-1042.00
2024-05-19 09:55:32.470909,0,1,8,0,0,0,77,80,126,90,77,131.41,107,-9.00,-39.00,-1034.00
2024-05-19 09:55:32.653942,0,1,8,0,0,0,77,80,126,90,77,131.45,107,-14.00,-34.00,-1019.00
2024-05-19 09:55:32.674901,0,1,9,0,0,0,77,80,126,90,77,131.43,107,-24.00,-17.00,-999.00
2024-05-19 09:55:32.777094,1,1,9,0,0,0,77,80,126,90,77,131.41,107,13.00,-26.00,-978.00
2024-05-19 09:55:32.961550,0,1,9,0,0,0,77,80,127,100,77,131.45,107,16.00,-26.00,-961.00
2024-05-19 09:55:32.980863,1,1,9,0,0,0,77,80,128,100,77,131.47,107,-8.00,-37.00,-1011.00
2024-05-19 09:55:33.083205,1,2,9,0,0,0,77,80,128,100,77,131.48,107,-2.00,-34.00,-997.00
2024-05-19 09:55:33.250273,1,2,9,0,0,0,77,79,128,100,77,131.37,107,-8.00,-19.00,-1036.00
2024-05-19 09:55:33.286888,1,1,9,0,0,0,77,79,129,100,77,131.46,107,15.00,-59.00,-1033.00
2024-05-19 09:55:33.472798,2,1,9,0,0,0,77,79,129,100,77,131.43,107,23.00,-50.00,-933.00
2024-05-19 09:55:33.490818,7,1,9,0,0,0,77,79,129,100,77,131.40,108,8.00,-36.00,-1016.00
2024-05-19 09:55:33.592806,8,1,9,-2,0,0,77,79,130,100,77,131.45,108,-20.00,-12.00,-1022.00
2024-05-19 09:55:33.779986,8,1,9,-3,0,0,77,79,129,100,77,131.50,108,49.00,-54.00,-1035.00
2024-05-19 09:55:33.801037,8,1,9,-4,0,0,77,79,129,100,77,131.51,108,8.00,-16.00,-999.00
2024-05-19 09:55:33.899209,8,1,9,-5,-1,0,77,79,129,100,77,131.51,108,34.00,-25.00,-1032.00
2024-05-19 09:55:34.087189,7,1,9,-6,-1,0,77,79,130,100,77,131.43,108,38.00,-35.00,-1035.00
2024-05-19 09:55:34.102894,7,1,9,-7,-1,0,77,79,130,100,77,131.44,108,45.00,-21.00,-999.00
2024-05-19 09:55:34.292000,6,1,9,-7,-1,0,77,80,129,100,77,131.38,108,20.00,-20.00,-978.00
2024-05-19 09:55:34.306789,4,2,9,-8,-1,0,77,80,129,100,77,131.55,108,52.00,-50.00,-1043.00
2024-05-19 09:55:34.496780,0,3,8,-8,-1,0,77,80,129,100,77,131.43,108,57.00,-17.00,-1021.00
2024-05-19 09:55:34.515270,-1,3,8,-7,-1,0,77,80,129,100,77,131.47,109,29.00,13.00,-979.00
2024-05-19 09:55:34.612779,-3,1,8,-6,0,0,77,80,129,100,77,131.51,109,64.00,-26.00,-1027.00
2024-05-19 09:55:34.803933,-3,1,8,-4,0,0,77,80,129,100,77,131.42,109,55.00,-12.00,-991.00
2024-05-19 09:55:34.816780,-2,1,8,-3,0,0,77,80,128,100,77,131.53,109,51.00,4.00,-1006.00
2024-05-19 09:55:35.008631,0,0,9,-3,0,0,77,80,128,100,77,131.45,109,88.00,24.00,-985.00
2024-05-19 09:55:35.020516,1,0,9,-2,0,0,77,80,128,90,77,131.46,109,52.00,-13.00,-1001.00
2024-05-19 09:55:35.071831,1,0,9,-2,0,0,77,80,128,90,77,131.56,109,29.00,-3.00,-1002.00
2024-05-19 09:55:35.213605,1,0,9,-2,0,0,77,79,127,90,77,131.42,109,13.00,-5.00,-1006.00
2024-05-19 09:55:35.276187,1,-2,9,-2,0,0,77,79,127,90,77,131.53,109,8.00,-2.00,-1050.00
2024-05-19 09:55:35.418411,0,-2,9,-2,0,0,77,79,127,100,77,131.52,109,26.00,3.00,-967.00
2024-05-19 09:55:35.479661,0,-2,9,-2,0,0,77,79,127,100,77,131.49,110,-14.00,-5.00,-1020.00
2024-05-19 09:55:35.623196,0,-2,9,-2,-1,0,77,79,127,100,77,131.46,110,14.00,-1.00,-1028.00
2024-05-19 09:55:35.683610,0,-1,9,-2,-1,0,77,79,127,100,77,131.47,110,0.00,14.00,-945.00
2024-05-19 09:55:35.827903,-3,2,9,-1,-1,0,77,79,126,100,77,131.50,110,-9.00,-9.00,-983.00
2024-05-19 09:55:35.888992,-3,3,8,-1,0,0,77,79,127,100,77,131.47,110,-22.00,25.00,-952.00
2024-05-19 09:55:36.037053,-2,1,8,0,0,0,77,79,126,100,77,131.49,110,-12.00,-11.00,-1005.00
2024-05-19 09:55:36.091879,-1,0,8,0,0,0,77,79,125,100,77,131.50,110,-18.00,-14.00,-1013.00
2024-05-19 09:55:36.237702,-1,0,8,0,0,0,77,80,124,90,77,131.58,110,-18.00,-15.00,-979.00
2024-05-19 09:55:36.295894,0,0,9,0,0,0,77,80,124,90,77,131.51,110,-13.00,-18.00,-987.00
2024-05-19 09:55:36.442485,0,0,9,0,0,0,77,80,124,90,77,131.55,110,-14.00,-20.00,-1005.00
2024-05-19 09:55:36.499736,0,0,8,0,0,0,77,80,123,90,77,131.45,111,-2.00,-15.00,-1041.00
2024-05-19 09:55:36.602182,0,1,8,0,0,0,77,80,123,90,77,131.48,111,0.00,-32.00,-995.00
2024-05-19 09:55:36.749707,0,1,8,0,0,0,77,80,123,90,77,131.47,111,1.00,-48.00,-1009.00
2024-05-19 09:55:36.806831,0,1,8,0,0,0,77,80,123,90,77,131.47,111,-33.00,-41.00,-984.00
2024-05-19 09:55:36.954440,0,1,8,0,0,0,77,80,122,90,77,131.44,111,-1.00,-31.00,-994.00
2024-05-19 09:55:37.011966,0,2,8,0,0,0,77,80,122,90,77,131.40,111,-1.00,-40.00,-981.00
2024-05-19 09:55:37.112327,0,1,8,0,0,0,77,80,122,90,77,131.42,111,-9.00,-40.00,-1040.00
2024-05-19 09:55:37.214592,-1,1,8,0,0,0,77,79,122,90,77,131.39,111,-35.00,-41.00,-993.00
2024-05-19 09:55:37.315697,0,1,8,0,0,0,77,79,122,90,77,131.44,111,-33.00,-26.00,-986.00
2024-05-19 09:55:37.466403,0,2,8,0,0,0,77,79,122,90,77,131.46,111,-20.00,-32.00,-1052.00
2024-05-19 09:55:37.519836,0,2,8,0,0,0,77,79,122,90,77,131.46,112,-15.00,-36.00,-995.00
2024-05-19 09:55:37.621693,0,1,9,0,0,0,77,79,121,90,77,131.47,112,-27.00,-31.00,-1036.00
2024-05-19 09:55:37.773562,-1,1,9,0,0,0,77,79,122,90,77,131.44,112,-22.00,-30.00,-1009.00
2024-05-19 09:55:37.825613,-1,1,9,0,0,0,77,79,122,90,77,131.50,112,-4.00,-32.00,-1016.00
2024-05-19 09:55:37.978596,0,1,9,0,0,0,77,79,123,90,77,131.52,112,-19.00,-34.00,-1021.00
2024-05-19 09:55:38.029526,0,1,9,0,0,0,77,79,123,90,77,131.51,112,-3.00,-25.00,-979.00
2024-05-19 09:55:38.131510,0,1,9,0,0,0,77,79,123,90,77,131.56,112,6.00,-39.00,-1014.00
2024-05-19 09:55:38.285568,0,0,9,0,0,0,77,79,123,90,77,131.47,112,-26.00,6.00,-951.00
2024-05-19 09:55:38.335675,-1,-8,9,0,0,0,77,79,124,90,77,131.51,112,-21.00,-27.00,-1058.00
2024-05-19 09:55:38.490358,-1,-6,9,0,-2,0,77,79,123,90,77,131.47,112,-49.00,-3.00,-992.00
2024-05-19 09:55:38.539737,-1,-4,9,0,-3,0,77,79,124,90,77,131.48,113,-39.00,-4.00,-1005.00
2024-05-19 09:55:38.642282,-1,-1,9,0,-4,0,77,79,123,90,77,131.49,113,-29.00,-10.00,-977.00
2024-05-19 09:55:38.797555,-1,1,9,0,-4,0,77,79,124,90,77,131.58,113,-19.00,3.00,-980.00
2024-05-19 09:55:38.847120,-1,2,9,0,-3,0,77,79,124,90,77,131.59,113,-25.00,-11.00,-1028.00
2024-05-19 09:55:38.947788,-1,2,9,0,-3,0,77,79,124,90,77,131.54,113,-34.00,-3.00,-997.00
2024-05-19 09:55:39.049690,-1,1,9,0,-2,0,77,79,124,90,77,131.53,113,-19.00,-8.00,-980.00
2024-05-19 09:55:39.152133,0,1,9,0,-2,0,77,79,124,90,77,131.51,113,-4.00,-2.00,-1006.00
2024-05-19 09:55:39.254578,0,0,9,0,-2,0,77,79,124,90,77,131.52,113,-12.00,-31.00,-1034.00
2024-05-19 09:55:39.356835,0,0,9,0,-2,0,77,79,124,90,77,131.50,113,-14.00,-1.00,-1008.00
2024-05-19 09:55:39.406515,0,0,9,0,-2,0,77,79,124,90,77,131.53,113,24.00,-6.00,-987.00
2024-05-19 09:55:39.514344,0,0,9,0,-2,0,77,79,124,90,77,131.56,114,-10.00,-14.00,-1035.00
2024-05-19 09:55:39.610530,0,0,9,0,-2,0,77,79,125,90,77,131.54,114,-68.00,25.00,-992.00
2024-05-19 09:55:39.719177,-1,0,8,0,-2,0,77,79,125,90,77,131.50,114,-18.00,-11.00,-1000.00
2024-05-19 09:55:39.814570,-1,0,8,0,-2,0,77,79,125,90,77,131.49,114,-29.00,-3.00,-1016.00
2024-05-19 09:55:39.923885,-1,1,8,0,-2,0,77,79,126,90,77,131.54,114,-50.00,0.00,-1044.00
2024-05-19 09:55:40.020833,-1,2,8,0,-1,0,77,79,126,90,77,131.56,114,-36.00,-13.00,-995.00
2024-05-19 09:55:40.120925,-1,5,8,0,-1,0,77,79,127,90,77,131.48,114,-29.00,0.00,-966.00
2024-05-19 09:55:40.231295,-1,3,8,0,0,0,77,80,127,100,77,131.49,114,-13.00,-35.00,-1023.00
2024-05-19 09:55:40.324644,-1,2,9,0,0,0,77,80,127,100,77,131.53,114,-26.00,-3.00,-999.00
2024-05-19 09:55:40.436474,-1,1,9,0,0,0,77,80,127,100,77,131.53,114,-20.00,-34.00,-1040.00
2024-05-19 09:55:40.528533,-1,2,9,0,0,0,77,80,127,100,77,131.52,115,-49.00,-20.00,-1010.00
2024-05-19 09:55:40.630692,-1,2,9,0,0,0,77,80,127,100,77,131.57,115,-48.00,-16.00,-1002.00
2024-05-19 09:55:40.743210,-1,1,9,0,0,0,77,80,127,100,77,131.53,115,-37.00,-18.00,-999.00
2024-05-19 09:55:40.834680,-1,1,8,0,0,0,77,80,127,100,77,131.44,115,-42.00,-33.00,-989.00
2024-05-19 09:55:40.948040,-1,1,8,0,0,0,77,80,128,100,77,131.55,115,-7.00,-47.00,-981.00
2024-05-19 09:55:41.039201,-1,2,8,0,0,0,77,80,128,100,77,131.49,115,-21.00,-44.00,-1000.00
2024-05-19 09:55:41.152746,-1,2,8,0,0,0,77,80,128,100,77,131.51,115,-57.00,-28.00,-992.00
2024-05-19 09:55:41.242390,-1,2,8,0,0,0,77,78,128,100,77,131.54,115,-38.00,-39.00,-988.00
2024-05-19 09:55:41.357488,-1,2,8,0,0,0,77,78,128,100,77,131.56,115,-37.00,-34.00,-979.00
2024-05-19 09:55:41.448495,0,2,8,0,0,0,77,78,128,100,77,131.61,115,-8.00,-64.00,-1010.00
2024-05-19 09:55:41.549062,-1,3,8,0,0,0,77,78,128,100,77,131.60,116,-5.00,-46.00,-1017.00
2024-05-19 09:55:41.650783,0,3,8,0,0,0,77,78,128,100,77,131.56,116,-3.00,-57.00,-971.00
2024-05-19 09:55:41.767312,0,2,8,0,0,0,77,78,128,100,77,131.64,116,28.00,-57.00,-1020.00
2024-05-19 09:55:41.855376,0,2,8,0,0,0,77,78,128,100,77,131.64,116,-2.00,-47.00,-1041.00
2024-05-19 09:55:41.972031,0,3,8,0,0,0,77,78,128,100,77,131.64,116,13.00,-38.00,-1008.00
2024-05-19 09:55:42.058735,1,3,8,0,0,0,77,78,128,100,77,131.53,116,28.00,-60.00,-1007.00
2024-05-19 09:55:42.176757,2,3,8,0,0,0,77,78,128,100,77,131.50,116,21.00,-69.00,-1020.00
2024-05-19 09:55:42.262316,2,3,8,0,0,0,77,79,128,100,77,131.46,116,51.00,-91.00,-1015.00
2024-05-19 09:55:42.381458,2,4,9,0,0,0,77,79,128,100,77,131.45,116,-8.00,-55.00,-1001.00
2024-05-19 09:55:42.466239,1,6,9,0,0,0,77,79,129,100,77,131.50,116,21.00,-51.00,-1058.00
2024-05-19 09:55:42.586254,0,8,9,0,0,0,77,79,130,100,77,131.41,117,-23.00,-55.00,-1073.00
2024-05-19 09:55:42.670395,1,8,9,0,1,0,77,79,129,100,77,131.57,117,31.00,-51.00,-901.00
2024-05-19 09:55:42.772306,1,8,9,0,2,0,77,79,130,100,77,131.56,117,2.00,-80.00,-993.00
2024-05-19 09:55:42.893429,1,6,9,0,2,0,77,79,130,100,77,131.66,117,-3.00,-66.00,-986.00
2024-05-19 09:55:42.976768,0,3,9,0,2,0,77,79,129,100,77,131.61,117,26.00,-76.00,-997.00
2024-05-19 09:55:43.027616,0,2,9,0,2,0,77,79,128,100,77,131.55,117,-1.00,-83.00,-1016.00
2024-05-19 09:55:43.200760,0,3,9,0,2,0,77,79,128,100,77,131.61,117,0.00,-78.00,-989.00
2024-05-19 09:55:43.282260,0,3,9,0,2,0,77,80,128,100,77,131.51,117,-11.00,-64.00,-948.00
2024-05-19 09:55:43.333590,0,3,9,0,2,0,77,80,128,100,77,131.61,117,7.00,-88.00,-978.00
2024-05-19 09:55:43.507872,0,3,8,0,1,0,77,80,128,100,77,131.56,117,50.00,-86.00,-1001.00
2024-05-19 09:55:43.537317,0,4,8,0,1,0,77,80,128,100,77,131.54,118,19.00,-65.00,-975.00
2024-05-19 09:55:43.641602,0,4,8,0,2,0,77,80,128,100,77,131.56,118,15.00,-69.00,-995.00
2024-05-19 09:55:43.741211,1,3,8,0,2,0,77,80,127,100,77,131.55,118,1.00,-37.00,-995.00
2024-05-19 09:55:43.917416,1,3,8,0,2,0,77,80,128,100,77,131.51,118,50.00,-74.00,-1000.00
2024-05-19 09:55:43.945277,2,2,8,0,2,0,77,80,127,100,77,131.43,118,76.00,-61.00,-1005.00
2024-05-19 09:55:44.122210,2,2,8,0,2,0,77,80,128,100,77,131.53,118,25.00,-19.00,-1008.00
2024-05-19 09:55:44.149280,3,2,8,0,2,0,77,80,128,100,77,131.48,118,34.00,-52.00,-974.00
2024-05-19 09:55:44.327045,4,2,9,0,2,0,76,79,128,100,77,131.63,118,14.00,-43.00,-992.00
2024-05-19 09:55:44.353245,4,1,9,0,1,0,76,79,128,100,77,131.41,118,17.00,-34.00,-1010.00
2024-05-19 09:55:44.531865,4,0,8,-1,1,0,76,79,128,100,76,131.40,118,23.00,-39.00,-1015.00
2024-05-19 09:55:44.557202,3,0,8,-1,1,0,76,79,128,100,76,131.46,119,39.00,-29.00,-980.00
2024-05-19 09:55:44.659231,-2,0,8,-1,0,0,76,79,128,100,76,131.33,119,65.00,-60.00,-1012.00
2024-05-19 09:55:44.839463,-1,0,8,0,0,0,76,79,128,100,76,131.51,119,52.00,-32.00,-985.00
2024-05-19 09:55:44.864208,1,1,9,0,0,0,76,79,129,100,76,131.48,119,56.00,-29.00,-970.00
2024-05-19 09:55:45.043996,2,1,9,1,0,0,76,79,128,100,76,131.46,119,43.00,-54.00,-1005.00
2024-05-19 09:55:45.068302,2,1,8,1,0,0,76,79,128,100,76,131.48,119,2.00,-35.00,-991.00
2024-05-19 09:55:45.248757,3,1,8,0,0,0,76,79,128,100,76,131.40,119,34.00,-54.00,-934.00
2024-05-19 09:55:45.272317,3,1,8,0,0,0,77,79,128,100,76,131.42,119,29.00,-37.00,-1072.00
2024-05-19 09:55:45.453676,2,1,9,0,0,0,77,79,128,100,76,131.49,119,58.00,-53.00,-959.00
2024-05-19 09:55:45.476457,2,1,9,0,0,0,77,79,127,100,76,131.46,119,75.00,-42.00,-1029.00
2024-05-19 09:55:45.658393,3,2,9,0,0,0,77,79,126,100,76,131.40,120,12.00,-40.00,-961.00
2024-05-19 09:55:45.680194,3,2,9,0,0,0,77,79,126,100,76,131.48,120,8.00,-38.00,-1004.00
2024-05-19 09:55:45.863106,2,2,9,0,0,0,77,79,125,100,76,131.39,120,34.00,-42.00,-995.00
2024-05-19 09:55:45.884226,2,2,9,0,0,0,77,79,124,100,76,131.42,120,49.00,-54.00,-1019.00
2024-05-19 09:55:46.068028,2,3,9,0,0,0,77,79,123,100,76,131.43,120,23.00,-34.00,-1013.00
2024-05-19 09:55:46.088288,3,3,9,0,0,0,77,79,123,90,76,131.37,120,21.00,-39.00,-1030.00
2024-05-19 09:55:46.272752,2,3,9,0,0,0,77,79,122,90,76,131.36,120,38.00,-45.00,-1012.00
2024-05-19 09:55:46.292197,2,3,9,0,0,0,77,80,122,90,76,131.30,120,24.00,-29.00,-1038.00
2024-05-19 09:55:46.477458,2,2,9,0,0,0,77,80,122,90,76,131.39,120,14.00,-55.00,-1024.00
2024-05-19 09:55:46.496176,1,2,9,0,0,0,77,80,121,90,76,131.34,120,48.00,-43.00,-1041.00
2024-05-19 09:55:46.682332,1,2,8,0,0,0,77,80,122,90,76,131.34,121,16.00,-32.00,-1023.00
2024-05-19 09:55:46.700244,2,2,8,0,0,0,77,80,122,90,76,131.31,121,36.00,-32.00,-985.00
2024-05-19 09:55:46.751513,1,2,8,0,0,0,77,80,122,90,76,131.40,121,15.00,-37.00,-982.00
2024-05-19 09:55:46.853204,2,2,8,0,0,0,77,80,122,90,76,131.44,121,43.00,-49.00,-1016.00
2024-05-19 09:55:46.992200,2,2,8,0,0,0,77,80,123,90,76,131.33,121,37.00,-61.00,-968.00
2024-05-19 09:55:47.057148,1,2,11,0,0,0,77,80,124,90,76,131.38,121,14.00,-46.00,-1004.00
2024-05-19 09:55:47.194278,1,2,16,0,0,0,77,80,124,90,76,131.42,121,49.00,-18.00,-971.00
2024-05-19 09:55:47.312061,2,2,27,0,0,0,77,80,126,90,76,131.45,121,-2.00,-13.00,-994.00
2024-05-19 09:55:47.501475,1,1,33,0,0,0,77,80,126,90,76,131.46,121,52.00,-55.00,-1015.00
2024-05-19 09:55:47.501533,2,2,39,0,0,0,77,80,127,90,76,131.39,122,37.00,-81.00,-999.00
2024-05-19 09:55:47.567111,1,3,44,0,0,0,77,80,127,100,76,131.46,122,5.00,-47.00,-979.00
2024-05-19 09:55:47.669086,1,3,50,0,0,0,77,80,127,100,76,131.47,122,6.00,-62.00,-1021.00
2024-05-19 09:55:47.808650,0,4,56,0,0,0,77,80,128,100,76,131.44,122,55.00,-66.00,-960.00
2024-05-19 09:55:47.873077,0,4,63,0,0,0,77,80,128,100,76,131.44,122,24.00,-54.00,-946.00
2024-05-19 09:55:48.013453,0,3,69,0,0,0,77,80,129,100,76,131.39,122,-13.00,-35.00,-979.00
2024-05-19 09:55:48.077044,0,2,75,0,0,0,77,80,129,100,76,131.41,122,-11.00,-40.00,-977.00
2024-05-19 09:55:48.218274,-1,2,82,0,0,0,77,80,129,100,76,131.46,122,-6.00,-48.00,-1018.00
2024-05-19 09:55:48.281080,-2,2,88,0,0,0,78,80,130,100,76,131.44,122,-61.00,-37.00,-1028.00
2024-05-19 09:55:48.423094,-3,2,94,0,0,0,78,80,130,100,76,131.29,122,-48.00,-30.00,-996.00
2024-05-19 09:55:48.485048,-3,2,100,0,0,0,78,80,131,100,76,131.40,123,-56.00,-37.00,-987.00
2024-05-19 09:55:48.627839,-3,1,106,0,0,0,78,80,131,100,76,131.50,123,-40.00,-18.00,-977.00
2024-05-19 09:55:48.689385,-3,1,112,0,0,0,78,80,131,100,76,131.36,123,-64.00,-12.00,-971.00
2024-05-19 09:55:48.791075,-3,0,119,0,0,0,78,80,131,100,76,131.41,123,-77.00,9.00,-937.00
2024-05-19 09:55:48.935086,-4,0,125,0,0,0,78,80,130,100,76,131.31,123,-60.00,28.00,-1004.00
2024-05-19 09:55:48.995240,-3,0,131,0,0,0,78,80,130,100,76,131.34,123,-41.00,11.00,-963.00
2024-05-19 09:55:49.139780,-3,0,137,0,0,0,78,80,130,100,76,131.32,123,-42.00,20.00,-1005.00
2024-05-19 09:55:49.199002,-2,-1,144,0,0,0,78,80,130,100,76,131.36,123,-72.00,33.00,-1001.00
2024-05-19 09:55:49.344621,-3,-1,150,0,0,0,78,79,131,100,76,131.34,123,-56.00,26.00,-1024.00
2024-05-19 09:55:49.403000,-3,-1,156,0,0,0,78,79,130,100,76,131.36,123,-52.00,46.00,-967.00
2024-05-19 09:55:49.550018,-2,-2,162,0,0,0,78,79,131,100,76,131.43,124,-59.00,48.00,-959.00
2024-05-19 09:55:49.607128,-2,-2,169,0,0,0,78,79,131,100,76,131.44,124,-69.00,50.00,-988.00
2024-05-19 09:55:49.754183,-1,-2,174,0,0,0,78,79,132,100,76,131.34,124,-36.00,34.00,-970.00
2024-05-19 09:55:49.812004,-2,-3,-179,0,0,0,78,79,132,100,76,131.50,124,-50.00,56.00,-1001.00
2024-05-19 09:55:49.959078,-1,-3,-173,0,0,0,78,79,131,100,76,131.50,124,-31.00,38.00,-1000.00
2024-05-19 09:55:50.016423,-2,-2,-167,0,0,0,78,79,131,100,76,131.48,124,-54.00,58.00,-987.00
2024-05-19 09:55:50.163833,-1,-3,-161,0,0,0,78,79,132,100,76,131.48,124,-20.00,61.00,-1023.00
2024-05-19 09:55:50.220027,-1,-3,-155,0,0,0,78,79,132,100,76,131.55,124,-19.00,54.00,-1003.00
2024-05-19 09:55:50.368638,-1,-3,-148,0,0,0,77,79,131,100,76,131.57,124,-2.00,51.00,-1010.00
2024-05-19 09:55:50.426012,0,-2,-142,0,0,0,77,79,131,100,76,131.55,124,3.00,68.00,-913.00
2024-05-19 09:55:50.526386,0,-2,-136,0,0,0,77,79,131,100,76,131.55,125,-25.00,57.00,-977.00
2024-05-19 09:55:50.627923,0,-1,-130,0,0,0,77,79,131,100,76,131.56,125,1.00,45.00,-1012.00
2024-05-19 09:55:50.729919,1,-1,-124,0,0,0,77,79,131,100,76,131.59,125,22.00,28.00,-1033.00
2024-05-19 09:55:50.880584,1,0,-118,0,0,0,77,79,130,100,76,131.47,125,46.00,20.00,-1019.00
2024-05-19 09:55:50.882799,1,0,-112,0,0,0,77,79,130,100,76,131.39,125,37.00,34.00,-1002.00
2024-05-19 09:55:50.984884,1,0,-106,0,0,0,77,79,130,100,76,131.39,125,52.00,25.00,-1021.00
2024-05-19 09:55:51.187781,2,0,-100,0,0,0,77,79,130,100,76,131.44,125,105.00,-16.00,-1021.00
2024-05-19 09:55:51.188881,2,0,-94,0,0,0,77,79,130,100,76,131.37,125,42.00,3.00,-977.00
2024-05-19 09:55:51.392543,2,1,-88,0,0,0,76,80,129,100,76,131.41,125,42.00,8.00,-1014.00
2024-05-19 09:55:51.392762,2,1,-82,0,0,0,76,80,130,100,76,131.30,125,90.00,-30.00,-963.00
2024-05-19 09:55:51.495196,2,2,-76,0,0,0,76,80,129,100,76,131.39,126,39.00,-6.00,-994.00
2024-05-19 09:55:51.597369,2,2,-70,0,0,0,76,80,130,100,76,131.32,126,40.00,4.00,-956.00
2024-05-19 09:55:51.699466,2,2,-65,0,0,0,76,80,130,100,76,131.35,126,58.00,-27.00,-956.00
2024-05-19 09:55:51.802160,2,2,-59,0,0,0,76,80,130,100,76,131.35,126,40.00,-13.00,-1010.00
2024-05-19 09:55:51.904536,2,2,-53,0,0,0,76,80,130,100,76,131.40,126,50.00,-52.00,-1031.00
2024-05-19 09:55:52.004935,1,2,-47,0,0,0,76,80,130,100,76,131.37,126,25.00,-30.00,-1011.00
2024-05-19 09:55:52.106817,1,2,-41,0,0,0,76,80,130,100,76,131.39,126,57.00,-26.00,-1005.00
2024-05-19 09:55:52.211791,1,3,-35,0,0,0,76,80,131,100,76,131.36,126,17.00,-34.00,-1001.00
2024-05-19 09:55:52.310926,1,2,-28,0,0,0,77,80,131,100,76,131.42,126,44.00,-46.00,-1024.00
2024-05-19 09:55:52.416559,0,2,-22,0,0,0,77,80,131,100,75,131.51,126,24.00,-59.00,-1005.00
2024-05-19 09:55:52.515003,0,3,-15,0,0,0,77,80,131,100,75,131.48,127,16.00,-53.00,-1031.00
2024-05-19 09:55:52.621457,0,4,-9,0,0,0,77,80,131,100,75,131.46,127,-3.00,-38.00,-952.00
2024-05-19 09:55:52.718874,0,3,-5,0,0,0,77,80,131,100,75,131.42,127,10.00,-54.00,-1016.00
2024-05-19 09:55:52.826152,0,3,-1,0,0,0,77,80,131,100,75,131.47,127,0.00,-64.00,-979.00
2024-05-19 09:55:52.922781,0,3,0,0,0,0,77,80,130,100,75,131.41,127,-19.00,-47.00,-1022.00
2024-05-19 09:55:53.030967,-1,3,2,0,0,0,77,80,130,100,75,131.41,127,16.00,-49.00,-1057.00
2024-05-19 09:55:53.126795,-1,3,4,0,0,0,77,80,130,100,75,131.45,127,-4.00,-53.00,-1032.00
2024-05-19 09:55:53.235759,-1,3,5,0,0,0,77,80,130,100,75,131.46,127,9.00,-43.00,-972.00
2024-05-19 09:55:53.331053,0,3,5,1,0,0,77,80,130,100,75,131.42,127,10.00,-32.00,-1016.00
2024-05-19 09:55:53.440567,0,3,6,1,0,0,77,80,130,100,75,131.45,127,18.00,-50.00,-1007.00
2024-05-19 09:55:53.534890,1,2,7,1,0,0,77,80,129,100,75,131.40,128,-33.00,-13.00,-969.00
2024-05-19 09:55:53.645555,1,1,7,0,0,0,77,80,129,100,75,131.39,128,-38.00,-39.00,-1006.00
2024-05-19 09:55:53.738843,0,2,8,0,0,0,77,80,129,100,75,131.48,128,-6.00,-55.00,-1054.00
2024-05-19 09:55:53.840904,0,2,8,0,0,0,77,80,130,100,75,131.44,128,-21.00,-32.00,-1021.00
2024-05-19 09:55:53.945730,0,2,8,0,0,0,77,80,130,100,75,131.44,128,-3.00,-43.00,-997.00
2024-05-19 09:55:54.045917,0,1,8,0,0,0,77,80,130,100,75,131.47,128,-30.00,-39.00,-1037.00
2024-05-19 09:55:54.157752,0,1,8,0,0,0,77,80,130,100,75,131.46,128,-21.00,-50.00,-989.00
2024-05-19 09:55:54.252506,-1,2,8,0,0,0,77,80,131,100,75,131.48,128,-38.00,-48.00,-951.00
2024-05-19 09:55:54.351292,0,2,8,0,0,0,77,79,131,100,75,131.39,128,-12.00,-45.00,-962.00
2024-05-19 09:55:54.465158,0,3,8,0,0,0,77,79,131,100,75,131.40,128,-36.00,-38.00,-955.00
2024-05-19 09:55:54.555004,0,3,8,0,0,0,77,79,131,100,75,131.46,129,-34.00,-50.00,-995.00
2024-05-19 09:55:54.657383,-1,2,8,0,0,0,77,79,131,100,75,131.45,129,-16.00,-48.00,-1001.00
2024-05-19 09:55:54.771853,-1,3,8,0,0,0,77,79,130,100,75,131.42,129,-8.00,-56.00,-998.00
2024-05-19 09:55:54.809755,-1,3,8,0,0,0,77,79,130,100,75,131.45,129,-45.00,-39.00,-959.00
2024-05-19 09:55:54.976704,-1,2,8,0,0,0,77,79,130,100,75,131.43,129,-33.00,-54.00,-1010.00
2024-05-19 09:55:55.014686,-2,3,8,0,0,0,77,79,130,100,75,131.49,129,-75.00,-9.00,-1003.00
2024-05-19 09:55:55.181685,-2,2,8,0,0,0,77,79,130,100,75,131.39,129,-26.00,-49.00,-998.00
2024-05-19 09:55:55.218518,-2,1,8,0,0,0,77,79,130,100,75,131.45,129,-29.00,-42.00,-992.00
2024-05-19 09:55:55.320397,-2,2,8,0,0,0,77,79,130,100,75,131.46,129,-23.00,-32.00,-1006.00
2024-05-19 09:55:55.422560,-2,2,8,0,0,0,77,79,129,100,75,131.48,129,-48.00,-25.00,-987.00
2024-05-19 09:55:55.538904,-2,2,8,0,0,0,77,79,129,100,75,131.45,130,-53.00,-16.00,-1007.00
2024-05-19 09:55:55.627214,-2,1,8,0,0,0,77,79,129,100,75,131.46,130,-16.00,0.00,-1000.00
2024-05-19 09:55:55.729584,-2,1,3,0,0,0,77,79,129,100,75,131.47,130,-15.00,-31.00,-1015.00
2024-05-19 09:55:55.832278,-2,1,-2,0,0,0,77,79,130,100,75,131.46,130,-26.00,-4.00,-1000.00
2024-05-19 09:55:55.934675,-1,1,-8,0,0,0,77,79,130,100,75,131.51,130,-12.00,-32.00,-1000.00
2024-05-19 09:55:56.036811,-2,1,-14,0,0,0,77,79,130,100,75,131.47,130,55.00,-31.00,-1010.00
2024-05-19 09:55:56.139418,-1,1,-19,0,0,0,77,79,131,100,75,131.55,130,10.00,-21.00,-977.00
2024-05-19 09:55:56.237594,0,0,-24,1,0,0,77,79,131,100,75,131.48,130,6.00,-47.00,-975.00
2024-05-19 09:55:56.410154,0,0,-29,0,0,0,77,79,131,100,75,131.52,130,-8.00,-29.00,-966.00
2024-05-19 09:55:56.442827,0,1,-34,0,0,0,77,79,130,100,75,131.53,130,0.00,-42.00,-969.00
2024-05-19 09:55:56.614953,0,1,-40,0,0,0,77,79,130,100,75,131.56,131,-30.00,0.00,-976.00
2024-05-19 09:55:56.646955,0,1,-45,0,0,0,77,79,130,100,75,131.53,131,42.00,-65.00,-992.00
2024-05-19 09:55:56.747930,0,0,-50,0,0,0,77,79,129,100,75,131.59,131,0.00,4.00,-1010.00
2024-05-19 09:55:56.922158,0,0,-55,0,0,0,77,79,129,100,75,131.58,131,-22.00,29.00,-1007.00
2024-05-19 09:55:56.951599,0,0,-60,1,0,0,77,79,129,100,75,131.64,131,0.00,0.00,-1000.00
2024-05-19 09:55:57.126876,0,-1,-66,1,0,0,77,79,128,100,75,131.72,131,7.00,47.00,-1005.00
2024-05-19 09:55:57.170012,1,-2,-71,1,0,0,77,79,128,100,75,131.58,131,35.00,32.00,-979.00
2024-05-19 09:55:57.257693,1,-3,-77,1,0,0,77,79,127,100,75,131.52,131,55.00,15.00,-1005.00
2024-05-19 09:55:57.434127,1,-4,-83,1,0,0,78,80,127,100,75,131.62,131,-5.00,60.00,-1029.00
2024-05-19 09:55:57.461594,2,-4,-89,0,0,0,78,80,126,100,74,131.50,131,9.00,38.00,-984.00
2024-05-19 09:55:57.638895,1,-3,-95,0,0,0,78,80,126,100,74,131.45,132,20.00,18.00,-968.00
2024-05-19 09:55:57.665807,0,-3,-101,0,0,0,78,80,125,100,74,131.41,132,-7.00,41.00,-1020.00
2024-05-19 09:55:57.843710,0,-2,-107,0,0,0,78,80,125,100,74,131.40,132,29.00,26.00,-991.00
2024-05-19 09:55:57.869541,0,-1,-114,0,0,0,78,80,124,100,74,131.39,132,25.00,21.00,-977.00
2024-05-19 09:55:58.048511,0,-1,-120,0,0,0,78,80,123,100,74,131.41,132,14.00,27.00,-1002.00
2024-05-19 09:55:58.073534,0,-1,-127,0,0,0,78,80,123,90,74,131.44,132,8.00,34.00,-1027.00
2024-05-19 09:55:58.253607,0,-1,-133,0,0,0,78,80,122,90,74,131.45,132,21.00,4.00,-995.00
2024-05-19 09:55:58.277510,0,-1,-140,0,0,0,78,80,122,90,74,131.46,132,2.00,3.00,-1019.00
2024-05-19 09:55:58.458120,0,-1,-146,0,0,0,77,80,121,90,74,131.30,132,-23.00,26.00,-1027.00
2024-05-19 09:55:58.481500,-1,0,-153,0,0,0,77,80,121,90,74,131.36,132,34.00,-8.00,-1016.00
2024-05-19 09:55:58.662948,-1,0,-160,0,0,0,77,80,121,90,74,131.40,133,-22.00,18.00,-1009.00
2024-05-19 09:55:58.685508,0,0,-166,0,0,0,77,80,121,90,74,131.27,133,-28.00,12.00,-1005.00
2024-05-19 09:55:58.787463,-1,0,-173,0,0,0,77,80,121,90,74,131.41,133,-34.00,9.00,-1009.00
2024-05-19 09:55:58.970071,-1,0,-179,0,0,0,77,80,121,90,74,131.32,133,-20.00,13.00,-1019.00
2024-05-19 09:55:58.970241,-1,0,174,0,0,0,77,80,121,90,74,131.35,133,-6.00,6.00,-1008.00
2024-05-19 09:55:59.042570,-1,0,167,0,0,0,77,80,122,90,74,131.32,133,-1.00,1.00,-1021.00
2024-05-19 09:55:59.174867,-1,0,161,0,0,0,77,80,122,90,74,131.41,133,-42.00,3.00,-989.00
2024-05-19 09:55:59.246509,-1,0,155,0,0,0,77,80,123,90,74,131.23,133,-21.00,-3.00,-989.00
2024-05-19 09:55:59.379706,-1,0,148,0,0,0,77,79,123,90,74,131.31,133,-23.00,-1.00,-1026.00
2024-05-19 09:55:59.450477,-1,0,142,0,0,0,77,79,124,90,74,131.35,133,-25.00,0.00,-972.00
2024-05-19 09:55:59.584504,0,0,136,0,0,0,77,79,124,90,74,131.37,134,-8.00,-11.00,-997.00
2024-05-19 09:55:59.655149,0,1,129,0,0,0,77,79,125,90,74,131.30,134,-19.00,-8.00,-1002.00
2024-05-19 09:55:59.789296,0,1,123,0,0,0,77,79,125,90,74,131.38,134,-34.00,-13.00,-990.00
2024-05-19 09:55:59.859563,0,1,116,0,0,0,77,79,125,90,74,131.32,134,-20.00,-9.00,-950.00
2024-05-19 09:55:59.994221,0,1,110,0,0,0,77,79,125,90,74,131.39,134,-15.00,-7.00,-982.00
2024-05-19 09:56:00.063869,0,1,103,0,0,0,77,79,125,90,74,131.37,134,8.00,-17.00,-1000.00
2024-05-19 09:56:00.198911,0,1,97,0,0,0,77,79,124,90,74,131.31,134,-6.00,-30.00,-1003.00
2024-05-19 09:56:00.267470,0,1,91,0,0,0,77,79,124,90,74,131.35,134,6.00,-22.00,-988.00
2024-05-19 09:56:00.403764,0,1,85,0,0,0,77,79,123,90,74,131.31,134,17.00,-18.00,-996.00
2024-05-19 09:56:00.471467,0,1,79,0,0,0,77,79,123,90,74,131.40,134,0.00,17.00,-951.00
2024-05-19 09:56:00.608539,0,1,73,0,0,0,77,79,123,90,74,131.43,135,-2.00,-16.00,-1044.00
2024-05-19 09:56:00.675822,0,1,66,0,0,0,77,79,123,90,74,131.34,135,17.00,-37.00,-1015.00
2024-05-19 09:56:00.777642,0,1,60,0,0,0,77,79,123,90,74,131.38,135,7.00,-11.00,-1014.00
2024-05-19 09:56:00.915787,1,1,54,0,0,0,77,79,123,90,74,131.38,135,13.00,-32.00,-1018.00
2024-05-19 09:56:00.981433,1,1,48,0,0,0,77,79,123,90,74,131.29,135,10.00,-46.00,-1006.00
2024-05-19 09:56:01.120591,1,1,42,0,0,0,77,79,123,90,74,131.22,135,35.00,-39.00,-1006.00
2024-05-19 09:56:01.185468,1,1,36,0,0,0,77,79,123,90,74,131.28,135,45.00,-47.00,-976.00
2024-05-19 09:56:01.326500,1,2,31,0,0,0,77,79,123,90,74,131.41,135,9.00,-30.00,-991.00
2024-05-19 09:56:01.389677,1,1,22,0,0,0,76,79,124,90,74,131.36,135,-9.00,-20.00,-1022.00
2024-05-19 09:56:01.530168,1,2,19,0,-1,0,76,79,124,90,74,131.33,136,24.00,-33.00,-996.00
2024-05-19 09:56:01.593449,1,2,16,0,-1,0,76,79,123,90,74,131.24,136,59.00,-59.00,-999.00
2024-05-19 09:56:01.695744,1,3,15,0,-1,0,76,79,124,90,74,131.37,136,22.00,-52.00,-1022.00
2024-05-19 09:56:01.837350,1,3,13,0,-1,0,76,79,124,90,74,131.44,136,21.00,-55.00,-1012.00
2024-05-19 09:56:01.899612,1,4,12,0,-1,0,76,79,124,90,74,131.44,136,37.00,-57.00,-1031.00
2024-05-19 09:56:02.042181,1,4,11,0,0,0,76,79,124,90,74,131.39,136,20.00,-65.00,-1012.00
2024-05-19 09:56:02.103626,1,4,10,0,0,0,76,79,125,90,74,131.41,136,39.00,-63.00,-999.00
2024-05-19 09:56:02.247144,0,4,9,0,0,0,76,79,125,90,74,131.44,136,37.00,-53.00,-1016.00
2024-05-19 09:56:02.307501,0,3,9,0,0,0,76,79,126,90,74,131.48,136,23.00,-31.00,-1039.00
2024-05-19 09:56:02.451771,1,2,9,0,0,0,78,79,126,90,74,131.40,136,9.00,-34.00,-982.00
2024-05-19 09:56:02.511491,1,2,9,0,0,0,78,79,126,90,74,131.39,137,10.00,-39.00,-979.00
2024-05-19 09:56:02.656706,1,2,9,0,0,0,78,79,126,90,74,131.48,137,16.00,-25.00,-996.00
2024-05-19 09:56:02.665514,1,2,9,0,0,0,78,79,126,90,74,131.30,137,37.00,-14.00,-1000.00
2024-05-19 09:56:02.766314,2,2,9,0,0,0,78,79,127,90,74,131.47,137,37.00,-17.00,-1037.00
2024-05-19 09:56:02.963787,1,1,9,0,0,0,78,79,127,90,74,131.47,137,18.00,-27.00,-1039.00
2024-05-19 09:56:02.970825,1,1,9,0,0,0,78,79,127,90,74,131.35,137,21.00,0.00,-1014.00
2024-05-19 09:56:03.168632,1,1,9,0,0,0,78,79,128,100,74,131.41,137,24.00,-10.00,-954.00
2024-05-19 09:56:03.174553,1,0,9,0,0,0,78,79,128,100,74,131.40,137,21.00,-43.00,-1002.00
2024-05-19 09:56:03.373396,0,1,10,0,0,0,78,79,128,100,74,131.39,137,9.00,-34.00,-1003.00
2024-05-19 09:56:03.378425,0,1,10,0,0,0,77,79,128,100,74,131.41,137,-3.00,-28.00,-971.00
2024-05-19 09:56:03.578564,0,1,10,0,0,0,77,79,128,100,73,131.41,138,16.00,-41.00,-1019.00
2024-05-19 09:56:03.582384,0,1,10,0,0,0,77,79,129,100,73,131.43,138,1.00,-32.00,-987.00
2024-05-19 09:56:03.783673,0,1,10,0,0,0,77,79,129,100,73,131.31,138,34.00,-71.00,-986.00
2024-05-19 09:56:03.786736,0,2,10,0,0,0,77,79,129,100,73,131.36,138,16.00,-42.00,-964.00
2024-05-19 09:56:03.888715,0,2,10,0,0,0,77,79,129,100,73,131.40,138,-3.00,-41.00,-1004.00
2024-05-19 09:56:03.990460,0,2,10,0,0,0,77,79,129,100,73,131.34,138,13.00,-51.00,-1028.00
2024-05-19 09:56:04.092382,0,2,10,0,0,0,77,79,129,100,73,131.35,138,-3.00,-33.00,-993.00
2024-05-19 09:56:04.194471,0,2,10,0,0,0,77,79,129,100,73,131.40,138,9.00,-44.00,-1001.00
2024-05-19 09:56:04.397355,0,-1,11,0,0,-3,77,79,129,100,73,131.49,138,-32.00,-58.00,-1441.00
2024-05-19 09:56:04.398247,0,-6,12,0,-1,-9,77,80,135,100,73,131.53,138,7.00,-36.00,-1026.00
2024-05-19 09:56:04.602363,3,-74,12,0,-5,-11,77,80,340,110,73,131.80,139,-24.00,-12.00,-1617.00
2024-05-19 09:56:04.602520,0,157,8,2,-12,0,77,80,505,120,73,131.75,139,-16.00,56.00,-1325.00
2024-05-19 09:56:04.705079,0,41,8,1,-7,12,77,80,174,110,73,131.93,139,53.00,550.00,-990.00
2024-05-19 09:56:04.806485,-2,-14,5,2,-5,10,77,80,138,100,73,131.62,139,68.00,590.00,-972.00
2024-05-19 09:56:04.909250,0,0,2,3,-8,7,77,80,126,90,73,131.64,139,28.00,290.00,-1472.00
2024-05-19 09:56:05.011638,2,8,5,3,-6,3,77,80,123,90,73,131.29,139,56.00,-148.00,-1533.00
2024-05-19 09:56:05.114170,3,8,9,2,-4,1,77,80,122,80,73,131.40,139,47.00,1.00,-1449.00
2024-05-19 09:56:05.214549,3,4,10,2,-3,0,77,80,123,80,73,131.37,139,118.00,-31.00,-1318.00
2024-05-19 09:56:05.316220,3,3,10,2,-3,-1,77,80,125,80,73,131.48,139,79.00,-33.00,-1187.00
2024-05-19 09:56:05.421350,3,3,10,1,-3,-1,77,80,127,80,73,131.52,139,45.00,-21.00,-1006.00
2024-05-19 09:56:05.520230,2,3,10,1,-2,-1,77,80,130,90,73,131.46,140,38.00,-24.00,-997.00
2024-05-19 09:56:05.626061,2,3,10,1,-2,-1,77,80,132,90,73,131.59,140,25.00,-26.00,-1060.00
2024-05-19 09:56:05.724137,2,3,9,1,-2,-1,77,80,134,90,73,131.56,140,31.00,-14.00,-974.00
2024-05-19 09:56:05.830843,2,3,9,1,-2,0,77,80,134,90,73,131.60,140,18.00,-22.00,-956.00
2024-05-19 09:56:05.928169,3,3,9,1,-1,0,77,80,135,90,73,131.51,140,41.00,0.00,-984.00
2024-05-19 09:56:06.036151,3,2,10,1,-1,0,77,80,136,90,73,131.53,140,7.00,2.00,-970.00
2024-05-19 09:56:06.132112,3,2,10,1,-1,0,77,80,136,90,73,131.52,140,8.00,-20.00,-952.00
2024-05-19 09:56:06.240450,3,3,10,1,-1,0,77,80,136,90,73,131.46,140,25.00,-3.00,-986.00
2024-05-19 09:56:06.285135,3,4,10,0,0,0,77,80,136,90,73,131.54,140,47.00,-16.00,-974.00
2024-05-19 09:56:06.445247,2,3,10,0,0,0,77,79,136,90,73,131.45,140,44.00,-16.00,-999.00
2024-05-19 09:56:06.540112,2,2,10,0,0,0,77,79,135,90,72,131.53,141,50.00,-22.00,-993.00
2024-05-19 09:56:06.591125,2,2,10,0,0,0,77,79,134,90,72,131.43,141,-15.00,-9.00,-1010.00
2024-05-19 09:56:06.752736,1,1,10,0,0,0,77,79,134,90,72,131.47,141,53.00,-31.00,-977.00
2024-05-19 09:56:06.795077,1,1,10,0,0,0,77,79,133,90,72,131.49,141,49.00,-23.00,-1038.00
2024-05-19 09:56:06.958533,1,1,10,0,0,0,77,79,133,90,72,131.40,141,4.00,-21.00,-988.00
2024-05-19 09:56:07.006858,1,1,10,0,0,0,77,79,132,90,72,131.48,141,41.00,-30.00,-1020.00
2024-05-19 09:56:07.101173,1,1,10,0,0,0,77,79,132,90,72,131.40,141,24.00,-34.00,-1012.00
2024-05-19 09:56:07.264455,1,1,9,0,0,0,77,79,132,90,72,131.43,141,21.00,-30.00,-984.00
2024-05-19 09:56:07.313759,1,2,9,0,0,0,77,79,131,90,72,131.43,141,28.00,-40.00,-999.00
2024-05-19 09:56:07.407048,2,2,9,0,0,0,77,79,132,90,72,131.44,141,14.00,-34.00,-1022.00
2024-05-19 09:56:07.571665,2,2,9,0,0,0,77,79,131,90,72,131.31,142,51.00,-36.00,-972.00
2024-05-19 09:56:07.611162,2,2,9,0,0,0,77,79,132,90,72,131.41,142,40.00,-52.00,-1037.00
2024-05-19 09:56:07.713532,2,2,9,0,0,0,77,79,132,90,72,131.46,142,67.00,-47.00,-989.00
2024-05-19 09:56:07.879082,1,2,9,0,0,0,77,79,132,90,72,131.34,142,16.00,-21.00,-1033.00
2024-05-19 09:56:07.917617,2,2,9,0,0,0,77,79,132,90,72,131.48,142,14.00,-45.00,-969.00
2024-05-19 09:56:08.083916,2,2,10,0,0,0,77,79,132,90,72,131.47,142,17.00,-51.00,-999.00
2024-05-19 09:56:08.121170,2,2,10,0,0,0,77,79,132,90,72,131.48,142,40.00,-71.00,-1023.00
2024-05-19 09:56:08.288587,1,3,10,0,0,0,77,79,132,90,72,131.38,142,26.00,-64.00,-1000.00
2024-05-19 09:56:08.325105,1,3,10,0,0,0,77,79,133,90,72,131.39,142,29.00,-65.00,-984.00
2024-05-19 09:56:08.427496,1,3,9,0,0,0,77,80,132,90,71,131.43,142,27.00,-44.00,-997.00
2024-05-19 09:56:08.530165,1,4,9,0,0,0,77,80,132,90,71,131.38,143,50.00,-51.00,-1010.00
2024-05-19 09:56:08.632438,1,4,9,0,0,0,77,80,133,90,71,131.48,143,61.00,-67.00,-1001.00
2024-05-19 09:56:08.734766,2,3,9,0,0,0,77,80,132,90,71,131.48,143,14.00,-45.00,-931.00
2024-05-19 09:56:08.836829,1,2,9,0,0,0,77,80,132,90,71,131.45,143,26.00,-67.00,-971.00
2024-05-19 09:56:08.939292,1,2,9,0,0,0,77,80,131,90,71,131.44,143,16.00,-60.00,-989.00
2024-05-19 09:56:09.042173,0,3,9,0,0,0,77,80,131,90,71,131.51,143,18.00,-32.00,-1003.00
2024-05-19 09:56:09.144054,0,3,9,0,0,0,77,80,131,90,71,131.37,143,33.00,-39.00,-1019.00
2024-05-19 09:56:09.246522,1,2,9,0,0,0,77,80,130,90,71,131.43,143,55.00,-50.00,-1014.00
2024-05-19 09:56:09.345111,2,2,10,0,0,0,77,80,131,90,71,131.49,143,42.00,-67.00,-978.00
2024-05-19 09:56:09.517704,2,2,10,0,0,0,76,80,130,90,71,131.54,143,39.00,-29.00,-950.00
2024-05-19 09:56:09.549121,2,2,10,0,0,0,76,80,130,90,71,131.43,144,65.00,-63.00,-986.00
2024-05-19 09:56:09.722120,2,2,10,0,0,0,76,80,130,90,71,131.46,144,53.00,-43.00,-982.00
2024-05-19 09:56:09.754461,2,2,9,0,0,0,76,80,129,90,71,131.43,144,78.00,-56.00,-957.00
2024-05-19 09:56:09.927521,3,2,10,0,0,0,76,80,130,90,71,131.43,144,50.00,-53.00,-1015.00
2024-05-19 09:56:09.957295,3,1,10,0,0,0,76,80,129,90,71,131.49,144,64.00,-51.00,-1066.00
2024-05-19 09:56:10.131662,2,2,10,0,0,0,76,80,129,90,71,131.37,144,69.00,-68.00,-981.00
2024-05-19 09:56:10.131913,3,3,10,0,0,0,76,80,130,90,71,131.46,144,51.00,-66.00,-1001.00
2024-05-19 09:56:10.212208,3,3,10,0,0,0,76,80,130,90,71,131.36,144,61.00,-60.00,-981.00
2024-05-19 09:56:10.336577,3,2,10,0,0,0,76,80,129,90,71,131.36,144,69.00,-50.00,-989.00
2024-05-19 09:56:10.467014,3,2,10,0,0,0,78,79,129,90,71,131.34,144,67.00,-47.00,-973.00
2024-05-19 09:56:10.643795,2,2,10,0,0,0,78,79,130,90,71,131.36,145,29.00,-44.00,-1024.00
2024-05-19 09:56:10.643942,3,2,9,0,0,0,78,79,130,90,71,131.40,145,83.00,-29.00,-993.00
2024-05-19 09:56:10.723157,3,2,9,0,0,0,78,79,130,90,71,131.40,145,44.00,-29.00,-1015.00
2024-05-19 09:56:10.850149,2,2,9,0,0,0,78,79,130,90,71,131.56,145,52.00,-13.00,-1356.00
2024-05-19 09:56:10.926029,0,3,10,0,0,-5,78,79,134,90,71,131.56,145,32.00,-72.00,-1715.00
2024-05-19 09:56:11.053212,0,20,11,0,1,-11,78,79,162,100,71,131.66,145,33.00,-73.00,-1702.00
2024-05-19 09:56:11.129851,-2,114,10,0,8,-10,78,79,594,110,71,131.61,145,4.00,638.00,-1183.00
2024-05-19 09:56:11.258036,2,-110,9,-1,9,4,78,79,6553,120,71,131.72,145,59.00,977.00,-1015.00
2024-05-19 09:56:11.333941,0,-4,14,0,3,9,78,79,147,110,71,131.60,145,101.00,529.00,-1052.00
2024-05-19 09:56:11.462776,0,8,16,0,5,7,77,80,140,100,71,131.46,145,34.00,-31.00,-1291.00
2024-05-19 09:56:11.537855,1,-6,23,0,5,3,77,80,133,90,71,131.53,146,59.00,-114.00,-1370.00
2024-05-19 09:56:11.667755,2,-5,26,0,3,1,77,80,131,90,71,131.46,146,-30.00,-78.00,-1243.00
2024-05-19 09:56:11.741837,2,0,21,1,1,0,77,80,130,90,71,131.45,146,-50.00,-11.00,-1100.00
2024-05-19 09:56:11.872414,2,2,11,1,0,0,77,80,130,90,71,131.40,146,32.00,-71.00,-1025.00
2024-05-19 09:56:11.945911,2,3,8,1,0,0,77,80,131,90,71,131.46,146,71.00,-52.00,-984.00
2024-05-19 09:56:12.077227,2,3,9,1,0,-1,77,80,133,90,71,131.52,146,10.00,-57.00,-1007.00
2024-05-19 09:56:12.150004,2,3,9,0,0,0,77,80,133,90,71,131.54,146,33.00,-49.00,-981.00
2024-05-19 09:56:12.282016,2,0,9,0,0,0,77,80,134,90,71,131.57,146,44.00,-44.00,-1008.00
2024-05-19 09:56:12.354071,2,0,9,0,0,0,77,80,135,90,71,131.55,146,13.00,-35.00,-954.00
2024-05-19 09:56:12.486800,2,1,9,0,0,0,78,80,136,90,71,131.54,146,26.00,-55.00,-1022.00
2024-05-19 09:56:12.557857,2,2,9,1,0,0,78,80,136,90,71,131.72,147,45.00,-54.00,-973.00
2024-05-19 09:56:12.691518,3,3,9,1,0,0,78,80,136,90,71,131.57,147,52.00,-59.00,-970.00
2024-05-19 09:56:12.761670,4,2,9,1,0,0,78,80,136,90,71,131.61,147,93.00,-59.00,-958.00
2024-05-19 09:56:12.896394,4,1,9,1,0,0,78,80,137,90,71,131.47,147,36.00,-2.00,-977.00
2024-05-19 09:56:12.965783,4,0,9,0,0,0,78,80,136,90,71,131.53,147,96.00,-12.00,-1003.00
2024-05-19 09:56:13.101199,4,0,9,0,0,0,78,80,137,90,71,131.60,147,74.00,-46.00,-1005.00
2024-05-19 09:56:13.169782,4,0,9,0,0,0,78,80,137,90,71,131.58,147,86.00,-43.00,-970.00
2024-05-19 09:56:13.305991,3,1,9,0,0,0,78,80,137,90,71,131.51,147,76.00,-67.00,-996.00
2024-05-19 09:56:13.373863,3,2,9,0,0,0,78,80,137,90,71,131.54,147,39.00,-51.00,-985.00
2024-05-19 09:56:13.510808,3,1,9,0,0,0,77,80,138,90,71,131.57,147,50.00,-68.00,-1011.00
2024-05-19 09:56:13.577856,4,2,9,0,0,0,77,80,138,90,71,131.64,148,21.00,-56.00,-968.00
2024-05-19 09:56:13.715589,4,3,9,0,0,0,77,80,138,90,71,131.53,148,82.00,-54.00,-988.00
2024-05-19 09:56:13.781780,3,3,9,0,0,0,77,80,138,90,71,131.58,148,59.00,-30.00,-977.00
2024-05-19 09:56:13.920395,3,3,9,0,0,0,77,80,137,90,71,131.48,148,94.00,-33.00,-1052.00
2024-05-19 09:56:13.985793,3,2,9,0,0,0,77,80,136,90,71,131.50,148,50.00,11.00,-975.00
2024-05-19 09:56:14.125192,4,0,9,0,0,0,77,80,136,90,71,131.59,148,106.00,-79.00,-951.00
2024-05-19 09:56:14.138700,4,1,9,0,0,0,77,80,134,90,71,131.56,148,72.00,-60.00,-1009.00
