TS,pitch,roll,yaw,vgx,vgy,vgz,templ,temph,tof,h,bat,baro,time,agx,agy,agz
2024-05-19 09:56:56.313775,0,0,0,0,0,0,81,83,10,0,69,130.18,169,6.00,1.00,-999.00
2024-05-19 09:56:56.317779,0,0,0,0,0,0,81,83,10,0,69,130.23,169,6.00,2.00,-1000.00
2024-05-19 09:56:56.422689,0,0,0,0,0,0,81,83,10,0,69,130.19,169,6.00,2.00,-998.00
2024-05-19 09:56:56.521791,0,0,0,0,0,0,81,83,10,0,69,130.22,169,5.00,0.00,-1002.00
2024-05-19 09:56:56.623534,0,0,0,0,0,0,81,83,10,0,69,130.22,169,6.00,2.00,-1003.00
2024-05-19 09:56:56.725741,0,0,0,0,0,0,81,83,10,0,69,130.17,169,6.00,0.00,-1000.00
2024-05-19 09:56:56.828986,0,0,0,0,0,0,81,83,10,0,69,130.17,169,5.00,1.00,-999.00
2024-05-19 09:56:56.930735,0,0,0,0,0,0,81,83,10,0,69,130.21,169,6.00,1.00,-1001.00
2024-05-19 09:56:57.032748,0,0,0,0,0,0,81,83,10,0,69,130.24,169,5.00,1.00,-996.00
2024-05-19 09:56:57.134652,0,0,0,0,0,0,81,83,10,0,69,130.23,169,5.00,1.00,-998.00
2024-05-19 09:56:57.337753,0,0,0,0,0,0,81,83,10,0,69,130.18,169,6.00,0.00,-999.00
2024-05-19 09:56:57.338586,0,0,0,0,0,0,81,83,10,0,69,130.23,169,6.00,1.00,-999.00
2024-05-19 09:56:57.542737,0,0,0,0,0,0,81,83,10,0,69,130.23,169,5.00,2.00,-1000.00
2024-05-19 09:56:57.542949,0,0,0,0,0,0,81,83,10,0,69,130.17,169,4.00,2.00,-1000.00
2024-05-19 09:56:57.645218,0,0,0,0,0,0,81,83,10,0,69,130.18,169,6.00,1.00,-1001.00
2024-05-19 09:56:57.747185,0,0,0,0,0,0,80,83,10,0,69,130.22,169,6.00,0.00,-1001.00
2024-05-19 09:56:57.850228,0,0,0,0,0,0,80,83,10,0,69,130.25,169,4.00,3.00,-1000.00
2024-05-19 09:56:57.951717,0,0,0,0,0,0,80,83,10,0,69,130.25,169,5.00,2.00,-1001.00
2024-05-19 09:56:58.054473,0,0,0,0,0,0,80,83,10,0,69,130.23,169,6.00,1.00,-1001.00
2024-05-19 09:56:58.103929,0,0,0,0,0,0,80,83,10,0,69,130.22,169,7.00,3.00,-996.00
2024-05-19 09:56:58.259361,0,0,0,0,0,0,80,83,10,0,69,130.20,169,5.00,1.00,-999.00
2024-05-19 09:56:58.307553,0,0,0,0,0,0,80,83,10,0,69,130.21,169,7.00,1.00,-998.00
2024-05-19 09:56:58.464171,0,0,0,0,0,0,80,83,10,0,69,130.23,169,5.00,2.00,-999.00
2024-05-19 09:56:58.511810,0,0,0,0,0,0,80,83,10,0,69,130.21,169,6.00,0.00,-998.00
2024-05-19 09:56:58.669037,0,0,0,0,0,0,80,83,10,0,69,130.22,169,6.00,1.00,-1002.00
2024-05-19 09:56:58.718459,0,0,0,0,0,0,81,83,10,0,69,130.24,169,5.00,1.00,-997.00
2024-05-19 09:56:58.821122,0,0,0,0,0,0,81,83,10,0,69,130.21,169,7.00,1.00,-998.00
2024-05-19 09:56:58.921586,0,0,0,0,0,0,81,83,10,0,69,130.21,169,5.00,0.00,-997.00
2024-05-19 09:56:59.021611,0,0,0,0,0,0,81,83,10,0,69,130.28,169,7.00,0.00,-1001.00
2024-05-19 09:56:59.123479,0,0,0,0,0,0,81,83,10,0,69,130.24,169,6.00,1.00,-1000.00
2024-05-19 09:56:59.283201,0,0,0,0,0,0,81,83,10,0,69,130.20,169,2.00,1.00,-999.00
2024-05-19 09:56:59.327428,0,0,0,0,0,0,81,83,10,0,69,130.20,170,7.00,0.00,-1006.00
2024-05-19 09:56:59.487995,0,0,0,0,0,0,81,83,10,0,69,130.20,170,3.00,-5.00,-999.00
2024-05-19 09:56:59.532039,0,0,0,0,0,0,81,83,10,0,69,130.20,170,-27.00,30.00,-1005.00
2024-05-19 09:56:59.693107,0,0,0,0,0,0,81,83,10,0,69,130.20,170,0.00,-5.00,-1015.00
2024-05-19 09:56:59.735440,1,0,0,0,0,0,81,83,10,0,69,130.20,170,21.00,-15.00,-1119.00
2024-05-19 09:56:59.898017,1,0,0,0,0,-1,81,83,10,0,69,130.20,170,1.00,0.00,-1156.00
2024-05-19 09:56:59.939382,1,0,0,0,0,-4,81,83,10,0,69,130.20,170,2.00,15.00,-1252.00
2024-05-19 09:57:00.102340,0,0,0,0,0,-7,81,83,15,10,69,130.37,170,-18.00,6.00,-1150.00
2024-05-19 09:57:00.144061,-1,0,0,0,0,-7,81,83,23,10,69,130.56,170,-9.00,16.00,-1027.00
2024-05-19 09:57:00.307184,-1,0,0,0,0,-8,81,83,31,20,69,130.64,170,0.00,18.00,-987.00
2024-05-19 09:57:00.347468,-1,-1,0,0,0,-7,81,83,39,30,69,130.70,171,0.00,25.00,-964.00
2024-05-19 09:57:00.512010,-1,-1,0,0,0,-7,81,83,45,40,69,130.76,171,-18.00,11.00,-952.00
2024-05-19 09:57:00.551503,0,-1,0,0,0,-6,81,83,52,40,69,130.84,171,-12.00,19.00,-911.00
2024-05-19 09:57:00.654947,0,-1,0,0,0,-5,81,83,58,50,69,130.87,171,-1.00,4.00,-917.00
2024-05-19 09:57:00.755621,-1,-1,0,0,0,-4,81,84,63,50,69,130.97,171,-39.00,9.00,-881.00
2024-05-19 09:57:00.857347,-1,0,0,0,0,-3,81,84,67,50,69,130.97,171,-15.00,34.00,-894.00
2024-05-19 09:57:01.023975,-1,-1,0,0,0,-2,81,84,70,60,69,130.97,171,5.00,30.00,-942.00
2024-05-19 09:57:01.061383,-1,-2,0,0,0,-1,81,84,69,60,69,130.99,171,-12.00,30.00,-965.00
2024-05-19 09:57:01.228790,-1,-1,0,0,0,0,81,84,71,60,69,131.02,171,-17.00,14.00,-983.00
2024-05-19 09:57:01.265385,-1,-1,0,0,0,0,81,84,72,60,69,131.14,171,-45.00,18.00,-990.00
2024-05-19 09:57:01.367994,-1,-1,0,0,0,0,81,84,74,60,69,131.01,172,-25.00,15.00,-1032.00
2024-05-19 09:57:01.474075,-1,0,0,0,0,0,81,84,75,60,69,131.09,172,-15.00,28.00,-990.00
2024-05-19 09:57:01.520376,-1,-1,0,0,0,0,81,84,77,60,69,131.15,172,3.00,27.00,-990.00
2024-05-19 09:57:01.638388,0,-1,0,0,0,0,81,84,78,60,69,131.14,172,-23.00,15.00,-1026.00
2024-05-19 09:57:01.777675,0,-1,0,0,0,0,81,83,81,70,69,131.14,172,-17.00,21.00,-998.00
2024-05-19 09:57:01.828595,-1,0,0,0,0,0,81,83,82,70,69,131.20,172,-3.00,18.00,-992.00
2024-05-19 09:57:01.928999,-1,0,0,0,0,0,81,83,84,70,69,131.21,172,-6.00,8.00,-970.00
2024-05-19 09:57:02.047898,0,0,0,0,0,0,81,83,85,70,69,131.19,172,-16.00,11.00,-988.00
2024-05-19 09:57:02.132510,0,0,0,0,0,0,81,83,86,70,69,131.14,172,-25.00,23.00,-975.00
2024-05-19 09:57:02.252778,0,0,0,0,0,0,81,83,87,70,69,131.14,172,-12.00,20.00,-963.00
2024-05-19 09:57:02.336295,0,0,0,0,0,0,81,83,88,70,69,131.23,173,-28.00,33.00,-939.00
2024-05-19 09:57:02.457561,0,0,0,0,0,0,81,83,89,70,69,131.15,173,6.00,20.00,-995.00
2024-05-19 09:57:02.540281,0,-1,0,0,0,0,81,83,89,70,69,131.23,173,-29.00,13.00,-968.00
2024-05-19 09:57:02.662362,-1,0,0,0,0,0,81,83,89,70,69,131.18,173,-33.00,14.00,-994.00
2024-05-19 09:57:02.745178,-1,0,0,0,0,0,81,84,89,80,69,131.14,173,-1.00,4.00,-1006.00
2024-05-19 09:57:02.867790,-1,0,0,0,0,0,81,84,89,80,69,131.18,173,-47.00,32.00,-936.00
2024-05-19 09:57:02.949307,-1,0,0,0,0,0,81,84,89,80,69,131.20,173,-38.00,-3.00,-1066.00
2024-05-19 09:57:03.072601,-1,0,0,0,0,0,81,84,89,80,69,131.17,173,-29.00,18.00,-973.00
2024-05-19 09:57:03.153301,-1,-1,0,0,0,0,81,84,88,80,69,131.18,173,-24.00,28.00,-992.00
2024-05-19 09:57:03.276764,-1,-1,0,0,0,0,81,84,88,80,69,131.20,173,8.00,-3.00,-1016.00
2024-05-19 09:57:03.357481,-1,-1,0,0,0,0,81,84,87,80,69,131.22,174,-8.00,20.00,-1007.00
2024-05-19 09:57:03.481573,0,0,0,0,0,0,81,84,86,70,69,131.17,174,-4.00,3.00,-980.00
2024-05-19 09:57:03.561631,0,0,0,0,0,0,81,84,86,70,69,131.18,174,5.00,7.00,-1005.00
2024-05-19 09:57:03.686296,0,0,0,0,0,0,81,84,86,70,69,131.23,174,5.00,14.00,-974.00
2024-05-19 09:57:03.765337,0,-1,0,0,0,0,80,83,85,70,69,131.19,174,-3.00,29.00,-976.00
2024-05-19 09:57:03.891624,0,-1,0,0,0,0,80,83,84,70,69,131.13,174,-19.00,37.00,-993.00
2024-05-19 09:57:03.969193,0,-1,0,0,0,0,80,83,84,70,69,131.19,174,-5.00,26.00,-1027.00
2024-05-19 09:57:04.095831,0,-1,0,0,0,0,80,83,83,70,69,131.14,174,-3.00,21.00,-1031.00
2024-05-19 09:57:04.173202,0,-1,0,0,0,0,80,83,83,70,69,131.18,174,1.00,22.00,-1005.00
2024-05-19 09:57:04.300896,0,-1,0,0,0,0,80,83,83,70,69,131.16,174,15.00,19.00,-979.00
2024-05-19 09:57:04.377240,0,-1,0,0,0,0,80,83,82,70,69,131.18,175,0.00,24.00,-982.00
2024-05-19 09:57:04.505561,0,-1,0,0,0,0,80,83,82,70,69,131.17,175,-32.00,30.00,-1004.00
2024-05-19 09:57:04.581215,0,-1,0,0,0,0,80,83,81,70,69,131.18,175,30.00,13.00,-992.00
2024-05-19 09:57:04.710367,0,-1,0,0,0,0,80,83,81,70,69,131.15,175,3.00,30.00,-1010.00
2024-05-19 09:57:04.785499,0,-1,0,0,0,0,80,83,80,70,69,131.16,175,-23.00,16.00,-989.00
2024-05-19 09:57:04.887146,0,-1,0,0,0,0,80,83,80,70,69,131.16,175,-24.00,26.00,-1016.00
2024-05-19 09:57:05.017557,0,-1,0,0,0,0,80,83,80,70,69,131.15,175,-24.00,13.00,-1048.00
2024-05-19 09:57:05.091267,0,-1,0,0,0,0,80,83,80,70,69,131.08,175,-14.00,-1.00,-1010.00
2024-05-19 09:57:05.222352,0,0,0,0,0,0,80,83,79,70,69,131.11,175,0.00,-5.00,-1008.00
2024-05-19 09:57:05.295289,0,0,0,0,0,0,80,83,80,70,69,131.19,175,4.00,13.00,-1005.00
2024-05-19 09:57:05.346196,0,0,0,0,0,0,80,83,80,70,69,131.12,176,-2.00,14.00,-1020.00
2024-05-19 09:57:05.529544,0,0,0,0,0,0,80,83,79,70,69,131.06,176,13.00,4.00,-1029.00
2024-05-19 09:57:05.550207,0,0,0,0,0,0,80,83,79,70,69,131.15,176,-6.00,19.00,-995.00
2024-05-19 09:57:05.734353,0,0,0,0,0,0,80,83,79,70,69,131.10,176,-7.00,10.00,-1010.00
2024-05-19 09:57:05.754146,0,0,0,0,0,0,80,83,79,70,69,131.15,176,0.00,2.00,-1004.00
2024-05-19 09:57:05.939213,0,0,0,0,0,0,80,83,79,70,69,131.24,176,-10.00,1.00,-1031.00
2024-05-19 09:57:05.958137,0,0,0,0,0,0,80,83,79,70,69,131.09,176,0.00,13.00,-1026.00
2024-05-19 09:57:06.144047,0,-1,0,0,0,0,80,83,79,70,69,131.13,176,6.00,6.00,-966.00
2024-05-19 09:57:06.162173,0,0,0,0,0,0,80,83,79,70,69,131.13,176,17.00,12.00,-1017.00
2024-05-19 09:57:06.348903,0,0,0,0,0,0,80,83,80,70,69,131.08,176,-17.00,36.00,-982.00
2024-05-19 09:57:06.366147,0,0,0,0,0,0,80,83,79,70,69,131.07,177,3.00,25.00,-990.00
2024-05-19 09:57:06.553618,0,0,0,0,0,0,80,83,80,70,69,131.19,177,20.00,2.00,-1024.00
2024-05-19 09:57:06.570287,0,-1,0,0,0,0,80,83,80,70,69,131.14,177,-5.00,25.00,-1015.00
2024-05-19 09:57:06.758841,1,-1,0,0,0,0,80,83,80,70,69,131.14,177,9.00,23.00,-1027.00
2024-05-19 09:57:06.774194,1,0,0,0,0,0,80,83,80,70,69,131.12,177,15.00,7.00,-1001.00
2024-05-19 09:57:06.963780,0,0,0,0,0,0,80,83,80,70,69,131.13,177,14.00,16.00,-1020.00
2024-05-19 09:57:06.978174,0,0,0,0,0,0,80,83,81,70,69,131.06,177,50.00,15.00,-982.00
2024-05-19 09:57:07.173825,0,-1,0,0,0,0,80,83,81,70,69,131.13,177,7.00,24.00,-994.00
2024-05-19 09:57:07.182111,0,-1,0,0,0,0,80,83,81,70,69,131.19,177,27.00,24.00,-988.00
2024-05-19 09:57:07.372729,0,-1,0,0,0,0,80,83,81,70,69,131.19,178,-14.00,40.00,-942.00
2024-05-19 09:57:07.386208,0,-1,0,0,0,0,80,83,81,70,69,131.19,178,2.00,33.00,-992.00
2024-05-19 09:57:07.577615,0,-2,0,0,0,0,80,83,81,70,69,131.10,178,34.00,10.00,-979.00
2024-05-19 09:57:07.590087,0,-2,0,0,0,0,80,83,81,70,69,131.09,178,14.00,11.00,-985.00
2024-05-19 09:57:07.782535,0,-2,0,0,0,0,80,83,80,70,69,131.09,178,19.00,29.00,-1033.00
2024-05-19 09:57:07.794395,0,-1,0,0,0,0,80,82,81,70,69,131.10,178,35.00,17.00,-1003.00
2024-05-19 09:57:07.896080,0,-1,0,0,0,0,80,82,81,70,69,131.15,178,30.00,21.00,-991.00
2024-05-19 09:57:07.998041,1,-1,0,0,0,0,80,82,81,70,69,131.11,178,27.00,18.00,-1001.00
2024-05-19 09:57:08.191958,1,0,0,0,0,0,80,82,81,70,69,131.13,178,43.00,15.00,-1006.00
2024-05-19 09:57:08.202008,1,0,0,0,0,0,80,82,81,70,69,131.15,178,18.00,9.00,-1095.00
2024-05-19 09:57:08.396731,1,0,-1,0,0,-1,80,82,81,70,69,131.16,179,-8.00,0.00,-1089.00
2024-05-19 09:57:08.406059,0,-1,-1,0,0,-2,80,82,83,70,69,131.15,179,-55.00,37.00,-1061.00
2024-05-19 09:57:08.601728,0,-1,-1,0,0,-2,80,82,85,70,69,131.20,179,-40.00,2.00,-1119.00
2024-05-19 09:57:08.610045,0,-1,-1,0,0,-3,80,82,88,80,69,131.19,179,-4.00,33.00,-1037.00
2024-05-19 09:57:08.808132,-1,-1,0,0,0,-4,80,82,92,80,69,131.23,179,-36.00,9.00,-1045.00
2024-05-19 09:57:08.817866,-1,-1,0,0,0,-5,81,81,98,90,69,131.31,179,20.00,24.00,-1119.00
2024-05-19 09:57:08.866241,-2,-1,0,0,0,-5,81,81,103,90,69,131.43,179,6.00,39.00,-1007.00
2024-05-19 09:57:09.011073,-1,-1,0,0,0,-5,81,81,109,100,69,131.44,179,0.00,19.00,-1014.00
2024-05-19 09:57:09.070019,-1,-1,0,0,0,-5,81,81,115,100,69,131.44,179,-6.00,8.00,-983.00
2024-05-19 09:57:09.215927,-1,0,0,0,0,-5,81,81,121,110,69,131.53,179,-29.00,9.00,-969.00
2024-05-19 09:57:09.274657,-1,0,0,0,0,-5,81,81,127,120,69,131.60,180,-21.00,2.00,-968.00
2024-05-19 09:57:09.420891,-1,0,0,0,0,-5,81,81,133,120,69,131.64,180,-11.00,-4.00,-989.00
2024-05-19 09:57:09.480784,-1,0,0,0,0,-5,81,81,139,130,69,131.67,180,-26.00,22.00,-966.00
2024-05-19 09:57:09.581229,-1,0,0,0,0,-4,81,81,144,130,69,131.69,180,0.00,-9.00,-981.00
2024-05-19 09:57:09.682342,-1,0,0,0,0,-4,81,81,149,140,69,131.78,180,-27.00,2.00,-948.00
2024-05-19 09:57:09.835223,-1,0,0,0,0,-4,80,82,156,140,69,131.80,180,6.00,-24.00,-998.00
2024-05-19 09:57:09.888761,0,0,0,0,0,-3,80,82,160,150,69,131.73,180,-12.00,-9.00,-1012.00
2024-05-19 09:57:09.989171,0,0,0,0,0,-3,80,82,164,150,69,131.87,180,-14.00,5.00,-960.00
2024-05-19 09:57:10.089877,0,0,0,0,0,-3,80,82,167,150,69,131.82,180,-40.00,0.00,-995.00
2024-05-19 09:57:10.239933,0,0,0,0,0,-2,80,82,171,160,69,131.96,180,-4.00,0.00,-1001.00
2024-05-19 09:57:10.293956,0,0,0,0,0,-2,80,82,174,160,69,132.04,181,-2.00,-18.00,-980.00
2024-05-19 09:57:10.444714,0,0,0,0,0,-2,80,82,176,160,69,132.02,181,16.00,-9.00,-990.00
2024-05-19 09:57:10.499613,0,0,0,0,0,-1,80,82,178,160,69,132.04,181,-10.00,-24.00,-963.00
2024-05-19 09:57:10.599923,0,0,0,0,0,-1,80,82,180,170,69,131.97,181,-17.00,-5.00,-945.00
2024-05-19 09:57:10.752006,0,0,0,0,0,-1,80,82,181,170,69,131.97,181,-31.00,13.00,-956.00
2024-05-19 09:57:10.804310,0,0,0,0,0,0,79,82,183,170,69,132.03,181,3.00,-20.00,-937.00
2024-05-19 09:57:10.909653,0,0,0,0,0,0,79,82,183,170,69,131.99,181,-12.00,-17.00,-965.00
2024-05-19 09:57:11.008097,0,1,0,0,0,0,79,82,184,170,69,132.07,181,-1.00,-8.00,-931.00
2024-05-19 09:57:11.161701,0,1,0,0,0,0,79,82,185,170,69,132.01,181,-19.00,-19.00,-971.00
2024-05-19 09:57:11.211918,0,1,0,0,0,0,79,82,184,170,69,132.01,181,22.00,-35.00,-1007.00
2024-05-19 09:57:11.366639,0,1,0,0,0,0,79,82,185,170,69,132.08,182,7.00,-25.00,-975.00
2024-05-19 09:57:11.416029,0,1,0,0,0,0,79,82,186,170,69,132.10,182,37.00,-39.00,-993.00
2024-05-19 09:57:11.571681,0,1,0,0,0,0,79,82,185,170,69,131.99,182,48.00,-37.00,-1002.00
2024-05-19 09:57:11.621202,0,1,0,0,0,0,79,82,186,170,69,132.12,182,-7.00,-26.00,-980.00
2024-05-19 09:57:11.775990,0,1,0,0,0,0,79,82,185,170,69,132.05,182,-8.00,-32.00,-1005.00
2024-05-19 09:57:11.825643,0,1,0,0,0,0,79,82,185,170,69,132.13,182,0.00,-19.00,-1011.00
2024-05-19 09:57:11.927931,0,1,0,0,0,0,79,82,184,170,69,132.06,182,-12.00,10.00,-999.00
2024-05-19 09:57:12.028458,0,1,0,0,0,0,79,82,183,170,69,132.03,182,-9.00,-41.00,-990.00
2024-05-19 09:57:12.130944,0,1,0,0,0,0,79,82,183,170,69,132.00,182,-8.00,-16.00,-1004.00
2024-05-19 09:57:12.233625,0,1,0,0,0,0,79,82,183,170,69,132.03,182,-5.00,-29.00,-1052.00
2024-05-19 09:57:12.335781,0,1,0,0,0,0,79,82,182,170,69,132.01,183,-16.00,-22.00,-987.00
2024-05-19 09:57:12.435970,0,1,0,0,0,0,79,82,182,170,69,132.10,183,-2.00,-24.00,-1004.00
2024-05-19 09:57:12.551868,0,1,0,0,0,0,79,82,183,170,69,132.03,183,-14.00,-32.00,-997.00
2024-05-19 09:57:12.640827,0,1,0,0,0,0,79,82,183,170,69,131.98,183,-58.00,-22.00,-982.00
2024-05-19 09:57:12.691058,0,1,0,0,0,0,79,82,182,170,69,132.03,183,-47.00,7.00,-928.00
2024-05-19 09:57:12.902313,0,1,0,0,0,0,79,82,182,170,69,132.03,183,-1.00,-38.00,-952.00
2024-05-19 09:57:12.945887,0,1,0,0,0,0,79,82,181,170,69,132.11,183,-14.00,-23.00,-908.00
2024-05-19 09:57:13.107113,0,1,0,0,0,1,79,82,180,170,69,131.99,183,4.00,-21.00,-949.00
2024-05-19 09:57:13.107154,0,1,0,0,0,1,79,82,178,170,69,132.01,183,-27.00,-2.00,-866.00
2024-05-19 09:57:13.200840,0,0,0,0,0,2,79,82,175,160,69,131.97,183,7.00,-19.00,-1009.00
2024-05-19 09:57:13.311955,0,0,0,0,0,2,79,82,172,160,69,131.93,184,0.00,-25.00,-997.00
2024-05-19 09:57:13.404853,0,0,0,0,0,3,79,82,169,160,69,131.88,184,1.00,-14.00,-1001.00
2024-05-19 09:57:13.521330,0,0,0,0,0,2,79,82,167,150,69,131.87,184,-22.00,12.00,-966.00
2024-05-19 09:57:13.608846,0,0,0,0,0,3,79,82,164,150,69,131.83,184,-5.00,5.00,-1035.00
2024-05-19 09:57:13.721544,0,0,0,0,0,2,79,82,161,150,69,131.83,184,0.00,12.00,-1012.00
2024-05-19 09:57:13.814090,0,0,0,0,0,2,80,82,158,150,69,131.80,184,1.00,-9.00,-950.00
2024-05-19 09:57:13.915668,0,0,0,0,0,2,80,82,155,140,69,131.75,184,-28.00,-13.00,-1027.00
2024-05-19 09:57:14.030237,0,0,0,0,0,2,80,82,152,140,69,131.83,184,-11.00,-9.00,-1046.00
2024-05-19 09:57:14.121345,0,0,0,0,0,2,80,82,150,140,69,131.79,184,-19.00,5.00,-976.00
2024-05-19 09:57:14.221683,0,0,0,0,0,1,80,82,147,140,69,131.75,184,27.00,-3.00,-931.00
2024-05-19 09:57:14.323105,0,0,0,0,0,2,80,82,145,140,69,131.77,185,21.00,-29.00,-1039.00
2024-05-19 09:57:14.424781,0,0,0,0,0,1,80,82,143,130,69,131.71,185,-9.00,24.00,-1002.00
2024-05-19 09:57:14.540730,0,0,0,0,0,1,80,82,141,130,69,131.69,185,-15.00,-34.00,-994.00
2024-05-19 09:57:14.628750,0,0,0,0,0,1,80,82,140,130,69,131.72,185,60.00,-12.00,-1001.00
2024-05-19 09:57:14.745514,0,0,0,0,0,1,80,82,137,130,69,131.61,185,39.00,4.00,-1020.00
2024-05-19 09:57:14.833810,1,0,0,0,0,1,80,82,136,130,69,131.65,185,-8.00,47.00,-1025.00
2024-05-19 09:57:14.935839,0,0,0,0,0,1,80,82,134,120,69,131.66,185,-41.00,5.00,-999.00
2024-05-19 09:57:15.052843,0,0,0,0,0,1,80,82,133,120,69,131.59,185,21.00,-30.00,-1078.00
2024-05-19 09:57:15.140771,1,0,0,0,0,0,80,82,133,120,69,131.55,185,-19.00,-31.00,-1030.00
2024-05-19 09:57:15.257684,0,0,0,0,0,0,80,82,132,120,69,131.62,185,-34.00,3.00,-1032.00
2024-05-19 09:57:15.347510,0,0,0,0,0,0,80,82,132,120,69,131.60,186,-5.00,15.00,-1096.00
2024-05-19 09:57:15.445998,0,0,0,0,0,0,80,82,132,120,69,131.56,186,6.00,13.00,-1031.00
2024-05-19 09:57:15.565006,0,0,0,0,0,0,80,82,133,120,69,131.65,186,-6.00,-13.00,-1024.00
2024-05-19 09:57:15.651378,0,0,0,0,0,0,80,82,133,120,69,131.65,186,-10.00,12.00,-981.00
2024-05-19 09:57:15.751776,0,0,0,0,0,0,80,82,133,120,69,131.57,186,-11.00,-40.00,-1015.00
2024-05-19 09:57:15.871979,0,0,0,0,0,0,80,82,133,120,69,131.55,186,-12.00,15.00,-1013.00
2024-05-19 09:57:15.956965,0,0,0,0,0,0,80,82,133,120,69,131.63,186,43.00,-6.00,-1009.00
2024-05-19 09:57:16.062219,0,0,0,0,0,0,80,82,133,120,69,131.57,186,-15.00,7.00,-966.00
2024-05-19 09:57:16.163269,0,0,0,0,0,0,80,82,132,120,69,131.55,186,-17.00,21.00,-996.00
2024-05-19 09:57:16.261864,0,0,0,0,0,0,80,82,132,120,69,131.59,186,15.00,-13.00,-971.00
2024-05-19 09:57:16.384045,0,0,0,0,0,0,80,82,132,120,69,131.55,187,6.00,8.00,-1037.00
2024-05-19 09:57:16.465971,0,0,0,0,0,0,80,82,131,120,69,131.51,187,23.00,7.00,-1010.00
2024-05-19 09:57:16.519256,0,0,0,0,0,0,80,82,131,120,69,131.58,187,-67.00,15.00,-1009.00
2024-05-19 09:57:16.619792,0,0,0,0,0,0,80,82,131,120,69,131.56,187,5.00,13.00,-982.00
2024-05-19 09:57:16.720871,0,0,0,0,0,0,80,82,130,120,69,131.68,187,2.00,-3.00,-986.00
2024-05-19 09:57:16.896010,0,0,0,0,0,0,79,82,131,120,69,131.62,187,-23.00,-3.00,-973.00
2024-05-19 09:57:16.924616,0,0,0,0,0,0,79,82,130,120,69,131.54,187,12.00,-22.00,-1019.00
2024-05-19 09:57:17.100648,0,0,0,0,0,0,79,82,130,120,69,131.60,187,39.00,13.00,-1021.00
2024-05-19 09:57:17.128654,-3,0,0,0,0,0,79,82,129,120,69,131.60,187,-5.00,19.00,-1012.00
2024-05-19 09:57:17.305779,-8,0,0,1,0,0,79,82,130,120,69,131.50,187,-6.00,6.00,-953.00
2024-05-19 09:57:17.332547,-8,-1,0,2,0,0,79,82,130,120,69,131.45,188,-29.00,29.00,-1011.00
2024-05-19 09:57:17.510280,-8,-1,0,4,0,0,79,82,129,120,69,131.50,188,9.00,-11.00,-1028.00
2024-05-19 09:57:17.536553,-7,0,0,5,0,0,79,82,129,120,69,131.53,188,-26.00,16.00,-1031.00
2024-05-19 09:57:17.715056,-6,0,0,6,0,0,79,82,129,120,69,131.55,188,9.00,-3.00,-1057.00
2024-05-19 09:57:17.740562,-5,0,0,7,0,0,79,82,129,120,69,131.57,188,-48.00,-4.00,-1030.00
2024-05-19 09:57:17.919854,-5,0,0,7,0,0,80,82,130,120,69,131.51,188,-24.00,-5.00,-998.00
2024-05-19 09:57:17.944523,-3,0,0,8,0,0,80,82,130,120,69,131.52,188,-44.00,-11.00,-1048.00
2024-05-19 09:57:18.124634,0,0,0,7,0,0,80,82,131,120,69,131.53,188,-7.00,-34.00,-1015.00
2024-05-19 09:57:18.148536,3,0,0,7,0,0,80,82,131,120,69,131.51,188,-26.00,-21.00,-1040.00
2024-05-19 09:57:18.329448,5,0,0,6,0,0,80,82,131,120,69,131.48,188,-10.00,-24.00,-1023.00
2024-05-19 09:57:18.352572,5,0,0,5,0,0,80,82,132,120,69,131.51,189,1.00,-31.00,-1014.00
2024-05-19 09:57:18.534253,3,0,0,4,0,0,80,82,131,120,69,131.55,189,-44.00,11.00,-991.00
2024-05-19 09:57:18.556521,2,0,0,3,0,0,80,82,131,120,69,131.55,189,-23.00,-36.00,-1020.00
2024-05-19 09:57:18.739036,1,0,0,3,0,0,80,82,131,120,69,131.56,189,-11.00,0.00,-1018.00
2024-05-19 09:57:18.761649,0,1,0,3,0,0,80,82,131,120,69,131.50,189,-8.00,-17.00,-1008.00
2024-05-19 09:57:18.943829,0,1,0,3,0,0,79,83,130,120,69,131.50,189,-27.00,-6.00,-984.00
2024-05-19 09:57:18.964406,0,1,0,2,0,0,79,83,130,120,69,131.57,189,24.00,-14.00,-1006.00
2024-05-19 09:57:19.148642,1,0,0,2,0,0,79,83,130,120,69,131.54,189,-24.00,-25.00,-1002.00
2024-05-19 09:57:19.168592,5,0,0,2,0,0,79,83,130,120,69,131.51,189,19.00,-30.00,-1015.00
2024-05-19 09:57:19.353441,4,0,0,1,0,0,79,83,129,120,69,131.55,189,37.00,-49.00,-983.00
2024-05-19 09:57:19.375059,2,0,0,0,0,0,79,83,128,120,69,131.58,190,25.00,-24.00,-999.00
2024-05-19 09:57:19.474695,1,0,0,0,0,0,79,83,127,120,69,131.61,190,14.00,-24.00,-965.00
2024-05-19 09:57:19.660754,0,1,0,0,0,0,79,83,127,120,69,131.51,190,29.00,-24.00,-1020.00
2024-05-19 09:57:19.678586,0,1,0,0,0,0,79,83,126,120,69,131.57,190,5.00,-13.00,-992.00
2024-05-19 09:57:19.781029,0,0,0,0,0,0,79,83,125,120,69,131.54,190,37.00,-12.00,-1012.00
2024-05-19 09:57:19.968024,0,0,0,0,0,0,79,81,125,120,69,131.59,190,5.00,-5.00,-997.00
2024-05-19 09:57:19.984761,1,0,0,0,0,0,79,81,125,120,69,131.67,190,-52.00,21.00,-1066.00
2024-05-19 09:57:20.172748,1,0,0,0,0,0,79,81,125,120,69,131.57,190,24.00,-11.00,-1032.00
2024-05-19 09:57:20.188538,1,0,0,0,0,0,79,81,125,120,69,131.58,190,24.00,-14.00,-994.00
2024-05-19 09:57:20.377884,1,0,0,0,0,0,79,81,125,120,69,131.56,190,35.00,8.00,-987.00
2024-05-19 09:57:20.378006,1,0,0,0,0,0,79,81,125,120,69,131.40,191,35.00,-13.00,-1033.00
2024-05-19 09:57:20.443646,1,0,0,0,0,0,79,81,126,120,68,131.47,191,-10.00,15.00,-972.00
2024-05-19 09:57:20.582785,1,0,0,0,0,0,79,81,126,120,68,131.57,191,-40.00,-5.00,-948.00
2024-05-19 09:57:20.647762,0,0,0,0,0,0,79,81,126,120,68,131.53,191,10.00,19.00,-1012.00
2024-05-19 09:57:20.787354,0,0,0,0,0,0,79,81,127,120,68,131.55,191,-13.00,7.00,-966.00
2024-05-19 09:57:20.851561,0,0,0,0,0,0,79,82,127,120,68,131.60,191,2.00,-2.00,-1001.00
2024-05-19 09:57:20.953769,0,0,0,0,0,0,79,82,127,120,68,131.63,191,6.00,0.00,-978.00
2024-05-19 09:57:21.094419,0,0,0,0,0,0,79,82,127,120,68,131.56,191,35.00,-16.00,-966.00
2024-05-19 09:57:21.157535,0,0,0,0,0,0,79,82,128,120,68,131.54,191,1.00,14.00,-1032.00
2024-05-19 09:57:21.299959,1,0,0,0,0,0,79,82,128,120,68,131.55,191,15.00,-24.00,-934.00
2024-05-19 09:57:21.361763,0,0,0,0,0,0,79,82,128,120,68,131.58,192,39.00,-13.00,-1041.00
2024-05-19 09:57:21.503919,0,0,0,0,0,0,79,82,128,120,68,131.53,192,-3.00,-1.00,-963.00
2024-05-19 09:57:21.565355,0,0,0,0,0,0,79,82,129,120,68,131.51,192,24.00,-18.00,-1001.00
2024-05-19 09:57:21.708700,6,0,0,0,0,0,79,82,130,120,68,131.56,192,-14.00,-3.00,-1003.00
2024-05-19 09:57:21.769490,8,1,0,-1,0,0,79,82,131,120,68,131.60,192,51.00,-25.00,-1004.00
2024-05-19 09:57:21.913415,8,0,0,-4,0,0,79,82,130,120,68,131.59,192,26.00,-12.00,-1038.00
2024-05-19 09:57:21.973464,7,0,0,-5,0,0,79,82,131,120,68,131.44,192,45.00,8.00,-999.00
2024-05-19 09:57:22.118253,7,0,0,-6,0,0,79,82,130,120,68,131.51,192,51.00,39.00,-990.00
2024-05-19 09:57:22.177557,6,0,0,-6,0,0,79,82,130,120,68,131.65,192,67.00,29.00,-960.00
2024-05-19 09:57:22.323105,6,0,0,-7,0,0,79,82,130,120,68,131.64,193,66.00,41.00,-1007.00
2024-05-19 09:57:22.381827,3,-1,0,-7,0,0,79,82,131,120,68,131.56,193,115.00,21.00,-1019.00
2024-05-19 09:57:22.527861,1,-1,0,-7,0,0,79,82,131,120,68,131.52,193,80.00,-2.00,-1007.00
2024-05-19 09:57:22.586823,-1,-1,0,-6,0,0,79,82,131,120,68,131.54,193,91.00,-9.00,-1014.00
2024-05-19 09:57:22.734443,-3,-1,0,-5,0,0,79,82,131,120,68,131.55,193,64.00,19.00,-998.00
2024-05-19 09:57:22.791493,-1,-1,0,-3,0,0,79,82,131,120,68,131.60,193,104.00,10.00,-1024.00
2024-05-19 09:57:22.893391,0,-1,0,-2,0,0,80,82,132,120,68,131.50,193,55.00,-5.00,-1004.00
2024-05-19 09:57:22.994751,1,0,0,-2,0,0,80,82,132,120,68,131.50,193,78.00,10.00,-1000.00
2024-05-19 09:57:23.095414,2,0,0,-2,0,0,80,82,133,120,68,131.50,193,60.00,16.00,-997.00
2024-05-19 09:57:23.244673,2,-1,0,-2,0,0,80,82,133,120,68,131.49,193,56.00,25.00,-973.00
2024-05-19 09:57:23.299387,3,-1,0,-2,0,0,80,82,133,120,68,131.52,194,37.00,23.00,-997.00
2024-05-19 09:57:23.449484,2,-1,0,-2,0,0,80,82,133,120,68,131.53,194,37.00,-2.00,-983.00
2024-05-19 09:57:23.503368,2,-1,0,-2,0,0,80,82,134,120,68,131.42,194,77.00,-12.00,-979.00
2024-05-19 09:57:23.654219,2,-1,0,-2,0,0,80,82,134,120,68,131.57,194,63.00,8.00,-994.00
2024-05-19 09:57:23.707415,2,-1,0,-1,0,0,80,82,134,120,68,131.58,194,62.00,18.00,-979.00
2024-05-19 09:57:23.859059,2,0,0,-1,0,0,80,82,134,120,68,131.58,194,60.00,-4.00,-1030.00
2024-05-19 09:57:23.911472,2,2,0,-1,0,0,80,82,133,120,68,131.60,194,34.00,11.00,-1017.00
2024-05-19 09:57:24.063827,2,1,0,-1,0,0,80,82,133,120,68,131.56,194,22.00,9.00,-968.00
2024-05-19 09:57:24.115416,0,0,0,-1,0,0,80,82,133,120,68,131.61,194,41.00,-9.00,-1024.00
2024-05-19 09:57:24.268845,-3,0,0,0,0,0,80,82,133,120,68,131.64,194,52.00,-14.00,-1010.00
2024-05-19 09:57:24.268931,0,0,0,0,0,0,80,82,133,120,68,131.57,195,0.00,35.00,-971.00
2024-05-19 09:57:24.371466,1,0,0,0,0,0,80,82,132,120,68,131.54,195,41.00,21.00,-996.00
2024-05-19 09:57:24.473820,2,-1,0,0,0,0,80,82,132,120,67,131.62,195,51.00,21.00,-971.00
2024-05-19 09:57:24.575979,2,-1,0,0,0,0,80,82,133,120,67,131.52,195,54.00,3.00,-999.00
2024-05-19 09:57:24.676387,2,-1,0,0,0,0,80,82,133,120,67,131.58,195,48.00,-2.00,-969.00
2024-05-19 09:57:24.778777,2,-1,0,0,0,0,80,82,133,120,67,131.57,195,15.00,14.00,-1032.00
2024-05-19 09:57:24.883505,1,-1,0,0,0,0,79,81,133,120,67,131.55,195,57.00,0.00,-970.00
2024-05-19 09:57:24.982373,1,0,0,0,0,0,79,81,133,120,67,131.55,195,58.00,-4.00,-1010.00
2024-05-19 09:57:25.087927,2,0,0,0,0,0,79,81,133,120,67,131.57,195,37.00,-6.00,-997.00
2024-05-19 09:57:25.186364,2,0,0,0,0,0,79,81,134,120,67,131.57,195,48.00,-3.00,-949.00
2024-05-19 09:57:25.292731,2,0,0,0,0,0,79,81,135,120,67,131.55,196,52.00,0.00,-977.00
2024-05-19 09:57:25.392865,2,0,0,0,0,0,79,81,136,120,67,131.52,196,53.00,17.00,-1043.00
2024-05-19 09:57:25.492258,2,0,0,0,0,0,79,81,136,120,67,131.50,196,24.00,15.00,-998.00
2024-05-19 09:57:25.599919,3,-1,0,0,0,0,79,81,136,120,67,131.54,196,43.00,17.00,-963.00
2024-05-19 09:57:25.696729,2,0,0,0,0,0,79,81,136,120,67,131.64,196,18.00,-19.00,-1021.00
2024-05-19 09:57:25.804699,3,0,0,0,0,0,79,81,136,120,67,131.42,196,47.00,13.00,-967.00
2024-05-19 09:57:25.900366,3,0,0,0,0,0,79,81,136,120,67,131.50,196,61.00,-2.00,-994.00
2024-05-19 09:57:26.009546,3,0,0,0,0,0,79,81,136,120,67,131.57,196,27.00,20.00,-1017.00
2024-05-19 09:57:26.104319,2,0,0,0,0,0,79,81,136,120,67,131.61,196,28.00,1.00,-1018.00
2024-05-19 09:57:26.214260,2,0,0,0,0,0,79,81,135,120,67,131.55,196,43.00,9.00,-1016.00
2024-05-19 09:57:26.308136,3,0,0,0,0,0,79,81,135,120,67,131.57,197,55.00,0.00,-960.00
2024-05-19 09:57:26.418973,2,0,0,0,0,0,79,81,134,120,67,131.58,197,25.00,47.00,-959.00
2024-05-19 09:57:26.512189,1,-6,0,0,0,0,79,81,134,120,67,131.51,197,-8.00,-12.00,-1019.00
2024-05-19 09:57:26.623761,1,-8,0,0,-1,0,79,81,135,120,67,131.44,197,23.00,-14.00,-1029.00
2024-05-19 09:57:26.716197,1,-5,0,0,-3,0,79,81,134,120,67,131.52,197,32.00,0.00,-1012.00
2024-05-19 09:57:26.832301,1,-3,0,0,-4,0,79,81,133,120,67,131.50,197,32.00,26.00,-1020.00
2024-05-19 09:57:26.920632,2,0,0,0,-4,0,79,82,134,120,67,131.54,197,65.00,21.00,-973.00
2024-05-19 09:57:27.033398,1,1,0,0,-4,0,79,82,133,120,67,131.50,197,24.00,8.00,-995.00
2024-05-19 09:57:27.124876,2,1,0,0,-3,0,79,82,133,120,67,131.57,197,39.00,6.00,-1023.00
2024-05-19 09:57:27.238177,2,0,0,0,-3,0,79,82,133,120,67,131.51,197,29.00,-5.00,-983.00
2024-05-19 09:57:27.332735,2,0,0,0,-2,0,79,82,133,120,67,131.50,198,5.00,7.00,-970.00
2024-05-19 09:57:27.430672,2,0,0,0,-2,0,79,82,134,120,67,131.52,198,27.00,13.00,-996.00
2024-05-19 09:57:27.545366,2,0,0,0,-2,0,79,82,133,120,67,131.55,198,9.00,47.00,-959.00
2024-05-19 09:57:27.633992,2,0,0,0,-2,0,79,82,133,120,67,131.50,198,62.00,4.00,-995.00
2024-05-19 09:57:27.750202,2,0,0,0,-2,0,79,82,133,120,67,131.49,198,24.00,16.00,-973.00
2024-05-19 09:57:27.838040,2,0,0,0,-2,0,79,82,133,120,67,131.50,198,29.00,2.00,-985.00
2024-05-19 09:57:27.955690,2,0,0,0,-2,0,80,81,133,120,67,131.51,198,21.00,17.00,-998.00
2024-05-19 09:57:28.042072,1,0,0,0,-2,0,80,81,134,120,67,131.49,198,20.00,3.00,-975.00
2024-05-19 09:57:28.159775,1,1,0,0,-1,0,80,81,134,120,67,131.56,198,16.00,38.00,-1003.00
2024-05-19 09:57:28.246068,1,3,0,0,-1,0,80,81,134,120,67,131.56,198,34.00,5.00,-993.00
2024-05-19 09:57:28.364538,1,2,0,0,0,0,80,81,134,120,67,131.54,199,14.00,13.00,-1053.00
2024-05-19 09:57:28.401224,1,1,0,0,0,0,80,81,134,120,66,131.53,199,60.00,-17.00,-984.00
2024-05-19 09:57:28.503899,1,0,0,0,0,0,80,81,134,120,66,131.56,199,7.00,10.00,-991.00
2024-05-19 09:57:28.605235,1,0,0,0,0,0,80,81,134,120,66,131.48,199,65.00,-3.00,-970.00
2024-05-19 09:57:28.706802,1,0,0,0,0,0,80,81,134,120,66,131.53,199,57.00,-19.00,-996.00
2024-05-19 09:57:28.811322,1,0,0,0,0,0,80,81,134,120,66,131.54,199,57.00,0.00,-992.00
2024-05-19 09:57:28.913566,1,0,0,0,0,0,79,82,134,120,66,131.55,199,26.00,12.00,-988.00
2024-05-19 09:57:29.014330,1,0,0,0,0,0,79,82,134,120,66,131.59,199,50.00,-3.00,-959.00
2024-05-19 09:57:29.114547,1,0,0,0,0,0,79,82,133,120,66,131.59,199,63.00,0.00,-943.00
2024-05-19 09:57:29.286322,1,0,0,0,0,0,79,82,133,120,66,131.56,199,66.00,-24.00,-1024.00
2024-05-19 09:57:29.318172,2,0,0,0,0,0,79,82,134,120,66,131.56,200,22.00,-7.00,-998.00
2024-05-19 09:57:29.491484,1,0,0,0,0,0,79,82,133,120,66,131.59,200,25.00,-5.00,-1008.00
2024-05-19 09:57:29.523605,1,0,0,0,0,0,79,82,133,120,66,131.56,200,29.00,11.00,-1013.00
2024-05-19 09:57:29.700345,1,0,0,0,0,0,79,82,133,120,66,131.56,200,30.00,-16.00,-962.00
2024-05-19 09:57:29.725968,2,0,0,0,0,0,79,82,133,120,66,131.52,200,58.00,16.00,-960.00
2024-05-19 09:57:29.900739,1,0,0,0,0,0,79,82,133,120,66,131.59,200,21.00,17.00,-973.00
2024-05-19 09:57:29.930641,2,0,0,0,0,0,79,82,133,120,66,131.51,200,36.00,23.00,-1018.00
2024-05-19 09:57:30.105920,2,0,0,0,0,0,79,82,133,120,66,131.51,200,16.00,12.00,-994.00
2024-05-19 09:57:30.134421,2,-1,0,0,0,0,79,82,132,120,66,131.54,200,40.00,0.00,-1008.00
2024-05-19 09:57:30.310709,1,0,0,0,0,0,79,82,133,120,66,131.52,200,46.00,7.00,-1036.00
2024-05-19 09:57:30.338084,2,0,0,0,0,0,79,82,132,120,66,131.57,201,49.00,16.00,-1000.00
2024-05-19 09:57:30.440006,2,0,0,0,0,0,79,82,132,120,66,131.57,201,27.00,20.00,-1003.00
2024-05-19 09:57:30.617412,2,0,0,0,0,0,79,82,132,120,66,131.55,201,53.00,-34.00,-1039.00
2024-05-19 09:57:30.643855,2,7,0,0,0,0,79,82,134,120,66,131.54,201,37.00,0.00,-991.00
2024-05-19 09:57:30.822635,2,8,0,0,1,0,79,82,133,120,66,131.49,201,45.00,1.00,-1006.00
2024-05-19 09:57:30.847935,2,5,0,0,3,0,79,82,132,120,66,131.52,201,23.00,-23.00,-979.00
2024-05-19 09:57:31.027053,2,2,0,0,3,0,79,82,132,120,66,131.48,201,71.00,-34.00,-1015.00
2024-05-19 09:57:31.051778,3,0,0,0,3,0,79,82,133,120,66,131.49,201,86.00,-43.00,-1003.00
2024-05-19 09:57:31.233937,2,0,0,0,3,0,79,82,133,120,66,131.49,201,67.00,-42.00,-1026.00
2024-05-19 09:57:31.257893,3,0,0,0,3,0,79,82,133,120,66,131.50,201,29.00,-19.00,-965.00
2024-05-19 09:57:31.357925,3,0,0,0,3,0,79,82,134,120,66,131.53,202,50.00,-30.00,-961.00
2024-05-19 09:57:31.538999,2,0,0,0,2,0,79,82,134,120,66,131.49,202,63.00,-31.00,-990.00
2024-05-19 09:57:31.561953,2,0,0,0,2,0,79,82,134,120,66,131.57,202,24.00,-6.00,-979.00
2024-05-19 09:57:31.743716,2,0,0,0,2,0,79,82,133,120,66,131.51,202,67.00,-16.00,-998.00
2024-05-19 09:57:31.765935,2,0,0,0,2,0,79,82,134,120,66,131.53,202,68.00,-37.00,-982.00
2024-05-19 09:57:31.948620,2,0,0,0,2,0,79,82,134,120,66,131.49,202,37.00,-20.00,-1035.00
2024-05-19 09:57:31.970001,2,0,0,0,2,0,79,81,134,120,66,131.58,202,27.00,-3.00,-963.00
2024-05-19 09:57:32.153396,4,0,0,0,2,0,79,81,134,120,66,131.51,202,6.00,7.00,-1004.00
2024-05-19 09:57:32.174655,5,0,0,0,1,0,79,81,134,120,66,131.54,202,40.00,-19.00,-987.00
2024-05-19 09:57:32.358108,3,0,0,-1,1,0,79,81,133,120,66,131.51,202,56.00,-14.00,-984.00
2024-05-19 09:57:32.358161,-1,-2,0,-1,1,0,79,81,135,120,66,131.47,203,49.00,-28.00,-988.00
2024-05-19 09:57:32.429098,0,-2,0,0,0,0,79,81,134,120,66,131.43,203,46.00,6.00,-1011.00
2024-05-19 09:57:32.530941,1,0,0,0,0,0,79,81,134,120,66,131.42,203,47.00,-17.00,-1005.00
2024-05-19 09:57:32.665421,1,0,0,0,0,0,79,81,134,120,66,131.50,203,54.00,-38.00,-1050.00
2024-05-19 09:57:32.735204,1,0,0,0,0,0,79,81,134,120,66,131.45,203,31.00,-2.00,-999.00
2024-05-19 09:57:32.870481,1,0,0,0,0,0,79,81,134,120,66,131.53,203,70.00,-20.00,-964.00
2024-05-19 09:57:32.942014,1,0,0,0,0,0,79,81,134,120,66,131.51,203,36.00,2.00,-984.00
2024-05-19 09:57:33.040953,1,0,0,0,0,0,79,81,134,120,66,131.54,203,36.00,-13.00,-1031.00
2024-05-19 09:57:33.177606,1,0,0,0,0,0,79,81,134,120,66,131.52,203,27.00,0.00,-975.00
2024-05-19 09:57:33.245034,1,0,0,0,0,0,79,81,133,120,66,131.48,203,50.00,-9.00,-978.00
2024-05-19 09:57:33.382415,1,0,0,0,0,0,79,81,133,120,66,131.55,204,19.00,16.00,-966.00
2024-05-19 09:57:33.452125,1,0,0,0,0,0,79,81,133,120,65,131.58,204,65.00,7.00,-1003.00
2024-05-19 09:57:33.551168,1,0,0,0,0,0,79,81,133,120,65,131.47,204,29.00,-5.00,-1008.00
2024-05-19 09:57:33.689805,1,0,0,0,0,0,79,81,132,120,65,131.52,204,38.00,-1.00,-947.00
2024-05-19 09:57:33.755073,1,0,0,0,0,0,79,81,132,120,65,131.47,204,46.00,-18.00,-990.00
2024-05-19 09:57:33.894637,1,0,0,0,0,0,79,81,132,120,65,131.47,204,35.00,15.00,-1027.00
2024-05-19 09:57:33.959175,2,0,0,0,0,0,79,81,132,120,65,131.45,204,50.00,-5.00,-988.00
2024-05-19 09:57:34.099029,2,0,0,0,0,0,79,81,132,120,65,131.48,204,34.00,25.00,-1044.00
2024-05-19 09:57:34.163044,2,0,0,0,0,0,79,81,132,120,65,131.48,204,40.00,-3.00,-987.00
2024-05-19 09:57:34.303839,2,0,0,0,0,0,79,81,132,120,65,131.47,204,29.00,-17.00,-1034.00
2024-05-19 09:57:34.371709,1,0,0,0,0,0,79,81,132,120,65,131.50,205,19.00,1.00,-1002.00
2024-05-19 09:57:34.469078,1,0,0,0,0,0,79,81,132,120,65,131.55,205,29.00,-7.00,-1011.00
2024-05-19 09:57:34.571043,2,0,0,0,0,0,79,81,132,120,65,131.51,205,40.00,4.00,-1027.00
2024-05-19 09:57:34.713380,1,0,0,0,0,0,79,81,132,120,65,131.46,205,37.00,-16.00,-1017.00
2024-05-19 09:57:34.774946,1,0,4,0,0,0,79,81,133,120,65,131.47,205,30.00,-12.00,-990.00
2024-05-19 09:57:34.918190,1,0,10,0,0,0,79,81,132,120,65,131.46,205,57.00,-37.00,-990.00
2024-05-19 09:57:34.979366,1,0,16,0,0,0,78,82,132,120,65,131.48,205,17.00,15.00,-1009.00
2024-05-19 09:57:35.122993,1,0,21,0,0,0,78,82,132,120,65,131.54,205,38.00,-21.00,-977.00
2024-05-19 09:57:35.182795,1,0,27,0,0,0,78,82,132,120,65,131.50,205,54.00,-41.00,-1002.00
2024-05-19 09:57:35.327647,1,0,32,0,0,0,78,82,131,120,65,131.47,205,47.00,-33.00,-1032.00
2024-05-19 09:57:35.386896,1,0,38,0,0,0,78,82,131,120,65,131.49,206,22.00,4.00,-1015.00
2024-05-19 09:57:35.532553,1,1,44,0,0,0,78,82,130,120,65,131.47,206,30.00,-38.00,-1008.00
2024-05-19 09:57:35.590823,1,1,49,0,0,0,78,82,130,120,65,131.47,206,10.00,-5.00,-1021.00
2024-05-19 09:57:35.737323,1,1,61,0,0,0,78,82,130,120,65,131.46,206,22.00,18.00,-1010.00
2024-05-19 09:57:35.794881,1,1,67,0,0,0,78,82,130,120,65,131.43,206,30.00,-40.00,-1005.00
2024-05-19 09:57:35.942143,1,1,73,0,0,0,78,82,130,120,65,131.49,206,57.00,-41.00,-998.00
2024-05-19 09:57:35.998736,1,1,78,0,0,0,79,82,130,120,65,131.48,206,47.00,-41.00,-993.00
2024-05-19 09:57:36.146951,0,1,84,0,0,0,79,82,130,120,65,131.42,206,-9.00,-48.00,-1050.00
2024-05-19 09:57:36.202744,0,2,90,0,0,0,79,82,130,120,65,131.43,206,-8.00,-25.00,-982.00
2024-05-19 09:57:36.351743,0,2,96,0,0,0,79,82,130,120,65,131.46,207,-6.00,-3.00,-950.00
2024-05-19 09:57:36.406865,0,2,102,0,0,0,79,82,130,120,65,131.47,207,-1.00,-33.00,-1019.00
2024-05-19 09:57:36.556564,0,1,108,0,0,0,79,82,130,120,65,131.50,207,-26.00,-9.00,-1011.00
2024-05-19 09:57:36.559676,0,1,114,0,0,0,79,82,131,120,65,131.49,207,-2.00,-37.00,-950.00
2024-05-19 09:57:36.661544,-1,1,120,0,0,0,79,82,131,120,65,131.50,207,-3.00,-22.00,-1050.00
2024-05-19 09:57:36.763678,-1,1,126,0,0,0,79,82,131,120,65,131.51,207,-31.00,-10.00,-953.00
2024-05-19 09:57:36.865672,-1,1,133,0,0,0,79,82,131,120,65,131.47,207,-70.00,0.00,-1009.00
2024-05-19 09:57:37.068973,-1,1,139,0,0,0,80,81,131,120,65,131.52,207,-26.00,-16.00,-992.00
2024-05-19 09:57:37.069824,-1,1,146,0,0,0,80,81,132,120,65,131.51,207,-17.00,-14.00,-1015.00
2024-05-19 09:57:37.273358,-1,0,152,0,0,0,80,81,132,120,65,131.55,207,-1.00,-37.00,-1024.00
2024-05-19 09:57:37.273601,-1,0,159,0,0,0,80,81,132,120,65,131.56,208,-32.00,-21.00,-1021.00
2024-05-19 09:57:37.375931,-1,0,166,0,0,0,80,81,133,120,65,131.46,208,-31.00,-2.00,-974.00
2024-05-19 09:57:37.478097,-1,0,172,0,0,0,80,81,132,120,65,131.50,208,-14.00,-1.00,-954.00
2024-05-19 09:57:37.580123,-1,0,179,0,0,0,80,81,133,120,65,131.46,208,4.00,-10.00,-1001.00
2024-05-19 09:57:37.682832,-1,0,-174,0,0,0,80,81,132,120,65,131.51,208,-19.00,12.00,-1020.00
2024-05-19 09:57:37.783578,-1,0,-167,0,0,0,80,81,133,120,65,131.56,208,-15.00,18.00,-1010.00
2024-05-19 09:57:37.887736,-1,0,-161,0,0,0,80,81,132,120,65,131.53,208,-4.00,7.00,-976.00
2024-05-19 09:57:37.987651,-1,0,-155,0,0,0,79,81,133,120,65,131.52,208,1.00,16.00,-978.00
2024-05-19 09:57:38.092570,0,0,-149,0,0,0,79,81,133,120,65,131.60,208,-22.00,17.00,-1015.00
2024-05-19 09:57:38.191600,0,0,-143,0,0,0,79,81,133,120,65,131.57,208,-13.00,20.00,-1012.00
2024-05-19 09:57:38.297317,0,0,-137,0,0,0,79,81,133,120,65,131.49,209,-30.00,27.00,-1023.00
2024-05-19 09:57:38.395498,0,0,-131,0,0,0,79,81,133,120,65,131.39,209,1.00,18.00,-971.00
2024-05-19 09:57:38.502126,0,0,-125,0,0,0,79,81,133,120,65,131.45,209,-7.00,20.00,-981.00
2024-05-19 09:57:38.599587,0,0,-119,0,0,0,79,81,133,120,65,131.53,209,-14.00,37.00,-971.00
2024-05-19 09:57:38.706872,0,0,-113,0,0,0,79,81,133,120,65,131.56,209,-12.00,45.00,-1012.00
2024-05-19 09:57:38.803586,0,0,-107,0,0,0,79,81,133,120,65,131.60,209,2.00,21.00,-1005.00
2024-05-19 09:57:38.911719,0,0,-100,0,0,0,79,81,133,120,65,131.56,209,13.00,22.00,-983.00
2024-05-19 09:57:39.007476,0,0,-94,0,0,0,79,81,132,120,65,131.58,209,-6.00,17.00,-1003.00
2024-05-19 09:57:39.116513,0,0,-87,0,0,0,79,81,132,120,65,131.60,209,1.00,17.00,-991.00
2024-05-19 09:57:39.211489,0,0,-80,0,0,0,79,81,132,120,65,131.53,209,0.00,17.00,-997.00
2024-05-19 09:57:39.321355,0,0,-74,0,0,0,79,81,132,120,65,131.52,210,-15.00,19.00,-988.00
2024-05-19 09:57:39.415567,1,0,-67,0,0,0,79,81,132,120,65,131.60,210,15.00,17.00,-1006.00
2024-05-19 09:57:39.526111,1,1,-61,0,0,0,79,81,132,120,65,131.43,210,66.00,-16.00,-1035.00
2024-05-19 09:57:39.619467,1,1,-55,0,0,0,79,81,132,120,65,131.54,210,15.00,-7.00,-960.00
2024-05-19 09:57:39.730924,0,1,-49,0,0,0,79,81,131,120,65,131.60,210,47.00,1.00,-952.00
2024-05-19 09:57:39.823475,0,1,-43,0,0,0,79,81,132,120,65,131.60,210,19.00,-2.00,-996.00
2024-05-19 09:57:39.935775,0,1,-37,0,0,0,79,81,132,120,65,131.50,210,36.00,-18.00,-1030.00
2024-05-19 09:57:40.027458,0,1,-31,0,0,0,79,82,132,120,65,131.57,210,45.00,-17.00,-989.00
2024-05-19 09:57:40.145677,0,1,-26,0,0,0,79,82,132,120,65,131.60,210,-1.00,-6.00,-994.00
2024-05-19 09:57:40.231606,0,1,-20,0,0,0,79,82,132,120,65,131.61,210,24.00,-3.00,-995.00
2024-05-19 09:57:40.345315,1,1,-16,0,0,0,79,82,132,120,65,131.50,211,40.00,-16.00,-1060.00
2024-05-19 09:57:40.435476,0,1,-12,0,0,0,79,82,132,120,65,131.54,211,3.00,-6.00,-998.00
2024-05-19 09:57:40.550148,0,1,-10,0,0,0,79,82,132,120,64,131.58,211,71.00,-48.00,-1032.00
2024-05-19 09:57:40.588526,0,1,-8,0,0,0,79,82,132,120,64,131.57,211,1.00,0.00,-1025.00
2024-05-19 09:57:40.754834,0,1,-6,0,0,0,79,82,132,120,64,131.48,211,43.00,-14.00,-981.00
2024-05-19 09:57:40.792729,0,1,-5,0,0,0,79,82,132,120,64,131.42,211,26.00,-20.00,-981.00
2024-05-19 09:57:40.959755,0,1,-4,0,0,0,79,82,132,120,64,131.45,211,-16.00,-3.00,-1010.00
2024-05-19 09:57:40.997788,0,1,-3,0,0,0,79,82,132,120,64,131.45,211,64.00,-14.00,-986.00
2024-05-19 09:57:41.099221,0,1,-3,0,0,0,79,82,132,120,64,131.46,211,-3.00,3.00,-977.00
2024-05-19 09:57:41.201726,0,1,-2,0,0,0,79,82,133,120,64,131.45,211,33.00,-33.00,-1025.00
2024-05-19 09:57:41.304029,0,1,-1,0,0,0,79,82,133,120,64,131.54,212,18.00,-12.00,-1017.00
2024-05-19 09:57:41.406209,0,0,-1,0,0,0,79,82,133,120,64,131.59,212,-16.00,-6.00,-971.00
2024-05-19 09:57:41.508510,0,0,0,0,0,0,79,82,132,120,64,131.50,212,-16.00,2.00,-958.00
2024-05-19 09:57:41.611061,0,0,0,0,0,0,79,82,132,120,64,131.58,212,19.00,-23.00,-1012.00
2024-05-19 09:57:41.713705,0,0,0,0,0,0,79,82,131,120,64,131.51,212,35.00,-20.00,-946.00
2024-05-19 09:57:41.815974,0,0,0,0,0,0,79,82,131,120,64,131.54,212,41.00,-17.00,-985.00
2024-05-19 09:57:41.918454,0,0,0,0,0,0,79,82,131,120,64,131.56,212,44.00,-11.00,-1020.00
2024-05-19 09:57:42.016707,0,0,0,0,0,0,79,81,131,120,64,131.53,212,13.00,0.00,-1017.00
2024-05-19 09:57:42.188631,0,0,0,0,0,0,79,81,131,120,64,131.51,212,32.00,-29.00,-981.00
2024-05-19 09:57:42.220551,0,0,0,0,0,0,79,81,131,120,64,131.57,212,-36.00,3.00,-1018.00
2024-05-19 09:57:42.393631,0,0,0,0,0,0,79,81,131,120,64,131.52,213,5.00,0.00,-991.00
2024-05-19 09:57:42.424578,0,0,0,0,0,0,79,81,131,120,64,131.58,213,-8.00,-1.00,-1017.00
2024-05-19 09:57:42.527077,0,0,0,0,0,0,79,81,131,120,64,131.47,213,-5.00,-3.00,-985.00
2024-05-19 09:57:42.700503,0,0,0,0,0,0,79,81,132,120,64,131.53,213,43.00,-12.00,-1055.00
2024-05-19 09:57:42.733567,0,0,0,0,0,0,79,81,131,120,64,131.54,213,21.00,-2.00,-957.00
2024-05-19 09:57:42.836002,0,0,0,0,0,0,79,81,132,120,64,131.53,213,0.00,-8.00,-1019.00
2024-05-19 09:57:42.934551,0,0,0,0,0,0,79,81,132,120,64,131.55,213,0.00,-13.00,-999.00
2024-05-19 09:57:43.036504,0,0,0,0,0,0,78,81,132,120,64,131.59,213,0.00,-11.00,-1005.00
2024-05-19 09:57:43.152814,0,0,0,0,0,0,78,81,133,120,64,131.57,213,-5.00,0.00,-995.00
2024-05-19 09:57:43.240461,0,0,0,0,0,0,78,81,133,120,64,131.55,213,20.00,-2.00,-1014.00
2024-05-19 09:57:43.417293,0,0,0,0,0,0,78,81,133,120,64,131.51,214,9.00,1.00,-1001.00
2024-05-19 09:57:43.444543,0,0,-6,0,0,0,78,81,133,120,64,131.50,214,15.00,-3.00,-1023.00
2024-05-19 09:57:43.622104,1,0,-12,0,0,0,78,81,134,120,64,131.57,214,45.00,7.00,-977.00
2024-05-19 09:57:43.648623,0,0,-17,0,0,0,78,81,134,120,64,131.54,214,60.00,-38.00,-1006.00
2024-05-19 09:57:43.826911,0,0,-23,0,0,0,78,81,134,120,64,131.55,214,33.00,-8.00,-976.00
2024-05-19 09:57:43.852458,1,0,-29,0,0,0,78,81,134,120,64,131.54,214,-3.00,-7.00,-992.00
2024-05-19 09:57:44.031662,1,0,-35,0,0,0,78,81,134,120,64,131.58,214,20.00,-1.00,-957.00
2024-05-19 09:57:44.056385,1,0,-40,0,0,0,79,81,134,120,64,131.60,214,0.00,27.00,-979.00
2024-05-19 09:57:44.236493,1,0,-46,0,0,0,79,81,134,120,64,131.56,214,38.00,-21.00,-1013.00
2024-05-19 09:57:44.260379,1,0,-52,0,0,0,79,81,134,120,64,131.62,214,-6.00,20.00,-1027.00
2024-05-19 09:57:44.441319,1,0,-57,0,0,0,79,81,133,120,64,131.53,215,37.00,-7.00,-1009.00
2024-05-19 09:57:44.464394,1,0,-63,0,0,0,79,81,133,120,64,131.58,215,38.00,-5.00,-989.00
2024-05-19 09:57:44.515348,1,0,-68,0,0,0,79,81,133,120,64,131.52,215,39.00,-20.00,-969.00
2024-05-19 09:57:44.646055,1,0,-74,0,0,0,79,81,134,120,64,131.59,215,-8.00,2.00,-972.00
2024-05-19 09:57:44.720449,1,0,-79,0,0,0,79,81,134,120,64,131.52,215,-4.00,19.00,-956.00
2024-05-19 09:57:44.821356,1,0,-85,0,0,0,79,81,134,120,64,131.54,215,40.00,-1.00,-977.00
2024-05-19 09:57:44.953345,1,0,-91,0,0,0,79,81,134,120,64,131.55,215,74.00,-31.00,-1014.00
2024-05-19 09:57:45.025248,1,0,-97,0,0,0,79,81,135,120,64,131.49,215,30.00,12.00,-966.00
2024-05-19 09:57:45.158077,1,0,-102,0,0,0,79,81,135,120,64,131.47,215,26.00,20.00,-960.00
2024-05-19 09:57:45.229536,1,0,-108,0,0,0,79,81,135,120,64,131.52,215,55.00,-12.00,-1047.00
2024-05-19 09:57:45.362894,1,0,-114,0,0,0,79,81,135,120,64,131.59,216,29.00,7.00,-974.00
2024-05-19 09:57:45.433232,1,0,-120,0,0,0,79,81,135,120,64,131.60,216,-4.00,29.00,-975.00
2024-05-19 09:57:45.568310,1,-1,-126,0,0,0,79,81,135,120,64,131.64,216,40.00,2.00,-1018.00
2024-05-19 09:57:45.638398,1,-1,-132,0,0,0,79,81,135,120,64,131.58,216,14.00,29.00,-1025.00
2024-05-19 09:57:45.777255,1,-1,-138,0,0,0,79,81,135,120,64,131.58,216,4.00,11.00,-1006.00
2024-05-19 09:57:45.841302,1,-1,-144,0,0,0,79,81,134,120,64,131.50,216,12.00,21.00,-1003.00
2024-05-19 09:57:45.978581,1,-1,-150,0,0,0,79,81,134,120,64,131.57,216,2.00,32.00,-971.00
2024-05-19 09:57:46.045239,0,-1,-156,0,0,0,79,81,134,120,64,131.50,216,-33.00,25.00,-981.00
2024-05-19 09:57:46.182048,0,-1,-162,0,0,0,79,81,134,120,64,131.57,216,-4.00,25.00,-995.00
2024-05-19 09:57:46.249259,0,-1,-168,0,0,0,79,81,134,120,64,131.52,216,2.00,11.00,-1012.00
2024-05-19 09:57:46.386858,0,0,-174,0,0,0,79,81,134,120,64,131.61,217,12.00,5.00,-1002.00
2024-05-19 09:57:46.453271,0,0,179,0,0,0,79,81,134,120,63,131.59,217,0.00,33.00,-940.00
2024-05-19 09:57:46.592470,0,0,173,0,0,0,79,81,133,120,63,131.55,217,-25.00,28.00,-963.00
2024-05-19 09:57:46.657170,0,0,167,0,0,0,79,81,133,120,63,131.51,217,-30.00,23.00,-1018.00
2024-05-19 09:57:46.759162,0,0,161,0,0,0,79,81,133,120,63,131.59,217,-15.00,32.00,-1022.00
2024-05-19 09:57:46.898847,0,0,154,0,0,0,79,81,133,120,63,131.50,217,12.00,8.00,-1012.00
2024-05-19 09:57:46.963364,0,0,148,0,0,0,79,81,133,120,63,131.54,217,-29.00,27.00,-991.00
2024-05-19 09:57:47.103529,0,0,142,0,0,0,79,80,133,120,63,131.50,217,-24.00,24.00,-1019.00
2024-05-19 09:57:47.167120,0,0,136,0,0,0,79,80,133,120,63,131.52,217,-7.00,1.00,-1012.00
2024-05-19 09:57:47.308489,0,0,130,0,0,0,79,80,134,120,63,131.50,217,-18.00,3.00,-992.00
2024-05-19 09:57:47.371190,0,0,123,0,0,0,79,80,134,120,63,131.51,218,-36.00,18.00,-957.00
2024-05-19 09:57:47.513196,0,0,117,0,0,0,79,80,133,120,63,131.53,218,-9.00,3.00,-1009.00
2024-05-19 09:57:47.575205,-1,0,111,0,0,0,79,80,133,120,63,131.61,218,-27.00,-4.00,-1010.00
2024-05-19 09:57:47.718189,0,0,104,0,0,0,79,80,133,120,63,131.48,218,-42.00,16.00,-985.00
2024-05-19 09:57:47.779135,0,0,98,0,0,0,79,80,134,120,63,131.52,218,-22.00,-5.00,-984.00
2024-05-19 09:57:47.922870,0,0,91,0,0,0,79,80,134,120,63,131.54,218,-19.00,3.00,-981.00
2024-05-19 09:57:47.983190,0,0,85,0,0,0,79,80,134,120,63,131.55,218,-50.00,1.00,-971.00
2024-05-19 09:57:48.127612,0,0,79,0,0,0,78,80,133,120,63,131.54,218,-21.00,0.00,-995.00
2024-05-19 09:57:48.187104,0,0,72,0,0,0,78,80,133,120,63,131.49,218,-18.00,-12.00,-997.00
2024-05-19 09:57:48.332480,0,0,66,0,0,0,78,80,133,120,63,131.50,218,-53.00,5.00,-983.00
2024-05-19 09:57:48.391126,0,0,60,0,0,0,78,80,133,120,63,131.51,219,17.00,-22.00,-941.00
2024-05-19 09:57:48.537253,0,1,53,0,0,0,78,80,133,120,63,131.55,219,-17.00,-16.00,-1068.00
2024-05-19 09:57:48.547713,0,1,47,0,0,0,78,80,133,120,63,131.54,219,-19.00,-26.00,-969.00
2024-05-19 09:57:48.646241,0,1,41,0,0,0,78,80,133,120,63,131.58,219,0.00,-25.00,-1025.00
2024-05-19 09:57:48.844601,0,1,35,0,0,0,78,80,133,120,63,131.54,219,-1.00,-10.00,-990.00
2024-05-19 09:57:48.851083,0,1,29,0,0,0,78,80,133,120,63,131.56,219,9.00,-17.00,-1003.00
2024-05-19 09:57:49.049170,0,1,23,0,0,0,78,80,133,120,63,131.58,219,-2.00,-20.00,-1018.00
2024-05-19 09:57:49.055107,0,1,17,0,0,0,78,81,133,120,63,131.52,219,-29.00,-12.00,-992.00
2024-05-19 09:57:49.254063,0,1,13,0,0,0,78,81,133,120,63,131.53,219,20.00,-21.00,-1017.00
2024-05-19 09:57:49.259022,0,1,10,0,0,0,78,81,133,120,63,131.51,219,9.00,-15.00,-978.00
2024-05-19 09:57:49.458871,0,1,7,0,0,0,78,81,134,120,63,131.53,220,-2.00,-2.00,-991.00
2024-05-19 09:57:49.463083,0,1,6,0,0,0,78,81,134,120,63,131.53,220,6.00,-38.00,-1005.00
2024-05-19 09:57:49.663865,0,0,4,0,0,0,78,81,134,120,63,131.54,220,-32.00,3.00,-999.00
2024-05-19 09:57:49.667024,0,1,3,0,0,0,78,81,134,120,63,131.50,220,-8.00,-8.00,-967.00
2024-05-19 09:57:49.769893,0,1,3,0,0,0,78,81,134,120,63,131.55,220,-3.00,-17.00,-996.00
2024-05-19 09:57:49.871173,0,1,2,0,0,0,78,81,134,120,63,131.51,220,25.00,-36.00,-1035.00
2024-05-19 09:57:49.973319,0,1,2,0,0,0,78,81,134,120,63,131.54,220,0.00,-9.00,-989.00
2024-05-19 09:57:50.075024,0,0,2,0,0,0,79,81,134,120,63,131.46,220,30.00,-11.00,-975.00
2024-05-19 09:57:50.278103,0,0,2,0,0,0,79,81,133,120,63,131.53,220,-1.00,-10.00,-984.00
2024-05-19 09:57:50.279057,0,0,2,0,0,0,79,81,133,120,63,131.59,221,-1.00,11.00,-971.00
2024-05-19 09:57:50.482927,0,0,2,0,0,0,79,81,132,120,63,131.55,221,23.00,-22.00,-994.00
2024-05-19 09:57:50.483072,0,0,2,0,0,0,79,81,132,120,63,131.52,221,-27.00,-5.00,-999.00
2024-05-19 09:57:50.585557,0,1,2,0,0,0,79,81,131,120,63,131.48,221,0.00,-26.00,-1005.00
2024-05-19 09:57:50.687802,0,1,2,0,0,0,79,81,131,120,63,131.45,221,5.00,-29.00,-993.00
2024-05-19 09:57:50.789684,0,1,2,0,0,0,79,81,131,120,63,131.44,221,0.00,-30.00,-1006.00
2024-05-19 09:57:50.892440,0,2,2,0,0,0,79,81,130,120,63,131.47,221,-7.00,-35.00,-985.00
2024-05-19 09:57:50.995706,0,2,2,0,0,0,79,81,130,120,63,131.44,221,38.00,-54.00,-980.00
2024-05-19 09:57:51.095136,0,2,2,0,0,0,79,81,130,120,63,131.48,221,-21.00,-27.00,-1040.00
2024-05-19 09:57:51.199668,0,2,1,0,0,0,79,81,130,120,63,131.44,221,2.00,-39.00,-965.00
2024-05-19 09:57:51.298914,0,2,1,0,0,0,79,81,129,120,63,131.44,222,-19.00,-62.00,-982.00
2024-05-19 09:57:51.404578,0,2,1,0,0,0,79,81,129,120,63,131.52,222,6.00,-34.00,-1028.00
2024-05-19 09:57:51.503117,0,2,1,0,0,0,79,81,128,120,63,131.48,222,4.00,-29.00,-952.00
2024-05-19 09:57:51.609333,0,2,2,0,0,0,79,81,129,120,63,131.42,222,20.00,-33.00,-1015.00
2024-05-19 09:57:51.707238,0,2,2,0,0,0,79,81,129,120,63,131.38,222,-1.00,-21.00,-1054.00
2024-05-19 09:57:51.814526,0,2,2,0,0,0,79,81,129,120,63,131.47,222,-24.00,-3.00,-953.00
2024-05-19 09:57:51.910943,0,2,2,0,0,0,79,81,129,120,63,131.48,222,-9.00,-21.00,-941.00
2024-05-19 09:57:51.961975,0,0,1,0,0,-1,79,81,130,120,63,131.53,222,2.00,-29.00,-1352.00
2024-05-19 09:57:52.121574,0,-2,1,0,0,-7,78,81,134,120,63,131.57,222,-33.00,-37.00,-1700.00
2024-05-19 09:57:52.180936,0,-42,1,0,-2,-11,78,81,147,130,63,131.79,222,31.00,146.00,-1183.00
2024-05-19 09:57:52.267840,0,-162,2,1,-10,-4,78,81,665,140,63,131.79,223,19.00,650.00,-999.00
2024-05-19 09:57:52.428317,0,75,1,1,-9,10,78,81,549,140,63,131.81,223,-36.00,556.00,-858.00
2024-05-19 09:57:52.472020,0,-9,1,1,-4,12,78,81,152,130,62,131.83,223,-66.00,133.00,-1473.00
2024-05-19 09:57:52.633156,0,-4,1,1,-7,10,78,81,138,120,62,131.47,223,40.00,-98.00,-1535.00
2024-05-19 09:57:52.675989,0,7,1,1,-7,5,78,81,127,110,62,131.47,223,36.00,53.00,-1413.00
2024-05-19 09:57:52.778048,0,7,1,1,-5,2,78,81,124,100,62,131.41,223,0.00,-2.00,-1274.00
2024-05-19 09:57:52.940284,0,4,1,0,-4,0,78,81,123,100,62,131.43,223,63.00,6.00,-1241.00
2024-05-19 09:57:52.982053,0,3,2,0,-3,-1,78,81,125,100,62,131.41,223,21.00,-16.00,-1113.00
2024-05-19 09:57:53.145155,0,3,2,0,-2,-2,78,80,130,110,62,131.38,223,25.00,-31.00,-1081.00
2024-05-19 09:57:53.186806,0,2,2,0,-2,-2,78,80,133,110,62,131.48,223,0.00,-20.00,-967.00
2024-05-19 09:57:53.349948,0,2,2,0,-2,-1,78,80,136,110,62,131.55,224,19.00,-10.00,-936.00
2024-05-19 09:57:53.390793,0,2,2,0,-2,-1,78,80,138,110,62,131.50,224,35.00,-21.00,-948.00
2024-05-19 09:57:53.555133,0,2,1,0,-2,0,78,80,141,110,62,131.55,224,15.00,-17.00,-928.00
2024-05-19 09:57:53.605656,0,2,1,0,-1,0,78,80,141,120,62,131.56,224,54.00,-60.00,-965.00
2024-05-19 09:57:53.696783,1,4,1,0,-1,0,78,80,143,120,62,131.63,224,35.00,-53.00,-997.00
2024-05-19 09:57:53.862245,2,5,1,0,-1,0,78,80,143,120,62,131.64,224,13.00,3.00,-938.00
2024-05-19 09:57:53.900849,2,4,1,0,0,0,78,80,144,120,62,131.50,224,34.00,-9.00,-1015.00
2024-05-19 09:57:54.066721,1,3,2,0,0,0,78,80,144,120,62,131.54,224,5.00,-27.00,-969.00
2024-05-19 09:57:54.104838,1,2,2,0,0,0,79,81,144,120,62,131.61,224,33.00,-24.00,-989.00
2024-05-19 09:57:54.272878,1,1,2,0,0,0,79,81,144,120,62,131.54,224,22.00,-25.00,-955.00
2024-05-19 09:57:54.308867,1,1,2,0,0,0,79,81,144,120,62,131.56,225,20.00,-31.00,-984.00
2024-05-19 09:57:54.410764,1,1,2,0,0,0,79,81,143,120,62,131.61,225,30.00,-38.00,-958.00
2024-05-19 09:57:54.514064,1,1,2,0,0,0,79,81,143,120,62,131.55,225,22.00,-26.00,-1017.00
2024-05-19 09:57:54.615604,1,1,2,0,0,0,79,81,142,120,62,131.60,225,45.00,-29.00,-964.00
2024-05-19 09:57:54.718223,1,1,2,0,0,0,79,81,142,120,62,131.58,225,12.00,-4.00,-1004.00
2024-05-19 09:57:54.820731,1,1,2,0,0,0,79,81,142,120,62,131.51,225,-21.00,8.00,-1010.00
2024-05-19 09:57:54.923348,1,1,2,0,0,0,79,81,142,120,62,131.47,225,49.00,-44.00,-1017.00
2024-05-19 09:57:55.025478,1,2,2,0,0,0,79,81,142,120,62,131.55,225,43.00,-34.00,-1037.00
2024-05-19 09:57:55.127927,1,2,2,0,0,0,79,82,142,120,62,131.59,225,36.00,-21.00,-1004.00
2024-05-19 09:57:55.230290,1,2,2,0,0,0,79,82,141,120,62,131.51,225,45.00,-41.00,-1013.00
2024-05-19 09:57:55.332653,1,2,2,0,0,0,79,82,141,120,62,131.46,226,6.00,-1.00,-980.00
2024-05-19 09:57:55.434933,1,2,2,0,0,0,79,82,140,120,62,131.54,226,47.00,-49.00,-989.00
2024-05-19 09:57:55.533441,2,2,2,0,0,0,79,82,140,120,62,131.53,226,45.00,-9.00,-977.00
2024-05-19 09:57:55.705345,2,2,2,0,0,0,79,82,140,120,62,131.46,226,31.00,-13.00,-996.00
2024-05-19 09:57:55.737957,2,2,2,0,0,0,79,82,139,120,62,131.51,226,31.00,-18.00,-1038.00
2024-05-19 09:57:55.911513,2,1,2,0,0,0,79,82,139,120,62,131.46,226,36.00,-50.00,-1026.00
2024-05-19 09:57:55.940982,2,1,2,0,0,0,79,82,138,120,62,131.48,226,48.00,-26.00,-1002.00
2024-05-19 09:57:56.042870,2,1,2,0,0,0,79,82,138,120,62,131.50,226,28.00,-38.00,-1020.00
2024-05-19 09:57:56.217333,2,1,2,0,0,0,79,81,137,120,62,131.44,226,4.00,-9.00,-1009.00
2024-05-19 09:57:56.217518,2,1,2,0,0,0,79,81,136,120,62,131.34,226,30.00,-22.00,-1031.00
2024-05-19 09:57:56.298230,2,1,2,0,0,0,79,81,136,120,62,131.42,227,55.00,-31.00,-1005.00
2024-05-19 09:57:56.421998,2,1,2,0,0,0,79,81,135,120,61,131.46,227,64.00,-53.00,-1022.00
2024-05-19 09:57:56.501948,1,2,2,0,0,0,79,81,135,120,61,131.47,227,6.00,-38.00,-1036.00
2024-05-19 09:57:56.626948,1,2,2,0,0,0,79,81,135,120,61,131.46,227,16.00,-37.00,-1007.00
2024-05-19 09:57:56.705996,1,2,2,0,0,0,79,81,135,120,61,131.45,227,37.00,-57.00,-1024.00
2024-05-19 09:57:56.831782,1,2,2,0,0,0,79,81,135,120,61,131.45,227,19.00,-38.00,-1008.00
2024-05-19 09:57:56.913373,1,2,2,0,0,0,79,81,135,120,61,131.40,227,26.00,-45.00,-1025.00
2024-05-19 09:57:57.012171,1,2,2,0,0,0,79,81,136,120,61,131.39,227,23.00,-49.00,-996.00
2024-05-19 09:57:57.139002,1,2,2,0,0,0,80,82,137,120,61,131.46,227,36.00,-44.00,-979.00
2024-05-19 09:57:57.216022,1,2,2,0,0,0,80,82,136,120,61,131.44,227,6.00,-39.00,-1007.00
2024-05-19 09:57:57.343808,0,2,2,0,0,0,80,82,136,120,61,131.39,228,54.00,-51.00,-1017.00
2024-05-19 09:57:57.419942,0,2,2,0,0,0,80,82,136,120,61,131.51,228,19.00,-52.00,-980.00
2024-05-19 09:57:57.548531,0,2,2,0,0,0,80,82,137,120,61,131.52,228,27.00,-17.00,-984.00
2024-05-19 09:57:57.623793,0,2,2,0,0,0,80,82,137,120,61,131.48,228,-1.00,-32.00,-999.00
2024-05-19 09:57:57.753293,0,2,2,0,0,0,80,82,138,120,61,131.42,228,30.00,-51.00,-983.00
2024-05-19 09:57:57.827918,0,2,2,0,0,0,80,82,138,120,61,131.40,228,25.00,-31.00,-964.00
2024-05-19 09:57:57.958458,0,2,2,0,0,0,80,82,138,120,61,131.43,228,37.00,-48.00,-1021.00
2024-05-19 09:57:58.032135,0,2,2,0,0,0,80,82,139,120,61,131.36,228,-3.00,-34.00,-1002.00
2024-05-19 09:57:58.162845,0,2,2,0,0,0,78,82,139,120,61,131.45,228,42.00,-50.00,-992.00
2024-05-19 09:57:58.235804,1,1,2,0,0,0,78,82,139,120,61,131.52,228,50.00,-47.00,-1007.00
2024-05-19 09:57:58.367570,0,2,2,0,0,0,78,82,139,120,61,131.47,229,21.00,-40.00,-999.00
2024-05-19 09:57:58.439707,1,1,2,0,0,0,78,82,138,120,61,131.48,229,16.00,-30.00,-1011.00
2024-05-19 09:57:58.572399,0,2,1,0,0,0,78,82,139,120,61,131.46,229,22.00,-10.00,-1294.00
2024-05-19 09:57:58.643722,0,2,1,0,0,-4,78,82,142,120,61,131.57,229,-4.00,-15.00,-1663.00
2024-05-19 09:57:58.777182,0,7,1,0,0,-10,78,82,153,130,61,131.66,229,9.00,-99.00,-1664.00
2024-05-19 09:57:58.847913,0,79,1,0,5,-12,78,82,442,140,61,131.78,229,35.00,552.00,-1249.00
2024-05-19 09:57:58.981971,1,-149,1,0,10,0,78,82,487,150,61,131.74,229,65.00,846.00,-939.00
2024-05-19 09:57:59.051694,1,-31,5,0,4,10,78,82,174,140,61,131.90,229,57.00,588.00,-1021.00
2024-05-19 09:57:59.186795,0,8,6,0,4,10,79,81,149,130,61,131.58,229,26.00,26.00,-1179.00
2024-05-19 09:57:59.255679,0,-2,9,0,5,7,79,81,138,120,61,131.65,229,-6.00,-62.00,-1433.00
2024-05-19 09:57:59.391540,0,-5,11,0,3,3,79,81,134,120,61,131.39,230,13.00,-47.00,-1317.00
2024-05-19 09:57:59.459688,1,-2,5,1,2,0,79,81,133,110,61,131.50,230,-7.00,3.00,-1163.00
2024-05-19 09:57:59.596353,1,0,2,0,1,0,79,81,132,110,61,131.40,230,47.00,0.00,-1085.00
2024-05-19 09:57:59.663881,1,0,1,0,1,-1,79,81,133,110,61,131.43,230,11.00,2.00,-1006.00
2024-05-19 09:57:59.714657,1,0,1,0,1,-1,79,81,135,110,61,131.42,230,21.00,-38.00,-986.00
2024-05-19 09:57:59.903550,0,0,1,0,0,-1,79,81,138,110,61,131.47,230,18.00,-39.00,-973.00
2024-05-19 09:57:59.918537,1,0,1,0,0,-1,79,81,139,120,61,131.46,230,4.00,-21.00,-946.00
2024-05-19 09:58:00.109052,1,-1,1,0,0,0,79,81,140,120,61,131.44,230,24.00,-41.00,-969.00
2024-05-19 09:58:00.122506,1,0,1,0,0,0,79,81,141,120,61,131.45,230,21.00,-19.00,-952.00
2024-05-19 09:58:00.313190,1,0,1,0,0,0,79,81,141,120,61,131.57,230,-5.00,-15.00,-991.00
2024-05-19 09:58:00.326488,1,1,1,0,0,0,79,81,141,120,61,131.50,231,-1.00,-20.00,-945.00
2024-05-19 09:58:00.518764,0,1,1,0,0,0,79,81,141,120,61,131.51,231,6.00,-45.00,-962.00
2024-05-19 09:58:00.530494,0,1,1,0,0,0,79,81,141,120,61,131.49,231,29.00,-45.00,-965.00
2024-05-19 09:58:00.722763,1,1,1,0,0,0,79,81,141,120,61,131.51,231,-1.00,-32.00,-966.00
2024-05-19 09:58:00.734709,1,1,1,0,0,0,79,81,141,120,61,131.46,231,8.00,-19.00,-1007.00
2024-05-19 09:58:00.927549,1,1,2,0,0,0,79,81,141,120,61,131.45,231,2.00,-49.00,-1040.00
2024-05-19 09:58:00.938448,0,1,2,0,0,0,79,81,142,120,61,131.57,231,17.00,-37.00,-980.00
2024-05-19 09:58:01.132413,0,1,2,0,0,0,79,81,141,120,61,131.51,231,2.00,-32.00,-967.00
2024-05-19 09:58:01.142398,0,1,2,0,0,0,80,81,142,120,61,131.45,231,22.00,-41.00,-1003.00
2024-05-19 09:58:01.337171,0,1,2,0,0,0,80,81,142,120,61,131.52,231,-7.00,-19.00,-961.00
2024-05-19 09:58:01.346451,0,1,2,0,0,0,80,81,143,120,61,131.52,232,58.00,-62.00,-1014.00
2024-05-19 09:58:01.541959,0,1,2,0,0,0,80,81,142,120,60,131.56,232,21.00,-27.00,-1009.00
2024-05-19 09:58:01.550425,0,1,2,0,0,0,80,81,142,120,60,131.50,232,15.00,-35.00,-946.00
2024-05-19 09:58:01.746799,1,2,1,0,0,0,80,81,142,120,60,131.50,232,-4.00,-32.00,-972.00
2024-05-19 09:58:01.754402,1,1,1,0,0,0,80,81,143,120,60,131.49,232,27.00,-46.00,-983.00
2024-05-19 09:58:01.951475,1,2,1,0,0,0,80,81,142,120,60,131.54,232,30.00,-36.00,-1026.00
2024-05-19 09:58:01.958471,1,2,1,0,0,0,80,81,143,120,60,131.59,232,61.00,-29.00,-1011.00
2024-05-19 09:58:02.156521,0,2,2,0,0,0,80,81,143,120,60,131.52,232,49.00,-47.00,-1014.00
2024-05-19 09:58:02.162763,0,2,1,0,0,0,80,82,143,120,60,131.56,232,-1.00,-49.00,-975.00
2024-05-19 09:58:02.264710,0,1,2,0,0,0,80,82,143,120,60,131.54,232,-1.00,-23.00,-988.00
2024-05-19 09:58:02.463714,0,1,1,0,0,0,80,82,143,120,60,131.58,233,20.00,-24.00,-1001.00
2024-05-19 09:58:02.468721,0,1,1,0,0,0,80,82,143,120,60,131.55,233,39.00,-37.00,-1014.00
2024-05-19 09:58:02.668724,0,1,1,0,0,0,80,82,143,120,60,131.50,233,45.00,-25.00,-1032.00
2024-05-19 09:58:02.672592,1,1,1,0,0,0,80,82,143,120,60,131.61,233,30.00,-28.00,-997.00
2024-05-19 09:58:02.774455,1,0,2,0,0,0,80,82,144,120,60,131.61,233,40.00,-21.00,-1001.00
2024-05-19 09:58:02.975519,1,0,2,0,0,0,80,82,144,120,60,131.63,233,25.00,-22.00,-1011.00
2024-05-19 09:58:02.978771,1,0,2,0,0,0,80,82,143,120,60,131.63,233,47.00,-24.00,-982.00
2024-05-19 09:58:03.080709,2,0,2,0,0,0,80,82,144,120,60,131.56,233,43.00,-23.00,-983.00
2024-05-19 09:58:03.182567,1,0,2,0,0,0,79,82,143,120,60,131.60,233,29.00,-21.00,-974.00
2024-05-19 09:58:03.284629,1,0,2,0,0,0,79,82,143,120,60,131.58,233,48.00,-8.00,-999.00
2024-05-19 09:58:03.487885,1,0,2,0,0,0,79,82,143,120,60,131.55,234,38.00,-21.00,-1004.00
2024-05-19 09:58:03.488095,1,0,2,0,0,0,79,82,143,120,59,131.61,234,29.00,-18.00,-967.00
2024-05-19 09:58:03.539732,1,0,2,0,0,0,79,82,143,120,59,131.55,234,55.00,-56.00,-1021.00
2024-05-19 09:58:03.692463,1,0,2,0,0,0,79,82,142,120,59,131.66,234,61.00,-24.00,-977.00
2024-05-19 09:58:03.743534,1,0,2,0,0,0,79,82,142,120,59,131.60,234,0.00,-25.00,-993.00
