TS,pitch,roll,yaw,vgx,vgy,vgz,templ,temph,tof,h,bat,baro,time,agx,agy,agz
2024-05-19 09:58:42.399158,0,0,-1,0,0,0,82,83,10,0,57,130.20,253,-6.00,-1.00,-1000.00
2024-05-19 09:58:42.402441,0,0,-1,0,0,0,82,83,10,0,57,130.22,253,-4.00,-2.00,-1000.00
2024-05-19 09:58:42.504611,0,0,-1,0,0,0,82,83,10,0,57,130.27,253,-3.00,-1.00,-999.00
2024-05-19 09:58:42.606585,0,0,-1,0,0,0,82,83,10,0,57,130.23,253,-5.00,-2.00,-1000.00
2024-05-19 09:58:42.708699,0,0,-1,0,0,0,82,83,10,0,57,130.33,253,-5.00,0.00,-1001.00
2024-05-19 09:58:42.759615,0,0,-1,0,0,0,82,83,10,0,57,130.20,253,-5.00,0.00,-1000.00
2024-05-19 09:58:42.911117,0,0,-1,0,0,0,82,83,10,0,57,130.28,253,-4.00,-1.00,-1001.00
2024-05-19 09:58:42.963499,0,0,-1,0,0,0,82,83,10,0,57,130.30,253,-3.00,-1.00,-1000.00
2024-05-19 09:58:43.115914,0,0,-1,0,0,0,82,83,10,0,57,130.25,253,-4.00,-1.00,-1000.00
2024-05-19 09:58:43.167943,0,0,-1,0,0,0,82,83,10,0,57,130.23,253,-5.00,-2.00,-1000.00
2024-05-19 09:58:43.320726,0,0,-1,0,0,0,82,83,10,0,57,130.29,253,-4.00,0.00,-999.00
2024-05-19 09:58:43.371680,0,0,-1,0,0,0,81,84,10,0,57,130.27,253,-5.00,-1.00,-998.00
2024-05-19 09:58:43.525694,0,0,-1,0,0,0,81,84,10,0,57,130.26,253,-5.00,-2.00,-1001.00
2024-05-19 09:58:43.575646,0,0,-1,0,0,0,81,84,10,0,57,130.29,253,-4.00,-1.00,-1000.00
2024-05-19 09:58:43.730525,0,0,-1,0,0,0,81,84,10,0,57,130.21,253,-5.00,-1.00,-999.00
2024-05-19 09:58:43.779697,0,0,-1,0,0,0,81,84,10,0,57,130.22,253,-4.00,0.00,-998.00
2024-05-19 09:58:43.935324,0,0,-1,0,0,0,81,84,10,0,57,130.26,253,-4.00,0.00,-1000.00
2024-05-19 09:58:43.985363,0,0,-1,0,0,0,81,84,10,0,57,130.24,253,-5.00,-1.00,-1001.00
2024-05-19 09:58:44.085807,0,0,-1,0,0,0,81,84,10,0,57,130.21,253,-4.00,-2.00,-998.00
2024-05-19 09:58:44.187749,0,0,-1,0,0,0,81,84,10,0,57,130.25,253,-5.00,-2.00,-1000.00
2024-05-19 09:58:44.344703,0,0,-1,0,0,0,81,84,10,0,57,130.25,253,-5.00,-3.00,-998.00
2024-05-19 09:58:44.391699,0,0,-1,0,0,0,82,84,10,0,57,130.25,253,-10.00,-6.00,-1004.00
2024-05-19 09:58:44.549575,0,0,-1,0,0,0,82,84,10,0,57,130.25,253,-13.00,-8.00,-1000.00
2024-05-19 09:58:44.595520,0,0,-1,0,0,0,82,84,10,0,57,130.25,253,2.00,-11.00,-975.00
2024-05-19 09:58:44.754681,0,0,0,0,0,0,82,84,10,0,57,130.25,254,57.00,-54.00,-986.00
2024-05-19 09:58:44.799395,0,0,0,0,0,0,82,84,10,0,57,130.25,254,-11.00,18.00,-995.00
2024-05-19 09:58:44.971400,0,-1,0,0,0,0,82,84,10,0,57,130.25,254,6.00,-13.00,-1126.00
2024-05-19 09:58:45.003424,0,-1,1,0,0,-2,82,84,10,0,57,130.25,254,6.00,-7.00,-1253.00
2024-05-19 09:58:45.163889,1,1,1,0,0,-5,82,84,10,0,57,130.25,254,43.00,-8.00,-1290.00
2024-05-19 09:58:45.207608,1,1,1,0,0,-7,82,84,16,0,57,130.45,254,0.00,-25.00,-1180.00
2024-05-19 09:58:45.368743,1,1,1,0,0,-7,82,84,23,10,57,130.63,254,1.00,8.00,-1057.00
2024-05-19 09:58:45.411549,0,0,1,0,0,-7,82,84,36,10,57,130.68,254,-33.00,-10.00,-1011.00
2024-05-19 09:58:45.573529,0,0,0,0,0,-7,82,84,41,20,57,130.68,254,-28.00,-30.00,-1004.00
2024-05-19 09:58:45.615546,0,0,0,0,0,-7,82,84,52,30,57,130.80,254,14.00,-15.00,-929.00
2024-05-19 09:58:45.778273,0,0,0,0,0,-6,82,84,60,30,57,130.96,255,6.00,-11.00,-891.00
2024-05-19 09:58:45.819379,-1,0,0,0,0,-5,82,84,66,40,57,130.92,255,-1.00,3.00,-933.00
2024-05-19 09:58:45.870610,0,1,0,0,0,-3,82,84,72,40,57,130.96,255,43.00,-50.00,-863.00
2024-05-19 09:58:45.983080,0,1,1,0,0,-2,82,84,74,50,57,131.08,255,-17.00,0.00,-835.00
2024-05-19 09:58:46.074442,0,0,1,0,0,-1,82,84,77,50,57,131.11,255,9.00,0.00,-940.00
2024-05-19 09:58:46.187933,0,0,0,0,0,0,82,84,80,50,57,131.17,255,30.00,-19.00,-943.00
2024-05-19 09:58:46.279906,0,0,0,0,0,0,82,84,82,50,57,131.13,255,28.00,-3.00,-930.00
2024-05-19 09:58:46.380423,0,0,0,0,0,0,82,85,84,50,57,131.16,255,-3.00,2.00,-938.00
2024-05-19 09:58:46.482221,0,0,0,0,0,0,82,85,85,50,57,131.27,255,26.00,-26.00,-948.00
2024-05-19 09:58:46.597544,1,0,0,0,0,0,82,85,86,50,57,131.21,255,-3.00,-61.00,-1002.00
2024-05-19 09:58:46.688600,0,1,0,0,0,0,82,85,87,60,57,131.23,256,10.00,-27.00,-1050.00
2024-05-19 09:58:46.788465,0,2,1,0,0,0,82,85,88,60,57,131.18,256,7.00,-33.00,-978.00
2024-05-19 09:58:46.904676,0,2,1,0,0,0,82,85,88,60,57,131.17,256,17.00,-47.00,-991.00
2024-05-19 09:58:46.992218,0,2,1,0,0,0,82,85,89,60,57,131.29,256,-3.00,-49.00,-1000.00
2024-05-19 09:58:47.109566,0,3,1,0,0,0,82,85,90,60,57,131.26,256,9.00,-53.00,-992.00
2024-05-19 09:58:47.196413,0,3,1,0,0,0,82,85,90,60,57,131.18,256,7.00,-53.00,-978.00
2024-05-19 09:58:47.314365,0,3,1,0,0,0,82,85,90,60,57,131.23,256,-13.00,-35.00,-1019.00
2024-05-19 09:58:47.400346,0,2,1,0,0,0,81,84,90,60,57,131.21,256,-11.00,-37.00,-966.00
2024-05-19 09:58:47.519115,0,2,1,0,0,0,81,84,90,60,57,131.35,256,-21.00,-41.00,-1002.00
2024-05-19 09:58:47.604240,0,3,1,0,0,0,81,84,89,60,57,131.30,256,-7.00,-31.00,-1010.00
2024-05-19 09:58:47.723874,-1,3,1,0,0,0,81,84,89,60,57,131.19,257,-31.00,-56.00,-973.00
2024-05-19 09:58:47.808262,-1,2,1,0,0,0,81,84,88,60,57,131.38,257,-29.00,-12.00,-998.00
2024-05-19 09:58:47.928760,0,2,0,0,0,0,81,84,88,60,57,131.23,257,-3.00,-35.00,-965.00
2024-05-19 09:58:48.013285,-1,3,0,0,0,0,81,84,87,60,57,131.23,257,-35.00,-34.00,-988.00
2024-05-19 09:58:48.133804,-1,2,0,0,0,0,81,84,87,60,57,131.28,257,-18.00,-49.00,-1037.00
2024-05-19 09:58:48.215927,-1,2,0,0,0,0,81,84,86,60,57,131.22,257,-15.00,-34.00,-1002.00
2024-05-19 09:58:48.338327,-1,2,1,0,0,0,81,84,85,60,57,131.15,257,-15.00,-34.00,-997.00
2024-05-19 09:58:48.420141,-1,2,1,0,0,0,83,84,84,60,57,131.20,257,7.00,-51.00,-974.00
2024-05-19 09:58:48.543137,0,2,1,0,0,0,83,84,84,60,57,131.19,257,-11.00,-24.00,-1019.00
2024-05-19 09:58:48.624087,-1,1,1,0,0,0,83,84,83,60,57,131.13,257,7.00,-62.00,-1017.00
2024-05-19 09:58:48.747810,-1,1,1,0,0,0,83,84,82,60,57,131.17,258,-35.00,-24.00,-1009.00
2024-05-19 09:58:48.829839,-1,1,1,0,0,0,83,84,81,60,57,131.13,258,-30.00,-21.00,-1007.00
2024-05-19 09:58:48.952718,-1,1,0,0,0,0,83,84,80,60,57,131.16,258,-23.00,-37.00,-994.00
2024-05-19 09:58:49.033233,-1,1,0,0,0,0,83,84,79,50,57,131.12,258,-33.00,-22.00,-1008.00
2024-05-19 09:58:49.157520,-1,0,0,0,0,0,83,84,78,50,57,131.12,258,-30.00,-34.00,-1028.00
2024-05-19 09:58:49.237297,-1,1,0,0,0,0,83,84,78,50,57,131.06,258,-33.00,-29.00,-1014.00
2024-05-19 09:58:49.362152,-1,2,0,0,0,0,83,84,77,50,57,131.13,258,-21.00,-16.00,-991.00
2024-05-19 09:58:49.441337,-1,1,0,0,0,0,82,84,76,50,57,131.13,258,-30.00,-4.00,-1027.00
2024-05-19 09:58:49.567115,0,1,0,0,0,0,82,84,76,50,57,131.15,258,8.00,-40.00,-1032.00
2024-05-19 09:58:49.645455,0,0,1,0,0,0,82,84,75,50,57,131.08,258,-16.00,-24.00,-1030.00
2024-05-19 09:58:49.772400,0,0,1,0,0,0,82,84,75,50,57,131.15,259,-81.00,4.00,-1005.00
2024-05-19 09:58:49.798017,-1,0,0,0,0,0,82,84,75,50,57,131.06,259,-23.00,-16.00,-1016.00
2024-05-19 09:58:49.976818,-1,0,0,0,0,0,82,84,74,50,57,131.00,259,-18.00,-22.00,-1016.00
2024-05-19 09:58:50.002040,-1,0,0,0,0,0,82,84,74,50,57,131.01,259,-39.00,-8.00,-1003.00
2024-05-19 09:58:50.181507,-1,0,1,0,0,0,82,84,74,50,57,131.03,259,-45.00,-15.00,-1034.00
2024-05-19 09:58:50.206315,0,0,0,0,0,0,82,84,74,50,57,131.02,259,-3.00,-26.00,-1033.00
2024-05-19 09:58:50.308078,0,0,0,0,0,0,82,84,74,50,57,131.06,259,-41.00,6.00,-956.00
2024-05-19 09:58:50.488842,0,0,0,0,0,0,81,84,74,50,57,131.00,259,-21.00,-5.00,-1016.00
2024-05-19 09:58:50.512020,0,0,0,0,0,0,81,84,74,50,57,131.11,259,3.00,-16.00,-989.00
2024-05-19 09:58:50.693589,0,0,0,0,0,0,81,84,74,50,57,131.03,259,7.00,-10.00,-967.00
2024-05-19 09:58:50.715908,0,0,1,0,0,0,81,84,74,50,57,131.12,260,-6.00,-5.00,-1007.00
2024-05-19 09:58:50.898552,0,0,0,0,0,0,81,84,75,50,57,131.14,260,29.00,-18.00,-985.00
2024-05-19 09:58:50.919998,0,0,0,0,0,0,81,84,75,50,57,131.10,260,-28.00,-6.00,-1001.00
2024-05-19 09:58:51.103243,0,0,0,0,0,0,81,84,75,50,57,131.16,260,-13.00,-11.00,-983.00
2024-05-19 09:58:51.124037,0,0,0,0,0,0,81,84,75,50,57,131.08,260,-21.00,0.00,-983.00
2024-05-19 09:58:51.226162,0,0,0,0,0,0,81,84,75,50,57,131.07,260,-49.00,6.00,-996.00
2024-05-19 09:58:51.410364,0,0,0,0,0,0,81,84,76,50,57,131.03,260,-53.00,27.00,-965.00
2024-05-19 09:58:51.430053,0,0,0,0,0,0,81,84,76,50,57,131.10,260,-37.00,0.00,-980.00
2024-05-19 09:58:51.615279,0,0,0,0,0,0,81,84,76,50,57,131.03,260,-15.00,-9.00,-999.00
2024-05-19 09:58:51.634240,0,0,0,0,0,0,81,84,76,50,57,131.11,260,13.00,-11.00,-1004.00
2024-05-19 09:58:51.820076,0,0,0,0,0,0,81,84,76,50,57,131.03,261,-2.00,-15.00,-1016.00
2024-05-19 09:58:51.838077,0,0,0,0,0,0,81,84,76,50,57,131.18,261,-4.00,6.00,-1003.00
2024-05-19 09:58:52.024786,0,0,0,0,0,0,81,84,76,50,57,131.13,261,-16.00,4.00,-995.00
2024-05-19 09:58:52.041950,0,0,0,0,0,0,81,84,76,50,57,131.15,261,-11.00,-21.00,-1016.00
2024-05-19 09:58:52.229797,0,0,0,0,0,0,81,84,76,50,57,131.17,261,-47.00,-5.00,-1007.00
2024-05-19 09:58:52.246093,0,0,0,0,0,0,81,84,76,50,57,131.18,261,28.00,-9.00,-1034.00
2024-05-19 09:58:52.347876,0,0,0,0,0,0,81,84,76,50,57,131.10,261,3.00,0.00,-1016.00
2024-05-19 09:58:52.537006,0,0,1,0,0,0,81,83,76,50,57,131.15,261,-17.00,13.00,-1042.00
2024-05-19 09:58:52.551785,0,0,1,0,0,0,81,83,77,50,57,131.11,261,-5.00,19.00,-1084.00
2024-05-19 09:58:52.742174,0,0,0,0,0,-1,81,83,78,50,57,131.12,261,-59.00,13.00,-1097.00
2024-05-19 09:58:52.755809,0,0,0,0,0,-2,81,83,81,50,57,131.18,262,-15.00,36.00,-1097.00
2024-05-19 09:58:52.946301,0,0,0,0,0,-3,81,83,85,60,57,131.25,262,-22.00,2.00,-1090.00
2024-05-19 09:58:52.959845,0,0,1,0,0,-4,81,83,89,60,57,131.31,262,3.00,-1.00,-1090.00
2024-05-19 09:58:53.151108,0,0,1,0,0,-4,81,83,94,70,57,131.33,262,0.00,7.00,-1055.00
2024-05-19 09:58:53.163819,0,0,0,0,0,-5,81,83,100,70,57,131.45,262,4.00,9.00,-1022.00
2024-05-19 09:58:53.266030,0,0,0,0,0,-5,81,83,105,80,57,131.45,262,27.00,2.00,-1019.00
2024-05-19 09:58:53.317443,0,0,1,0,0,-6,81,83,112,80,57,131.47,262,28.00,-10.00,-1053.00
2024-05-19 09:58:53.470863,1,0,1,0,0,-6,81,83,121,90,57,131.61,262,3.00,10.00,-962.00
2024-05-19 09:58:53.663460,1,0,0,0,0,-6,81,83,126,100,57,131.63,262,30.00,-10.00,-958.00
2024-05-19 09:58:53.663531,1,0,0,0,0,-5,81,83,132,100,57,131.71,262,-8.00,5.00,-950.00
2024-05-19 09:58:53.725132,1,0,0,0,0,-5,81,83,137,110,57,131.77,263,18.00,10.00,-998.00
2024-05-19 09:58:53.867856,1,0,0,0,0,-4,81,83,142,110,57,131.74,263,15.00,13.00,-982.00
2024-05-19 09:58:53.929077,0,0,0,0,0,-4,81,83,146,120,57,131.77,263,31.00,-2.00,-1023.00
2024-05-19 09:58:54.031051,0,0,0,0,0,-4,81,83,150,120,57,131.79,263,-13.00,11.00,-934.00
2024-05-19 09:58:54.175093,0,0,0,0,0,-3,81,83,152,120,57,131.96,263,23.00,5.00,-958.00
2024-05-19 09:58:54.235059,0,0,0,0,0,-3,81,83,155,130,57,131.96,263,32.00,-17.00,-934.00
2024-05-19 09:58:54.379917,0,0,0,0,0,-2,81,83,159,130,57,131.97,263,19.00,-26.00,-973.00
2024-05-19 09:58:54.440220,0,0,0,0,0,-2,81,83,160,130,57,132.03,263,18.00,-10.00,-1005.00
2024-05-19 09:58:54.585800,0,0,0,0,0,-2,81,83,162,140,57,131.96,263,-19.00,20.00,-1008.00
2024-05-19 09:58:54.644693,0,0,0,0,0,-1,81,83,163,140,57,131.99,263,-16.00,-6.00,-909.00
2024-05-19 09:58:54.747089,0,0,0,0,0,-1,81,83,165,140,57,132.05,264,20.00,6.00,-932.00
2024-05-19 09:58:54.891896,0,0,0,0,0,-1,81,83,166,140,57,131.99,264,13.00,-16.00,-1008.00
2024-05-19 09:58:54.951919,0,1,0,0,0,-1,81,83,168,140,57,132.03,264,30.00,-25.00,-963.00
2024-05-19 09:58:55.052435,0,1,0,0,0,-1,81,83,169,140,57,132.07,264,5.00,-43.00,-1031.00
2024-05-19 09:58:55.154450,0,1,0,0,0,0,81,83,169,140,57,131.99,264,-8.00,-35.00,-954.00
2024-05-19 09:58:55.255791,0,1,0,0,0,0,81,83,171,140,57,132.09,264,-22.00,-38.00,-962.00
2024-05-19 09:58:55.404795,0,1,1,0,0,0,81,83,172,140,57,132.04,264,0.00,-25.00,-970.00
2024-05-19 09:58:55.459737,0,1,1,0,0,0,81,83,172,150,57,132.04,264,-21.00,5.00,-993.00
2024-05-19 09:58:55.562639,0,1,1,0,0,0,81,83,173,150,57,132.06,264,-27.00,1.00,-997.00
2024-05-19 09:58:55.711156,0,1,1,0,0,0,81,83,173,150,57,132.09,264,-1.00,-32.00,-1010.00
2024-05-19 09:58:55.766037,0,1,1,0,0,0,81,83,174,150,57,132.10,265,-8.00,-11.00,-1003.00
2024-05-19 09:58:55.915988,0,0,1,0,0,0,81,83,173,150,57,132.03,265,-17.00,-17.00,-990.00
2024-05-19 09:58:55.969865,0,0,1,0,0,0,81,83,174,150,57,131.97,265,-18.00,-5.00,-1001.00
2024-05-19 09:58:56.120798,0,0,1,0,0,0,81,83,174,150,57,132.02,265,-39.00,8.00,-986.00
2024-05-19 09:58:56.173861,-1,0,1,0,0,0,81,83,174,150,57,132.08,265,-23.00,4.00,-1006.00
2024-05-19 09:58:56.275892,-1,0,1,0,0,0,81,83,174,150,57,132.05,265,-43.00,-14.00,-996.00
2024-05-19 09:58:56.427957,-1,0,1,0,0,0,81,83,174,150,57,132.11,265,-45.00,7.00,-972.00
2024-05-19 09:58:56.479874,-1,0,1,0,0,0,80,83,174,150,57,132.07,265,-30.00,-11.00,-1006.00
2024-05-19 09:58:56.632820,-2,0,0,0,0,0,80,83,174,150,57,132.05,265,-34.00,-12.00,-1002.00
2024-05-19 09:58:56.683821,-1,0,0,0,0,0,80,83,174,150,57,132.12,266,-24.00,-5.00,-1008.00
2024-05-19 09:58:56.786386,-1,0,0,0,0,0,80,83,175,150,57,132.09,266,-10.00,-2.00,-987.00
2024-05-19 09:58:56.940005,-1,0,0,0,0,0,80,83,174,150,57,132.10,266,0.00,10.00,-954.00
2024-05-19 09:58:56.989801,-1,0,0,0,0,0,80,83,174,150,57,132.11,266,-21.00,-9.00,-972.00
2024-05-19 09:58:57.144804,-1,0,0,0,0,0,80,83,174,150,57,132.11,266,-47.00,9.00,-1004.00
2024-05-19 09:58:57.195889,-1,0,0,0,0,0,80,83,174,150,57,132.11,266,-38.00,-16.00,-1022.00
2024-05-19 09:58:57.296514,-1,0,0,0,0,0,80,83,174,150,57,132.12,266,-61.00,-10.00,-1040.00
2024-05-19 09:58:57.398993,-1,0,0,0,0,0,80,83,174,150,57,132.10,266,-46.00,-28.00,-1006.00
2024-05-19 09:58:57.500073,-1,0,0,0,0,0,81,83,173,150,57,132.06,266,-7.00,-11.00,-1018.00
2024-05-19 09:58:57.604562,-1,0,1,0,0,0,81,83,174,150,57,132.03,266,-49.00,4.00,-985.00
2024-05-19 09:58:57.704944,-1,0,1,0,0,0,81,83,173,150,57,132.07,267,10.00,-25.00,-974.00
2024-05-19 09:58:57.754863,-1,0,1,0,0,0,81,83,172,150,57,132.04,267,-38.00,-19.00,-961.00
2024-05-19 09:58:57.861483,-1,0,1,0,0,1,81,83,172,150,57,132.10,267,-23.00,6.00,-960.00
2024-05-19 09:58:57.959178,-1,0,1,0,0,1,81,83,170,140,57,132.06,267,-3.00,-29.00,-994.00
2024-05-19 09:58:58.066399,0,0,1,0,0,1,81,83,168,140,57,131.99,267,-27.00,0.00,-953.00
2024-05-19 09:58:58.163550,0,0,1,0,0,2,81,83,166,140,57,132.09,267,-24.00,0.00,-916.00
2024-05-19 09:58:58.264627,0,-1,1,0,0,2,81,83,163,140,57,132.04,267,-19.00,15.00,-983.00
2024-05-19 09:58:58.373450,0,-1,1,0,0,2,81,83,160,140,57,132.05,267,18.00,-13.00,-968.00
2024-05-19 09:58:58.468934,0,-1,1,0,0,3,80,83,157,130,57,132.08,267,2.00,11.00,-1005.00
2024-05-19 09:58:58.578269,0,-1,1,0,0,3,80,83,155,130,57,131.97,267,-3.00,28.00,-993.00
2024-05-19 09:58:58.672925,1,-1,1,0,0,2,80,83,152,130,57,131.89,268,-4.00,17.00,-1032.00
2024-05-19 09:58:58.774937,0,-1,1,0,0,2,80,83,149,120,57,131.83,268,2.00,25.00,-1043.00
2024-05-19 09:58:58.885440,0,-1,1,0,0,2,80,83,146,120,57,131.89,268,24.00,18.00,-1027.00
2024-05-19 09:58:58.978908,0,-2,1,0,0,2,80,83,143,120,57,131.83,268,-12.00,36.00,-1024.00
2024-05-19 09:58:59.090807,0,-2,0,0,0,2,80,83,141,120,57,131.79,268,-8.00,28.00,-1038.00
2024-05-19 09:58:59.183594,0,-2,0,0,0,1,80,83,139,110,57,131.75,268,3.00,28.00,-1019.00
2024-05-19 09:58:59.288713,0,-2,0,0,0,1,80,83,137,110,57,131.78,268,-8.00,26.00,-1015.00
2024-05-19 09:58:59.387114,0,-2,0,0,0,1,80,83,135,110,57,131.81,268,-5.00,27.00,-996.00
2024-05-19 09:58:59.499873,0,-1,1,0,0,1,80,82,132,110,57,131.82,268,-1.00,23.00,-1000.00
2024-05-19 09:58:59.591928,0,-1,1,0,0,1,80,82,131,110,57,131.82,268,-8.00,28.00,-1024.00
2024-05-19 09:58:59.704808,0,-1,1,0,0,1,80,82,130,110,57,131.84,269,11.00,7.00,-1026.00
2024-05-19 09:58:59.797128,0,-1,0,0,0,1,80,82,128,100,57,131.70,269,-5.00,29.00,-994.00
2024-05-19 09:58:59.900175,0,-1,0,0,0,1,80,82,127,100,57,131.69,269,-8.00,27.00,-1022.00
2024-05-19 09:58:59.998822,0,-1,0,0,0,0,80,82,126,100,57,131.75,269,3.00,0.00,-1020.00
2024-05-19 09:59:00.114405,0,-2,0,0,0,0,80,82,126,100,57,131.69,269,37.00,-3.00,-1021.00
2024-05-19 09:59:00.203020,0,-1,0,0,0,0,80,82,125,100,57,131.68,269,-19.00,23.00,-1040.00
2024-05-19 09:59:00.319069,0,0,0,0,0,0,80,82,125,100,57,131.77,269,-15.00,18.00,-994.00
2024-05-19 09:59:00.406862,0,0,1,0,0,0,80,82,125,100,57,131.73,269,-6.00,15.00,-1015.00
2024-05-19 09:59:00.523924,0,0,1,0,0,0,80,82,125,100,57,131.73,269,-54.00,16.00,-983.00
2024-05-19 09:59:00.611055,-1,0,0,0,0,0,80,82,126,100,57,131.80,269,-15.00,27.00,-999.00
2024-05-19 09:59:00.728735,0,0,0,0,0,0,80,82,125,100,57,131.68,270,-4.00,-17.00,-1023.00
2024-05-19 09:59:00.816969,0,0,0,0,0,0,80,82,126,100,57,131.71,270,-31.00,4.00,-992.00
2024-05-19 09:59:00.917447,0,0,1,0,0,0,80,82,125,100,57,131.67,270,-17.00,15.00,-1025.00
2024-05-19 09:59:01.018671,0,0,1,0,0,0,80,82,126,100,57,131.71,270,-12.00,0.00,-992.00
2024-05-19 09:59:01.138558,0,0,1,0,0,0,80,82,126,100,57,131.69,270,4.00,-7.00,-1002.00
2024-05-19 09:59:01.222861,0,0,1,0,0,0,80,82,126,100,57,131.71,270,-26.00,6.00,-1000.00
2024-05-19 09:59:01.343177,0,0,1,0,0,0,80,82,126,100,57,131.68,270,-35.00,32.00,-993.00
2024-05-19 09:59:01.427384,0,0,1,0,0,0,80,82,125,100,57,131.64,270,7.00,-21.00,-1007.00
2024-05-19 09:59:01.548464,0,0,1,0,0,0,80,82,126,100,57,131.61,270,-5.00,-11.00,-1015.00
2024-05-19 09:59:01.630879,0,0,1,0,0,0,80,82,126,100,57,131.62,270,4.00,-20.00,-1012.00
2024-05-19 09:59:01.682840,0,0,0,0,0,0,80,82,126,100,57,131.66,271,-6.00,-6.00,-1005.00
2024-05-19 09:59:01.849219,-1,0,0,0,0,0,80,82,126,100,57,131.67,271,-28.00,-5.00,-997.00
2024-05-19 09:59:01.889229,-1,0,0,0,0,0,80,82,127,100,57,131.63,271,-17.00,-3.00,-992.00
2024-05-19 09:59:01.989742,-1,0,0,0,0,0,80,82,127,100,57,131.65,271,-23.00,-4.00,-1017.00
2024-05-19 09:59:02.089373,-7,0,0,0,0,0,80,82,129,100,57,131.63,271,-13.00,-5.00,-1014.00
2024-05-19 09:59:02.264534,-8,0,0,1,0,0,80,82,129,100,57,131.69,271,-16.00,-7.00,-1004.00
2024-05-19 09:59:02.293463,-8,0,0,2,0,0,80,82,130,100,57,131.61,271,-51.00,13.00,-990.00
2024-05-19 09:59:02.469378,-8,0,0,3,0,0,80,82,129,100,57,131.64,271,-54.00,-4.00,-988.00
2024-05-19 09:59:02.497336,-8,0,0,5,0,0,80,82,130,100,57,131.50,271,-53.00,-11.00,-991.00
2024-05-19 09:59:02.674125,-8,0,0,6,0,0,80,82,130,100,57,131.47,271,-36.00,-7.00,-1014.00
2024-05-19 09:59:02.701404,-7,0,0,7,0,0,80,82,130,100,57,131.46,272,-70.00,27.00,-980.00
2024-05-19 09:59:02.803314,-6,0,0,7,0,0,80,82,129,100,57,131.41,272,-68.00,-10.00,-1011.00
2024-05-19 09:59:02.981326,-4,0,0,8,0,0,80,82,128,100,57,131.49,272,-100.00,-1.00,-977.00
2024-05-19 09:59:03.007345,-1,0,1,8,0,0,80,82,129,100,57,131.52,272,-59.00,-7.00,-979.00
2024-05-19 09:59:03.186471,1,0,1,7,0,0,80,82,130,100,57,131.56,272,-50.00,-3.00,-994.00
2024-05-19 09:59:03.211440,3,0,1,6,0,0,80,82,131,100,57,131.56,272,-55.00,0.00,-965.00
2024-05-19 09:59:03.390935,4,0,1,5,0,0,80,82,130,100,57,131.57,272,-3.00,-9.00,-993.00
2024-05-19 09:59:03.416536,2,0,1,4,0,0,80,82,131,100,57,131.67,272,-47.00,0.00,-1001.00
2024-05-19 09:59:03.595761,1,0,1,3,0,0,80,82,130,100,57,131.64,272,-59.00,14.00,-1008.00
2024-05-19 09:59:03.620540,0,0,0,3,0,0,80,82,130,100,57,131.58,272,-35.00,-14.00,-1001.00
2024-05-19 09:59:03.800536,0,0,0,3,0,0,80,82,130,100,57,131.62,273,-40.00,0.00,-974.00
2024-05-19 09:59:03.824282,0,0,0,2,0,0,80,82,130,100,57,131.60,273,-21.00,-24.00,-1034.00
2024-05-19 09:59:04.005347,1,0,0,2,0,0,80,82,130,100,57,131.64,273,-36.00,2.00,-1008.00
2024-05-19 09:59:04.028288,4,0,0,1,0,0,80,82,130,100,57,131.61,273,-45.00,-30.00,-1033.00
2024-05-19 09:59:04.210155,2,0,0,1,0,0,80,82,130,100,57,131.63,273,-17.00,-10.00,-1004.00
2024-05-19 09:59:04.233469,0,0,0,0,0,0,80,82,129,100,57,131.68,273,-16.00,-15.00,-1093.00
2024-05-19 09:59:04.415434,0,0,0,0,0,0,80,82,129,100,57,131.68,273,32.00,-29.00,-992.00
2024-05-19 09:59:04.437395,0,0,0,0,0,0,80,82,129,100,57,131.62,273,-3.00,-14.00,-948.00
2024-05-19 09:59:04.619919,0,0,0,0,0,0,79,82,129,100,57,131.68,273,9.00,-18.00,-991.00
2024-05-19 09:59:04.641423,0,0,0,0,0,0,79,82,128,100,57,131.66,273,21.00,-19.00,-1021.00
2024-05-19 09:59:04.824677,0,0,0,0,0,0,79,82,128,100,57,131.60,274,34.00,-8.00,-1027.00
2024-05-19 09:59:04.845590,0,0,0,0,0,0,79,82,128,100,57,131.67,274,-27.00,-9.00,-986.00
2024-05-19 09:59:05.029848,0,0,0,0,0,0,79,82,127,100,57,131.66,274,6.00,-14.00,-1004.00
2024-05-19 09:59:05.049369,0,0,0,0,0,0,79,82,127,100,57,131.73,274,-14.00,-2.00,-1008.00
2024-05-19 09:59:05.234234,0,0,0,0,0,0,79,82,127,100,57,131.59,274,-10.00,-2.00,-990.00
2024-05-19 09:59:05.234352,0,0,0,0,0,0,79,82,127,100,57,131.62,274,-27.00,4.00,-999.00
2024-05-19 09:59:05.304280,0,0,0,0,0,0,79,82,127,100,57,131.56,274,-3.00,-7.00,-1043.00
2024-05-19 09:59:05.439672,0,0,0,0,0,0,79,82,127,100,57,131.66,274,-1.00,-5.00,-1003.00
2024-05-19 09:59:05.559391,0,0,0,0,0,0,79,82,127,100,57,131.68,274,-21.00,-1.00,-986.00
2024-05-19 09:59:05.746274,0,0,0,0,0,0,79,82,127,100,57,131.67,274,14.00,-16.00,-989.00
2024-05-19 09:59:05.763331,0,0,0,0,0,0,79,82,127,100,57,131.67,275,-8.00,-2.00,-968.00
2024-05-19 09:59:05.814444,0,0,0,0,0,0,79,82,127,100,57,131.70,275,-18.00,-3.00,-975.00
2024-05-19 09:59:05.951185,0,0,1,0,0,0,79,82,127,100,57,131.57,275,-34.00,4.00,-1000.00
2024-05-19 09:59:06.018190,0,0,1,0,0,0,79,82,127,100,57,131.64,275,16.00,-12.00,-1015.00
2024-05-19 09:59:06.155848,0,0,1,0,0,0,79,82,127,100,57,131.56,275,-9.00,-5.00,-1029.00
2024-05-19 09:59:06.222645,0,0,0,0,0,0,79,82,127,100,57,131.62,275,-18.00,-8.00,-1000.00
2024-05-19 09:59:06.360497,0,0,1,0,0,0,79,82,127,100,57,131.67,275,-4.00,5.00,-1011.00
2024-05-19 09:59:06.426161,1,0,0,0,0,0,79,82,128,100,57,131.63,275,3.00,6.00,-970.00
2024-05-19 09:59:06.565321,7,0,1,0,0,0,80,82,128,100,57,131.65,275,4.00,-12.00,-1016.00
2024-05-19 09:59:06.630157,8,0,1,-2,0,0,80,82,128,100,57,131.58,275,7.00,-18.00,-1043.00
2024-05-19 09:59:06.770201,8,0,1,-3,0,0,80,82,129,100,57,131.72,276,-17.00,-4.00,-1013.00
2024-05-19 09:59:06.834480,7,0,1,-4,0,0,80,82,128,100,57,131.64,276,6.00,-5.00,-1038.00
2024-05-19 09:59:06.974953,6,0,1,-6,0,0,80,82,127,100,57,131.60,276,21.00,-6.00,-1012.00
2024-05-19 09:59:07.038232,5,0,1,-7,0,0,80,82,127,100,57,131.70,276,9.00,-18.00,-1039.00
2024-05-19 09:59:07.179783,4,0,1,-7,0,0,80,82,128,100,57,131.67,276,-9.00,-11.00,-983.00
2024-05-19 09:59:07.242698,3,0,1,-8,0,0,80,82,128,100,57,131.65,276,45.00,-31.00,-1006.00
2024-05-19 09:59:07.384570,0,0,1,-8,0,0,80,82,127,100,57,131.65,276,25.00,-30.00,-995.00
2024-05-19 09:59:07.446415,-2,0,1,-8,0,0,80,82,128,100,57,131.65,276,30.00,-35.00,-1022.00
2024-05-19 09:59:07.589360,-4,1,0,-7,0,0,80,82,128,100,57,131.59,276,13.00,-38.00,-1013.00
2024-05-19 09:59:07.650136,-6,1,0,-6,0,0,80,82,128,100,57,131.65,276,25.00,-42.00,-1017.00
2024-05-19 09:59:07.794156,-5,1,0,-5,0,0,80,82,128,100,57,131.57,277,-15.00,-20.00,-1020.00
2024-05-19 09:59:07.854176,-4,1,0,-4,0,0,80,82,128,100,57,131.53,277,-14.00,-25.00,-1006.00
2024-05-19 09:59:07.998971,-3,1,0,-3,0,0,80,82,128,100,57,131.64,277,-15.00,-23.00,-991.00
2024-05-19 09:59:08.058947,-2,1,0,-3,0,0,80,82,128,100,57,131.65,277,-14.00,-18.00,-992.00
2024-05-19 09:59:08.203757,-1,1,0,-2,0,0,80,82,128,100,57,131.65,277,-2.00,-25.00,-982.00
2024-05-19 09:59:08.263811,-1,1,0,-2,0,0,80,82,128,100,57,131.69,277,-25.00,-13.00,-976.00
2024-05-19 09:59:08.364526,-1,0,0,-2,0,0,80,82,127,100,57,131.61,277,-21.00,-21.00,-971.00
2024-05-19 09:59:08.468357,-2,0,0,-2,0,0,80,82,128,100,56,131.67,277,5.00,-37.00,-1049.00
2024-05-19 09:59:08.568151,-2,1,0,-1,0,0,80,82,127,100,56,131.66,277,13.00,-46.00,-1025.00
2024-05-19 09:59:08.715730,-4,1,0,-1,0,0,80,82,127,100,56,131.55,277,-12.00,-12.00,-964.00
2024-05-19 09:59:08.772556,-3,1,0,0,0,0,80,82,127,100,56,131.63,278,-59.00,-8.00,-974.00
2024-05-19 09:59:08.920706,-2,1,0,0,0,0,80,82,126,100,56,131.56,278,-55.00,9.00,-966.00
2024-05-19 09:59:08.977319,-1,1,0,0,0,0,80,82,126,100,56,131.59,278,-21.00,-30.00,-964.00
2024-05-19 09:59:09.126935,-1,1,0,0,0,0,80,82,126,100,56,131.61,278,-17.00,-24.00,-1001.00
2024-05-19 09:59:09.180498,-1,1,0,0,0,0,80,82,126,100,56,131.62,278,-43.00,-38.00,-1067.00
2024-05-19 09:59:09.283895,-1,1,0,0,0,0,80,82,126,100,56,131.57,278,-39.00,-38.00,-1067.00
2024-05-19 09:59:09.384458,0,1,0,0,0,0,80,82,126,100,56,131.64,278,-48.00,-23.00,-997.00
2024-05-19 09:59:09.435140,0,0,0,0,0,0,80,82,126,100,56,131.57,278,-8.00,-18.00,-1008.00
2024-05-19 09:59:09.637805,0,1,0,0,0,0,80,81,126,100,56,131.60,278,-23.00,-30.00,-1026.00
2024-05-19 09:59:09.690197,0,1,0,0,0,0,80,81,126,100,56,131.53,278,1.00,-42.00,-1025.00
2024-05-19 09:59:09.741182,0,1,0,0,0,0,80,81,126,100,56,131.58,279,-20.00,-24.00,-993.00
2024-05-19 09:59:09.944679,0,1,0,0,0,0,80,81,126,100,56,131.56,279,-53.00,-8.00,-997.00
2024-05-19 09:59:09.945195,0,1,0,0,0,0,80,81,126,100,56,131.57,279,-42.00,-13.00,-1040.00
2024-05-19 09:59:10.047537,0,1,0,0,0,0,80,81,126,100,56,131.56,279,0.00,-22.00,-1032.00
2024-05-19 09:59:10.149424,0,1,0,0,0,0,80,81,126,100,56,131.52,279,-19.00,-25.00,-999.00
2024-05-19 09:59:10.251896,0,1,0,0,0,0,80,81,127,100,56,131.57,279,-69.00,0.00,-947.00
2024-05-19 09:59:10.354142,0,1,0,0,0,0,80,81,127,100,56,131.55,279,-10.00,-35.00,-1006.00
2024-05-19 09:59:10.456593,0,1,0,0,0,0,80,81,127,100,55,131.57,279,-6.00,-22.00,-992.00
2024-05-19 09:59:10.560180,0,1,0,0,0,0,79,82,127,100,55,131.50,279,1.00,-31.00,-996.00
2024-05-19 09:59:10.659633,0,1,0,0,0,0,79,82,126,100,55,131.62,280,-43.00,-18.00,-1001.00
2024-05-19 09:59:10.761036,0,1,0,0,0,0,79,82,126,100,55,131.61,280,18.00,-39.00,-1060.00
2024-05-19 09:59:10.866122,-1,0,0,0,0,0,79,82,126,100,55,131.55,280,-14.00,-9.00,-991.00
2024-05-19 09:59:10.965236,-1,-7,0,0,-1,0,79,82,126,100,55,131.56,280,3.00,-37.00,-1033.00
2024-05-19 09:59:11.070936,0,-5,1,0,-2,0,79,82,126,100,55,131.51,280,-22.00,-37.00,-1022.00
2024-05-19 09:59:11.169061,0,-2,1,0,-3,0,79,82,126,100,55,131.61,280,-20.00,-20.00,-999.00
2024-05-19 09:59:11.276553,0,0,0,0,-4,0,79,82,126,100,55,131.53,280,-6.00,-25.00,-1027.00
2024-05-19 09:59:11.373044,0,2,0,0,-4,0,79,82,125,100,55,131.54,280,-25.00,-11.00,-979.00
2024-05-19 09:59:11.480544,0,3,0,0,-3,0,79,82,125,100,55,131.52,280,-4.00,-15.00,-990.00
2024-05-19 09:59:11.577125,0,2,0,0,-3,0,79,82,125,100,55,131.59,280,-16.00,-25.00,-991.00
2024-05-19 09:59:11.685333,0,2,1,0,-3,0,79,82,124,100,55,131.56,281,8.00,-20.00,-995.00
2024-05-19 09:59:11.780988,0,1,1,0,-3,0,79,82,124,100,55,131.52,281,-3.00,-25.00,-1014.00
2024-05-19 09:59:11.890132,0,1,1,0,-3,0,79,82,124,100,55,131.43,281,-5.00,-23.00,-1010.00
2024-05-19 09:59:11.985175,0,1,1,0,-3,0,79,82,124,100,55,131.48,281,1.00,-34.00,-1003.00
2024-05-19 09:59:12.094864,0,2,0,0,-2,0,79,82,123,100,55,131.49,281,4.00,-30.00,-1008.00
2024-05-19 09:59:12.188964,0,2,0,0,-2,0,79,82,123,100,55,131.47,281,-20.00,-14.00,-1002.00
2024-05-19 09:59:12.290924,0,3,0,0,-2,0,79,82,123,100,55,131.52,281,-19.00,-11.00,-1000.00
2024-05-19 09:59:12.402390,1,4,1,0,-2,0,79,82,122,100,55,131.49,281,6.00,-39.00,-980.00
2024-05-19 09:59:12.494913,3,5,1,0,-1,0,79,82,123,100,55,131.47,281,-24.00,-14.00,-1012.00
2024-05-19 09:59:12.606952,2,3,1,-1,0,0,80,82,123,100,55,131.60,281,-27.00,-24.00,-1020.00
2024-05-19 09:59:12.699477,-4,2,0,-1,0,0,80,82,122,100,55,131.54,282,5.00,-23.00,-998.00
2024-05-19 09:59:12.801448,-2,2,1,0,0,0,80,82,122,100,55,131.53,282,4.00,-46.00,-1030.00
2024-05-19 09:59:12.914355,-1,2,1,0,0,0,80,82,122,100,55,131.47,282,-48.00,-21.00,-988.00
2024-05-19 09:59:13.008572,0,1,0,0,0,0,80,82,121,100,55,131.50,282,-17.00,-37.00,-997.00
2024-05-19 09:59:13.107550,0,1,0,0,0,0,80,82,121,100,55,131.49,282,-16.00,-40.00,-1012.00
2024-05-19 09:59:13.221760,0,1,0,0,0,0,80,82,120,100,55,131.49,282,-34.00,-29.00,-1003.00
2024-05-19 09:59:13.311190,0,2,0,0,0,0,80,82,120,100,55,131.50,282,21.00,-58.00,-1001.00
2024-05-19 09:59:13.426234,0,2,0,0,0,0,80,82,120,100,55,131.53,282,-33.00,-14.00,-1020.00
2024-05-19 09:59:13.518695,0,2,0,0,0,0,80,82,120,100,55,131.47,282,26.00,-50.00,-996.00
2024-05-19 09:59:13.618355,0,2,0,0,0,0,79,82,120,100,55,131.46,282,-33.00,-31.00,-1023.00
2024-05-19 09:59:13.733797,0,2,0,0,0,0,79,82,120,100,55,131.47,283,-20.00,-23.00,-1033.00
2024-05-19 09:59:13.771052,0,1,0,0,0,0,79,82,121,100,55,131.47,283,-47.00,-15.00,-978.00
2024-05-19 09:59:13.938200,0,2,0,0,0,0,79,82,121,100,55,131.52,283,-20.00,-45.00,-964.00
2024-05-19 09:59:13.975802,0,2,0,0,0,0,79,82,122,100,55,131.51,283,-28.00,-36.00,-1008.00
2024-05-19 09:59:14.076273,0,2,0,0,0,0,79,82,122,100,55,131.50,283,27.00,-62.00,-1002.00
2024-05-19 09:59:14.178756,0,2,0,0,0,0,79,82,123,100,55,131.48,283,14.00,-67.00,-975.00
2024-05-19 09:59:14.283856,0,2,1,0,0,0,79,82,124,100,55,131.56,283,37.00,-53.00,-1003.00
2024-05-19 09:59:14.384425,0,2,1,0,0,0,79,82,124,100,55,131.51,283,-3.00,-43.00,-986.00
2024-05-19 09:59:14.485677,0,2,0,0,0,0,79,82,124,100,55,131.52,283,-7.00,-40.00,-995.00
2024-05-19 09:59:14.585890,0,1,0,0,0,0,79,81,125,100,55,131.48,283,0.00,-43.00,-998.00
2024-05-19 09:59:14.757425,0,1,0,0,0,0,79,81,126,100,55,131.53,284,-23.00,-38.00,-976.00
2024-05-19 09:59:14.789900,0,2,1,0,0,0,79,81,125,100,55,131.54,284,10.00,-44.00,-977.00
2024-05-19 09:59:14.891800,0,2,1,0,0,0,79,81,126,100,55,131.45,284,-23.00,-26.00,-986.00
2024-05-19 09:59:15.064508,0,5,0,0,0,0,79,81,126,100,55,131.54,284,-2.00,-66.00,-1043.00
2024-05-19 09:59:15.095724,-1,9,0,0,1,0,79,81,128,100,55,131.51,284,-12.00,-10.00,-931.00
2024-05-19 09:59:15.269308,0,8,1,0,2,0,79,81,127,100,55,131.47,284,-35.00,-17.00,-958.00
2024-05-19 09:59:15.299852,0,7,1,0,3,0,79,81,127,100,55,131.47,284,-18.00,-39.00,-984.00
2024-05-19 09:59:15.474072,0,3,1,0,3,0,79,81,127,100,55,131.41,284,-13.00,-66.00,-1029.00
2024-05-19 09:59:15.503724,0,1,0,0,3,0,79,81,127,100,54,131.48,284,-2.00,-58.00,-1002.00
2024-05-19 09:59:15.679394,0,0,1,0,3,0,79,81,127,100,54,131.48,284,-41.00,-55.00,-1013.00
2024-05-19 09:59:15.707700,0,1,1,0,2,0,79,81,127,100,54,131.46,285,0.00,-68.00,-1019.00
2024-05-19 09:59:15.883681,-1,2,1,0,2,0,79,81,127,100,54,131.50,285,-45.00,-50.00,-976.00
2024-05-19 09:59:15.913806,-1,2,1,0,2,0,79,81,127,100,54,131.48,285,-40.00,-46.00,-989.00
2024-05-19 09:59:16.013730,-1,2,1,0,2,0,79,81,127,100,54,131.41,285,-32.00,-51.00,-1017.00
2024-05-19 09:59:16.191877,-1,2,1,0,2,0,79,81,126,100,54,131.47,285,-24.00,-52.00,-1003.00
2024-05-19 09:59:16.217713,-1,2,0,0,2,0,79,81,127,100,54,131.43,285,-39.00,-37.00,-1038.00
2024-05-19 09:59:16.319788,-1,2,0,0,2,0,79,81,126,100,54,131.46,285,-25.00,-66.00,-1048.00
2024-05-19 09:59:16.498077,-2,2,0,0,2,0,79,81,126,100,54,131.43,285,-73.00,-43.00,-991.00
2024-05-19 09:59:16.526403,-2,1,0,0,2,0,79,81,126,100,54,131.41,285,-31.00,-34.00,-990.00
2024-05-19 09:59:16.625764,-1,0,1,0,2,0,80,82,126,100,54,131.45,285,-45.00,-33.00,-981.00
2024-05-19 09:59:16.805304,-2,-1,1,0,1,0,80,82,126,100,54,131.51,286,-8.00,-43.00,-1009.00
2024-05-19 09:59:16.829746,-2,-2,1,0,1,0,80,82,126,100,54,131.45,286,22.00,-57.00,-1036.00
2024-05-19 09:59:16.933482,-1,0,1,0,0,0,80,82,126,100,54,131.41,286,13.00,-57.00,-1019.00
2024-05-19 09:59:17.112553,0,0,1,0,0,0,80,82,126,100,54,131.47,286,-18.00,-35.00,-1042.00
2024-05-19 09:59:17.135758,0,1,1,0,0,0,80,82,126,100,54,131.42,286,-27.00,-53.00,-1014.00
2024-05-19 09:59:17.317714,0,2,1,0,0,0,80,82,126,100,54,131.38,286,-35.00,-51.00,-971.00
2024-05-19 09:59:17.341336,0,2,1,0,0,0,80,82,126,100,54,131.45,286,-6.00,-63.00,-995.00
2024-05-19 09:59:17.441834,0,2,1,0,0,0,80,82,125,100,54,131.49,286,-29.00,-45.00,-983.00
2024-05-19 09:59:17.624522,0,2,1,0,0,0,80,82,126,100,54,131.51,286,-12.00,-74.00,-1020.00
2024-05-19 09:59:17.645689,0,2,1,0,0,0,80,82,125,100,54,131.43,286,10.00,-63.00,-1002.00
2024-05-19 09:59:17.829442,-1,3,0,0,0,0,80,82,125,100,54,131.35,287,-34.00,-55.00,-970.00
2024-05-19 09:59:17.829688,-1,2,0,0,0,0,80,82,125,100,54,131.40,287,6.00,-79.00,-1012.00
2024-05-19 09:59:17.900868,-1,3,0,0,0,0,80,82,124,100,54,131.33,287,15.00,-56.00,-1036.00
2024-05-19 09:59:18.034150,0,3,0,0,0,0,80,82,124,100,54,131.43,287,20.00,-72.00,-1000.00
2024-05-19 09:59:18.104817,0,3,1,0,0,0,80,82,124,100,54,131.47,287,-20.00,-63.00,-1036.00
2024-05-19 09:59:18.238996,0,3,1,0,0,0,80,82,124,100,54,131.38,287,-33.00,-49.00,-996.00
2024-05-19 09:59:18.308780,0,3,1,0,0,0,80,82,124,100,54,131.41,287,6.00,-70.00,-1016.00
2024-05-19 09:59:18.443805,0,3,1,0,0,0,80,82,124,100,53,131.41,287,-14.00,-60.00,-1008.00
2024-05-19 09:59:18.512709,0,3,1,0,0,0,80,82,124,100,53,131.36,287,-22.00,-70.00,-1025.00
2024-05-19 09:59:18.648601,0,3,1,0,0,0,80,82,125,100,53,131.42,287,16.00,-76.00,-991.00
2024-05-19 09:59:18.716691,0,3,0,0,0,0,80,82,124,100,53,131.36,288,-8.00,-68.00,-992.00
2024-05-19 09:59:18.853739,0,4,0,0,0,0,80,82,125,100,53,131.39,288,-19.00,-52.00,-981.00
2024-05-19 09:59:18.920573,0,4,0,0,0,0,80,82,125,100,53,131.42,288,22.00,-61.00,-972.00
2024-05-19 09:59:19.058090,0,3,0,0,0,0,80,82,125,100,53,131.29,288,20.00,-74.00,-1022.00
2024-05-19 09:59:19.124785,0,2,5,0,0,0,80,82,125,100,53,131.37,288,-6.00,-31.00,-971.00
2024-05-19 09:59:19.262864,0,3,10,0,0,0,80,82,125,100,53,131.44,288,21.00,-86.00,-973.00
2024-05-19 09:59:19.328927,0,3,16,0,0,0,80,82,125,100,53,131.43,288,14.00,-74.00,-1002.00
2024-05-19 09:59:19.467896,0,3,21,0,0,0,80,82,125,100,53,131.47,288,5.00,-64.00,-1019.00
2024-05-19 09:59:19.532550,0,3,27,0,0,0,80,82,125,100,53,131.39,288,-24.00,-36.00,-1006.00
2024-05-19 09:59:19.672380,0,3,33,0,0,0,80,82,125,100,53,131.31,288,-45.00,-49.00,-1043.00
2024-05-19 09:59:19.736583,-1,2,39,0,0,0,80,82,125,100,53,131.30,289,-52.00,-25.00,-991.00
2024-05-19 09:59:19.877206,-1,2,44,0,0,0,80,82,125,100,53,131.22,289,-70.00,-20.00,-1016.00
2024-05-19 09:59:19.940584,-2,1,49,0,0,0,80,82,125,100,53,131.05,289,-49.00,-48.00,-1048.00
2024-05-19 09:59:20.082009,-3,2,55,0,0,0,80,82,125,100,53,131.14,289,-24.00,-61.00,-1001.00
2024-05-19 09:59:20.144783,-3,2,60,0,0,0,80,82,126,100,53,131.21,289,-57.00,-53.00,-1013.00
2024-05-19 09:59:20.286878,-3,1,66,0,0,0,80,82,126,100,53,131.13,289,-38.00,-3.00,-1006.00
2024-05-19 09:59:20.348576,-3,1,73,0,0,0,80,82,127,100,53,131.17,289,-72.00,-5.00,-994.00
2024-05-19 09:59:20.491674,-4,0,79,0,0,0,80,82,127,100,53,131.25,289,-40.00,-31.00,-992.00
2024-05-19 09:59:20.552532,-3,0,85,0,0,0,80,82,127,100,53,131.21,289,-70.00,-5.00,-991.00
2024-05-19 09:59:20.697006,-3,0,91,0,0,0,80,82,127,100,53,131.15,289,-49.00,-17.00,-1012.00
2024-05-19 09:59:20.756590,-3,0,98,0,0,0,80,82,127,100,53,131.12,290,-29.00,-2.00,-1007.00
2024-05-19 09:59:20.901275,-3,0,104,0,0,0,80,82,127,100,53,131.14,290,-64.00,20.00,-977.00
2024-05-19 09:59:20.961732,-3,0,110,0,0,0,80,82,126,100,53,131.19,290,-69.00,12.00,-999.00
2024-05-19 09:59:21.105993,-3,-1,116,0,0,0,80,82,126,100,53,131.19,290,-64.00,24.00,-1002.00
2024-05-19 09:59:21.166213,-3,-1,122,0,0,0,80,82,126,100,53,131.15,290,-33.00,30.00,-1020.00
2024-05-19 09:59:21.266786,-2,-1,129,0,0,0,80,82,127,100,53,131.29,290,-22.00,28.00,-1000.00
2024-05-19 09:59:21.369461,-2,-1,135,0,0,0,80,82,126,100,53,131.25,290,-33.00,38.00,-1002.00
2024-05-19 09:59:21.419430,-2,-1,141,0,0,0,80,82,126,100,53,131.39,290,-18.00,64.00,-963.00
2024-05-19 09:59:21.617975,-1,-2,147,0,0,0,80,82,126,100,53,131.36,290,-13.00,48.00,-1033.00
2024-05-19 09:59:21.674522,-1,-2,153,0,0,0,79,82,126,100,53,131.28,290,-45.00,53.00,-995.00
2024-05-19 09:59:21.822873,0,-2,160,0,0,0,79,82,125,100,53,131.36,291,-29.00,55.00,-984.00
2024-05-19 09:59:21.878516,-1,-1,166,0,0,0,79,82,126,100,53,131.34,291,-1.00,58.00,-1002.00
2024-05-19 09:59:22.027570,-1,-2,171,0,0,0,79,82,126,100,53,131.31,291,-9.00,66.00,-974.00
2024-05-19 09:59:22.031455,0,-2,177,0,0,0,79,82,126,100,53,131.29,291,9.00,50.00,-987.00
2024-05-19 09:59:22.232438,0,-2,-176,0,0,0,79,82,126,100,53,131.37,291,-10.00,67.00,-1010.00
2024-05-19 09:59:22.235422,0,-2,-170,0,0,0,79,82,127,100,53,131.42,291,10.00,56.00,-1051.00
2024-05-19 09:59:22.337475,0,-3,-164,0,0,0,79,82,127,100,53,131.47,291,0.00,70.00,-1031.00
2024-05-19 09:59:22.439476,0,-3,-158,0,0,0,79,82,127,100,53,131.49,291,10.00,77.00,-1005.00
2024-05-19 09:59:22.541468,0,-3,-152,0,0,0,79,82,128,100,53,131.45,291,54.00,54.00,-1035.00
2024-05-19 09:59:22.744455,0,-3,-146,0,0,0,79,82,128,100,53,131.50,291,11.00,73.00,-1027.00
2024-05-19 09:59:22.746151,1,-3,-141,0,0,0,79,82,128,100,53,131.40,292,78.00,69.00,-1021.00
2024-05-19 09:59:22.949281,1,-3,-135,0,0,0,79,82,129,100,53,131.37,292,17.00,83.00,-1006.00
2024-05-19 09:59:22.949433,2,-2,-129,0,0,0,79,82,129,100,53,131.42,292,47.00,56.00,-966.00
2024-05-19 09:59:23.051799,2,-2,-122,0,0,0,79,82,129,100,53,131.39,292,47.00,71.00,-1003.00
2024-05-19 09:59:23.154011,2,-1,-116,0,0,0,79,82,130,100,53,131.26,292,40.00,54.00,-992.00
2024-05-19 09:59:23.256433,3,-1,-110,0,0,0,79,82,130,100,53,131.31,292,26.00,65.00,-984.00
2024-05-19 09:59:23.359232,3,-1,-104,0,0,0,79,82,130,100,53,131.17,292,54.00,49.00,-983.00
2024-05-19 09:59:23.461380,3,-1,-98,0,0,0,79,82,131,100,53,131.26,292,102.00,27.00,-1002.00
2024-05-19 09:59:23.561360,4,0,-93,0,0,0,79,82,130,100,53,131.27,292,71.00,12.00,-986.00
2024-05-19 09:59:23.666015,3,0,-81,0,0,0,79,82,130,100,53,131.26,293,55.00,23.00,-997.00
2024-05-19 09:59:23.765840,3,0,-75,0,0,0,79,82,131,100,53,131.30,293,39.00,-6.00,-1005.00
2024-05-19 09:59:23.870837,3,0,-69,0,0,0,79,82,131,100,53,131.24,293,63.00,-30.00,-990.00
2024-05-19 09:59:23.969434,3,1,-62,0,0,0,79,82,130,100,53,131.18,293,85.00,-51.00,-1022.00
2024-05-19 09:59:24.075652,3,2,-56,0,0,0,79,82,131,100,53,131.21,293,66.00,-37.00,-1006.00
2024-05-19 09:59:24.173356,2,3,-50,0,0,0,79,82,130,100,53,131.20,293,39.00,-52.00,-993.00
2024-05-19 09:59:24.280393,2,3,-44,0,0,0,79,82,130,100,53,131.23,293,37.00,-46.00,-1009.00
2024-05-19 09:59:24.377343,2,3,-39,0,0,0,79,82,131,100,53,131.27,293,40.00,-54.00,-1019.00
2024-05-19 09:59:24.485242,2,4,-33,0,0,0,79,82,130,100,52,131.30,293,63.00,-59.00,-986.00
2024-05-19 09:59:24.581428,2,4,-27,0,0,0,79,82,131,100,52,131.38,293,62.00,-79.00,-956.00
2024-05-19 09:59:24.690042,1,4,-21,0,0,0,80,82,130,100,52,131.38,294,57.00,-91.00,-1000.00
2024-05-19 09:59:24.785186,2,5,-16,0,0,0,80,82,130,100,52,131.37,294,61.00,-102.00,-996.00
2024-05-19 09:59:24.894971,2,5,-12,0,0,0,80,82,130,100,52,131.45,294,19.00,-56.00,-964.00
2024-05-19 09:59:24.989287,2,5,-9,0,0,0,80,82,130,100,52,131.38,294,24.00,-77.00,-985.00
2024-05-19 09:59:25.099633,1,5,-7,0,0,0,80,82,130,100,52,131.30,294,36.00,-92.00,-1021.00
2024-05-19 09:59:25.193297,1,5,-5,0,0,0,80,82,130,100,52,131.31,294,56.00,-82.00,-1013.00
2024-05-19 09:59:25.304395,1,5,-3,0,0,0,80,82,130,100,52,131.34,294,10.00,-90.00,-1036.00
2024-05-19 09:59:25.397375,1,5,-2,0,0,0,80,82,131,100,52,131.42,294,37.00,-92.00,-978.00
2024-05-19 09:59:25.509225,1,5,-1,0,0,0,80,82,130,100,52,131.36,294,25.00,-79.00,-983.00
2024-05-19 09:59:25.601271,0,5,-1,0,0,0,80,82,130,100,52,131.24,294,27.00,-62.00,-1009.00
2024-05-19 09:59:25.714119,1,4,0,0,0,0,80,82,131,100,52,131.25,295,47.00,-58.00,-1034.00
2024-05-19 09:59:25.806688,2,4,-1,0,0,0,80,82,130,100,52,131.28,295,17.00,-49.00,-1042.00
2024-05-19 09:59:25.918831,1,4,-1,0,0,0,80,82,130,100,52,131.29,295,23.00,-53.00,-988.00
2024-05-19 09:59:26.013482,1,4,-1,0,0,0,80,82,131,100,52,131.35,295,8.00,-56.00,-962.00
2024-05-19 09:59:26.113740,1,3,0,0,0,0,80,82,131,100,52,131.30,295,30.00,-66.00,-1001.00
2024-05-19 09:59:26.162405,2,3,0,0,0,0,80,82,131,100,52,131.35,295,16.00,-33.00,-982.00
2024-05-19 09:59:26.328653,1,3,-1,0,0,0,80,82,131,100,52,131.33,295,11.00,-46.00,-1000.00
2024-05-19 09:59:26.366320,1,2,0,0,0,0,80,82,131,100,52,131.32,295,24.00,-34.00,-1020.00
2024-05-19 09:59:26.533688,1,2,0,0,0,0,80,82,131,100,52,131.36,295,42.00,-50.00,-978.00
2024-05-19 09:59:26.570771,1,2,0,0,0,0,80,82,130,100,52,131.23,295,16.00,-39.00,-1015.00
2024-05-19 09:59:26.738127,1,2,0,0,0,0,79,82,131,100,52,131.26,296,1.00,-59.00,-990.00
2024-05-19 09:59:26.775710,1,3,0,0,0,0,79,82,131,100,52,131.28,296,36.00,-96.00,-991.00
2024-05-19 09:59:26.942953,0,3,0,0,0,0,79,82,131,100,52,131.31,296,-12.00,-71.00,-1004.00
2024-05-19 09:59:26.980119,0,4,0,0,0,0,79,82,130,100,52,131.33,296,-7.00,-61.00,-1023.00
2024-05-19 09:59:27.080720,0,4,0,0,0,0,79,82,130,100,52,131.29,296,6.00,-56.00,-952.00
2024-05-19 09:59:27.183121,0,4,0,0,0,0,79,82,130,100,52,131.26,296,44.00,-123.00,-1002.00
2024-05-19 09:59:27.285476,0,4,0,0,0,0,79,82,130,100,52,131.30,296,11.00,-93.00,-1010.00
2024-05-19 09:59:27.386302,0,5,-1,0,0,0,79,82,129,100,52,131.28,296,3.00,-95.00,-1002.00
2024-05-19 09:59:27.524677,0,6,-1,0,0,0,79,82,129,100,52,131.33,296,18.00,-74.00,-1014.00
2024-05-19 09:59:27.590297,0,5,-1,0,0,0,79,82,130,100,52,131.28,296,12.00,-96.00,-1004.00
2024-05-19 09:59:27.692259,0,5,-1,0,0,0,79,82,130,100,52,131.32,297,16.00,-87.00,-993.00
2024-05-19 09:59:27.864402,1,5,-4,0,0,0,79,82,130,100,52,131.28,297,4.00,-36.00,-975.00
2024-05-19 09:59:27.896148,2,4,-10,0,0,0,79,82,130,100,52,131.27,297,7.00,-48.00,-997.00
2024-05-19 09:59:28.069053,1,4,-16,0,0,0,79,82,130,100,52,131.25,297,24.00,-56.00,-994.00
2024-05-19 09:59:28.100083,1,3,-23,0,0,0,79,82,131,100,52,131.24,297,50.00,-62.00,-1027.00
2024-05-19 09:59:28.273885,2,2,-29,0,0,0,79,82,131,100,52,131.25,297,71.00,-82.00,-983.00
2024-05-19 09:59:28.304304,2,2,-35,0,0,0,79,82,132,100,52,131.24,297,66.00,-54.00,-956.00
2024-05-19 09:59:28.478689,3,2,-41,0,0,0,79,82,132,100,52,131.20,297,49.00,-26.00,-1019.00
2024-05-19 09:59:28.508064,3,1,-47,0,0,0,79,82,132,100,52,131.18,297,86.00,-36.00,-1003.00
2024-05-19 09:59:28.683432,4,1,-53,0,0,0,79,82,132,100,52,131.23,297,93.00,-56.00,-939.00
2024-05-19 09:59:28.712176,5,0,-59,0,0,0,79,82,132,100,52,131.27,298,105.00,-84.00,-951.00
2024-05-19 09:59:28.888209,6,2,-65,0,0,0,79,82,132,100,52,131.21,298,92.00,-45.00,-963.00
2024-05-19 09:59:28.916022,6,2,-71,0,0,0,79,82,131,100,52,131.18,298,34.00,-9.00,-1018.00
2024-05-19 09:59:29.093111,6,1,-76,0,0,0,79,82,131,100,52,131.29,298,76.00,-54.00,-969.00
2024-05-19 09:59:29.119995,6,1,-82,0,0,0,79,82,130,100,52,131.05,298,115.00,-21.00,-1011.00
2024-05-19 09:59:29.298683,6,0,-87,0,0,0,79,82,130,100,52,130.91,298,126.00,9.00,-1037.00
2024-05-19 09:59:29.324248,6,0,-93,0,0,0,79,82,130,100,52,130.99,298,107.00,26.00,-1007.00
2024-05-19 09:59:29.502707,6,-1,-98,0,0,0,79,82,129,100,52,131.13,298,98.00,25.00,-992.00
2024-05-19 09:59:29.528042,6,-1,-104,0,0,0,79,82,130,100,51,131.18,298,95.00,28.00,-998.00
2024-05-19 09:59:29.707516,6,-2,-109,0,0,0,79,82,129,100,51,131.16,298,95.00,17.00,-996.00
2024-05-19 09:59:29.732028,6,-3,-115,0,0,0,80,82,129,100,51,131.13,299,125.00,39.00,-988.00
2024-05-19 09:59:29.912254,6,-4,-120,0,0,0,80,82,129,100,51,131.14,299,116.00,47.00,-1004.00
2024-05-19 09:59:29.936035,6,-4,-126,0,0,0,80,82,128,100,51,131.12,299,95.00,58.00,-1023.00
2024-05-19 09:59:30.117430,5,-4,-131,0,0,0,80,82,129,100,51,131.16,299,94.00,71.00,-992.00
2024-05-19 09:59:30.141881,3,-4,-137,0,0,0,80,82,128,100,51,131.13,299,90.00,78.00,-973.00
2024-05-19 09:59:30.241953,3,-4,-143,0,0,0,80,82,128,100,51,131.29,299,64.00,88.00,-937.00
2024-05-19 09:59:30.344337,4,-5,-148,0,0,0,80,82,127,100,51,131.31,299,39.00,124.00,-997.00
2024-05-19 09:59:30.396819,2,-6,-154,0,0,0,80,82,127,100,51,131.26,299,4.00,127.00,-1003.00
2024-05-19 09:59:30.497354,1,-7,-160,0,0,0,80,82,126,100,51,131.20,299,38.00,106.00,-1002.00
2024-05-19 09:59:30.598947,0,-7,-166,0,0,0,80,82,126,100,51,131.27,299,15.00,126.00,-992.00
2024-05-19 09:59:30.731496,0,-6,-172,0,0,0,79,82,125,100,51,131.25,300,-28.00,150.00,-1029.00
2024-05-19 09:59:30.802955,0,-7,-178,0,0,0,79,82,125,100,51,131.19,300,22.00,141.00,-1002.00
2024-05-19 09:59:30.936267,0,-7,175,0,0,0,79,82,125,100,51,131.24,300,-60.00,145.00,-986.00
2024-05-19 09:59:31.007136,-2,-8,168,0,0,0,79,82,126,100,51,131.22,300,-50.00,122.00,-1021.00
2024-05-19 09:59:31.142369,-4,-7,161,0,0,0,79,82,127,100,51,131.31,300,-50.00,107.00,-1017.00
2024-05-19 09:59:31.210964,-5,-6,155,0,0,0,79,82,126,100,51,131.22,300,-71.00,100.00,-984.00
2024-05-19 09:59:31.346267,-6,-6,148,0,0,0,79,82,126,100,51,131.14,300,-125.00,123.00,-984.00
2024-05-19 09:59:31.415877,-6,-5,141,0,0,0,79,82,126,100,51,130.98,300,-134.00,97.00,-1030.00
2024-05-19 09:59:31.550669,-7,-4,135,0,0,0,79,82,127,100,51,130.99,300,-117.00,79.00,-974.00
2024-05-19 09:59:31.619862,-7,-3,128,0,0,0,79,82,128,100,51,130.95,300,-118.00,63.00,-999.00
2024-05-19 09:59:31.755495,-9,-2,122,0,0,0,80,82,129,100,51,130.88,301,-116.00,71.00,-963.00
2024-05-19 09:59:31.824019,-8,-1,115,0,0,0,80,82,129,100,51,130.95,301,-163.00,59.00,-976.00
2024-05-19 09:59:31.960287,-8,-1,109,0,0,0,80,82,129,100,51,130.85,301,-162.00,82.00,-958.00
2024-05-19 09:59:32.027844,-7,-1,103,0,0,0,80,82,129,100,51,130.47,301,-155.00,-5.00,-1085.00
2024-05-19 09:59:32.175870,-8,-1,97,0,0,0,80,82,130,100,51,130.52,301,-186.00,-50.00,-994.00
2024-05-19 09:59:32.231936,-8,0,92,0,-1,0,80,82,131,100,51,130.84,301,-103.00,-83.00,-956.00
2024-05-19 09:59:32.370104,-8,2,87,1,-1,0,80,82,132,100,51,130.99,301,-133.00,-74.00,-947.00
2024-05-19 09:59:32.435992,-8,3,81,1,-1,0,80,82,133,100,51,130.65,301,-126.00,-12.00,-995.00
2024-05-19 09:59:32.575015,-6,6,76,0,0,0,80,82,134,100,51,130.55,301,-163.00,27.00,-881.00
2024-05-19 09:59:32.640468,-6,8,70,0,0,0,80,82,134,100,51,130.58,301,-158.00,11.00,-975.00
2024-05-19 09:59:32.779630,-7,3,64,-1,0,0,80,81,133,100,51,130.59,302,-150.00,-87.00,-1045.00
2024-05-19 09:59:32.844082,-7,3,59,-1,-1,0,80,81,133,100,51,130.68,302,-167.00,-49.00,-1010.00
2024-05-19 09:59:32.984153,-7,4,53,-1,-1,0,80,81,133,100,51,130.60,302,-149.00,-77.00,-1000.00
2024-05-19 09:59:33.048147,-7,4,47,-1,-1,0,80,81,134,100,51,130.84,302,-93.00,-113.00,-953.00
2024-05-19 09:59:33.189054,-8,4,41,0,-1,0,80,81,134,100,51,130.77,302,-107.00,-119.00,-965.00
2024-05-19 09:59:33.251854,-6,6,35,0,-1,0,80,81,133,100,51,130.93,302,-79.00,-124.00,-973.00
2024-05-19 09:59:33.353813,-5,7,30,0,-1,0,80,81,133,100,51,130.90,302,-90.00,-123.00,-1001.00
2024-05-19 09:59:33.496263,-4,8,24,0,-1,0,80,81,132,100,51,130.93,302,-73.00,-140.00,-931.00
2024-05-19 09:59:33.557809,-3,8,18,0,-1,0,80,81,130,100,51,130.99,302,-11.00,-142.00,-976.00
2024-05-19 09:59:33.701101,-2,8,13,0,-1,0,80,81,129,100,51,131.00,302,-12.00,-138.00,-1001.00
2024-05-19 09:59:33.761887,-1,8,10,0,-1,0,80,82,128,100,51,130.89,303,10.00,-161.00,-987.00
2024-05-19 09:59:33.905872,0,8,7,0,-1,0,80,82,128,100,51,130.93,303,11.00,-142.00,-983.00
2024-05-19 09:59:33.966513,0,8,5,0,-1,0,80,82,126,100,51,130.88,303,14.00,-130.00,-1000.00
2024-05-19 09:59:34.068484,1,8,3,0,-1,0,80,82,126,100,51,130.99,303,56.00,-159.00,-1028.00
2024-05-19 09:59:34.213073,1,9,2,0,-1,0,80,82,127,100,51,130.95,303,19.00,-137.00,-994.00
2024-05-19 09:59:34.221605,1,8,1,0,-1,0,80,82,126,100,51,130.91,303,6.00,-125.00,-1045.00
2024-05-19 09:59:34.324238,1,8,0,0,0,0,80,82,127,100,51,130.90,303,31.00,-125.00,-1010.00
2024-05-19 09:59:34.520427,1,8,0,0,0,0,80,82,127,100,51,130.87,303,-13.00,-114.00,-979.00
2024-05-19 09:59:34.526869,0,9,0,0,0,0,80,82,128,100,51,130.90,303,41.00,-147.00,-1003.00
2024-05-19 09:59:34.725166,0,8,0,0,0,0,80,82,129,100,51,131.11,303,33.00,-156.00,-965.00
2024-05-19 09:59:34.731769,1,8,0,0,0,0,80,83,129,100,51,131.06,304,20.00,-110.00,-978.00
2024-05-19 09:59:34.930021,1,8,0,0,0,0,80,83,130,100,51,131.05,304,-11.00,-103.00,-987.00
2024-05-19 09:59:34.935807,1,8,0,0,0,0,80,83,130,100,51,131.04,304,23.00,-117.00,-988.00
2024-05-19 09:59:35.134804,0,8,0,0,0,0,80,83,129,100,51,131.08,304,23.00,-140.00,-977.00
2024-05-19 09:59:35.139812,1,8,0,0,0,0,80,83,130,100,51,130.98,304,54.00,-135.00,-1003.00
2024-05-19 09:59:35.339709,0,8,0,0,0,0,80,83,130,100,51,130.89,304,25.00,-138.00,-996.00
2024-05-19 09:59:35.344162,1,8,0,0,0,0,80,83,131,100,51,130.90,304,73.00,-124.00,-1016.00
2024-05-19 09:59:35.544405,2,8,0,1,0,0,80,83,131,100,51,130.93,304,99.00,-151.00,-964.00
2024-05-19 09:59:35.547963,3,8,0,1,0,0,80,83,131,100,51,131.04,304,49.00,-104.00,-981.00
2024-05-19 09:59:35.649837,3,8,0,1,0,0,80,83,132,100,51,130.94,304,100.00,-157.00,-978.00
2024-05-19 09:59:35.751655,4,7,0,2,0,0,80,82,131,100,51,130.98,305,80.00,-129.00,-964.00
2024-05-19 09:59:35.853850,4,7,0,2,0,0,80,82,131,100,51,131.00,305,83.00,-136.00,-980.00
2024-05-19 09:59:36.056440,4,7,0,1,0,0,80,82,132,100,51,131.01,305,124.00,-173.00,-966.00
2024-05-19 09:59:36.057842,4,7,0,1,0,0,80,82,132,100,51,131.04,305,69.00,-148.00,-1015.00
2024-05-19 09:59:36.224773,4,7,0,1,0,0,80,82,131,100,51,131.15,305,74.00,-155.00,-976.00
2024-05-19 09:59:36.261940,4,8,0,1,0,0,80,82,131,100,51,131.11,305,44.00,-121.00,-1007.00
2024-05-19 09:59:36.363974,4,8,0,0,0,0,80,82,130,100,51,131.04,305,54.00,-145.00,-981.00
2024-05-19 09:59:36.466166,3,8,0,0,0,0,80,82,131,100,50,131.04,305,-8.00,-143.00,-989.00
2024-05-19 09:59:36.568430,3,8,0,0,0,0,80,82,131,100,50,131.04,305,36.00,-116.00,-1009.00
2024-05-19 09:59:36.670748,3,8,0,0,0,0,80,82,131,100,50,130.96,305,64.00,-119.00,-995.00
2024-05-19 09:59:36.772913,3,8,0,0,0,0,80,82,131,100,50,131.02,306,78.00,-150.00,-984.00
2024-05-19 09:59:36.875625,3,8,0,0,0,0,80,82,131,100,50,131.00,306,66.00,-144.00,-986.00
2024-05-19 09:59:36.975911,3,8,0,0,0,0,80,82,132,100,50,131.01,306,64.00,-118.00,-1012.00
2024-05-19 09:59:37.077892,3,8,0,0,0,0,80,82,130,100,50,131.01,306,57.00,-93.00,-1010.00
2024-05-19 09:59:37.182752,3,7,0,0,0,0,80,82,130,100,50,131.11,306,127.00,-172.00,-996.00
2024-05-19 09:59:37.282024,3,7,0,0,0,0,80,82,131,100,50,130.96,306,72.00,-86.00,-1020.00
2024-05-19 09:59:37.383981,3,7,0,0,0,0,80,82,131,100,50,130.91,306,97.00,-127.00,-964.00
2024-05-19 09:59:37.490039,4,7,0,0,0,0,80,82,132,100,50,130.98,306,12.00,-125.00,-991.00
2024-05-19 09:59:37.587687,5,7,1,0,0,0,80,82,132,100,50,131.10,306,30.00,-126.00,-1003.00
2024-05-19 09:59:37.694762,4,7,1,0,0,0,80,82,132,100,50,131.14,306,74.00,-146.00,-1017.00
2024-05-19 09:59:37.791674,3,8,0,0,1,0,80,83,132,100,50,131.06,307,65.00,-104.00,-1000.00
2024-05-19 09:59:37.899741,3,8,0,-1,1,0,80,83,132,100,50,131.11,307,29.00,-85.00,-1001.00
2024-05-19 09:59:37.997061,3,7,0,-1,1,0,80,83,131,100,50,131.16,307,18.00,-106.00,-958.00
2024-05-19 09:59:38.104376,2,8,0,-1,1,0,80,83,131,100,50,131.11,307,42.00,-115.00,-1001.00
2024-05-19 09:59:38.199820,2,8,0,-1,1,0,80,83,131,100,50,131.07,307,75.00,-146.00,-939.00
2024-05-19 09:59:38.252353,3,8,0,-1,1,0,80,83,131,100,50,131.06,307,28.00,-117.00,-1000.00
2024-05-19 09:59:38.353870,2,8,0,0,2,0,80,83,131,100,50,131.04,307,99.00,-143.00,-972.00
2024-05-19 09:59:38.514020,3,8,0,0,2,0,80,83,131,100,50,131.04,307,92.00,-130.00,-1005.00
2024-05-19 09:59:38.556762,4,8,0,0,2,0,80,83,131,100,50,131.06,307,75.00,-150.00,-1015.00
2024-05-19 09:59:38.659717,4,7,0,0,2,0,80,83,131,100,50,131.02,308,80.00,-141.00,-978.00
2024-05-19 09:59:38.760664,4,7,0,0,2,0,80,83,131,100,50,130.97,308,47.00,-114.00,-999.00
2024-05-19 09:59:38.923512,4,7,0,0,2,0,80,83,131,100,50,130.99,308,77.00,-153.00,-969.00
2024-05-19 09:59:38.964929,4,7,0,-1,2,0,80,83,131,100,50,131.01,308,76.00,-131.00,-1016.00
2024-05-19 09:59:39.128430,3,7,0,-1,2,0,80,83,130,100,50,131.10,308,26.00,-120.00,-1021.00
2024-05-19 09:59:39.168696,1,6,0,-1,2,0,80,83,129,100,50,131.17,308,56.00,-140.00,-950.00
2024-05-19 09:59:39.270537,0,6,0,-1,2,0,80,83,129,100,50,131.02,308,59.00,-133.00,-980.00
2024-05-19 09:59:39.372685,0,5,0,-1,2,0,80,83,128,100,50,130.99,308,78.00,-152.00,-1000.00
2024-05-19 09:59:39.537998,1,6,0,-1,2,0,80,83,127,100,50,131.08,308,27.00,-118.00,-991.00
2024-05-19 09:59:39.576688,1,6,0,0,1,0,80,83,127,100,50,131.02,308,62.00,-134.00,-974.00
2024-05-19 09:59:39.742761,2,5,0,0,1,0,80,83,126,100,50,130.89,309,76.00,-132.00,-1015.00
2024-05-19 09:59:39.781554,3,6,0,0,0,0,80,83,126,100,50,130.94,309,66.00,-172.00,-1004.00
2024-05-19 09:59:39.947704,3,7,0,0,0,0,80,83,126,100,50,130.90,309,79.00,-152.00,-1003.00
2024-05-19 09:59:39.985620,3,7,0,0,0,0,80,83,127,100,50,130.90,309,68.00,-162.00,-988.00
2024-05-19 09:59:40.152431,4,8,0,0,0,0,80,83,126,100,50,130.91,309,105.00,-138.00,-1011.00
2024-05-19 09:59:40.189691,3,8,0,0,0,0,80,83,126,100,50,130.90,309,88.00,-148.00,-971.00
2024-05-19 09:59:40.357216,3,7,0,0,0,0,80,83,126,100,50,130.90,309,104.00,-151.00,-1010.00
2024-05-19 09:59:40.394499,4,7,0,0,0,0,80,83,126,100,50,130.88,309,89.00,-158.00,-1007.00
2024-05-19 09:59:40.561864,4,7,0,0,0,0,80,83,125,100,50,130.86,309,88.00,-130.00,-991.00
2024-05-19 09:59:40.599648,4,8,0,0,0,0,80,83,125,100,50,130.98,309,94.00,-164.00,-990.00
2024-05-19 09:59:40.702334,4,7,0,0,0,0,80,83,125,100,50,130.81,310,55.00,-106.00,-1029.00
2024-05-19 09:59:40.805202,4,7,0,0,0,0,80,83,126,100,50,130.84,310,81.00,-136.00,-1044.00
2024-05-19 09:59:40.905692,4,7,0,0,0,0,80,83,126,100,50,130.80,310,22.00,-106.00,-986.00
2024-05-19 09:59:41.006805,4,7,0,0,0,0,80,83,126,100,50,130.99,310,25.00,-112.00,-1008.00
2024-05-19 09:59:41.107684,4,8,1,0,0,0,80,83,126,100,50,130.97,310,54.00,-128.00,-959.00
2024-05-19 09:59:41.278745,4,8,0,0,0,0,80,83,126,100,50,130.93,310,14.00,-130.00,-960.00
2024-05-19 09:59:41.311553,3,8,0,0,0,0,80,83,125,100,50,130.81,310,65.00,-156.00,-1006.00
2024-05-19 09:59:41.413678,3,8,0,0,0,0,80,83,124,100,50,130.88,310,44.00,-127.00,-1028.00
2024-05-19 09:59:41.586005,3,7,0,0,0,0,80,83,123,100,49,130.92,310,37.00,-146.00,-1003.00
2024-05-19 09:59:41.617456,3,8,0,0,0,0,80,83,124,100,49,130.85,310,73.00,-138.00,-998.00
2024-05-19 09:59:41.791618,3,7,0,0,0,0,80,83,123,100,49,130.79,311,78.00,-160.00,-1013.00
2024-05-19 09:59:41.821549,3,7,0,0,0,0,80,82,123,100,49,130.76,311,76.00,-144.00,-1059.00
2024-05-19 09:59:41.995666,4,7,0,0,0,0,80,82,124,100,49,130.70,311,97.00,-136.00,-997.00
2024-05-19 09:59:41.995864,5,8,0,0,0,0,80,82,125,100,49,130.91,311,50.00,-132.00,-939.00
2024-05-19 09:59:42.076744,4,7,0,0,-1,0,80,82,126,100,49,130.76,311,33.00,-143.00,-984.00
2024-05-19 09:59:42.202276,3,8,0,0,-1,0,80,82,125,100,49,130.91,311,60.00,-161.00,-1005.00
2024-05-19 09:59:42.280458,3,7,0,0,-1,0,80,82,125,100,49,130.84,311,55.00,-161.00,-987.00
2024-05-19 09:59:42.382496,3,7,0,0,-2,0,80,82,126,100,49,130.83,311,62.00,-167.00,-1004.00
2024-05-19 09:59:42.507687,3,8,0,0,-2,0,80,82,127,100,49,130.89,311,69.00,-124.00,-935.00
2024-05-19 09:59:42.586574,3,8,0,1,-2,0,80,82,127,100,49,130.83,311,74.00,-147.00,-979.00
2024-05-19 09:59:42.712347,4,7,0,1,-2,0,80,82,126,100,49,130.83,312,97.00,-141.00,-1008.00
2024-05-19 09:59:42.790510,3,7,0,1,-2,0,81,83,126,100,49,130.77,312,45.00,-135.00,-995.00
2024-05-19 09:59:42.917249,4,7,0,1,-2,0,81,83,127,100,49,130.66,312,37.00,-141.00,-960.00
2024-05-19 09:59:42.994383,4,7,1,1,-2,0,81,83,126,100,49,130.86,312,61.00,-150.00,-1016.00
2024-05-19 09:59:43.122020,4,8,0,1,-2,0,81,83,126,100,49,130.83,312,82.00,-151.00,-923.00
2024-05-19 09:59:43.198582,4,8,0,1,-3,0,81,83,125,100,49,130.79,312,43.00,-138.00,-963.00
2024-05-19 09:59:43.326640,3,8,0,1,-3,0,81,83,125,100,49,130.94,312,86.00,-145.00,-990.00
2024-05-19 09:59:43.402497,4,8,0,1,-3,0,81,83,125,100,49,130.84,312,61.00,-131.00,-929.00
2024-05-19 09:59:43.531827,4,7,0,0,-3,0,81,83,124,100,49,130.80,312,10.00,-133.00,-979.00
2024-05-19 09:59:43.606384,3,8,0,0,-3,0,81,83,123,100,49,130.87,312,82.00,-180.00,-975.00
2024-05-19 09:59:43.736426,4,8,0,0,-4,0,81,83,123,100,49,130.77,313,19.00,-123.00,-1006.00
2024-05-19 09:59:43.810789,3,8,0,0,-4,0,81,83,121,100,49,130.76,313,-10.00,-136.00,-1013.00
2024-05-19 09:59:43.941247,3,8,0,0,-4,0,81,83,122,100,49,130.61,313,66.00,-144.00,-996.00
2024-05-19 09:59:44.014731,1,8,0,0,-4,0,81,83,122,100,49,130.65,313,16.00,-116.00,-1013.00
2024-05-19 09:59:44.145869,2,8,0,0,-4,0,81,83,122,100,49,130.66,313,44.00,-145.00,-1010.00
2024-05-19 09:59:44.218628,2,8,0,0,-3,0,81,83,123,100,49,130.69,313,66.00,-129.00,-1008.00
2024-05-19 09:59:44.350648,2,8,0,0,-3,0,81,83,123,100,49,130.72,313,73.00,-155.00,-990.00
2024-05-19 09:59:44.422318,2,8,0,0,-4,0,81,83,124,100,49,130.79,313,64.00,-135.00,-951.00
2024-05-19 09:59:44.555917,2,8,0,0,-4,0,81,83,125,100,49,130.78,313,16.00,-133.00,-973.00
2024-05-19 09:59:44.626350,3,8,1,0,-4,0,81,83,127,100,49,130.75,313,36.00,-170.00,-977.00
2024-05-19 09:59:44.760405,2,8,0,0,-4,0,81,83,127,100,49,130.76,314,13.00,-135.00,-952.00
2024-05-19 09:59:44.830506,2,8,0,0,-4,0,81,83,127,100,49,130.81,314,16.00,-166.00,-1003.00
2024-05-19 09:59:44.965136,1,9,0,-1,-4,0,81,83,129,100,49,130.67,314,-13.00,-134.00,-973.00
2024-05-19 09:59:45.034462,1,9,1,-1,-4,0,81,83,130,100,49,130.68,314,6.00,-170.00,-1030.00
2024-05-19 09:59:45.170020,1,8,0,-1,-4,0,81,83,130,100,49,130.72,314,16.00,-119.00,-1026.00
2024-05-19 09:59:45.238420,0,9,0,-1,-3,0,81,83,131,100,49,130.68,314,52.00,-141.00,-997.00
2024-05-19 09:59:45.340250,0,8,0,0,-3,0,81,83,131,100,49,130.83,314,49.00,-145.00,-1016.00
2024-05-19 09:59:45.477176,1,8,0,0,-4,0,81,83,134,100,49,130.83,314,27.00,-154.00,-969.00
2024-05-19 09:59:45.544420,1,9,0,-1,-4,0,81,83,134,100,49,130.78,314,29.00,-119.00,-977.00
2024-05-19 09:59:45.595520,1,10,0,-1,-4,0,81,83,135,100,49,130.66,314,48.00,-106.00,-963.00
2024-05-19 09:59:45.784370,1,10,0,-1,-3,0,81,83,136,100,49,130.70,315,31.00,-122.00,-965.00
2024-05-19 09:59:45.850708,0,10,0,-1,-2,0,80,83,136,100,49,130.84,315,-19.00,-129.00,-960.00
2024-05-19 09:59:45.901257,0,10,0,-1,-2,0,80,83,136,100,49,130.78,315,-7.00,-169.00,-1021.00
2024-05-19 09:59:46.091876,0,11,0,-1,-2,0,80,83,137,100,49,130.83,315,35.00,-125.00,-1001.00
2024-05-19 09:59:46.105333,0,13,0,-1,-1,0,80,83,137,100,49,130.71,315,-16.00,-118.00,-979.00
2024-05-19 09:59:46.296320,0,13,0,-1,0,0,80,83,137,100,49,130.66,315,8.00,-131.00,-1016.00
2024-05-19 09:59:46.309310,0,13,0,-1,0,0,80,83,137,100,49,130.79,315,6.00,-116.00,-1018.00
2024-05-19 09:59:46.411698,0,14,0,-1,1,0,80,83,137,100,49,130.69,315,39.00,-130.00,-994.00
2024-05-19 09:59:46.603684,0,14,0,-1,2,0,80,83,138,100,49,130.75,315,46.00,-147.00,-1012.00
2024-05-19 09:59:46.615304,0,14,0,0,3,0,80,83,137,100,49,130.67,315,2.00,-142.00,-1034.00
2024-05-19 09:59:46.808248,0,14,0,0,4,0,80,83,138,100,49,130.71,316,-22.00,-138.00,-959.00
2024-05-19 09:59:46.819225,0,14,0,0,5,0,81,84,138,100,49,130.60,316,8.00,-180.00,-994.00
2024-05-19 09:59:47.013133,0,15,0,0,6,0,81,84,138,100,49,130.63,316,-9.00,-184.00,-962.00
2024-05-19 09:59:47.023333,0,16,0,0,7,0,81,84,139,100,49,130.44,316,39.00,-186.00,-967.00
2024-05-19 09:59:47.218028,0,17,0,0,8,0,81,84,138,100,49,130.52,316,95.00,-173.00,-965.00
2024-05-19 09:59:47.227551,2,13,0,0,9,0,81,84,136,100,49,130.48,316,40.00,-189.00,-951.00
2024-05-19 09:59:47.422786,4,10,1,0,9,0,81,84,134,100,49,130.60,316,24.00,-185.00,-1040.00
2024-05-19 09:59:47.431219,3,8,0,0,9,0,81,84,133,100,48,130.47,316,31.00,-158.00,-938.00
2024-05-19 09:59:47.629131,3,6,0,0,8,0,81,84,131,100,48,130.67,316,-24.00,-140.00,-968.00
2024-05-19 09:59:47.636734,1,6,0,0,8,0,81,84,130,100,48,130.59,316,17.00,-150.00,-947.00
2024-05-19 09:59:47.832312,0,5,0,0,7,0,81,84,129,100,48,130.56,317,39.00,-190.00,-1002.00
2024-05-19 09:59:47.839382,0,5,0,0,7,0,81,83,127,100,48,130.51,317,86.00,-211.00,-1008.00
2024-05-19 09:59:48.037113,1,5,0,0,6,0,81,83,125,100,48,130.58,317,35.00,-157.00,-1047.00
2024-05-19 09:59:48.043386,1,5,0,0,5,0,81,83,126,100,48,130.61,317,2.00,-140.00,-990.00
2024-05-19 09:59:48.242004,1,6,0,0,4,0,81,83,126,100,48,130.55,317,12.00,-156.00,-981.00
2024-05-19 09:59:48.247434,1,6,0,0,4,0,81,83,125,100,48,130.54,317,34.00,-178.00,-1020.00
2024-05-19 09:59:48.349167,1,6,0,0,3,0,81,83,126,100,48,130.54,317,25.00,-172.00,-1028.00
2024-05-19 09:59:48.549011,1,7,0,0,2,0,81,83,126,100,48,130.63,317,28.00,-172.00,-970.00
2024-05-19 09:59:48.553142,1,9,0,0,2,0,81,83,126,100,48,130.55,317,-1.00,-134.00,-985.00
2024-05-19 09:59:48.655152,1,9,0,0,2,0,81,83,126,100,48,130.57,317,45.00,-176.00,-985.00
2024-05-19 09:59:48.757276,3,9,0,0,2,0,81,83,126,100,48,130.63,318,9.00,-164.00,-935.00
2024-05-19 09:59:48.859518,2,8,0,0,2,0,81,84,125,100,48,130.52,318,80.00,-120.00,-983.00
2024-05-19 09:59:48.961120,1,8,0,0,2,0,81,84,123,100,48,130.52,318,0.00,-124.00,-908.00
